~VERSION INFORMATION
 VERS.                2.0:   CWLS LOG ASCII STANDARD - VERSION 2.0
 WRAP.                 NO:   ONE LINE PER DEPTH STEP
~WELL INFORMATION
#MNEM.UNIT      DATA TYPE    INFORMATION
#----------   ------------   ------------------------------
 STRT.F           18.0000:   START DEPTH
 STOP.F         2312.0000:   STOP DEPTH
 STEP.F            0.5000:   STEP LENGTH
 NULL.          -999.2500:   NO VALUE
 COMP. FENIX & SCISSON INC:   COMPANY
 WELL.  NPR 3 #51 SHX -15:   WELL
 FLD .             TEAPOT:   FIELD
 LOC .      S15 T38N R78W:   LOCATION
 CNTY.            NATRONA:   COUNTY
 STAT.            WYOMING:   STATE
 CTRY. UNITED STATES OF AMERICA:   COUNTRY
 SRVC.            Unknown:   SERVICE COMPANY
 DATE.        14-MAR-1978:   LOGDATE
 API .       490251060000:   API NUMBER
~CURVE INFORMATION
#MNEM.UNIT       API CODE    CURVE DESCRIPTION
#----------   ------------   ------------------------------
 DEPT.F                  :   
 ILD .OHMM   05 120 46 00:   INDUCTION LOG DEEP
 CILD.MMHO   05 110 46 00:   CONDUCTIVITY INDUCTION LOG DEEP
 CALD.IN     45 280 60 00:   CALIPER FROM DENSITY LOG
 GRD .GAPI   45 310 01 00:   GAMMA RAY FROM DENSITY LOG
 CORR.G/C3   45 356 01 00:   DENSITY CORRECTION
 RHOB.G/C3   45 350 01 00:   BULK DENSITY
 DPHI.DEC    45 890 12 00:   DENSITY POROSITY SANDSTONE
~PARAMETER INFORMATION
#MNEM.UNIT          VALUE    DESCRIPTION
#----------   ------------   ------------------------------
 PD  .                 GL:   PERMANENT DATUM
 EPD .F              5223:   ELEVATION PERMANENT DATUM
 LMF .                 KB:   LOG MEASURED FROM
 DAPD.F                10:   FEET ABOVE PERMANENT DATUM
 DMF .                 KB:   DRILLING MEASURED FROM
 EKB .F              5233:   KELLING BUSHING
 EGL .F              5223:   GROUND LEVEL
 DATE.            3-14-78:   RUN DATE
 RUN .                  1:   RUN NUMBER
 DD  .F              2323:   DEPTH DRILLER
 DL  .F              2314:   DEPTH LOGGER
 BLI .F              2312:   BOTTOM LOG INTERVAL
 TLI .F                20:   TOP LOG INTERVAL
 CS  .IN                9:   CASING SIZE
 CBD .F               680:   CASING BOTTOM DRILLER
 CBL .F               682:   CASING BOTTOM LOGGER
 BS  .IN            7.875:   BIT SIZE
 BSD .F              2323:   BIT SIZE AT DEPTH
 DFT .           AIR MIST:   DRILLING FLUID TYPE
 TCS .HRS               2:   TIME CURCULATED STOPPED
 LUN .               2958:   LOGGING UNIT NUMBER
 LUL .               CASP:   LOGGING UNIT LOCATION
 ENGI.             MILLER:   RECORDING ENGINEER
 WITN.           MCGINLEY:   WITNESSED BY
 CLNT.            A2DTECH:   CLIENT CODE
 ORIG.       2", 5" PRINT:   ORIGIN OF DATA
 UWI .       490251060000:   UNIQUE WELL ID
 DICO. A2D Technologies, Inc.:   DIGITIZING COMPANY
~OTHER INFORMATION
~A   DEPT      ILD       CILD       CALD         GRD      CORR       RHOB       DPHI   
# ...
 1929.0000     9.4978   109.7194     8.8328   147.1039     0.1372     2.4611     0.0783
 1929.5000     9.4204   109.8810     8.8339   147.9041     0.1059     2.5353     0.0961
 1930.0000     9.2676   110.0322     8.8350   156.2714     0.1476     2.4938     0.1128
 1930.5000     9.1177   110.1834     8.8360   165.7243     0.0984     2.5865     0.0736
 1931.0000     9.0900   110.3346     8.8371   160.9037     0.0061     2.5124     0.0938
 1931.5000     9.0823   110.4858     8.8381   159.4501    -0.0090     2.4899     0.1081
 1932.0000     9.0751   110.6370     8.8391   160.4933    -0.0088     2.4896     0.1064
 1932.5000     9.0678   110.7882     8.8402   158.8944    -0.0039     2.4989     0.1073
 1933.0000     9.0604   110.9395     8.8412   156.7240     0.0009     2.4964     0.1034
 1933.5000     9.0530   111.0907     8.8423   150.7525     0.0056     2.4936     0.1036
 1934.0000     9.0456   111.2419     8.8433   143.6140     0.0104     2.4980     0.0924
 1934.5000     9.0382   111.3931     8.8444   146.3426     0.0094     2.5069     0.0916
 1935.0000     9.0308   111.5443     8.8454   154.8841     0.0038     2.5086     0.0923
 1935.5000     9.0235   111.6955     8.8465   156.9810     0.0025     2.5006     0.0964
 1936.0000     9.0155   111.8467     8.8475   156.9507     0.0026     2.5027     0.0949
 1936.5000     8.9898   111.9979     8.8486   158.5705     0.0125     2.5038     0.0939
 1937.0000     8.9636   112.1491     8.8496   167.6145     0.0234     2.5027     0.0964
 1937.5000     8.9375   112.3007     8.8507   169.2570     0.0384     2.5011     0.0980
 1938.0000     8.9115   112.4528     8.8510   160.7992     0.0451     2.5344     0.0704
 1938.5000     8.8975   112.6052     8.8510   150.1148     0.0132     2.4977     0.0922
 1939.0000     8.9031   112.6558     8.8510   145.7352    -0.0090     2.4761     0.1048
 1939.5000     8.9085   112.2709     8.8510   142.6094    -0.0043     2.4876     0.0912
 1940.0000     8.9139   111.8859     8.8510   145.9981    -0.0002     2.4996     0.0940
 1940.5000     8.9193   111.5016     8.8510   151.1295     0.0039     2.5110     0.0954
 1941.0000     8.9247   111.1177     8.8510   152.5519     0.0019     2.5120     0.0942
 1941.5000     8.9297   110.7342     8.8510   154.2574    -0.0012     2.5069     0.0930
 1942.0000     8.9372   110.3507     8.8510   157.2780    -0.0044     2.5030     0.0941
 1942.5000     9.0169   109.9661     8.8510   158.9880    -0.0058     2.5039     0.0971
 1943.0000     9.1018   109.2736     8.8510   157.4370    -0.0064     2.4989     0.0983
 1943.5000     9.1865   108.0260     8.8510   149.2298    -0.0070     2.4934     0.0972
 1944.0000     9.2711   106.7134     8.8510   147.2977    -0.0075     2.4998     0.0969
 1944.5000     9.3558   106.3193     8.8510   147.2903    -0.0081     2.4976     0.0994
 1945.0000     9.4404   105.9035     8.8510   147.1332    -0.0086     2.4892     0.1009
 1945.5000     9.5250   105.4876     8.8510   146.9848    -0.0091     2.4900     0.0956
 1946.0000     9.6097   105.0718     8.8510   143.3425    -0.0077     2.4989     0.0979
 1946.5000     9.6941   104.6560     8.8510   144.9828    -0.0027     2.4934     0.1005
 1947.0000     9.7787   104.2402     8.8510   149.7424     0.0022     2.4946     0.1004
 1947.5000     9.7973   103.8243     8.8510   152.2633     0.0030     2.4997     0.0928
 1948.0000     9.7572   104.0063     8.8510   154.0460     0.0007     2.4965     0.0988
 1948.5000     9.6359   104.4221     8.8510   158.8252     0.0079     2.4922     0.0932
 1949.0000     9.4885   104.8380     8.8510   161.3934     0.0163     2.5064     0.0872
 1949.5000     9.4691   105.2538     8.8510   162.1241     0.0122     2.5143     0.0920
 1950.0000     9.4468   105.7085     8.8510   162.6424     0.0060     2.4921     0.0988
 1950.5000     9.4239   105.7095     8.8510   161.6635     0.0011     2.4838     0.1064
 1951.0000     9.4122   105.7113     8.8510   153.0047     0.0138     2.4903     0.1000
 1951.5000     9.4040   105.7106     8.8510   144.6307     0.0205     2.5093     0.0938
 1952.0000     9.3962   105.7068     8.8510   138.0004     0.0232     2.4991     0.0972
 1952.5000     9.3883   105.7048     8.8511   140.4248     0.0291     2.4969     0.0953
 1953.0000     9.3769   104.4763     8.8509   149.4291     0.0349     2.5134     0.0912
 1953.5000     9.5371   103.3307     8.8482   154.3667     0.0403     2.5125     0.0929
 1954.0000     9.7752   102.1828     8.9267   151.5213     0.0328     2.5209     0.0812
 1954.5000    10.0164   101.0336     9.0165   153.9485     0.0190     2.5015     0.0939
 1955.0000    10.1641    99.8844     9.0317   159.0667     0.0126     2.4896     0.1000
 1955.5000    10.2647    98.7352     9.0206   156.1254     0.0295     2.4905     0.0953
 1956.0000    10.3647    97.5859     9.0789   148.8350     0.0459     2.5099     0.0864
 1956.5000    10.4637    96.6934     9.0917   151.5091     0.0423     2.5230     0.0894
 1957.0000    10.5427    96.6934     9.0947   155.8148     0.0368     2.5098     0.0947
 1957.5000    10.5301    96.6934     9.0976   154.7189     0.0408     2.5013     0.0964
 1958.0000    10.5200    96.6931     9.1004   153.0434     0.0551     2.5179     0.0879
 1958.5000    10.5101    96.6934     9.1034   166.5485     0.0568     2.5321     0.0832
 1959.0000    10.4965    96.6934     9.1069   162.0296     0.0447     2.5209     0.0884
 1959.5000    10.4680    96.6934     9.1074   154.2343     0.0349     2.5037     0.0932
 1960.0000    10.4396    96.6934     9.0060   156.3888     0.0381     2.5097     0.0856
 1960.5000    10.4251    96.6934     8.8950   160.5772     0.0261     2.5176     0.0960
 1961.0000    10.4354    96.6934     8.8870   163.4032     0.0087     2.5049     0.0908
 1961.5000    10.4453    96.6934     8.8846   160.3214     0.0036     2.5141     0.0876
 1962.0000    10.4558    96.6934     8.8817   158.8232     0.0003     2.5098     0.0937
 1962.5000    10.4919    96.6934     8.8786   159.4346    -0.0019     2.5024     0.0985
 1963.0000    10.5787    96.6934     8.8755   153.6076    -0.0028     2.4948     0.0996
 1963.5000    10.5602    96.6932     8.8725   149.9628    -0.0024     2.4927     0.0964
 1964.0000    10.5618    96.6632     8.8694   150.8988     0.0032     2.5008     0.0920
 1964.5000    10.6312    96.6074     8.8663   150.2580     0.0082     2.5087     0.0876
 1965.0000    10.6972    96.5515     8.8632   145.1388     0.0028     2.5135     0.0919
 1965.5000    10.7418    96.4956     8.8601   142.3288    -0.0028     2.5039     0.0971
 1966.0000    10.7329    96.4396     8.8571   143.1414    -0.0077     2.4947     0.1024
 1966.5000    10.7252    96.3837     8.8540   145.1635    -0.0075     2.4865     0.1068
 1967.0000    10.7176    96.3277     8.8509   147.7886    -0.0077     2.4863     0.1068
 1967.5000    10.7103    96.2718     8.8478   149.6447    -0.0031     2.4868     0.1068
 1968.0000    10.7006    96.2158     8.8448   154.2013     0.0040     2.4899     0.1049
 1968.5000    10.6441    96.1599     8.8417   157.3378     0.0111     2.4996     0.1020
 1969.0000    10.5894    96.1039     8.8386   154.9744     0.0158     2.4972     0.1020
 1969.5000    10.5859    96.0479     8.8355   152.5197     0.0183     2.4914     0.1091
 1970.0000    10.5901    95.9920     8.8324   151.5379     0.0214     2.4822     0.1169
 1970.5000    10.5945    95.9360     8.8343   157.9874     0.0300     2.4733     0.1259
 1971.0000    10.5988    95.8801     8.8395   162.7130     0.0359     2.4641     0.1349
 1971.5000    10.6030    95.8241     8.8441   160.3372     0.0469     2.4423     0.1432
 1972.0000    10.6073    95.7682     8.8570   156.2347     0.0661     2.4162     0.1441
 1972.5000    10.6116    95.7122     9.0952   157.1148     0.1173     2.4272     0.1328
 1973.0000    10.6157    96.2003     9.0939   158.5864     0.1339     2.4470     0.1174
 1973.5000    10.6195    97.0110     9.2739   157.2042     0.0782     2.4672     0.0944
 1974.0000    10.5763    97.8217     8.8290   154.6666    -0.0015     2.4873     0.1028
