~VERSION INFORMATION
 VERS.                2.0:   CWLS LOG ASCII STANDARD - VERSION 2.0
 WRAP.                 NO:   ONE LINE PER DEPTH STEP
~WELL INFORMATION
#MNEM.UNIT      DATA TYPE    INFORMATION
#----------   ------------   ------------------------------
 STRT.F            1.0000:   START DEPTH
 STOP.F          478.0000:   STOP DEPTH
 STEP.F            0.1000:   STEP LENGTH
 NULL.          -999.2500:   NO VALUE
 COMP. LAWRENCE/ALLISON INC:   COMPANY
 WELL.     58-61 SX #58-3:   WELL
 FLD .             TEAPOT:   FIELD
 LOC .       S3 T38N R78W:   LOCATION
 CNTY.            NATRONA:   COUNTY
 STAT.            WYOMING:   STATE
 CTRY. UNITED STATES OF AMERICA:   COUNTRY
 SRVC.           Gearhart:   SERVICE COMPANY
 DATE.        08-JUL-1988:   LOGDATE
 API .       490251123400:   API NUMBER
~CURVE INFORMATION
#MNEM.UNIT       API CODE    CURVE DESCRIPTION
#----------   ------------   ------------------------------
 DEPT.F                  :   
 GRR .GAPI   07 310 01 00:   GAMMA RAY
 RILD.OHMM   07 120 46 00:   INDUCTION LOG DEEP RESISTIVITY
 RILM.OHMM   07 120 44 00:   INDUCTION LOG MEDIUM RESISTIVITY
~PARAMETER INFORMATION
#MNEM.UNIT          VALUE    DESCRIPTION
#----------   ------------   ------------------------------
 PD  .                 GL:   PERMANENT DATUM
 EPD .F              5184:   ELEVATION PERMANENT DATUM
 LMF .                 KB:   LOG MEASURED FROM
 DAPD.F                 5:   FEET ABOVE PERMANENT DATUM
 DMF .                 KB:   DRILLING MEASURED FROM
 EKB .F              5189:   KELLING BUSHING
 EGL .F              5184:   GROUND LEVEL
 DATE.        08-JUL-1988:   RUN DATE
 RUN .                  1:   RUN NUMBER
 DD  .F               485:   DEPTH DRILLER
 DL  .F               486:   DEPTH LOGGER
 BLI .F               478:   BOTTOM LOG INTERVAL
 CS  .IN            9.625:   CASING SIZE
 CBD .F                45:   CASING BOTTOM DRILLER
 CBL .F                44:   CASING BOTTOM LOGGER
 BS  .IN             8.75:   BIT SIZE
 BSD .F               485:   BIT SIZE AT DEPTH
 DFT .                AIR:   DRILLING FLUID TYPE
 TCS .HRS            2200:   TIME CURCULATED STOPPED
 TLAB.HRS            2315:   TIME LOGGER AT BOTTOM
 LUN .               7597:   LOGGING UNIT NUMBER
 LUL .           GILLETTE:   LOGGING UNIT LOCATION
 ENGI.           JOHNSTON:   RECORDING ENGINEER
 WITN.              FIVAS:   WITNESSED BY
 CLNT.            A2DTECH:   CLIENT CODE
 ORIG.           5" PRINT:   ORIGIN OF DATA
 UWI .       490251123400:   UNIQUE WELL ID
 DICO. A2D Technologies, Inc.:   DIGITIZING COMPANY
~OTHER INFORMATION
~A    DEPT     GRR       RILD       RILM   
# ...
  346.8000   118.5289    14.5143    13.2627
  346.9000   118.3005    14.5939    13.2835
  347.0000   118.0577    14.7386    13.2834
  347.1000   117.8149    14.8634    13.3036
  347.2000   117.5721    14.9956    13.3795
  347.3000   117.3358    15.2485    13.4704
  347.4000   117.3402    15.4539    13.5328
  347.5000   117.3445    15.6720    13.6100
  347.6000   117.4895    15.9413    13.6877
  347.7000   117.7408    16.1480    13.7759
  347.8000   118.0200    16.2640    13.9496
  347.9000   118.5759    16.5708    14.0213
  348.0000   118.7982    16.8281    14.2103
  348.1000   119.0495    17.0515    14.3817
  348.2000   119.1951    17.3342    14.5179
  348.3000   119.1994    17.7102    14.8560
  348.4000   119.2038    18.0189    15.0243
  348.5000   118.9681    18.1194    15.1965
  348.6000   118.7253    18.3801    15.4177
  348.7000   118.2289    18.6959    15.6833
  348.8000   117.4921    19.0168    15.9531
  348.9000   116.7551    19.3430    16.2704
  349.0000   115.8915    19.7302    16.7517
  349.1000   115.0768    20.0141    17.2109
  349.2000   113.9446    20.4294    17.6881
  349.3000   112.7136    20.8531    18.3193
  349.4000   111.4123    21.2475    19.1113
  349.5000   109.5391    21.9095    19.9495
  349.6000   108.4142    22.4912    20.7109
  349.7000   107.1831    23.0487    21.4914
  349.8000   105.9520    23.5784    22.3974
  349.9000   104.6645    24.1846    23.4334
  350.0000   103.1866    25.0204    24.3907
  350.1000   101.9223    26.1146    25.1533
  350.2000   100.6579    27.2088    26.0523
  350.3000    99.3936    28.3030    27.0032
  350.4000    98.1292    29.3972    27.7998
  350.5000    96.8649    30.4914    28.8794
  350.6000    95.7341    31.4321    30.0755
  350.7000    94.9977    31.9896    31.6019
  350.8000    94.2617    33.0771    32.8490
  350.9000    93.7201    33.8652    33.7635
  351.0000    93.5053    34.4839    35.3769
  351.1000    93.5083    34.9508    37.8282
  351.2000    93.5114    35.5798    39.4746
  351.3000    93.5148    36.4646    40.9710
  351.4000    93.5174    36.8457    42.7811
  351.5000    93.5205    37.4135    44.9570
  351.6000    93.5235    38.1582    46.4774
  351.7000    93.5266    38.9802    47.3705
  351.8000    93.5298    39.6481    48.2947
  351.9000    93.0706    40.3300    49.0204
  352.0000    92.5807    41.0230    49.6237
  352.1000    92.2078    41.7274    50.5477
  352.2000    91.8446    42.3619    51.0808
  352.3000    91.1112    42.8434    51.6663
  352.4000    90.6213    43.3900    52.1195
  352.5000    90.1314    44.0460    52.5593
  352.6000    89.5065    43.8129    53.4591
  352.7000    88.8485    43.2727    53.7643
  352.8000    88.3376    43.0221    54.0714
  352.9000    87.4936    42.7663    54.2091
  353.0000    87.2858    42.5257    54.1092
  353.1000    87.0424    42.4598    53.8303
  353.2000    86.7990    42.4557    53.8299
  353.3000    86.5944    42.4515    53.5644
  353.4000    86.5981    42.4474    52.8755
  353.5000    86.6009    42.4425    52.2205
  353.6000    86.6039    42.4390    51.8695
  353.7000    86.6070    42.4349    51.2545
  353.8000    86.6674    42.4307    50.6998
  353.9000    86.9169    42.4266    50.1252
  354.0000    87.1664    42.4221    49.5568
  354.1000    87.4159    42.4183    48.9196
  354.2000    87.7981    42.4141    48.1003
  354.3000    88.2940    42.4099    47.4546
  354.4000    88.8273    42.4058    47.0164
  354.5000    89.9701    42.3947    46.6383
  354.6000    90.3886    42.1010    46.2787
  354.7000    90.8846    42.0977    45.7873
  354.8000    91.4743    41.9558    45.5016
  354.9000    92.1430    41.7129    45.2678
  355.0000    92.4130    41.4714    45.0103
  355.1000    92.8682    41.2064    44.7542
  355.2000    93.3641    40.9928    44.4995
  355.3000    93.6358    40.7556    44.2439
  355.4000    93.6938    40.4181    44.2436
  355.5000    93.9454    39.9552    44.4365
  355.6000    94.1928    39.4929    44.6902
  355.7000    94.4423    39.4891    45.0247
  355.8000    94.6918    39.1435    45.5191
  355.9000    94.7947    38.6955    45.8176
  356.0000    94.5190    38.3198    46.2651
  356.1000    93.6606    38.0979    46.6285
  356.2000    93.0465    37.8461    46.7889
  356.3000    91.8649    37.4750    46.8784
  356.4000    90.6636    37.0463    47.4477
  356.5000    89.8929    36.7063    47.4474
  356.6000    88.8197    36.4937    47.0651
  356.7000    88.1512    36.2723    46.5312
  356.8000    87.5816    36.0726    45.8065
  356.9000    87.0917    35.8639    44.5360
  357.0000    86.6545    35.6564    44.0313
  357.1000    86.4067    35.4499    43.3356
  357.2000    86.4097    35.2538    42.8772
  357.3000    86.4128    35.2498    42.4683
  357.4000    86.5436    35.0827    41.8012
  357.5000    86.9346    34.9977    41.5366
  357.6000    87.6771    34.9942    41.1191
  357.7000    88.5499    34.9908    40.6530
  357.8000    89.1618    34.9871    40.1918
  357.9000    89.9041    34.9840    39.7814
  358.0000    90.7355    35.1181    39.5494
  358.1000    91.6922    35.1306    39.1124
  358.2000    92.5102    34.9737    38.6691
  358.3000    93.1768    34.9702    38.4567
  358.4000    93.9193    34.9668    38.3928
  358.5000    94.5544    34.8081    38.1880
  358.6000    95.0502    34.7161    38.1877
  358.7000    95.5600    34.6481    38.1874
  358.8000    95.8026    34.4474    38.0554
  358.9000    96.0520    34.2231    38.0029
  359.0000    96.1760    34.2202    38.1867
  359.1000    96.1791    34.2168    38.1864
  359.2000    96.1934    34.2135    38.3878
  359.3000    96.4892    34.2101    38.4540
  359.4000    96.4917    34.2067    38.5566
  359.5000    96.6384    34.0150    38.7236
  359.6000    96.8012    33.9615    38.7233
  359.7000    96.8338    33.9582    38.7230
  359.8000    97.1111    33.9549    38.5505
  359.9000    97.1138    33.9394    38.4524
  360.0000    97.1168    33.7109    38.4521
  360.1000    97.1199    33.7082    38.4519
  360.2000    97.0752    33.7049    38.4516
  360.3000    96.8226    33.7016    38.2610
  360.4000    96.3512    33.6983    38.0433
  360.5000    96.2215    33.6947    37.9163
  360.6000    95.9785    33.6917    37.8757
  360.7000    95.4887    33.6884    37.6514
  360.8000    94.9900    33.6851    37.6511
  360.9000    94.1098    33.6818    37.4944
  361.0000    93.5175    33.6785    37.3880
  361.1000    92.7811    33.8727    37.3877
  361.2000    92.0449    34.0633    37.3774
  361.3000    91.3358    34.1432    37.1264
  361.4000    90.7864    34.2073    36.7818
  361.5000    90.3560    34.4230    36.4869
  361.6000    90.0257    34.8570    36.3543
  361.7000    89.6799    34.8539    36.3260
  361.8000    89.2802    34.9834    36.1002
  361.9000    89.2839    35.1801    35.9139
  362.0000    89.5215    35.3778    35.7096
  362.1000    89.9486    35.5795    35.5064
  362.2000    90.5652    35.7769    35.3943
  362.3000    91.1804    35.9782    35.5972
  362.4000    91.4234    36.1805    35.7996
  362.5000    91.4264    36.3840    36.0041
  362.6000    91.4294    36.5885    36.2096
  362.7000    91.2937    36.8244    36.4815
  362.8000    91.1320    37.0014    36.8991
  362.9000    91.1351    37.0763    37.3830
  363.0000    91.1385    37.1578    37.7498
  363.1000    90.9271    37.4041    38.1825
  363.2000    90.6837    37.8517    38.7089
  363.3000    90.4402    38.0536    39.3362
  363.4000    90.1968    37.9540    39.8121
  363.5000    89.9395    37.7343    40.4609
  363.6000    89.2456    37.4590    41.3288
  363.7000    88.8597    37.0385    42.5221
  363.8000    88.3800    36.7846    43.9312
  363.9000    87.7048    36.4419    45.1884
  364.0000    87.2149    36.1455    46.4371
  364.1000    86.7251    35.9363    47.0815
  364.2000    86.0418    35.7008    47.7351
  364.3000    85.1691    35.2550    48.2818
  364.4000    84.1071    35.0696    48.8008
  364.5000    82.8781    35.0026    49.1096
  364.6000    81.4754    34.9991    48.8606
  364.7000    80.6315    34.9500    48.4002
  364.8000    79.6487    34.7482    47.9694
  364.9000    78.3733    34.7448    47.5848
