~VERSION INFORMATION
 VERS.                2.0:   CWLS LOG ASCII STANDARD - VERSION 2.0
 WRAP.                 NO:   ONE LINE PER DEPTH STEP
~WELL INFORMATION
#MNEM.UNIT      DATA TYPE    INFORMATION
#----------   ------------   ------------------------------
 STRT.F           20.0000:   START DEPTH
 STOP.F          964.0000:   STOP DEPTH
 STEP.F            0.5000:   STEP LENGTH
 NULL.          -999.2500:   NO VALUE
 COMP. FENIX & SCISSON INC:   COMPANY
 WELL.    NPR-3 SX #58-11:   WELL
 FLD .             TEAPOT:   FIELD
 LOC .      S11 T38N R78W:   LOCATION
 CNTY.            NATRONA:   COUNTY
 STAT.            WYOMING:   STATE
 CTRY. UNITED STATES OF AMERICA:   COUNTRY
 SRVC.            Unknown:   SERVICE COMPANY
 DATE.        09-MAR-1978:   LOGDATE
 API .       490251060100:   API NUMBER
~CURVE INFORMATION
#MNEM.UNIT       API CODE    CURVE DESCRIPTION
#----------   ------------   ------------------------------
 DEPT.F                  :   
 SPR .MV     05 010 01 00:   SPONTANEOUS POTENTIAL FROM RES.
 SN  .OHMM   05 040 16 00:   SHORT NORMAL 16"
 ILD .OHMM   05 120 46 00:   INDUCTION LOG DEEP
 CALD.IN     45 280 60 00:   CALIPER
 GRD .GAPI   45 310 01 00:   GAMMA RAY FROM DENSITY LOG
 CORR.G/C3   45 356 01 00:   DENSITY CORRECTION
 RHOB.G/C3   45 350 01 00:   BULK DENSITY
 DPHI.DEC    45 890 12 00:   DENSITY POROSITY SANDSTONE
~PARAMETER INFORMATION
#MNEM.UNIT          VALUE    DESCRIPTION
#----------   ------------   ------------------------------
 PD  .                 GL:   PERMANENT DATUM
 EPD .F              5219:   ELEVATION PERMANENT DATUM
 LMF .                 KB:   LOG MEASURED FROM
 DAPD.F                 4:   FEET ABOVE PERMANENT DATUM
 DMF .                 KB:   DRILLING MEASURED FROM
 EKB .F              5223:   KELLING BUSHING
 EGL .F              5219:   GROUND LEVEL
 DATE.           3-9-1978:   RUN DATE
 RUN .                  1:   RUN NUMBER
 DD  .F               963:   DEPTH DRILLER
 DL  .F               966:   DEPTH LOGGER
 BLI .F               960:   BOTTOM LOG INTERVAL
 TLI .F                80:   TOP LOG INTERVAL
 CS  .IN            8.625:   CASING SIZE
 CBD .F                40:   CASING BOTTOM DRILLER
 BS  .IN            7.875:   BIT SIZE
 BSD .F               963:   BIT SIZE AT DEPTH
 DFT .         LIGNO SULF:   DRILLING FLUID TYPE
 DFD .                8.6:   DRILLING FLUID DENSITY
 DFV .                 30:   DRILLING FLUID VISCOSITY
 DFPH.               10.5:   DRILLING FLUID PH
 DFL .                4.8:   DRILLING FLUID LOSS
 MSS .          FLOW LINE:   MUD SAMPLE SOURCE
 RMS .OHMM            1.7:   RESISTIVITY MUD SAMPLE
 MST .F                60:   MUD SAMPLE TEMPERATURE
 RMF .OHMM            1.5:   RESISTIVITY MUD FILTRATE SAMPLE
 MFST.F                74:   MUD FILTRATE SAMPLE TEMPERATURE
 RMC .OHMM            2.8:   RESISTIVITY MUD CAKE
 MCST.F                68:   MUD CAKE SAMPLE TEMPERATURE
 MFSS.               MEAS:   MUD FILTRATE SAMPLE SOURCE
 MCSS.               MEAS:   MUD CAKE SAMPLE SOURCE
 RMB .OHMM           1.38:   RESISTIVITY MUD AT BHT
 BHT .F                74:   BOTTOM HOLE TEMPERATURE
 TCS .HRS               4:   TIME CURCULATED STOPPED
 MRT .F                74:   MAXIMUM RECORDED TEMPERATURE
 LUN .               2958:   LOGGING UNIT NUMBER
 LUL .               CASP:   LOGGING UNIT LOCATION
 ENGI.             MILLER:   RECORDING ENGINEER
 WITN.         HARRINGTON:   WITNESSED BY
 CLNT.            A2DTECH:   CLIENT CODE
 ORIG.      2" , 5" PRINT:   ORIGIN OF DATA
 UWI .       490251060100:   UNIQUE WELL ID
 DICO. A2D Technologies, Inc.:   DIGITIZING COMPANY
~OTHER INFORMATION
~A   DEPT      SPR         SN        ILD       CALD         GRD      CORR       RHOB       DPHI   
# ...
  182.0000   -28.2435     5.6151     5.3420     7.8710    68.1790     0.0169     2.4144     0.1540
  182.5000   -28.2435     5.5515     5.3176     7.8725    66.7326     0.0184     2.4098     0.1531
  183.0000   -28.2435     5.4886     5.2934     7.8741    65.3907     0.0202     2.4067     0.1509
  183.5000   -28.2435     5.4367     5.2828     7.8756    64.2311     0.0222     2.4116     0.1486
  184.0000   -28.2435     5.6991     5.2686     7.8771    64.0390     0.0240     2.4160     0.1477
  184.5000   -28.2428     5.8537     5.2544     7.8787    63.8986     0.0258     2.4135     0.1509
  185.0000   -28.2402     5.7945     5.2388     7.8802    63.5444     0.0279     2.4126     0.1485
  185.5000   -28.2590     5.7465     5.2394     7.8817    62.7553     0.0278     2.4189     0.1445
  186.0000   -28.6847     5.8661     5.3803     7.8833    60.2729     0.0246     2.4281     0.1414
  186.5000   -29.1066     6.0012     5.4903     7.8848    56.8531     0.0217     2.4411     0.1350
  187.0000   -29.4169     6.1395     5.6026     7.8863    55.8620     0.0184     2.4664     0.1286
  187.5000   -29.2307     6.2809     5.6413     7.8878    60.0679     0.0176     2.4618     0.1344
  188.0000   -29.0550     6.4202     5.6357     7.8894    67.6199     0.0202     2.4407     0.1429
  188.5000   -28.8720     5.9628     5.6304     7.8909    73.9359     0.0224     2.4218     0.1525
  189.0000   -29.1005     6.0566     5.6250     7.8925    72.9892     0.0247     2.4072     0.1515
  189.5000   -29.4187     6.2447     5.6197     7.8940    72.2230     0.0270     2.4101     0.1499
  190.0000   -29.4615     6.2238     5.6143     7.8955    71.0878     0.0287     2.4124     0.1486
  190.5000   -28.8609     6.1885     5.6090     7.8971    70.0932     0.0267     2.4156     0.1474
  191.0000   -28.2661     6.1534     5.6037     7.8985    69.7269     0.0250     2.4154     0.1469
  191.5000   -28.2664     6.1185     5.5984     7.8996    70.8278     0.0197     2.4130     0.1501
  192.0000   -28.3014     6.0837     5.5932     7.8941    71.8830     0.0124     2.4110     0.1528
  192.5000   -28.3334     6.0244     5.5849     7.8889    73.0916     0.0095     2.4087     0.1553
  193.0000   -28.3642     5.9562     5.5698     7.8833    72.9100     0.0123     2.4068     0.1564
  193.5000   -28.3950     5.8888     5.5549     7.8779    72.0953     0.0144     2.4052     0.1437
  194.0000   -28.4252     5.8221     5.5400     7.8725    71.2064     0.0168     2.4194     0.1451
  194.5000   -28.4296     5.7999     5.5254     7.8671    70.2375     0.0191     2.4245     0.1474
  195.0000   -28.3670     5.8507     5.5104     7.8616    72.0252     0.0206     2.4158     0.1493
  195.5000   -28.3054     5.9080     5.4957     7.8562    76.8173     0.0184     2.4157     0.1505
  196.0000   -28.2437     5.8930     5.4367     7.8508    76.8938     0.0165     2.4277     0.1515
  196.5000   -28.1826     5.8574     5.4367     7.8453    75.6299     0.0145     2.4284     0.1525
  197.0000   -28.1203     5.8219     5.4364     7.8399    73.4924     0.0132     2.4148     0.1493
  197.5000   -28.0441     5.7998     5.4366     7.8345    70.6749     0.0160     2.4084     0.1461
  198.0000   -28.4950     5.8421     5.4365     7.8291    70.3699     0.0183     2.4181     0.1461
  198.5000   -29.0967     5.8786     5.4366     7.8236    70.0878     0.0209     2.4227     0.1461
  199.0000   -29.2063     5.9154     5.4367     7.8182    69.8442     0.0233     2.4224     0.1461
  199.5000   -28.9662     5.9521     5.5372     7.8128    69.5972     0.0258     2.4225     0.1444
  200.0000   -28.7167     5.9628     5.6937     7.8074    69.3622     0.0283     2.4236     0.1430
  200.5000   -28.4599     5.9868     5.6872     7.8021    69.0359     0.0308     2.4247     0.1415
  201.0000   -28.9026     6.0212     5.6739     7.7965    69.5982     0.0332     2.4254     0.1401
  201.5000   -29.2202     6.0559     5.6611     7.7914    70.7944     0.0358     2.4303     0.1356
  202.0000   -28.8132     6.0908     5.6480     7.7859    71.9303     0.0363     2.4393     0.1303
  202.5000   -28.4450     6.1258     5.6411     7.7787    71.9905     0.0352     2.4529     0.1250
  203.0000   -28.3361     6.1623     5.7749     7.7682    71.7402     0.0342     2.4652     0.1197
  203.5000   -28.2369     6.1892     5.9324     7.7508    71.4684     0.0332     2.4774     0.1144
  204.0000   -28.1358     6.5167     6.0942     7.7303    71.0701     0.0321     2.4870     0.1111
  204.5000   -28.0560     6.8410     6.2605     7.6077    71.2362     0.0311     2.4766     0.1170
  205.0000   -28.3390     7.1817     6.4313     7.4926    72.8365     0.0301     2.4667     0.1239
  205.5000   -28.6206     7.3172     6.6006     7.4579    78.0351     0.0291     2.4561     0.1308
  206.0000   -28.7793     7.4894     6.7024     7.4711    75.8866     0.0280     2.4457     0.1377
  206.5000   -28.4419     8.0160     6.8500     7.6166    72.6007     0.0270     2.4335     0.1381
  207.0000   -28.3106     7.7758     6.8483     7.7322    73.2145     0.0260     2.4304     0.1357
  207.5000   -28.6436     7.4953     6.8511     7.7395    74.2860     0.0249     2.4379     0.1351
  208.0000   -28.8356     7.2250     6.6839     7.7412    75.3736     0.0249     2.4381     0.1356
  208.5000   -28.6560     6.9645     6.4802     7.7393    74.9079     0.0248     2.4310     0.1361
  209.0000   -28.4693     6.8481     6.3027     7.7403    74.5014     0.0248     2.4297     0.1364
  209.5000   -28.2667     6.8485     6.2647     7.7402    74.5582     0.0248     2.4347     0.1368
  210.0000   -28.6921     6.8800     6.2169     7.7400    75.8343     0.0249     2.4341     0.1372
  210.5000   -29.2586     6.9127     6.1304     7.7401    77.2845     0.0248     2.4272     0.1372
  211.0000   -29.8213     6.8892     6.1304     7.7400    77.5186     0.0257     2.4274     0.1369
  211.5000   -29.7585     6.8262     6.2361     7.7400    77.7349     0.0279     2.4378     0.1366
  212.0000   -29.2082     6.7861     6.3472     7.7402    77.8029     0.0300     2.4380     0.1350
  212.5000   -28.6615     6.8634     6.4202     7.7400    77.7604     0.0321     2.4413     0.1310
  213.0000   -28.5723     7.0865     6.4202     7.7402    77.0248     0.0342     2.4460     0.1271
  213.5000   -28.4573     7.2703     6.4202     7.7406    76.3690     0.0363     2.4524     0.1236
  214.0000   -28.3395     7.3728     6.9768     7.7383    78.1588     0.0355     2.4575     0.1263
  214.5000   -28.2208     7.5030     6.9768     7.7416    79.3105     0.0339     2.4589     0.1315
  215.0000   -28.1018     7.6851     6.9986     7.7011    79.1367     0.0321     2.4423     0.1319
  215.5000   -28.0560     7.8714     7.0665     7.6483    79.1396     0.0306     2.4451     0.1310
  216.0000   -28.0776     8.0624     7.1352     7.5083    79.8927     0.0290     2.4358     0.1445
  216.5000   -28.0993     8.2562     7.2045     7.3771    80.2165     0.0308     2.4235     0.1479
  217.0000   -28.1214     8.3155     7.2395     7.4539    74.9559     0.0330     2.4133     0.1515
  217.5000   -28.1435     8.3801     7.2395     7.6387    72.9531     0.0409     2.4069     0.1551
  218.0000   -28.1656     8.4395     7.2395     7.7548    72.8017     0.0492     2.3997     0.1604
  218.5000   -28.1876     8.4705     7.2395     7.7526    74.9842     0.0582     2.4082     0.1477
  219.0000   -28.2095     8.2461     7.2395     7.7690    79.2403     0.0563     2.4196     0.1469
  219.5000   -28.2313     7.9975     7.1985     7.7819    82.4006     0.0493     2.4190     0.1491
  220.0000   -28.2178     7.7564     7.0476     7.7930    81.3743     0.0445     2.4159     0.1510
  220.5000   -28.1638     7.5226     6.9000     7.8063    80.1043     0.0440     2.4128     0.1529
  221.0000   -28.1072     7.3067     6.7551     7.8184    78.8644     0.0432     2.4100     0.1518
  221.5000   -28.0291     7.4429     6.6137     7.8307    78.5886     0.0425     2.4168     0.1424
  222.0000   -28.6357     7.3062     6.4788     7.8430    78.1299     0.0419     2.4331     0.1277
