~VERSION INFORMATION
 VERS.                2.0:   CWLS LOG ASCII STANDARD - VERSION 2.0
 WRAP.                 NO:   ONE LINE PER DEPTH STEP
~WELL INFORMATION
#MNEM.UNIT      DATA TYPE    INFORMATION
#----------   ------------   ------------------------------
 STRT.F           36.0000:   START DEPTH
 STOP.F          503.0000:   STOP DEPTH
 STEP.F            0.5000:   STEP LENGTH
 NULL.          -999.2500:   NO VALUE
 COMP.    FENIX & SCISSON:   COMPANY
 WELL.     NPR ##3 77-S-3:   WELL
 FLD .             TEAPOT:   FIELD
 LOC .       S3 T38N R78W:   LOCATION
 CNTY.            NATRONA:   COUNTY
 STAT.            WYOMING:   STATE
 CTRY. UNITED STATES OF AMERICA:   COUNTRY
 SRVC.       Schlumberger:   SERVICE COMPANY
 DATE.        04-MAR-1977:   LOGDATE
 API .       490251029500:   API NUMBER
~CURVE INFORMATION
#MNEM.UNIT       API CODE    CURVE DESCRIPTION
#----------   ------------   ------------------------------
 DEPT.F                  :   
 SPR .MV     07 010 01 00:   SPONTANEOUS POTENTIAL
 ILD .OHMM   07 120 46 00:   INDUCTION LOG DEEP
 ILM .OHMM   07 120 44 00:   INDUCTION LOG MEDIUM
 LL8 .OHMM   07 220 08 00:   LATEROLOG-8 RES.
 GRD .GAPI   45 310 01 00:   GAMMA RAY FROM DENSITY LOG
 CALD.IN     45 280 60 00:   CALIPER FROM DENSITY LOG
 CORR.G/C3   45 356 01 00:   DENSITY CORRECTION
 RHOB.G/C3   45 350 01 00:   BULK DENSITY
 DPHI.DEC    45 890 12 00:   DENSITY POROSITY SANDSTONE
~PARAMETER INFORMATION
#MNEM.UNIT          VALUE    DESCRIPTION
#----------   ------------   ------------------------------
 PD  .                 GL:   PERMANENT DATUM
 EPD .F              5165:   ELEVATION PERMANENT DATUM
 LMF .                 KB:   LOG MEASURED FROM
 DAPD.F                 4:   FEET ABOVE PERMANENT DATUM
 DMF .                 GL:   DRILLING MEASURED FROM
 EKB .F              5169:   KELLING BUSHING
 EGL .F              5165:   GROUND LEVEL
 DATE.        04-MAR-1977:   RUN DATE
 RUN .                  1:   RUN NUMBER
 DD  .F               500:   DEPTH DRILLER
 DL  .F               504:   DEPTH LOGGER
 BLI .F               503:   BOTTOM LOG INTERVAL
 TLI .F                46:   TOP LOG INTERVAL
 CS  .IN            8.625:   CASING SIZE
 CBD .F                42:   CASING BOTTOM DRILLER
 CBL .F                46:   CASING BOTTOM LOGGER
 BS  .IN            7.875:   BIT SIZE
 BSD .F               500:   BIT SIZE AT DEPTH
 DFT .                KCL:   DRILLING FLUID TYPE
 DFD .                8.6:   DRILLING FLUID DENSITY
 DFV .                 32:   DRILLING FLUID VISCOSITY
 DFPH.                8.0:   DRILLING FLUID PH
 DFL .                7.6:   DRILLING FLUID LOSS
 MSS .            MUD PIT:   MUD SAMPLE SOURCE
 RMS .OHMM            .66:   RESISTIVITY MUD SAMPLE
 MST .F                56:   MUD SAMPLE TEMPERATURE
 RMF .OHMM            .49:   RESISTIVITY MUD FILTRATE SAMPLE
 MFST.F                56:   MUD FILTRATE SAMPLE TEMPERATURE
 RMC .OHMM             .4:   RESISTIVITY MUD CAKE
 MCST.F                56:   MUD CAKE SAMPLE TEMPERATURE
 MFSS.               MEAS:   MUD FILTRATE SAMPLE SOURCE
 MCSS.               CALC:   MUD CAKE SAMPLE SOURCE
 TCS .HRS            0100:   TIME CURCULATED STOPPED
 LUN .               7680:   LOGGING UNIT NUMBER
 LUL .               CSPR:   LOGGING UNIT LOCATION
 ENGI.    LOHBECK/ TAYLOR:   RECORDING ENGINEER
 WITN.              BURKE:   WITNESSED BY
 CLNT.            A2DTECH:   CLIENT CODE
 ORIG.           5" PRINT:   ORIGIN OF DATA
 UWI .       490251029500:   UNIQUE WELL ID
 DICO. A2D Technologies, Inc.:   DIGITIZING COMPANY
~OTHER INFORMATION
~A   DEPT      SPR        ILD        ILM        LL8         GRD      CALD       CORR       RHOB       DPHI   
# ...
  328.0000   -48.7235    32.6854    31.3335    30.8248    42.3142     8.0038     0.0227     2.4240     0.1399
  328.5000   -48.7100    31.5912    30.0746    28.1704    43.8839     8.0785     0.0332     2.4150     0.1449
  329.0000   -48.8460    30.7457    29.2682    26.8655    45.7351     8.0934     0.0240     2.3811     0.1634
  329.5000   -48.8326    29.9228    28.4835    25.9627    47.9211     8.0782     0.0308     2.3849     0.1573
  330.0000   -48.8185    29.1219    27.9121    25.4398    48.8171     8.0781     0.0218     2.3840     0.1465
  330.5000   -48.8057    28.5391    27.1637    24.7829    48.5904     8.0629     0.0180     2.3765     0.1657
  331.0000   -48.7922    27.5839    26.6188    24.5951    48.1392     8.0610     0.0309     2.3953     0.1549
  331.5000   -48.7762    26.8456    26.0848    24.3075    48.1370     8.0591     0.0322     2.4058     0.1501
  332.0000   -48.9123    26.3085    25.9175    24.1548    47.4607     8.0573     0.0104     2.3787     0.1673
  332.5000   -48.9001    26.3232    25.9299    24.1697    47.9077     8.0554     0.0119     2.3737     0.1688
  333.0000   -48.8856    26.3548    26.1224    24.1847    49.2529     8.0535     0.0066     2.3659     0.1745
  333.5000   -49.0239    26.9276    26.4989    24.3677    50.8226     8.0516     0.0119     2.3643     0.1736
  334.0000   -49.0084    27.2952    27.0673    24.5521    49.4726     8.0497     0.0163     2.3794     0.1646
  334.5000   -49.0422    27.5330    27.4574    24.9096    47.8986     8.0478     0.0148     2.3838     0.1619
  335.0000   -49.1345    27.9017    27.6612    25.2724    47.4474     8.0465     0.0125     2.3778     0.1652
  335.5000   -49.1196    28.3061    28.2546    25.4636    47.6703     8.0464     0.0222     2.3807     0.1640
  336.0000   -49.1044    28.5183    28.4645    25.6563    46.3203     8.0462     0.0140     2.3817     0.1625
  336.5000   -49.0911    28.7322    28.4782    25.6721    46.9913     8.0457     0.0154     2.3693     0.1727
  337.0000   -49.0777    28.7480    28.4921    25.8624    47.4388     8.0309     0.0199     2.3656     0.1736
  337.5000   -49.0644    28.7638    28.5059    25.6999    47.6607     8.0308     0.0229     2.3649     0.1688
  338.0000   -49.0510    28.5811    28.3258    25.7198    47.8831     8.0306     0.0191     2.3761     0.1646
  338.5000   -49.1860    28.3957    27.9469    25.3820    48.3301     8.0305     0.0266     2.3588     0.1733
  339.0000   -49.1727    28.0247    27.7676    24.8758    49.0016     8.0303     0.0115     2.3451     0.1848
  339.5000   -49.1604    28.0401    27.5895    24.3798    48.9989     8.0452     0.0152     2.3610     0.1807
  340.0000   -49.2977    27.4791    27.4126    24.2229    48.9968     8.0450     0.0265     2.3812     0.1631
  340.5000   -49.4360    27.3009    27.0523    24.2416    48.3210     8.0449     0.0197     2.3677     0.1722
  341.0000   -49.4182    26.7584    26.8788    24.4251    47.6452     8.0447     0.0242     2.3759     0.1683
  341.5000   -49.5561    26.4051    26.5224    24.6099    48.3167     8.0446     0.0204     2.3841     0.1611
  342.0000   -49.5421    26.0565    26.1707    24.7961    48.9877     8.0444     0.0128     2.3736     0.1695
  342.5000   -49.5288    25.5352    25.6426    24.4700    48.9856     8.0593     0.0098     2.3721     0.1707
  343.0000   -49.5154    25.0243    24.9580    23.8171    48.5343     8.0591     0.0180     2.3675     0.1731
  343.5000   -49.5021    24.5203    24.4574    23.1812    48.3076     8.0590     0.0104     2.3510     0.1788
  344.0000   -49.4887    24.1999    24.1331    22.5623    49.2032     8.0588     0.0082     2.3450     0.1863
  344.5000   -49.6248    24.2132    23.9783    21.9595    49.8747     8.0587     0.0149     2.3532     0.1822
  345.0000   -49.6115    24.2266    23.9898    21.5172    50.0976     8.0585     0.0284     2.3757     0.1689
  345.5000   -49.7568    24.2399    24.0013    21.3868    50.0950     8.0584     0.0374     2.3869     0.1587
  346.0000   -49.8837    24.4216    24.1794    21.2525    50.7665     8.0582     0.0215     2.3689     0.1653
  346.5000   -49.8704    24.4351    24.1911    21.2660    50.3147     8.0581     0.0133     2.3696     0.1726
  347.0000   -50.0065    24.4485    24.2027    21.3019    50.3126     8.0580     0.0163     2.3710     0.1692
  347.5000   -49.9925    24.2933    24.2143    21.4404    50.3104     8.0578     0.0140     2.3733     0.1707
  348.0000   -49.9764    24.3066    24.2259    21.9064    50.8806     8.0576     0.0080     2.3612     0.1768
  348.5000   -49.9631    24.3200    24.2375    22.0722    51.4291     8.0425     0.0111     2.3612     0.1774
  349.0000   -49.9497    24.1656    24.0819    22.0858    50.3037     8.0423     0.0094     2.3649     0.1732
  349.5000   -49.9364    24.0121    23.9275    22.2530    48.5051     8.0422     0.0057     2.3672     0.1747
  350.0000   -49.9605    24.0253    23.7742    22.0794    48.9521     8.0270     0.0131     2.3585     0.1788
  350.5000   -50.3734    23.4321    23.7027    21.7128    49.4297     8.0297     0.0162     2.3581     0.1771
  351.0000   -50.6524    23.0784    23.6301    21.5311    50.7485     8.0322     0.0071     2.3640     0.1755
  351.5000   -50.6392    23.0929    23.3153    21.3945    51.4222     8.0347     0.0116     2.3572     0.1792
  352.0000   -50.6308    22.6327    23.1640    21.2590    51.6467     8.0372     0.0086     2.3640     0.1743
  352.5000   -50.5979    22.6469    22.6982    20.9785    51.4222     8.0396     0.0018     2.3609     0.1736
  353.0000   -50.4604    22.6611    22.5508    20.7017    50.9731     8.0421     0.0010     2.3579     0.1760
  353.5000   -50.4499    22.5154    22.4029    20.1478    50.7485     8.0446     0.0050     2.3661     0.1745
  354.0000   -50.4395    22.3742    22.1067    19.7449    51.8742     8.0471     0.0093     2.3728     0.1697
  354.5000   -50.2786    22.2339    22.1160    19.3473    52.8325     8.0496     0.0145     2.3805     0.1661
  355.0000   -50.2690    22.2514    22.1252    19.3608    52.9940     8.0525     0.0205     2.3908     0.1586
  355.5000   -50.2584    22.2653    22.4427    19.6416    51.1976     8.0520     0.0092     2.3997     0.1514
  356.0000   -49.9489    22.4340    22.7647    20.2041    49.6257     8.0667    -0.0013     2.3794     0.1651
  356.5000   -49.7889    23.0781    23.4129    20.9270    48.5030     8.0662     0.0122     2.3816     0.1623
  357.0000   -49.6288    23.9358    24.5843    21.8264    47.3802     8.0809     0.0229     2.3996     0.1542
  357.5000   -49.4688    25.1629    25.9935    22.7644    45.5838     8.0653     0.0466     2.4139     0.1458
  358.0000   -49.3087    26.5501    25.2949    23.5789    43.7755     8.0487     0.0436     2.4393     0.1250
  358.5000   -49.2982    24.7563    22.6552    24.2542    42.8892     7.9893     0.0398     2.4615     0.1145
  359.0000   -49.2876    22.9667    20.1511    18.9165    44.2365     7.9738     0.0413     2.4753     0.1067
  359.5000   -49.2771    21.0135    19.0746    17.2987    46.7066     7.9584     0.0474     2.4807     0.1043
  360.0000   -49.4186    19.7661    18.1809    17.3084    49.8503     7.9429     0.0488     2.4622     0.1110
  360.5000   -49.5575    18.7134    18.0613    17.3180    50.9731     7.9576     0.0443     2.4121     0.1422
  361.0000   -49.6965    18.3402    18.1961    17.3277    51.4222     7.9871     0.0503     2.4190     0.1456
  361.5000   -49.9849    18.2251    18.2037    17.4578    51.4222     8.0167     0.0465     2.4230     0.1369
  362.0000   -49.9717    18.1107    18.0840    17.3446    51.6558     8.0312     0.0345     2.3992     0.1507
  362.5000   -49.8116    18.1224    17.7201    17.2346    51.8713     8.0458     0.0165     2.3955     0.1567
  363.0000   -49.9532    17.8846    17.6053    17.0096    51.8713     8.0303     0.0164     2.4029     0.1522
  363.5000   -50.0921    17.6498    17.3484    17.0172    52.0958     8.0298     0.0309     2.4111     0.1432
  364.0000   -50.0789    17.4155    17.1394    16.9088    52.7695     8.0294     0.0374     2.4261     0.1351
