~VERSION INFORMATION
 VERS.                2.0:   CWLS LOG ASCII STANDARD - VERSION 2.0
 WRAP.                 NO:   ONE LINE PER DEPTH STEP
~WELL INFORMATION
#MNEM.UNIT      DATA TYPE    INFORMATION
#----------   ------------   ------------------------------
 STRT.F            0.0000:   START DEPTH
 STOP.F         2660.0000:   STOP DEPTH
 STEP.F            0.5000:   STEP LENGTH
 NULL.          -999.2500:   NO VALUE
 COMP. FENIX & SCISSON INC:   COMPANY
 WELL.     101-20 #101-20:   WELL
 FLD .        TEAPOT DOME:   FIELD
 LOC .      S20 T39N R78W:   LOCATION
 CNTY.            NATRONA:   COUNTY
 STAT.            WYOMING:   STATE
 CTRY. UNITED STATES OF AMERICA:   COUNTRY
 SRVC.      NL McCullough:   SERVICE COMPANY
 DATE.        19-SEP-1965:   LOGDATE
 API .       490251022100:   API NUMBER
~CURVE INFORMATION
#MNEM.UNIT       API CODE    CURVE DESCRIPTION
#----------   ------------   ------------------------------
 DEPT.F                  :   
 GR  .GAPI   30 310 01 00:   GAMMA RAY
 CALI.IN     30 280 01 00:   CALIPER
~PARAMETER INFORMATION
#MNEM.UNIT          VALUE    DESCRIPTION
#----------   ------------   ------------------------------
 PD  .                 GL:   PERMANENT DATUM
 LMF .                 GL:   LOG MEASURED FROM
 DMF .                 GL:   DRILLING MEASURED FROM
 DATE.          9-19-1965:   RUN DATE
 RUN .                  1:   RUN NUMBER
 DD  .F              2661:   DEPTH DRILLER
 DL  .F              2659:   DEPTH LOGGER
 BLI .F              2657:   BOTTOM LOG INTERVAL
 TLI .F              2000:   TOP LOG INTERVAL
 CS  .IN              6.5:   CASING SIZE
 CBD .F              2619:   CASING BOTTOM DRILLER
 BSD .F              2661:   BIT SIZE AT DEPTH
 DFT .              WATER:   DRILLING FLUID TYPE
 TCS .HRS               1:   TIME CURCULATED STOPPED
 ENGI.        FITZSIMMONS:   RECORDING ENGINEER
 WITN.          JORGENSEN:   WITNESSED BY
 CLNT.            A2DTECH:   CLIENT CODE
 ORIG.           5" PRINT:   ORIGIN OF DATA
 UWI .       490251022100:   UNIQUE WELL ID
 DICO. A2D Technologies, Inc.:   DIGITIZING COMPANY
~OTHER INFORMATION
~A    DEPT      GR         CALI 
# ...
 1701.0000  -999.2500     6.5316
 1701.5000  -999.2500     6.5346
 1702.0000  -999.2500     6.5377
 1702.5000  -999.2500     6.5407
 1703.0000  -999.2500     6.5438
 1703.5000  -999.2500     6.5467
 1704.0000  -999.2500     6.5483
 1704.5000  -999.2500     6.5501
 1705.0000  -999.2500     6.5518
 1705.5000  -999.2500     6.5536
 1706.0000  -999.2500     6.5552
 1706.5000  -999.2500     6.5513
 1707.0000  -999.2500     6.5363
 1707.5000  -999.2500     6.5213
 1708.0000  -999.2500     6.5163
 1708.5000  -999.2500     6.5163
 1709.0000  -999.2500     6.5163
 1709.5000  -999.2500     6.5163
 1710.0000  -999.2500     6.5163
 1710.5000  -999.2500     6.5163
 1711.0000  -999.2500     6.5163
 1711.5000  -999.2500     6.5163
 1712.0000  -999.2500     6.5163
 1712.5000  -999.2500     6.5163
 1713.0000  -999.2500     6.5163
 1713.5000  -999.2500     6.5163
 1714.0000  -999.2500     6.5163
 1714.5000  -999.2500     6.5170
 1715.0000  -999.2500     6.5181
 1715.5000  -999.2500     6.5191
 1716.0000  -999.2500     6.5202
 1716.5000  -999.2500     6.5212
 1717.0000  -999.2500     6.5222
 1717.5000  -999.2500     6.5233
 1718.0000  -999.2500     6.5243
 1718.5000  -999.2500     6.5254
 1719.0000  -999.2500     6.5263
 1719.5000  -999.2500     6.5263
 1720.0000  -999.2500     6.5263
 1720.5000  -999.2500     6.5263
 1721.0000  -999.2500     6.5263
 1721.5000  -999.2500     6.5261
 1722.0000  -999.2500     6.5251
 1722.5000  -999.2500     6.5241
 1723.0000  -999.2500     6.5231
 1723.5000  -999.2500     6.5221
 1724.0000  -999.2500     6.5211
 1724.5000  -999.2500     6.5201
 1725.0000  -999.2500     6.5191
 1725.5000  -999.2500     6.5181
 1726.0000  -999.2500     6.5171
 1726.5000  -999.2500     6.5190
 1727.0000  -999.2500     6.5349
 1727.5000  -999.2500     6.5113
 1728.0000  -999.2500     6.4963
 1728.5000  -999.2500     6.4962
 1729.0000  -999.2500     6.4962
 1729.5000  -999.2500     6.4962
 1730.0000  -999.2500     6.4962
 1730.5000  -999.2500     6.4962
 1731.0000  -999.2500     6.4962
 1731.5000  -999.2500     6.4962
 1732.0000  -999.2500     6.4962
 1732.5000  -999.2500     6.4962
 1733.0000  -999.2500     6.4962
 1733.5000  -999.2500     6.4962
 1734.0000  -999.2500     6.4962
 1734.5000  -999.2500     6.4962
 1735.0000  -999.2500     6.4962
 1735.5000  -999.2500     6.4962
 1736.0000  -999.2500     6.4962
 1736.5000  -999.2500     6.4962
 1737.0000  -999.2500     6.4962
 1737.5000  -999.2500     6.4962
 1738.0000  -999.2500     6.4962
 1738.5000  -999.2500     6.4963
 1739.0000  -999.2500     6.4982
 1739.5000  -999.2500     6.5022
 1740.0000  -999.2500     6.5062
 1740.5000  -999.2500     6.5102
 1741.0000  -999.2500     6.5142
 1741.5000  -999.2500     6.5172
 1742.0000  -999.2500     6.5192
 1742.5000  -999.2500     6.5212
 1743.0000  -999.2500     6.5232
 1743.5000  -999.2500     6.5252
 1744.0000  -999.2500     6.5272
 1744.5000  -999.2500     6.5292
 1745.0000  -999.2500     6.5312
 1745.5000  -999.2500     6.5332
 1746.0000  -999.2500     6.5353
 1746.5000  -999.2500     6.5356
 1747.0000  -999.2500     6.5185
 1747.5000  -999.2500     6.5062
 1748.0000  -999.2500     6.5068
 1748.5000  -999.2500     6.5071
 1749.0000  -999.2500     6.5075
 1749.5000  -999.2500     6.5079
 1750.0000  -999.2500     6.5083
 1750.5000  -999.2500     6.5087
 1751.0000  -999.2500     6.5090
 1751.5000  -999.2500     6.5094
 1752.0000  -999.2500     6.5098
 1752.5000  -999.2500     6.5102
 1753.0000  -999.2500     6.5106
 1753.5000  -999.2500     6.5109
 1754.0000  -999.2500     6.5113
 1754.5000  -999.2500     6.5117
 1755.0000  -999.2500     6.5121
 1755.5000  -999.2500     6.5125
 1756.0000  -999.2500     6.5128
 1756.5000  -999.2500     6.5132
 1757.0000  -999.2500     6.5136
 1757.5000  -999.2500     6.5140
 1758.0000  -999.2500     6.5143
 1758.5000  -999.2500     6.5147
 1759.0000  -999.2500     6.5151
 1759.5000  -999.2500     6.5155
 1760.0000  -999.2500     6.5159
 1760.5000  -999.2500     6.5162
 1761.0000  -999.2500     6.5184
 1761.5000  -999.2500     6.5207
 1762.0000  -999.2500     6.5231
 1762.5000  -999.2500     6.5255
 1763.0000  -999.2500     6.5293
 1763.5000  -999.2500     6.5336
 1764.0000  -999.2500     6.5380
 1764.5000  -999.2500     6.5423
 1765.0000  -999.2500     6.5467
 1765.5000  -999.2500     6.5511
 1766.0000  -999.2500     6.5556
 1766.5000  -999.2500     6.5528
 1767.0000  -999.2500     6.5483
 1767.5000  -999.2500     6.5437
 1768.0000  -999.2500     6.5392
 1768.5000  -999.2500     6.5353
 1769.0000  -999.2500     6.5325
 1769.5000  -999.2500     6.5298
 1770.0000  -999.2500     6.5272
 1770.5000  -999.2500     6.5150
 1771.0000  -999.2500     6.5000
 1771.5000  -999.2500     6.4865
 1772.0000  -999.2500     6.4892
 1772.5000  -999.2500     6.4921
 1773.0000  -999.2500     6.4950
 1773.5000  -999.2500     6.4979
 1774.0000  -999.2500     6.5007
 1774.5000  -999.2500     6.5036
 1775.0000  -999.2500     6.5065
 1775.5000  -999.2500     6.5093
 1776.0000  -999.2500     6.5122
 1776.5000  -999.2500     6.5150
 1777.0000  -999.2500     6.5196
 1777.5000  -999.2500     6.5256
 1778.0000  -999.2500     6.5209
 1778.5000  -999.2500     6.5143
 1779.0000  -999.2500     6.5077
 1779.5000  -999.2500     6.5012
 1780.0000  -999.2500     6.4975
 1780.5000  -999.2500     6.5044
 1781.0000  -999.2500     6.5110
 1781.5000  -999.2500     6.5175
 1782.0000  -999.2500     6.5242
 1782.5000  -999.2500     6.5213
 1783.0000  -999.2500     6.5139
 1783.5000  -999.2500     6.5066
 1784.0000  -999.2500     6.5092
 1784.5000  -999.2500     6.5124
 1785.0000  -999.2500     6.5156
 1785.5000  -999.2500     6.5163
 1786.0000  -999.2500     6.5163
 1786.5000  -999.2500     6.5162
 1787.0000  -999.2500     6.5186
 1787.5000  -999.2500     6.5394
 1788.0000  -999.2500     6.5519
 1788.5000  -999.2500     6.5224
 1789.0000  -999.2500     6.4963
 1789.5000  -999.2500     6.4914
 1790.0000  -999.2500     6.4871
 1790.5000  -999.2500     6.4827
 1791.0000  -999.2500     6.4785
 1791.5000  -999.2500     6.4805
 1792.0000  -999.2500     6.4893
 1792.5000  -999.2500     6.4964
 1793.0000  -999.2500     6.4963
 1793.5000  -999.2500     6.4962
 1794.0000  -999.2500     6.4962
 1794.5000  -999.2500     6.4962
 1795.0000  -999.2500     6.4962
 1795.5000  -999.2500     6.4962
 1796.0000  -999.2500     6.4962
 1796.5000  -999.2500     6.4962
 1797.0000  -999.2500     6.4963
 1797.5000  -999.2500     6.4994
 1798.0000  -999.2500     6.5025
 1798.5000  -999.2500     6.5056
 1799.0000  -999.2500     6.5069
 1799.5000  -999.2500     6.5081
 1800.0000  -999.2500     6.5092
 1800.5000  -999.2500     6.5104
 1801.0000  -999.2500     6.5115
 1801.5000  -999.2500     6.5127
 1802.0000  -999.2500     6.5139
 1802.5000  -999.2500     6.5150
 1803.0000  -999.2500     6.5161
 1803.5000  -999.2500     6.5194
 1804.0000  -999.2500     6.5229
 1804.5000  -999.2500     6.5264
 1805.0000  -999.2500     6.5300
 1805.5000  -999.2500     6.5335
 1806.0000  -999.2500     6.5370
 1806.5000  -999.2500     6.5405
 1807.0000  -999.2500     6.5441
 1807.5000  -999.2500     6.5490
 1808.0000  -999.2500     6.5555
 1808.5000  -999.2500     6.5289
 1809.0000  -999.2500     6.5004
 1809.5000  -999.2500     6.4952
 1810.0000  -999.2500     6.4940
 1810.5000  -999.2500     6.4929
 1811.0000  -999.2500     6.4917
 1811.5000  -999.2500     6.4905
 1812.0000  -999.2500     6.4893
 1812.5000  -999.2500     6.4881
 1813.0000  -999.2500     6.4869
 1813.5000  -999.2500     6.4857
 1814.0000  -999.2500     6.4846
 1814.5000  -999.2500     6.4834
 1815.0000  -999.2500     6.4822
 1815.5000  -999.2500     6.4810
 1816.0000  -999.2500     6.4798
 1816.5000  -999.2500     6.4786
 1817.0000  -999.2500     6.4774
 1817.5000  -999.2500     6.4761
 1818.0000  -999.2500     6.4803
 1818.5000  -999.2500     6.4857
 1819.0000  -999.2500     6.4912
 1819.5000  -999.2500     6.4962
 1820.0000  -999.2500     6.4963
 1820.5000  -999.2500     6.4962
 1821.0000  -999.2500     6.4962
 1821.5000  -999.2500     6.4962
 1822.0000  -999.2500     6.4962
