~VERSION INFORMATION
 VERS.                2.0:   CWLS LOG ASCII STANDARD - VERSION 2.0
 WRAP.                 NO:   ONE LINE PER DEPTH STEP
~WELL INFORMATION
#MNEM.UNIT      DATA TYPE    INFORMATION
#----------   ------------   ------------------------------
 STRT.F            0.0000:   START DEPTH
 STOP.F         3315.0000:   STOP DEPTH
 STEP.F            0.5000:   STEP LENGTH
 NULL.          -999.2500:   NO VALUE
 COMP. LAWRENCE/ALLISON INC     84-AX-:   COMPANY
 WELL.          SHX3 #1-3:   WELL
 FLD .            WILDCAT:   FIELD
 LOC .       S3 T38N R78W:   LOCATION
 CNTY.            NATRONA:   COUNTY
 STAT.            WYOMING:   STATE
 CTRY. UNITED STATES OF AMERICA:   COUNTRY
 SRVC.      Dresser Atlas:   SERVICE COMPANY
 DATE.        20-JAN-1986:   LOGDATE
 API .       490251104200:   API NUMBER
~CURVE INFORMATION
#MNEM.UNIT       API CODE    CURVE DESCRIPTION
#----------   ------------   ------------------------------
 DEPT.F                  :   
 SPR .MV     07 010 01 00:   SPONTANEOUS POTENTIAL
 RILD.OHMM   07 120 46 00:   INDUCTION LOG DEEP RESISTIVITY
 RILM.OHMM   07 120 44 00:   INDUCTION LOG MEDIUM RESISTIVITY
 RFOC.OHMM   07 220 04 00:   RESISTIVITY FOCUSED LOG
 AC  .US/F   60 520 00 00:   ACCOUSTIC
 CALD.IN     45 280 60 00:   CALIPER FROM DENSITY
 CORR.G/C3   45 356 01 00:   DENSITY CORRECTION
 DEN .G/C3   45 350 01 00:   COMPENSATED BULK DENSTIY
 PORD.DEC    45 890 12 00:   POROSITY DENSITY SANDSTONE
 CNC .DEC    42 890 03 00:   NEUTRON POROSITY SANDSTONE
 GRR .GAPI   07 310 01 00:   GAMMA RAY
~PARAMETER INFORMATION
#MNEM.UNIT          VALUE    DESCRIPTION
#----------   ------------   ------------------------------
 PD  .                 GL:   PERMANENT DATUM
 EPD .F              5136:   ELEVATION PERMANENT DATUM
 LMF .                 KB:   LOG MEASURED FROM
 DAPD.F                11:   FEET ABOVE PERMANENT DATUM
 DMF .                 KB:   DRILLING MEASURED FROM
 EKB .F              5147:   KELLING BUSHING
 EGL .F              5136:   GROUND LEVEL
 DATE.        26-JAN-1986:   RUN DATE
 RUN .                  1:   RUN NUMBER
 DD  .F              3320:   DEPTH DRILLER
 DL  .F              3317:   DEPTH LOGGER
 BLI .F              3315:   BOTTOM LOG INTERVAL
 CS  .IN            8.625:   CASING SIZE
 CBD .F               550:   CASING BOTTOM DRILLER
 CBL .F               592:   CASING BOTTOM LOGGER
 BS  .IN            7.875:   BIT SIZE
 BSD .F              3320:   BIT SIZE AT DEPTH
 DFT .        POLYMER KCL:   DRILLING FLUID TYPE
 DFD .                9.1:   DRILLING FLUID DENSITY
 DFV .                 38:   DRILLING FLUID VISCOSITY
 DFPH.                 10:   DRILLING FLUID PH
 DFL .                8.5:   DRILLING FLUID LOSS
 MSS .           FLOWLINE:   MUD SAMPLE SOURCE
 RMS .OHMM           .435:   RESISTIVITY MUD SAMPLE
 MST .F                72:   MUD SAMPLE TEMPERATURE
 RMF .OHMM           .352:   RESISTIVITY MUD FILTRATE SAMPLE
 MFST.F                72:   MUD FILTRATE SAMPLE TEMPERATURE
 RMC .OHMM            .54:   RESISTIVITY MUD CAKE
 MCST.F                72:   MUD CAKE SAMPLE TEMPERATURE
 MFSS.               MEAS:   MUD FILTRATE SAMPLE SOURCE
 MCSS.               MEAS:   MUD CAKE SAMPLE SOURCE
 RMB .OHMM            .29:   RESISTIVITY MUD AT BHT
 BHT .F               108:   BOTTOM HOLE TEMPERATURE
 TCS .HRS               3:   TIME CURCULATED STOPPED
 MRT .F               108:   MAXIMUM RECORDED TEMPERATURE
 LUN .               6274:   LOGGING UNIT NUMBER
 LUL .               GLTE:   LOGGING UNIT LOCATION
 ENGI.             RAUTIO:   RECORDING ENGINEER
 WITN.             STRONG:   WITNESSED BY
 CLNT.            A2DTECH:   CLIENT CODE
 ORIG.       2", 5" PRINT:   ORIGIN OF DATA
 UWI .       490251104200:   UNIQUE WELL ID
 DICO. A2D Technologies, Inc.:   DIGITIZING COMPANY
~OTHER INFORMATION
~A    DEPT     SPR       RILD       RILM       RFOC         AC       CALD       CORR        DEN       PORD        CNC        GRR   
# ...
 2897.5000   -45.4015     4.9424     5.1117     6.2353    88.6241     8.5427     0.0204     2.5190     0.0769     0.2728    66.5433
 2898.0000   -45.3978     4.8736     5.1477     6.2358    88.6295     8.5438     0.0068     2.5183     0.0769     0.2734    65.4888
 2898.5000   -45.2435     4.8729     5.1839     6.2362    88.6339     8.5449     0.0113     2.5175     0.0790     0.2752    64.1318
 2899.0000   -45.2405     4.9064     5.2204     6.3677    88.6384     8.5460     0.0233     2.5151     0.0796     0.2789    63.5310
 2899.5000   -45.2375     4.9399     5.2571     6.5021    88.6429     8.5470     0.0338     2.5098     0.0805     0.2903    64.5946
 2900.0000   -45.0832     4.9736     5.3309     6.5067    88.6474     8.5481     0.0398     2.5037     0.0863     0.3133    66.1120
 2900.5000   -44.9351     4.9738     5.3730     6.5325    88.8331     8.5492     0.0233     2.5000     0.0902     0.3115    65.9452
 2901.0000   -44.7870     4.9742     5.4036     6.6382    89.1805     8.5503     0.0083     2.5030     0.0897     0.3038    64.6111
 2901.5000   -44.6389     4.9746     5.3612     6.6840    89.1022     8.5513     0.0023     2.5059     0.0862     0.2846    64.7897
 2902.0000   -44.7383     4.9063     5.2850     6.5006    89.2060     8.5524     0.0144     2.5067     0.0851     0.2738    65.2565
 2902.5000   -44.8790     4.8390     5.1739     6.3664    89.8157     8.5521     0.0250     2.5074     0.0857     0.2759    65.5382
 2903.0000   -45.0197     4.7726     5.0727     6.3659    90.1113     8.5512     0.0340     2.5065     0.0854     0.2892    65.2416
 2903.5000   -45.1604     4.7071     5.0019     6.4098    90.4030     8.5503     0.0250     2.5042     0.0851     0.2977    65.8527
 2904.0000   -45.1497     4.6105     4.9664     6.3621    90.7827     8.5494     0.0130     2.4982     0.0860     0.3042    66.0100
 2904.5000   -45.1392     4.5472     4.9312     6.1855    90.8616     8.5485     0.0100     2.4945     0.0902     0.3106    65.5606
 2905.0000   -45.1286     4.4538     4.8963     6.0626    90.8653     8.5476     0.0148     2.4922     0.0926     0.3188    65.7194
 2905.5000   -45.1180     4.4233     4.7945     6.0202    90.7929     8.5467     0.0131     2.4921     0.0941     0.3164    66.7844
 2906.0000   -45.4321     4.3930     4.7276     6.0198    90.7976     8.5610     0.0116     2.4951     0.0935     0.3085    68.1519
 2906.5000   -46.0050     4.3629     4.6617     6.0193    90.8013     8.5601     0.0192     2.4973     0.0917     0.3112    68.9129
 2907.0000   -46.1458     4.3633     4.5966     6.0189    90.8050     8.5590     0.0207     2.4973     0.0908     0.3134    67.1049
 2907.5000   -46.1327     4.3334     4.5325     6.0185    91.1095     8.5581     0.0147     2.4867     0.0902     0.3137    67.4135
 2908.0000   -46.1222     4.3337     4.5317     6.0181    91.5644     8.5572     0.0057     2.4807     0.0989     0.3149    69.5374
 2908.5000   -46.1118     4.3340     4.5309     5.6536    91.7937     8.5563     0.0028     2.4792     0.1017     0.3405    70.6009
 2909.0000   -46.1013     4.3343     4.5619     5.3853    91.8726     8.5554     0.0118     2.4859     0.1023     0.3647    69.7007
 2909.5000   -45.9395     4.3346     4.6246     5.4601    91.9515     8.5545     0.0224     2.4942     0.0982     0.3623    68.1938
 2910.0000   -45.9290     4.3349     4.6885     5.6917    91.8801     8.5536     0.0299     2.5003     0.0911     0.3376    66.5356
 2910.5000   -46.0698     4.3352     4.7532     5.8515    91.8838     8.5527     0.0345     2.4999     0.0893     0.3083    66.0877
 2911.0000   -46.2132     4.3657     4.8190     5.8106    91.7362     8.5672     0.0249     2.4910     0.0920     0.3053    65.6274
 2911.5000   -46.2001     4.3964     4.8854     5.6906    91.7409     8.5661     0.0052     2.4880     0.0962     0.3149    63.8192
 2912.0000   -46.1896     4.4582     4.9528     5.6508    91.5191     8.5500    -0.0045     2.4940     0.0968     0.3195    63.6851
 2912.5000   -46.1792     4.5208     5.0212     5.7294    91.1469     8.5491     0.0045     2.5045     0.0932     0.3119    63.7167
 2913.0000   -46.0174     4.5526     5.0553     5.8901    90.8498     8.5483     0.0196     2.5128     0.0875     0.2998    63.6971
 2913.5000   -46.0069     4.6166     5.0544     6.0569    90.4024     8.5474     0.0286     2.5150     0.0811     0.2787    63.0994
 2914.0000   -45.9964     4.6814     4.9838     6.2253    90.0302     8.5464     0.0272     2.5104     0.0805     0.2682    62.3490
 2914.5000   -45.8346     4.7472     4.9485     6.1342    89.8835     8.5607     0.0242     2.5157     0.0823     0.2664    62.5063
 2915.0000   -45.6729     4.7806     4.9821     5.9638    89.7369     8.5596     0.0257     2.5239     0.0790     0.2664    63.1174
 2915.5000   -45.5111     4.8478     5.0509     5.9704    89.6654     8.5587     0.0303     2.5345     0.0734     0.2670    63.2747
 2916.0000   -45.3493     4.8819     5.1268     6.0532    89.5188     8.5578     0.0363     2.5472     0.0667     0.2694    62.6755
 2916.5000   -45.0363     4.9504     5.2275     6.0528    89.3722     8.5569     0.0469     2.5532     0.0601     0.2730    61.9250
 2917.0000   -45.0257     4.9853     5.3363     6.0106    88.8467     8.5560     0.0622     2.5593     0.0534     0.2752    60.7207
 2917.5000   -44.8638     5.0203     5.4476     6.0941    87.9319     8.5551     0.0851     2.5638     0.0503     0.2776    60.2714
 2918.0000   -44.8533     5.0556     5.5613     6.5768    86.7975     8.5542     0.0981     2.5599     0.0509     0.2791    62.8507
 2918.5000   -44.8427     4.9863     5.5993     6.9515    85.6864     8.5533     0.0710     2.5463     0.0549     0.2800    64.8234
 2919.0000   -44.8321     4.8165     5.4448     7.2464    85.0946     8.5524     0.0545     2.5365     0.0654     0.2951    66.0397
 2919.5000   -44.9734     4.6850     5.2582     7.3473    85.5983     8.5515     0.0500     2.5327     0.0694     0.3033    66.6508
 2920.0000   -44.9603     4.5570     4.9390     7.0962    87.2188     8.5507     0.0486     2.5282     0.0712     0.2984    65.5978
 2920.5000   -45.2523     4.4634     4.7039     6.1767    89.3278     8.5498     0.0351     2.5176     0.0742     0.2957    64.3935
 2921.0000   -45.6957     4.3415     4.5427     5.9658    90.3841     8.5489     0.0035     2.5078     0.0836     0.2981    63.3405
 2921.5000   -46.1391     4.2523     4.4483     6.0069    90.5383     8.5480    -0.0055     2.5010     0.0878     0.2942    65.4707
 2922.0000   -46.2825     4.2232     4.4787     6.0065    90.6162     8.5470    -0.0069     2.5047     0.0884     0.2701    70.2409
 2922.5000   -46.2694     4.2235     4.5404     5.1920    90.0946     8.5461     0.0081     2.5175     0.0793     0.2620    74.7349
 2923.0000   -45.9563     4.2238     4.6030     4.6464    88.7449     8.5451     0.0248     2.5295     0.0675     0.2633    74.2536
 2923.5000   -45.6433     4.2552     4.6991     4.6796    87.1697     8.5442     0.0383     2.5385     0.0663     0.2713    66.8514
 2924.0000   -45.4815     4.3461     4.8642     5.5109    84.9930     8.5433     0.0317     2.5370     0.0700     0.2680    62.6214
 2924.5000   -45.3198     4.4659     5.0351     6.4015    84.1694     8.5424     0.0278     2.5347     0.0685     0.2532    62.0208
 2925.0000   -45.3093     4.5973     5.1759     6.3392    84.0853     8.5415     0.0444     2.5380     0.0660     0.2469    61.8754
 2925.5000   -45.4527     4.7876     5.2839     5.9620    84.1768     8.5406     0.0609     2.5414     0.0648     0.2463    61.2778
 2926.0000   -45.2883     4.9570     5.3942     5.8795    83.8798     8.5397     0.0745     2.5316     0.0669     0.2445    60.2248
 2926.5000   -45.2778     5.0616     5.4686     6.0027    83.5076     8.5691     0.0414     2.5263     0.0736     0.2475    59.1717
 2927.0000   -45.2673     5.2045     5.5058     6.3008    83.0602     8.5833     0.0370     2.5270     0.0742     0.2472    58.7224
 2927.5000   -45.1055     5.3144     5.5432     6.6599    82.9135     8.5824     0.0370     2.5315     0.0709     0.2433    59.3350
