~VERSION INFORMATION
 VERS.                2.0:   CWLS LOG ASCII STANDARD - VERSION 2.0
 WRAP.                 NO:   ONE LINE PER DEPTH STEP
~WELL INFORMATION
#MNEM.UNIT      DATA TYPE    INFORMATION
#----------   ------------   ------------------------------
 STRT.F            0.0000:   START DEPTH
 STOP.F          384.0000:   STOP DEPTH
 STEP.F            0.5000:   STEP LENGTH
 NULL.          -999.2500:   NO VALUE
 COMP. DEPARTMENT OF ENERGY:   COMPANY
 WELL. NPR 3 #65-15 SX3 C4:   WELL
 FLD .        TEAPOT EAST:   FIELD
 LOC .       S3 T38N R78W:   LOCATION
 CNTY.            NATRONA:   COUNTY
 STAT.            WYOMING:   STATE
 CTRY. UNITED STATES OF AMERICA:   COUNTRY
 SRVC.      Dresser Atlas:   SERVICE COMPANY
 DATE.        02-JUL-1985:   LOGDATE
 API .       490251134600:   API NUMBER
~CURVE INFORMATION
#MNEM.UNIT       API CODE    CURVE DESCRIPTION
#----------   ------------   ------------------------------
 DEPT.F                  :   
 CALD.IN     45 280 60 00:   CALIPER FROM DENSITY LOG
 CORR.G/C3   45 356 01 00:   DENSITY CORRECTION
 DEN .G/C3   45 350 01 00:   COMPENSATED BULK DENSTIY
 NPOR.DEC    42 890 03 00:   NEUTRON POROSITY SANDSTONE
 PORD.DEC    45 890 12 00:   POROSITY DENSITY SANDSTONE
 GRR .GAPI   07 310 01 00:   GAMMA RAY
 RILD.OHMM   07 120 46 00:   INDUCTION LOG DEEP RESISTIVITY
 RILM.OHMM   07 120 44 00:   RESITIVITY LONG MEDIUM
~PARAMETER INFORMATION
#MNEM.UNIT          VALUE    DESCRIPTION
#----------   ------------   ------------------------------
 PD  .                 GL:   PERMANENT DATUM
 EPD .F              5162:   ELEVATION PERMANENT DATUM
 LMF .                 GL:   LOG MEASURED FROM
 DMF .                 GL:   DRILLING MEASURED FROM
 EGL .F              5162:   GROUND LEVEL
 DATE.        02-JUL-1985:   RUN DATE
 RUN .                  1:   RUN NUMBER
 DD  .F               399:   DEPTH DRILLER
 DL  .F               388:   DEPTH LOGGER
 BLI .F               380:   BOTTOM LOG INTERVAL
 CS  .IN                7:   CASING SIZE
 CBD .F                80:   CASING BOTTOM DRILLER
 CBL .F                68:   CASING BOTTOM LOGGER
 BS  .IN            4.875:   BIT SIZE
 BSD .F               399:   BIT SIZE AT DEPTH
 DFT .                OIL:   DRILLING FLUID TYPE
 TCS .HRS               4:   TIME CURCULATED STOPPED
 MRT .F               158:   MAXIMUM RECORDED TEMPERATURE
 LUN .               6274:   LOGGING UNIT NUMBER
 LUL .           GILLETTE:   LOGGING UNIT LOCATION
 ENGI.             RAUTIO:   RECORDING ENGINEER
 WITN.            SCHULTE:   WITNESSED BY
 CLNT.            A2DTECH:   CLIENT CODE
 ORIG.           5" PRINT:   ORIGIN OF DATA
 UWI .       490251134600:   UNIQUE WELL ID
 DICO. A2D Technologies, Inc.:   DIGITIZING COMPANY
~OTHER INFORMATION
~A    DEPT    CALD       CORR        DEN       NPOR       PORD         GRR      RILD       RILM   
# ...
  324.0000     5.1717    -0.0030     2.5127     0.1913     0.0933    83.7584     8.9651     9.2112
  324.5000     5.1724    -0.0206     2.5390     0.1859     0.0675    83.4697     8.9035     8.9598
  325.0000     5.1730    -0.0267     2.5488     0.1868     0.0624    84.3939     8.7206     8.7761
  325.5000     5.1886     0.0049     2.5541     0.2025     0.0569    85.9585     8.5414     8.5366
  326.0000     5.1892     0.0259     2.5557     0.2511     0.0560    87.1544     8.3658     8.3615
  326.5000     5.1898     0.0274     2.5459     0.2819     0.0811    88.0782     8.1938     8.1901
  327.0000     5.1904     0.0214     2.4663     0.2952     0.1131    89.6081     8.0815     8.0781
  327.5000     5.1910     0.0168     2.4027  -999.2500     0.1503    91.7440     7.9705     7.9125
  328.0000     5.2066     0.0168     2.3845  -999.2500     0.1611    92.3611     7.9159     7.9138
  328.5000     5.2084     0.0198     2.3831  -999.2500     0.1617    90.2583     7.8615     7.9149
  329.0000     5.2229     0.0198     2.4019  -999.2500     0.1532    89.9697     7.8621     7.9711
  329.5000     5.2235     0.0153     2.4004  -999.2500     0.1490    90.9061     7.8627     8.0278
  330.0000     5.2241     0.0092     2.3854  -999.2500     0.1650    92.1212     7.9217     8.0289
  330.5000     5.2095    -0.0013     2.3667  -999.2500     0.1729    89.1088     8.0295     8.0300
  331.0000     5.2102    -0.0088     2.3562  -999.2500     0.1762    85.4872     8.0300     8.0311
  331.5000     5.2108    -0.0133     2.3564  -999.2500     0.1765    84.5892     8.0864     7.9765
  332.0000     5.2114    -0.0072     2.3781  -999.2500     0.1728    84.3009     8.0309     7.8132
  332.5000     5.2121     0.0001     2.3856  -999.2500     0.1626    84.9253     8.0316     7.6000
  333.0000     5.2127     0.0001     2.3879  -999.2500     0.1571    85.5461     8.0322     7.4958
  333.5000     5.2133    -0.0014     2.3879  -999.2500     0.1592    88.2881     8.0327     7.5494
  334.0000     5.2289    -0.0014     2.3895  -999.2500     0.1591    92.2668     8.0362     7.5504
  334.5000     5.2143     0.0016     2.4015  -999.2500     0.1498    93.7727     8.0899     7.3956
  335.0000     5.2151     0.0046     2.4241  -999.2500     0.1383    92.5785     8.0905     7.1439
  335.5000     5.2156     0.0076     2.4347  -999.2500     0.1320    90.4720     8.0910     7.0954
  336.0000     5.2162     0.0091     2.4265  -999.2500     0.1314    91.0928     8.0916     7.2967
  336.5000     5.2170     0.0105     2.4160  -999.2500     0.1401    94.1378     8.0921     7.6615
  337.0000     5.2175     0.0120     2.4115  -999.2500     0.1434    95.3647     8.0926     7.9336
  337.5000     5.2181     0.0135     2.4123  -999.2500     0.1449    96.8946     8.0932     8.0457
  338.0000     5.2187     0.0150     2.4176  -999.2500     0.1416    98.4244     8.1502     8.1029
  338.5000     5.2193     0.0195     2.4326  -999.2500     0.1322    99.3483     8.2075     8.1605
  339.0000     5.2199     0.0225     2.4364  -999.2500     0.1304    98.0464     8.3230     8.2186
  339.5000     5.2205     0.0270     2.4357  -999.2500     0.1319    94.8360     8.3935     8.3392
  340.0000     5.2060     0.0302     2.4350  -999.2500     0.1304    92.7295     8.5587     8.5712
  340.5000     5.2066     0.0330     2.4335  -999.2500     0.1301    91.5321     8.7395     8.8141
  341.0000     5.2073     0.0164     2.4283  -999.2500     0.1331    93.9711     8.8623     9.0010
  341.5000     5.2079     0.0029     2.4231  -999.2500     0.1376    94.5882     8.9869     9.1919
  342.0000     5.2085    -0.0046     2.4171  -999.2500     0.1415    92.4854     9.1768     9.3219
  342.5000     5.2091    -0.0002     2.4112  -999.2500     0.1448    91.2879     9.3155     9.4536
  343.0000     5.2097     0.0020     2.4052  -999.2500     0.1473    90.6967     9.5025     9.5873
  343.5000     5.2103     0.0028     2.3999  -999.2500     0.1494    92.5333     9.5694     9.5886
  344.0000     5.2108     0.0075     2.3977  -999.2500     0.1500    94.3662     9.5700     9.4575
  344.5000     5.2114     0.0133     2.4106  -999.2500     0.1439    89.2294     9.4386     9.3285
  345.0000     5.2120     0.0193     2.4249  -999.2500     0.1363    87.1229     9.3089     9.1869
  345.5000     5.2278     0.0238     2.4399  -999.2500     0.1294    86.5279     9.1812     9.1206
  346.0000     5.2284     0.0268     2.4527  -999.2500     0.1188    92.3039     9.0543     9.0135
  346.5000     5.2138     0.0253     2.4603  -999.2500     0.1137    93.3040     8.9846     8.9522
  347.0000     5.2145     0.0223     2.4604  -999.2500     0.1152    90.8182     8.8084     8.8298
  347.5000     5.2151     0.0192     2.4558  -999.2500     0.1176    88.4087     8.7480     8.7091
  348.0000     5.2006     0.0197     2.4529  -999.2500     0.1179    90.2453     8.7486     8.6499
  348.5000     5.2012     0.0387     2.4620  -999.2500     0.1136    92.3813     8.7492     8.6514
  349.0000     5.2018     0.0598     2.4725  -999.2500     0.1070    94.8202     8.7498     8.7129
  349.5000     5.2025     0.0718     2.4816  -999.2500     0.1015    96.0471     8.6898     8.7749
  350.0000     5.2180     0.0672     2.4823  -999.2500     0.1057    96.0618     8.7152     8.8370
  350.5000     5.2037     0.0552     2.4756  -999.2500     0.1073    94.2603     8.8179     8.7769
  351.0000     5.2047     0.0372     2.4689  -999.2500     0.1105    93.9680     9.0602     9.0257
  351.5000     5.2054     0.0269     2.4629  -999.2500     0.1132    94.8950     9.5116     9.3459
  352.0000     5.2061     0.0218     2.4567  -999.2500     0.1178    96.1215     9.9318     9.7451
  352.5000     5.2068     0.0162     2.4495  -999.2500     0.1217    95.2303    10.5561    10.3035
  353.0000     5.2076     0.0101     2.4397  -999.2500     0.1289    93.1234    11.0820    11.3579
  353.5000     5.2083     0.0207     2.4187  -999.2500     0.1368    90.1074    11.6342    12.5202
  354.0000     5.2090     0.0327     2.3962  -999.2500     0.1559    84.6671    12.2990    13.9042
  354.5000     5.2248     0.0222     2.3354  -999.2500     0.1772    79.4394    13.1836    15.1402
  355.0000     5.2105     0.0011     2.2889  -999.2500     0.2107    76.2145    14.3296    16.3112
  355.5000     5.1962    -0.0019     2.2738  -999.2500     0.2252    75.0167    15.6837    17.1264
  356.0000     5.1971     0.0071     2.2686  -999.2500     0.2303    74.1219    17.0470    18.1078
  356.5000     5.1978     0.0026     2.2665  -999.2500     0.2310    73.5202    18.5432    19.0128
  357.0000     5.1834    -0.0096     2.2665  -999.2500     0.2309    76.2754    19.7241    19.8248
  357.5000     5.1759    -0.0154     2.2680  -999.2500     0.2324    78.4109    20.4211    20.2448
  358.0000     5.1698     0.0011     2.2771  -999.2500     0.2309    77.5161    20.8511    20.6738
  358.5000     5.1707     0.0147     2.2891  -999.2500     0.2245    74.5001    20.8511    20.8204
  359.0000     5.1714     0.0222     2.2982  -999.2500     0.2160    71.0606    20.8511    20.9685
  359.5000     5.1722     0.0237     2.3050  -999.2500     0.2121  -999.2500    20.9965    21.1171
  360.0000     5.1731     0.0147     2.3159  -999.2500     0.2079  -999.2500    21.1428    21.5645
  360.5000     5.1738     0.0101     2.3296  -999.2500     0.1975  -999.2500    21.5880    22.0214
  361.0000     5.1745     0.0039     2.3317  -999.2500     0.1930  -999.2500    22.0426    22.4880
  361.5000     5.1753    -0.0034     2.3385  -999.2500     0.1915  -999.2500    22.6636    22.9644
  362.0000     5.1760    -0.0019     2.3844  -999.2500     0.1833  -999.2500    23.1408    23.1273
  362.5000     5.1767     0.0131     2.4603  -999.2500     0.1534  -999.2500    22.9806    22.6531
  363.0000     5.1775     0.0282     2.4919  -999.2500     0.1066  -999.2500    21.8900    21.7847
  363.5000     5.1782     0.0432     2.5070  -999.2500     0.0893  -999.2500    20.7068    20.2733
  364.0000     5.1639     0.0402     2.4973  -999.2500     0.0860  -999.2500    19.5876    19.1788
