~VERSION INFORMATION
 VERS.                2.0:   CWLS LOG ASCII STANDARD - VERSION 2.0
 WRAP.                 NO:   ONE LINE PER DEPTH STEP
~WELL INFORMATION
#MNEM.UNIT      DATA TYPE    INFORMATION
#----------   ------------   ------------------------------
 STRT.F          610.5000:   START DEPTH
 STOP.F         2311.0000:   STOP DEPTH
 STEP.F            0.5000:   STEP LENGTH
 NULL.          -999.2500:   NO VALUE
 COMP. BROWN JOHN E&C INC:   COMPANY
 WELL.  48-1SHX-34 #48-34:   WELL
 FLD .             TEAPOT:   FIELD
 LOC .      S34 T39N R78W:   LOCATION
 CNTY.            NATRONA:   COUNTY
 STAT.            WYOMING:   STATE
 CTRY. UNITED STATES OF AMERICA:   COUNTRY
 SRVC.            Unknown:   SERVICE COMPANY
 DATE.        16-SEP-1991:   LOGDATE
 API .       490251109000:   API NUMBER
~CURVE INFORMATION
#MNEM.UNIT       API CODE    CURVE DESCRIPTION
#----------   ------------   ------------------------------
 DEPT.F                  :   
 ROP .MIN/FT 91 810 01 00:   RAT OF DRILLING PENETRATION
 TGAS.UNITS  91 830 01 00:   TOTAL GAS FROM HOTWIRE
~PARAMETER INFORMATION
#MNEM.UNIT          VALUE    DESCRIPTION
#----------   ------------   ------------------------------
 EKB .F              5163:   KELLING BUSHING
 EGL .F              5152:   GROUND LEVEL
 DATE.            9-16-91:   RUN DATE
 DD  .F              2311:   DEPTH DRILLER
 TCS .HRS            0200:   TIME CURCULATED STOPPED
 TLAB.HRS            0115:   TIME LOGGER AT BOTTOM
 ENGI.             HENDRY:   RECORDING ENGINEER
 WITN.               HUSK:   WITNESSED BY
 CLNT.            A2DTECH:   CLIENT CODE
 ORIG.           5" PRINT:   ORIGIN OF DATA
 UWI .       490251109000:   UNIQUE WELL ID
 DICO. A2D Technologies, Inc.:   DIGITIZING COMPANY
~OTHER INFORMATION
~A   DEPT        ROP       TGAS 
# ...
  732.0000     0.7870     4.5502
  732.5000     0.7883     4.5368
  733.0000     0.7897     4.5235
  733.5000     0.7910     4.5102
  734.0000     0.7924     4.4968
  734.5000     0.7938     4.4835
  735.0000     0.7949     4.4701
  735.5000     0.7954     4.4568
  736.0000     0.8046     4.4434
  736.5000     0.9533     4.4301
  737.0000     1.0927     4.4168
  737.5000     1.3754     4.4034
  738.0000     1.5431     4.3901
  738.5000     1.7199     4.3767
  739.0000     1.8964     4.3634
  739.5000     2.0727     4.3500
  740.0000     2.2488     4.3367
  740.5000     2.4267     4.3234
  741.0000     2.4900     4.3101
  741.5000     2.4876     4.2967
  742.0000     2.4756     4.2762
  742.5000     2.2711     4.2196
  743.0000     1.9508     4.1633
  743.5000     1.4479     4.1071
  744.0000     0.9786     4.0510
  744.5000     0.7789     3.9948
  745.0000     0.7603     3.9386
  745.5000     0.7820     3.8823
  746.0000     0.8062     3.8263
  746.5000     0.8504     3.7804
  747.0000     0.9551     3.7814
  747.5000     1.0608     3.7815
  748.0000     1.1659     3.7815
  748.5000     1.2706     3.7815
  749.0000     1.2804     3.7815
  749.5000     1.2853     3.7815
  750.0000     1.2702     3.7815
  750.5000     1.2355     3.7815
  751.0000     1.1217     3.7815
  751.5000     1.0497     3.7815
  752.0000     1.0210     3.7815
  752.5000     1.0147     3.7815
  753.0000     1.0088     3.7815
  753.5000     1.0029     3.7815
  754.0000     0.9921     3.7815
  754.5000     0.9406     3.7815
  755.0000     0.8887     3.7815
  755.5000     0.8370     3.7815
  756.0000     0.7842     3.7815
  756.5000     0.7991     3.7815
  757.0000     0.8775     3.7815
  757.5000     0.9573     3.7815
  758.0000     0.9739     3.7815
  758.5000     0.9748     3.7815
  759.0000     0.9752     3.7815
  759.5000     0.9758     3.7815
  760.0000     0.9764     3.7815
  760.5000     0.9770     3.7814
  761.0000     0.9776     3.7801
  761.5000     0.9782     3.7711
  762.0000     0.9789     4.2311
  762.5000     0.9795     4.7719
  763.0000     0.9801     4.7932
  763.5000     0.9807     4.7906
  764.0000     0.9813     4.7899
  764.5000     0.9819     4.7899
  765.0000     0.9825     4.7899
  765.5000     0.9831     4.7900
  766.0000     0.9838     4.7904
  766.5000     0.9844     4.7729
  767.0000     0.9850     4.7523
  767.5000     0.9856     4.7317
  768.0000     0.9862     4.7111
  768.5000     0.9868     4.6906
  769.0000     0.9874     4.6700
  769.5000     0.9880     4.6494
  770.0000     0.9887     4.6288
  770.5000     0.9893     4.6082
  771.0000     0.9899     4.5877
  771.5000     0.9905     4.5671
  772.0000     0.9911     4.5465
  772.5000     0.9917     4.5259
  773.0000     0.9923     4.5053
  773.5000     0.9929     4.4848
  774.0000     0.9936     4.4642
  774.5000     0.9942     4.4436
  775.0000     0.9948     4.4230
  775.5000     0.9954     4.4025
  776.0000     0.9960     4.3819
  776.5000     0.9966     4.3613
  777.0000     0.9972     4.3407
  777.5000     0.9978     4.3201
  778.0000     0.9984     4.2999
  778.5000     1.0004     4.2960
  779.0000     1.0034     4.3299
  779.5000     1.0069     4.3632
  780.0000     1.0087     4.3965
  780.5000     1.2071     4.4298
  781.0000     1.5677     4.4631
  781.5000     1.9255     4.4964
  782.0000     1.9089     4.5297
  782.5000     1.7502     4.5630
  783.0000     1.5649     4.5963
  783.5000     1.3767     4.6296
  784.0000     1.2823     4.6629
  784.5000     1.2093     4.6963
  785.0000     1.1370     4.7297
  785.5000     1.0634     4.7629
  786.0000     1.0242     4.7852
  786.5000     0.9981     4.7525
  787.0000     0.9990     4.7207
  787.5000     1.0113     4.6891
  788.0000     1.0380     4.6574
  788.5000     1.1097     4.6258
  789.0000     1.1813     4.5942
  789.5000     1.2437     4.5625
  790.0000     1.2682     4.5309
  790.5000     1.2882     4.4992
  791.0000     1.2882     4.4676
  791.5000     1.2885     4.4360
  792.0000     1.2889     4.4043
  792.5000     1.2892     4.3727
  793.0000     1.2896     4.3411
  793.5000     1.2900     4.3094
  794.0000     1.2903     4.2766
  794.5000     1.2907     4.2363
  795.0000     1.2911     4.1968
  795.5000     1.2914     4.1573
  796.0000     1.2918     4.1179
  796.5000     1.2922     4.0784
  797.0000     1.2925     4.0389
  797.5000     1.2929     3.9994
  798.0000     1.2932     3.9599
  798.5000     1.2936     3.9204
  799.0000     1.2940     3.8809
  799.5000     1.2943     3.8415
  800.0000     1.2947     3.8020
  800.5000     1.2951     3.7625
  801.0000     1.2954     3.7230
  801.5000     1.2958     3.6835
  802.0000     1.2962     3.6440
  802.5000     1.2965     3.6045
  803.0000     1.2969     3.5651
  803.5000     1.2973     3.5256
  804.0000     1.2976     3.4861
  804.5000     1.2980     3.4466
  805.0000     1.2984     3.4071
  805.5000     1.2987     3.3676
  806.0000     1.2991     3.3281
  806.5000     1.2995     3.2887
  807.0000     1.3001     3.2492
  807.5000     1.3002     3.2097
  808.0000     1.2784     3.1702
  808.5000     1.1569     3.1307
  809.0000     1.0374     3.0912
  809.5000     0.9178     3.0517
  810.0000     0.7960     3.0123
  810.5000     0.7836     2.9728
  811.0000     0.8434     2.9333
  811.5000     0.8877     2.8938
  812.0000     0.9318     2.8543
  812.5000     0.9549     2.8145
  813.0000     0.9148     2.7745
  813.5000     0.8321     2.7876
  814.0000     0.7970     2.8077
  814.5000     0.7722     2.8276
  815.0000     0.7730     2.8475
  815.5000     0.7732     2.8674
  816.0000     0.7735     2.8873
  816.5000     0.7738     2.9072
  817.0000     0.7741     2.9271
  817.5000     0.7744     2.9470
  818.0000     0.7746     2.9669
  818.5000     0.7749     2.9868
  819.0000     0.7752     3.0066
  819.5000     0.7755     3.0265
  820.0000     0.7757     3.0464
  820.5000     0.7760     3.0663
  821.0000     0.7763     3.0862
  821.5000     0.7766     3.1061
  822.0000     0.7768     3.1260
  822.5000     0.7771     3.1459
  823.0000     0.7774     3.1657
  823.5000     0.7777     3.1856
  824.0000     0.7780     3.2055
  824.5000     0.7782     3.2254
  825.0000     0.7785     3.2453
  825.5000     0.7788     3.2652
  826.0000     0.7791     3.2851
  826.5000     0.7793     3.3050
  827.0000     0.7796     3.3248
  827.5000     0.7799     3.3447
  828.0000     0.7802     3.3646
  828.5000     0.7804     3.3845
  829.0000     0.7807     3.4044
  829.5000     0.7810     3.4243
  830.0000     0.7813     3.4442
  830.5000     0.7815     3.4641
  831.0000     0.7818     3.4840
  831.5000     0.7821     3.5038
  832.0000     0.7824     3.5237
  832.5000     0.7826     3.5436
  833.0000     0.7829     3.5635
  833.5000     0.7832     3.5834
  834.0000     0.7835     3.6033
  834.5000     0.7838     3.6232
  835.0000     0.7840     3.6431
  835.5000     0.7843     3.6629
  836.0000     0.7846     3.6828
  836.5000     0.7849     3.7027
  837.0000     0.7851     3.7226
  837.5000     0.7814     3.7425
  838.0000     0.7724     3.7624
  838.5000     0.8219     3.7807
  839.0000     0.8803     3.7967
  839.5000     0.9395     3.8147
  840.0000     0.9607     3.8328
  840.5000     0.9611     3.8509
  841.0000     0.9611     3.8690
  841.5000     0.9608     3.8871
  842.0000     0.9601     3.9052
  842.5000     0.9745     3.9233
  843.0000     0.9195     3.9414
  843.5000     0.8486     3.9595
  844.0000     0.7746     3.9776
  844.5000     0.7601     3.9957
  845.0000     0.7599     4.0137
  845.5000     0.7600     4.0318
  846.0000     0.7601     4.0499
  846.5000     0.7601     4.0680
  847.0000     0.7600     4.0861
  847.5000     0.7600     4.1042
  848.0000     0.7594     4.1223
  848.5000     0.7859     4.1404
  849.0000     0.8311     4.1585
  849.5000     0.8966     4.1766
  850.0000     0.9617     4.1946
  850.5000     1.0269     4.2127
  851.0000     1.0921     4.2308
  851.5000     1.1573     4.2489
  852.0000     1.2225     4.2670
  852.5000     1.2876     4.2851
  853.0000     1.3529     4.3032
