~VERSION INFORMATION
 VERS.                2.0:   CWLS LOG ASCII STANDARD - VERSION 2.0
 WRAP.                 NO:   ONE LINE PER DEPTH STEP
~WELL INFORMATION
#MNEM.UNIT      DATA TYPE    INFORMATION
#----------   ------------   ------------------------------
 STRT.F            0.0000:   START DEPTH
 STOP.F         2838.0000:   STOP DEPTH
 STEP.F            0.5000:   STEP LENGTH
 NULL.          -999.2500:   NO VALUE
 COMP. INTEX OIL CO U S NAVY:   COMPANY
 WELL. NAVAL PETROLEUM RESERVE 3 29 #NPR #3 (204A29)-29:   WELL
 FLD .                N/A:   FIELD
 LOC .      S29 T39N R78W:   LOCATION
 CNTY.            NATRONA:   COUNTY
 STAT.            WYOMING:   STATE
 CTRY. UNITED STATES OF AMERICA:   COUNTRY
 SRVC.      NL McCullough:   SERVICE COMPANY
 DATE.        24-JUN-1965:   LOGDATE
 API .       490251021700:   API NUMBER
~CURVE INFORMATION
#MNEM.UNIT       API CODE    CURVE DESCRIPTION
#----------   ------------   ------------------------------
 DEPT.F                  :   
 GR  .GAPI   30 310 01 00:   GAMMA RAY
 HD  .IN     70 280 01 00:   DAIMETER
~PARAMETER INFORMATION
#MNEM.UNIT          VALUE    DESCRIPTION
#----------   ------------   ------------------------------
 PD  .                 GL:   PERMANENT DATUM
 LMF .                 GL:   LOG MEASURED FROM
 EDF .F              5016:   DRILLING FLOOR
 DATE.        24-JUN-1965:   RUN DATE
 RUN .                  1:   RUN NUMBER
 DD  .F              2838:   DEPTH DRILLER
 DL  .F              2838:   DEPTH LOGGER
 BLI .F              2836:   BOTTOM LOG INTERVAL
 TLI .F              2400:   TOP LOG INTERVAL
 CS  .IN            6.625:   CASING SIZE
 CBD .F              2820:   CASING BOTTOM DRILLER
 BSD .F              2838:   BIT SIZE AT DEPTH
 LUN .               1497:   LOGGING UNIT NUMBER
 ENGI.         COWLTHORPE:   RECORDING ENGINEER
 WITN.         MR. HUDSON:   WITNESSED BY
 CLNT.            A2DTECH:   CLIENT CODE
 ORIG.           5" PRINT:   ORIGIN OF DATA
 UWI .       490251021700:   UNIQUE WELL ID
 DICO. A2D Technologies, Inc.:   DIGITIZING COMPANY
~OTHER INFORMATION
~A    DEPT      GR           HD 
# ...
 1458.0000  -999.2500     6.4386
 1458.5000  -999.2500     6.4389
 1459.0000  -999.2500     6.4392
 1459.5000  -999.2500     6.4243
 1460.0000  -999.2500     6.4267
 1460.5000  -999.2500     6.4250
 1461.0000  -999.2500     6.4253
 1461.5000  -999.2500     6.4257
 1462.0000  -999.2500     6.4260
 1462.5000  -999.2500     6.4262
 1463.0000  -999.2500     6.4226
 1463.5000  -999.2500     6.4268
 1464.0000  -999.2500     6.4271
 1464.5000  -999.2500     6.4274
 1465.0000  -999.2500     6.4277
 1465.5000  -999.2500     6.4280
 1466.0000  -999.2500     6.4434
 1466.5000  -999.2500     6.4437
 1467.0000  -999.2500     6.4591
 1467.5000  -999.2500     6.4442
 1468.0000  -999.2500     6.4597
 1468.5000  -999.2500     6.4600
 1469.0000  -999.2500     6.4452
 1469.5000  -999.2500     6.4455
 1470.0000  -999.2500     6.4618
 1470.5000  -999.2500     6.4762
 1471.0000  -999.2500     6.4766
 1471.5000  -999.2500     6.4769
 1472.0000  -999.2500     6.4922
 1472.5000  -999.2500     6.4925
 1473.0000  -999.2500     6.4777
 1473.5000  -999.2500     6.4780
 1474.0000  -999.2500     6.4934
 1474.5000  -999.2500     6.4937
 1475.0000  -999.2500     6.4940
 1475.5000  -999.2500     6.4943
 1476.0000  -999.2500     6.4946
 1476.5000  -999.2500     6.4949
 1477.0000  -999.2500     6.4951
 1477.5000  -999.2500     6.5009
 1478.0000  -999.2500     6.5109
 1478.5000  -999.2500     6.5111
 1479.0000  -999.2500     6.4964
 1479.5000  -999.2500     6.4967
 1480.0000  -999.2500     6.4970
 1480.5000  -999.2500     6.4973
 1481.0000  -999.2500     6.4976
 1481.5000  -999.2500     6.4828
 1482.0000  -999.2500     6.4832
 1482.5000  -999.2500     6.4835
 1483.0000  -999.2500     6.4837
 1483.5000  -999.2500     6.4840
 1484.0000  -999.2500     6.4843
 1484.5000  -999.2500     6.4846
 1485.0000  -999.2500     6.4850
 1485.5000  -999.2500     6.4852
 1486.0000  -999.2500     6.4856
 1486.5000  -999.2500     6.4859
 1487.0000  -999.2500     6.4861
 1487.5000  -999.2500     6.4911
 1488.0000  -999.2500     6.5018
 1488.5000  -999.2500     6.5001
 1489.0000  -999.2500     6.4873
 1489.5000  -999.2500     6.4877
 1490.0000  -999.2500     6.4880
 1490.5000  -999.2500     6.4883
 1491.0000  -999.2500     6.4886
 1491.5000  -999.2500     6.4889
 1492.0000  -999.2500     6.4892
 1492.5000  -999.2500     6.4895
 1493.0000  -999.2500     6.4897
 1493.5000  -999.2500     6.4900
 1494.0000  -999.2500     6.4904
 1494.5000  -999.2500     6.4907
 1495.0000  -999.2500     6.4910
 1495.5000  -999.2500     6.4913
 1496.0000  -999.2500     6.4916
 1496.5000  -999.2500     6.4919
 1497.0000  -999.2500     6.4922
 1497.5000  -999.2500     6.4925
 1498.0000  -999.2500     6.4928
 1498.5000  -999.2500     6.4931
 1499.0000  -999.2500     6.4783
 1499.5000  -999.2500     6.4786
 1500.0000  -999.2500     6.4639
 1500.5000  -999.2500     6.4642
 1501.0000  -999.2500     6.4650
 1501.5000  -999.2500     6.4668
 1502.0000  -999.2500     6.4687
 1502.5000  -999.2500     6.4705
 1503.0000  -999.2500     6.4724
 1503.5000  -999.2500     6.4742
 1504.0000  -999.2500     6.4760
 1504.5000  -999.2500     6.4779
 1505.0000  -999.2500     6.4797
 1505.5000  -999.2500     6.4816
 1506.0000  -999.2500     6.4834
 1506.5000  -999.2500     6.4852
 1507.0000  -999.2500     6.4871
 1507.5000  -999.2500     6.4889
 1508.0000  -999.2500     6.4908
 1508.5000  -999.2500     6.4926
 1509.0000  -999.2500     6.4944
 1509.5000  -999.2500     6.4963
 1510.0000  -999.2500     6.4970
 1510.5000  -999.2500     6.4971
 1511.0000  -999.2500     6.5124
 1511.5000  -999.2500     6.5125
 1512.0000  -999.2500     6.5126
 1512.5000  -999.2500     6.5128
 1513.0000  -999.2500     6.5130
 1513.5000  -999.2500     6.5131
 1514.0000  -999.2500     6.4982
 1514.5000  -999.2500     6.4984
 1515.0000  -999.2500     6.5136
 1515.5000  -999.2500     6.4986
 1516.0000  -999.2500     6.4988
 1516.5000  -999.2500     6.4989
 1517.0000  -999.2500     6.4991
 1517.5000  -999.2500     6.4992
 1518.0000  -999.2500     6.4994
 1518.5000  -999.2500     6.4996
 1519.0000  -999.2500     6.4997
 1519.5000  -999.2500     6.4848
 1520.0000  -999.2500     6.4814
 1520.5000  -999.2500     6.4700
 1521.0000  -999.2500     6.4702
 1521.5000  -999.2500     6.4704
 1522.0000  -999.2500     6.4705
 1522.5000  -999.2500     6.4706
 1523.0000  -999.2500     6.4858
 1523.5000  -999.2500     6.4941
 1524.0000  -999.2500     6.5012
 1524.5000  -999.2500     6.5014
 1525.0000  -999.2500     6.5166
 1525.5000  -999.2500     6.5167
 1526.0000  -999.2500     6.5319
 1526.5000  -999.2500     6.5321
 1527.0000  -999.2500     6.5322
 1527.5000  -999.2500     6.5324
 1528.0000  -999.2500     6.5325
 1528.5000  -999.2500     6.5327
 1529.0000  -999.2500     6.5178
 1529.5000  -999.2500     6.5180
 1530.0000  -999.2500     6.5120
 1530.5000  -999.2500     6.5032
 1531.0000  -999.2500     6.5033
 1531.5000  -999.2500     6.4867
 1532.0000  -999.2500     6.4694
 1532.5000  -999.2500     6.4586
 1533.0000  -999.2500     6.4437
 1533.5000  -999.2500     6.4378
 1534.0000  -999.2500     6.4139
 1534.5000  -999.2500     6.4140
 1535.0000  -999.2500     6.4142
 1535.5000  -999.2500     6.4143
 1536.0000  -999.2500     6.4145
 1536.5000  -999.2500     6.4146
 1537.0000  -999.2500     6.4148
 1537.5000  -999.2500     6.4149
 1538.0000  -999.2500     6.4248
 1538.5000  -999.2500     6.4453
 1539.0000  -999.2500     6.4455
 1539.5000  -999.2500     6.4456
 1540.0000  -999.2500     6.4458
 1540.5000  -999.2500     6.4459
 1541.0000  -999.2500     6.4461
 1541.5000  -999.2500     6.4463
 1542.0000  -999.2500     6.4615
 1542.5000  -999.2500     6.4616
 1543.0000  -999.2500     6.4618
 1543.5000  -999.2500     6.4619
 1544.0000  -999.2500     6.4621
 1544.5000  -999.2500     6.4773
 1545.0000  -999.2500     6.4774
 1545.5000  -999.2500     6.4776
 1546.0000  -999.2500     6.4777
 1546.5000  -999.2500     6.4779
 1547.0000  -999.2500     6.4780
 1547.5000  -999.2500     6.4782
 1548.0000  -999.2500     6.4934
 1548.5000  -999.2500     6.4935
 1549.0000  -999.2500     6.4937
 1549.5000  -999.2500     6.4938
 1550.0000  -999.2500     6.4940
 1550.5000  -999.2500     6.4790
 1551.0000  -999.2500     6.4792
 1551.5000  -999.2500     6.4793
 1552.0000  -999.2500     6.4795
 1552.5000  -999.2500     6.4796
 1553.0000  -999.2500     6.4798
 1553.5000  -999.2500     6.4499
 1554.0000  -999.2500     6.4187
 1554.5000  -999.2500     6.3899
 1555.0000  -999.2500     6.3901
 1555.5000  -999.2500     6.3902
 1556.0000  -999.2500     6.4054
 1556.5000  -999.2500     6.4206
 1557.0000  -999.2500     6.4208
 1557.5000  -999.2500     6.4360
 1558.0000  -999.2500     6.4361
 1558.5000  -999.2500     6.4363
 1559.0000  -999.2500     6.4364
 1559.5000  -999.2500     6.4517
 1560.0000  -999.2500     6.4578
 1560.5000  -999.2500     6.4821
 1561.0000  -999.2500     6.4973
 1561.5000  -999.2500     6.5125
 1562.0000  -999.2500     6.5127
 1562.5000  -999.2500     6.5279
 1563.0000  -999.2500     6.5431
 1563.5000  -999.2500     6.5583
 1564.0000  -999.2500     6.5584
 1564.5000  -999.2500     6.5586
 1565.0000  -999.2500     6.5738
 1565.5000  -999.2500     6.5740
 1566.0000  -999.2500     6.5741
 1566.5000  -999.2500     6.5743
 1567.0000  -999.2500     6.5838
 1567.5000  -999.2500     6.5896
 1568.0000  -999.2500     6.5898
 1568.5000  -999.2500     6.6050
 1569.0000  -999.2500     6.6051
 1569.5000  -999.2500     6.6052
 1570.0000  -999.2500     6.6054
 1570.5000  -999.2500     6.6164
 1571.0000  -999.2500     6.6208
 1571.5000  -999.2500     6.6209
 1572.0000  -999.2500     6.6211
 1572.5000  -999.2500     6.6213
 1573.0000  -999.2500     6.6167
 1573.5000  -999.2500     6.6064
 1574.0000  -999.2500     6.6066
 1574.5000  -999.2500     6.5999
 1575.0000  -999.2500     6.5919
 1575.5000  -999.2500     6.5920
 1576.0000  -999.2500     6.5922
 1576.5000  -999.2500     6.5923
 1577.0000  -999.2500     6.5897
 1577.5000  -999.2500     6.5776
 1578.0000  -999.2500     6.5777
 1578.5000  -999.2500     6.5778
 1579.0000  -999.2500     6.5931
