~VERSION INFORMATION
 VERS.                2.0:   CWLS LOG ASCII STANDARD - VERSION 2.0
 WRAP.                 NO:   ONE LINE PER DEPTH STEP
~WELL INFORMATION
#MNEM.UNIT      DATA TYPE    INFORMATION
#----------   ------------   ------------------------------
 STRT.F           32.0000:   START DEPTH
 STOP.F          456.0000:   STOP DEPTH
 STEP.F            0.5000:   STEP LENGTH
 NULL.          -999.2500:   NO VALUE
 COMP. LAWRENCE/ALLISON INC:   COMPANY
 WELL.    52-62 SX #10-10:   WELL
 FLD .             TEAPOT:   FIELD
 LOC .      S10 T38N R78W:   LOCATION
 CNTY.            NATRONA:   COUNTY
 STAT.            WYOMING:   STATE
 CTRY. UNITED STATES OF AMERICA:   COUNTRY
 SRVC.           Gearhart:   SERVICE COMPANY
 DATE.        06-AUG-1987:   LOGDATE
 API .       490251116500:   API NUMBER
~CURVE INFORMATION
#MNEM.UNIT       API CODE    CURVE DESCRIPTION
#----------   ------------   ------------------------------
 DEPT.F                  :   
 GRR .GAPI   07 310 01 00:   GAMMA RAY
 RILD.OHMM   07 120 46 00:   INDUCTION LOG DEEP RESISTIVITY
 RILM.OHMM   07 120 44 00:   INDUCTION LOG MEDIUM RESISTIVITY
 RLL .OHMM   07 220 00 00:   LATEROLOG RESISTIVITY
~PARAMETER INFORMATION
#MNEM.UNIT          VALUE    DESCRIPTION
#----------   ------------   ------------------------------
 PD  .                 GL:   PERMANENT DATUM
 EPD .F              5173:   ELEVATION PERMANENT DATUM
 LMF .                 KB:   LOG MEASURED FROM
 DAPD.F                 8:   FEET ABOVE PERMANENT DATUM
 DMF .                 KB:   DRILLING MEASURED FROM
 EKB .F              5181:   KELLING BUSHING
 EDF .F              5180:   DRILLING FLOOR
 EGL .F              5173:   GROUND LEVEL
 DATE.        06-AUG-1987:   RUN DATE
 RUN .                  1:   RUN NUMBER
 DD  .F               455:   DEPTH DRILLER
 DL  .F               456:   DEPTH LOGGER
 BLI .F               448:   BOTTOM LOG INTERVAL
 TLI .F                30:   TOP LOG INTERVAL
 CS  .IN            8.625:   CASING SIZE
 CBD .F                48:   CASING BOTTOM DRILLER
 CBL .F                48:   CASING BOTTOM LOGGER
 BS  .IN            7.875:   BIT SIZE
 BSD .F               455:   BIT SIZE AT DEPTH
 DFT .          OIL/WATER:   DRILLING FLUID TYPE
 DFD .               10.2:   DRILLING FLUID DENSITY
 DFV .                 40:   DRILLING FLUID VISCOSITY
 MSS .           MUD TANK:   MUD SAMPLE SOURCE
 RMS .OHMM            .22:   RESISTIVITY MUD SAMPLE
 MST .F                70:   MUD SAMPLE TEMPERATURE
 RMF .OHMM            .17:   RESISTIVITY MUD FILTRATE SAMPLE
 MFST.F                70:   MUD FILTRATE SAMPLE TEMPERATURE
 RMC .OHMM            .30:   RESISTIVITY MUD CAKE
 MCST.F                70:   MUD CAKE SAMPLE TEMPERATURE
 MFSS.              CHART:   MUD FILTRATE SAMPLE SOURCE
 TCS .HRS            1600:   TIME CURCULATED STOPPED
 TLAB.HRS            1807:   TIME LOGGER AT BOTTOM
 LUN .               7597:   LOGGING UNIT NUMBER
 LUL .           GILLETTE:   LOGGING UNIT LOCATION
 ENGI.         WEATHERMON:   RECORDING ENGINEER
 WITN.              FIVAS:   WITNESSED BY
 CLNT.            A2DTECH:   CLIENT CODE
 ORIG.           5" PRINT:   ORIGIN OF DATA
 UWI .       490251116500:   UNIQUE WELL ID
 DICO. A2D Technologies, Inc.:   DIGITIZING COMPANY
~OTHER INFORMATION
~A   DEPT       GRR      RILD       RILM        RLL   
# ...
  397.0000    85.1094    12.1941    10.8054    13.2706
  397.5000    86.6520    11.8651    10.5844    12.9998
  398.0000    85.7432    11.7055    10.4319    12.6452
  398.5000    85.1709    11.6326    10.2986    12.5606
  399.0000    86.4142    11.3979    10.2305    12.3035
  399.5000    88.2612    11.0904    10.2332    12.1362
  400.0000    91.0215    10.7162    10.0942    11.8878
  400.5000    92.2597    10.2827    10.1680    11.5409
  401.0000    89.8449     9.7982     9.0345    11.2495
  401.5000    86.7064     9.0036     7.9709    11.1750
  402.0000    84.1021     7.8914     7.2315    10.8717
  402.5000    85.0410     7.0550     6.8891    10.2845
  403.0000    89.0189     6.4949     6.2066     9.3952
  403.5000    93.3012     6.3617     5.5092     8.3403
  404.0000    98.1923     6.4075     4.9679     7.3124
  404.5000   104.4008     6.4988     5.0048     6.9654
  405.0000   109.1974     6.7307     5.3310     7.6839
  405.5000   107.6959     7.0688     6.0888     8.8386
  406.0000   102.5413     7.5829     7.2516    10.3097
  406.5000    93.7339     8.5233     7.7782    12.1948
  407.0000    90.4058     9.4800     8.0602    12.7208
  407.5000    88.2955    10.0258     8.2886    12.2895
  408.0000    86.7580    10.8271     8.4668    11.9550
  408.5000    85.6019    11.1356     8.6488    11.7922
  409.0000    85.6224    11.4529     8.9592    11.6326
  409.5000    85.9474    11.6973     9.1518    11.6375
  410.0000    87.4900    12.0306     9.4139    11.8879
  410.5000    89.6414    12.2026     9.5495    12.1505
  411.0000    89.3575    12.4630     9.7547    12.5804
  411.5000    89.3831    12.8181    10.0371    13.0318
  412.0000    89.7081    13.0916    10.3225    13.4054
  412.5000    90.9462    13.1859    10.4711    13.7897
  413.0000    93.0977    13.2809    10.6219    14.0864
  413.5000    93.1182    13.4701    10.6998    14.3895
  414.0000    92.5299    13.7583    10.7034    14.5061
  414.5000    90.6555    13.9543    10.5587    14.8083
  415.0000    88.3143    14.0547    10.6362    14.9170
  415.5000    89.5524    14.2550    10.7902    15.0266
  416.0000    90.1818    14.4581    10.9455    15.1370
  416.5000    88.9847    14.6641    10.9492    15.2482
  417.0000    88.0919    14.7794    11.0295    15.3602
  417.5000    87.5036    14.9808    11.0333    15.3656
  418.0000    87.5293    15.0887    11.0370    15.1587
  418.5000    89.0719    15.0917    11.0408    14.9535
  419.0000    89.7012    15.0948    10.9676    15.0634
  419.5000    88.8085    14.9922    10.8202    15.3874
  420.0000    87.9158    14.9960    10.7486    15.7185
  420.5000    85.1966    14.9991    10.7522    15.9464
  421.0000    83.0862    15.0028    10.7558    16.1748
  421.5000    83.7207    15.0058    10.7594    16.1814
  422.0000    84.3500    15.0089    10.7631    15.7410
  422.5000    84.3706    15.0119    10.6918    15.3126
  423.0000    83.7823    15.0149    10.6210    15.0002
  423.5000    83.1933    14.9136    10.5507    15.0052
  424.0000    82.6057    14.9166    10.5552    15.1155
  424.5000    82.9357    14.7130    10.5587    15.2278
  425.0000    84.4783    14.6138    10.4888    15.3397
  425.5000    85.1077    14.5152    10.4194    15.3448
  426.0000    84.8186    14.4172    10.2079    15.2432
  426.5000    83.9310    14.3207    10.0698    15.1409
  427.0000    83.3425    14.3236     9.7959    15.1473
  427.5000    84.0031    14.1281     9.6626    14.9423
  428.0000    87.0419    14.0327     9.5327    14.5368
  428.5000    91.0198    13.8419     9.4020    14.2402
  429.0000    90.1271    13.6530     9.2128    14.0475
  429.5000    88.9299    13.5602     9.0882    13.8562
  430.0000    86.8196    13.2829     8.8411    13.4802
  430.5000    84.3988    13.1016     8.6608    13.2977
  431.0000    85.3437    12.7426     8.6028    13.1177
  431.5000    90.8436    12.4561     8.4281    13.1232
  432.0000    94.5023    11.8910     8.2563    13.0352
  432.5000  -999.2500    11.6466     8.1446    12.9488
  433.0000  -999.2500    11.4882     8.1481    12.7736
  433.5000  -999.2500    11.4101     8.1508    12.6890
  434.0000  -999.2500    11.3336     8.0962    12.3446
  434.5000  -999.2500    11.2572     7.9873    12.1775
  435.0000  -999.2500    11.1813     7.9345    12.0969
  435.5000  -999.2500    11.1841     7.8819    12.1868
  436.0000  -999.2500    11.1864     7.8298    12.1909
  436.5000  -999.2500    11.1886     7.7786    12.2804
  437.0000  -999.2500    11.1126     7.7812    12.3706
  437.5000  -999.2500    11.0380     7.7297    12.5489
  438.0000  -999.2500    11.0404     7.5721    12.6542
  438.5000  -999.2500    11.0427     7.5220    12.6453
  439.0000  -999.2500    10.9686     7.4722    12.4741
  439.5000  -999.2500    10.8941     7.3712    12.2196
  440.0000  -999.2500    10.6707     7.2715    12.0542
  440.5000  -999.2500    10.3078     7.1737    11.8921
  441.0000  -999.2500    10.0263     6.9301    11.7311
  441.5000  -999.2500     9.8207     6.3756    11.4927
  442.0000  -999.2500     9.9607     6.2456    11.3372
  442.5000  -999.2500     9.9632     6.3033    11.1059
  443.0000  -999.2500     9.9652     6.6092    10.8793
  443.5000  -999.2500     9.8974     6.8461    10.7320
  444.0000  -999.2500     9.3002     6.8484    10.5867
  444.5000  -999.2500  -999.2500     6.8507    10.5166
  445.0000  -999.2500  -999.2500     6.8053    10.7438
  445.5000  -999.2500  -999.2500     6.7597    11.0518
  446.0000  -999.2500  -999.2500     6.5164    10.9022
  446.5000  -999.2500  -999.2500     6.2221    10.6798
  447.0000  -999.2500  -999.2500     5.8862    10.3891
  447.5000  -999.2500  -999.2500     5.6863    10.0361
  448.0000  -999.2500  -999.2500     5.6482     9.6275
  448.5000  -999.2500  -999.2500  -999.2500     9.7670
  449.0000  -999.2500  -999.2500  -999.2500    10.2597
  449.5000  -999.2500  -999.2500  -999.2500    10.7023
  450.0000  -999.2500  -999.2500  -999.2500    11.2422
  450.5000  -999.2500  -999.2500  -999.2500    11.5646
  451.0000  -999.2500  -999.2500  -999.2500    11.7312
  451.5000  -999.2500  -999.2500  -999.2500    11.7440
  452.0000  -999.2500  -999.2500  -999.2500    12.1572
  452.5000  -999.2500  -999.2500  -999.2500    12.0767
  453.0000  -999.2500  -999.2500  -999.2500    11.9132
  453.5000  -999.2500  -999.2500  -999.2500    11.9172
  454.0000  -999.2500  -999.2500  -999.2500    12.0047
  454.5000  -999.2500  -999.2500  -999.2500    12.0929
  455.0000  -999.2500  -999.2500  -999.2500    12.1819
  455.5000  -999.2500  -999.2500  -999.2500    12.1869
  456.0000  -999.2500  -999.2500  -999.2500    12.1904
