~VERSION INFORMATION
 VERS.                2.0:   CWLS LOG ASCII STANDARD - VERSION 2.0
 WRAP.                 NO:   ONE LINE PER DEPTH STEP
~WELL INFORMATION
#MNEM.UNIT      DATA TYPE    INFORMATION
#----------   ------------   ------------------------------
 STRT.F           78.5000:   START DEPTH
 STOP.F         1021.0000:   STOP DEPTH
 STEP.F            0.5000:   STEP LENGTH
 NULL.          -999.2500:   NO VALUE
 COMP. U S NAVY/INTEX OIL CO:   COMPANY
 WELL.     NRR 3 ##65S-11:   WELL
 FLD .             TEAPOT:   FIELD
 LOC .      S11 T38N R78W:   LOCATION
 CNTY.            NATRONA:   COUNTY
 STAT.            WYOMING:   STATE
 CTRY. UNITED STATES OF AMERICA:   COUNTRY
 SRVC.       Schlumberger:   SERVICE COMPANY
 DATE.        09-MAR-1960:   LOGDATE
 API .       490250634100:   API NUMBER
~CURVE INFORMATION
#MNEM.UNIT       API CODE    CURVE DESCRIPTION
#----------   ------------   ------------------------------
 DEPT.F                  :   
 SPR .MV     05 010 01 00:   SPONTANEOUS POTENTIAL FROM RES.
 ILD .OHMM   05 120 46 00:   INDUCTION LOG DEEP
 CILD.MMHO   05 110 00 00:   CONDUCTIVITY INDUCTION LOG
 ASN .OHMM   05 041 16 00:   AMPLIFIED SHORT NORMAL 16"
~PARAMETER INFORMATION
#MNEM.UNIT          VALUE    DESCRIPTION
#----------   ------------   ------------------------------
 PD  .                 GL:   PERMANENT DATUM
 EPD .F              5227:   ELEVATION PERMANENT DATUM
 LMF .                 KB:   LOG MEASURED FROM
 DAPD.F                 5:   FEET ABOVE PERMANENT DATUM
 DMF .                 KB:   DRILLING MEASURED FROM
 EKB .F              5232:   KELLING BUSHING
 EGL .F              5227:   GROUND LEVEL
 DATE.             3-9-60:   RUN DATE
 RUN .                  1:   RUN NUMBER
 DD  .F              1025:   DEPTH DRILLER
 DL  .F              1026:   DEPTH LOGGER
 BLI .F              1021:   BOTTOM LOG INTERVAL
 TLI .F                80:   TOP LOG INTERVAL
 CBD .F                12:   CASING BOTTOM DRILLER
 BS  .IN            7.875:   BIT SIZE
 BSD .F              1025:   BIT SIZE AT DEPTH
 DFT .          OIL EMULS:   DRILLING FLUID TYPE
 DFD .               10.2:   DRILLING FLUID DENSITY
 DFV .                 36:   DRILLING FLUID VISCOSITY
 DFPH.                7.5:   DRILLING FLUID PH
 DFL .                  4:   DRILLING FLUID LOSS
 MSS .          FLOW LINE:   MUD SAMPLE SOURCE
 RMS .OHMM           2.18:   RESISTIVITY MUD SAMPLE
 MST .F                64:   MUD SAMPLE TEMPERATURE
 RMF .OHMM           1.17:   RESISTIVITY MUD FILTRATE SAMPLE
 MFST.F                63:   MUD FILTRATE SAMPLE TEMPERATURE
 RMC .OHMM           2.02:   RESISTIVITY MUD CAKE
 MCST.F                64:   MUD CAKE SAMPLE TEMPERATURE
 MFSS.                  M:   MUD FILTRATE SAMPLE SOURCE
 MCSS.                  M:   MUD CAKE SAMPLE SOURCE
 TCS .HRS             .75:   TIME CURCULATED STOPPED
 LUN .               2795:   LOGGING UNIT NUMBER
 LUL .               CSPR:   LOGGING UNIT LOCATION
 ENGI.              SCOTT:   RECORDING ENGINEER
 WITN.          JORGENSEN:   WITNESSED BY
 CLNT.            A2DTECH:   CLIENT CODE
 ORIG.           2" PRINT:   ORIGIN OF DATA
 UWI .       490250634100:   UNIQUE WELL ID
 DICO. A2D Technologies, Inc.:   DIGITIZING COMPANY
~OTHER INFORMATION
~A   DEPT      SPR        ILD       CILD        ASN   
# ...
  954.5000   -43.9085    10.4955    96.6934    14.0674
  955.0000   -44.4331    10.8488    93.4870    14.6557
  955.5000   -45.0625    11.2436    89.4589    15.2634
  956.0000   -45.6995    11.7506    85.4309    15.8673
  956.5000   -46.3072    12.3656    81.4028    16.4715
  957.0000   -46.9933    12.9658    77.3747    17.0770
  957.5000   -47.5236    13.5749    73.3467    17.6841
  958.0000   -47.8224    14.1767    68.6373    18.2928
  958.5000   -48.1941    14.7860    65.9599    18.9018
  959.0000   -48.5269    15.3869    62.7375    19.5092
  959.5000   -48.8898    16.0342    60.4830    20.0017
  960.0000   -49.2193    16.2841    60.0802    20.2437
  960.5000   -49.6074    16.2831    59.6192    20.3517
  961.0000   -49.8218    16.2955    60.3579    20.3101
  961.5000   -49.7805    16.1979    61.2210    20.3981
  962.0000   -49.5673    15.9090    62.0842    20.0734
  962.5000   -49.2682    15.6003    62.9473    19.8479
  963.0000   -48.9921    15.2596    63.8105    19.6077
  963.5000   -48.7046    14.9991    64.6736    19.5394
  964.0000   -48.4229    14.8418    65.5368    19.4770
  964.5000   -48.1383    14.6570    66.3999    19.4294
  965.0000   -47.8552    14.4852    67.2631    19.2867
  965.5000   -47.5719    14.3064    68.1263    19.0221
  966.0000   -47.2889    14.1313    68.9894    18.7645
  966.5000   -47.0046    13.9548    69.8526    18.5030
  967.0000   -46.7224    13.7780    70.7157    18.2417
  967.5000   -46.4353    13.6028    71.5789    17.9807
  968.0000   -46.1595    13.4240    72.4420    17.7204
  968.5000   -45.8629    13.2522    73.3052    17.4575
  969.0000   -45.6054    13.0656    74.1683    17.2080
  969.5000   -45.2683    12.9378    75.2438    17.1976
  970.0000   -45.3131    12.8889    76.6533    17.2192
  970.5000   -45.7381    12.9440    76.3798    17.2410
  971.0000   -46.1726    13.0242    75.7756    17.2521
  971.5000   -46.2733    13.1010    75.1713    17.2862
  972.0000   -45.9536    13.1571    74.5671    17.1619
  972.5000   -45.7076    12.9856    73.9629    16.8629
  973.0000   -45.4234    12.7797    74.4489    16.5832
  973.5000   -45.1597    12.5795    76.1273    16.2990
  974.0000   -44.8847    12.3774    77.8056    16.0130
  974.5000   -44.6148    12.1750    79.4840    15.7320
  975.0000   -44.3418    11.9747    81.1623    15.4457
  975.5000   -44.0722    11.7697    82.8407    15.1569
  976.0000   -43.7972    11.5737    84.5190    14.8965
  976.5000   -43.5496    11.3605    86.1974    14.8363
  977.0000   -43.4707    11.2596    87.8757    14.8008
  977.5000   -43.4198    11.2662    88.7092    14.7610
  978.0000   -43.3522    11.2545    88.7703    14.7227
  978.5000   -43.3683    11.2521    88.8313    14.6837
  979.0000   -43.4594    11.2445    88.8923    14.6451
  979.5000   -43.5368    11.2397    88.9534    14.6063
  980.0000   -43.6208    11.2336    89.0144    14.5675
  980.5000   -43.7017    11.2280    89.0754    14.5286
  981.0000   -43.7829    11.2221    89.1365    14.4895
  981.5000   -43.8671    11.2162    89.1975    14.4508
  982.0000   -43.9296    11.2103    89.2585    14.4115
  982.5000   -43.8689    11.2043    89.3195    14.3731
  983.0000   -43.8019    11.1987    89.3806    14.3330
  983.5000   -43.7273    11.1923    89.4416    14.2969
  984.0000   -43.5718    11.1873    89.5026    14.2466
  984.5000   -43.4172    11.1799    89.5637    14.1846
  985.0000   -43.2629    11.1772    89.6247    14.1271
  985.5000   -43.1087    11.1481    89.6794    14.0677
  986.0000   -42.9544    11.0981    90.6160    14.0093
  986.5000   -42.8004    11.0540    91.4640    13.9503
  987.0000   -42.6462    11.0073    92.3120    13.8916
  987.5000   -42.4921    10.9619    93.1600    13.8327
  988.0000   -42.3380    10.9159    94.0080    13.7740
  988.5000   -42.1839    10.8700    94.8560    13.7152
  989.0000   -42.0297    10.8243    95.7040    13.6564
  989.5000   -41.8758    10.7782    96.5520    13.5986
  990.0000   -41.7211    10.7329    97.4001    13.5596
  990.5000   -41.5711    10.6868    97.6954    13.5328
  991.0000   -41.4629    10.6660    97.4048    13.5056
  991.5000   -41.3802    10.6615    97.1531    13.4791
  992.0000   -41.2993    10.6546    96.9013    13.4517
  992.5000   -41.2180    10.6490    96.6496    13.4256
  993.0000   -41.1374    10.6427    96.3978    13.3971
  993.5000   -41.0555    10.6368    96.1460    13.3805
  994.0000   -40.9765    10.6307    95.8943    13.4076
  994.5000   -40.8926    10.6246    95.6425    13.4337
  995.0000   -40.7246    10.6185    95.3908    13.4602
  995.5000   -40.5704    10.6125    95.1390    13.4864
  996.0000   -40.4150    10.6064    94.8873    13.5130
  996.5000   -40.2604    10.6004    94.6355    13.5393
  997.0000   -40.1054    10.5942    94.3838    13.5659
  997.5000   -39.9502    10.5885    94.1320    13.5919
  998.0000   -39.7961    10.5817    93.8803    13.6190
  998.5000   -39.6396    10.5775    93.6964    13.6440
  999.0000   -39.4872    10.5637    94.4272    13.6728
  999.5000   -39.3320    10.4992    95.0168    13.6684
 1000.0000   -39.3019    10.4417    95.6056    13.5840
 1000.5000   -39.3342    10.3831    96.1949    13.5101
 1001.0000   -39.3532    10.3252    96.7874    13.4337
 1001.5000   -39.3783    10.2666    97.3816    13.3589
 1002.0000   -39.4005    10.2086    97.9726    13.2831
 1002.5000   -39.4236    10.1497    98.5649    13.2081
 1003.0000   -39.4472    10.0925    99.1573    13.1324
 1003.5000   -39.4696    10.0320    99.7497    13.0560
 1004.0000   -39.4863     9.9774   100.3421    12.9955
 1004.5000   -39.3172     9.9618   100.7014    13.2153
 1005.0000   -39.0824    10.0259    99.5642    13.5058
 1005.5000   -38.8590    10.1782    98.3030    13.7824
 1006.0000   -38.6301    10.3226    97.0480    14.0672
 1006.5000   -38.4039    10.4720    95.7827    14.3440
 1007.0000   -38.1766    10.6191    94.5171    14.6316
 1007.5000   -37.9496    10.7672    93.2482    14.9033
 1008.0000   -37.7220    10.9154    91.9734    15.1628
 1008.5000   -37.4943    11.0617    90.6935    14.9943
 1009.0000   -37.4804    11.2117    89.4150    14.5523
 1009.5000   -37.6817    11.2869    88.1418    14.1598
 1010.0000   -37.9215    11.1936    89.1632    13.7446
 1010.5000   -38.1570    11.0272    91.7562    13.3372
 1011.0000   -38.3941    10.5874    94.3493    12.9317
 1011.5000   -38.6312    10.1307    96.9424    12.6730
 1012.0000   -38.8669     9.9065    99.5354    12.5126
 1012.5000   -39.1058     9.8347   101.7034    12.3483
 1013.0000   -39.3381     9.7422   102.1346    12.1844
 1013.5000   -39.5846     9.6618   102.5050    12.0297
 1014.0000   -39.7206     9.5733   102.8755    11.8999
 1014.5000   -39.5979     9.4953   103.2459    11.7779
 1015.0000   -39.3745     9.4311   103.7074    11.6717
 1015.5000   -39.1587     9.3715   104.0891    11.5463
 1016.0000   -38.9400     9.3184   105.5444    11.4290
 1016.5000   -38.7218     9.2607   106.9997    11.2873
 1017.0000   -38.5057     9.2081   108.4550    11.1597
 1017.5000   -38.2827     9.1052   109.9103    11.0144
 1018.0000   -38.0955     8.9175   111.3656    10.8642
 1018.5000   -38.0611     8.7305   112.8209    10.4319
 1019.0000   -38.0264     8.5370   114.8798     9.8990
 1019.5000   -37.9936     8.3540   117.9359     9.9676
 1020.0000   -37.9589     8.1531   120.9920     9.6332
 1020.5000   -37.9261     7.9861   125.1336     9.2891
 1021.0000   -37.8910     7.5986   130.7365     8.9616
