~VERSION INFORMATION
 VERS.                2.0:   CWLS LOG ASCII STANDARD - VERSION 2.0
 WRAP.                 NO:   ONE LINE PER DEPTH STEP
~WELL INFORMATION
#MNEM.UNIT      DATA TYPE    INFORMATION
#----------   ------------   ------------------------------
 STRT.F            0.0000:   START DEPTH
 STOP.F          542.0000:   STOP DEPTH
 STEP.F            0.5000:   STEP LENGTH
 NULL.          -999.2500:   NO VALUE
 COMP. LAWRENCE/ALLISON INC:   COMPANY
 WELL.          SX #12-11:   WELL
 FLD .             TEAPOT:   FIELD
 LOC .      S11 T38N R78W:   LOCATION
 CNTY.            NATRONA:   COUNTY
 STAT.            WYOMING:   STATE
 CTRY. UNITED STATES OF AMERICA:   COUNTRY
 SRVC.           Gearhart:   SERVICE COMPANY
 DATE.        16-SEP-1988:   LOGDATE
 API .       490251124300:   API NUMBER
~CURVE INFORMATION
#MNEM.UNIT       API CODE    CURVE DESCRIPTION
#----------   ------------   ------------------------------
 DEPT.F                  :   
 GRR .GAPI   07 310 01 00:   GAMMA RAY FROM RES. LOG.
 RLL .OHMM   07 220 00 00:   LATEROLOG RESISTIVITY
 RILD.OHMM   07 120 46 00:   INDUCTION LOG DEEP RESISTIVITY
 RILM.OHMM   07 120 44 00:   INDUCTION LOG MEDIUM RESISTIVITY
 SPR .MV     07 010 01 00:   SPONTANEOUS POTENTIAL
~PARAMETER INFORMATION
#MNEM.UNIT          VALUE    DESCRIPTION
#----------   ------------   ------------------------------
 PD  .                 GL:   PERMANENT DATUM
 EPD .F              5163:   ELEVATION PERMANENT DATUM
 LMF .                 KB:   LOG MEASURED FROM
 DAPD.F                10:   FEET ABOVE PERMANENT DATUM
 DMF .                 KB:   DRILLING MEASURED FROM
 EKB .F              5173:   KELLING BUSHING
 EDF .F              5172:   DRILLING FLOOR
 EGL .F              5163:   GROUND LEVEL
 DATE.            9-16-88:   RUN DATE
 RUN .                  1:   RUN NUMBER
 DD  .F               550:   DEPTH DRILLER
 DL  .F               545:   DEPTH LOGGER
 BLI .F               542:   BOTTOM LOG INTERVAL
 CS  .IN            9.625:   CASING SIZE
 CBD .F                50:   CASING BOTTOM DRILLER
 CBL .F                50:   CASING BOTTOM LOGGER
 BS  .IN             8.75:   BIT SIZE
 BSD .F               550:   BIT SIZE AT DEPTH
 DFT .                MUD:   DRILLING FLUID TYPE
 MSS .           FLOWLINE:   MUD SAMPLE SOURCE
 RMS .OHMM            .55:   RESISTIVITY MUD SAMPLE
 MST .F                70:   MUD SAMPLE TEMPERATURE
 RMF .OHMM            .42:   RESISTIVITY MUD FILTRATE SAMPLE
 MFST.F                71:   MUD FILTRATE SAMPLE TEMPERATURE
 RMC .OHMM            .71:   RESISTIVITY MUD CAKE
 MCST.F                71:   MUD CAKE SAMPLE TEMPERATURE
 MFSS.                  M:   MUD FILTRATE SAMPLE SOURCE
 MCSS.                  M:   MUD CAKE SAMPLE SOURCE
 RMB .OHMM            .30:   RESISTIVITY MUD AT BHT
 BHT .F                81:   BOTTOM HOLE TEMPERATURE
 TCS .HRS            1430:   TIME CURCULATED STOPPED
 TLAB.HRS            1900:   TIME LOGGER AT BOTTOM
 MRT .F                81:   MAXIMUM RECORDED TEMPERATURE
 LUN .               7597:   LOGGING UNIT NUMBER
 LUL .           GILLETTE:   LOGGING UNIT LOCATION
 ENGI.     BENCK/ROUSSEAU:   RECORDING ENGINEER
 WITN.             STRONG:   WITNESSED BY
 CLNT.            A2DTECH:   CLIENT CODE
 ORIG.        2" 5" PRINT:   ORIGIN OF DATA
 UWI .       490251124300:   UNIQUE WELL ID
 DICO. A2D Technologies, Inc.:   DIGITIZING COMPANY
~OTHER INFORMATION
~A    DEPT      GRR       RLL       RILD       RILM        SPR   
# ...
  244.0000   108.6315     7.9002     7.3076     6.5319   -54.9867
  244.5000   108.4397     7.9568     7.5026     6.6735   -54.8675
  245.0000   110.1742     8.0134     7.7029     6.8181   -54.7283
  245.5000   111.7750     8.0706     7.9101     6.9508   -54.5561
  246.0000   110.7538     8.1282     7.9273     7.0205   -54.3843
  246.5000   109.6494     8.1862     7.9563     7.0910   -54.2125
  247.0000   109.9819     8.2446     7.9846     7.1621   -54.0397
  247.5000   112.2985     8.2895     7.7342     7.2026   -53.9431
  248.0000   114.6006     8.2289     7.6129     7.0860   -53.8854
  248.5000   116.9291     8.1803     7.4936     7.0059   -53.8283
  249.0000   115.8115     8.1320     7.3889     6.9266   -53.7711
  249.5000   114.2304     8.0839     7.3193     6.8491   -53.7140
  250.0000   112.6416     7.9266     7.2504     6.8076   -53.6569
  250.5000   111.0564     7.6654     7.1821     6.6157   -53.5993
  251.0000   109.4604     7.4075     7.0689     6.4447   -53.5238
  251.5000   107.9126     7.2912     6.8132     6.2782   -53.4327
  252.0000   107.8240     7.2213     6.4704     6.0557   -53.4657
  252.5000   110.8391     7.2026     6.1449     5.7883   -53.7925
  253.0000   113.8030     6.7343     5.8358     5.5327   -54.1130
  253.5000   114.6686     6.2648     5.6453     5.2884   -54.3979
  254.0000   110.8575     5.8063     5.5915     5.0548   -54.2892
  254.5000   106.7043     5.7521     5.5919     4.9987   -54.1546
  255.0000   102.6267     6.0167     5.7178     4.9956   -54.0205
  255.5000   102.9652     6.3071     5.8877     5.1607   -53.8865
  256.0000   105.4495     6.6115     6.0629     5.3706   -53.7526
  256.5000   109.6818     6.9305     6.2432     5.5904   -53.6187
  257.0000   115.8111     7.2282     6.4288     5.8189   -53.4849
  257.5000   119.9480     7.3699     6.6199     6.0128   -53.3508
  258.0000   118.4610     7.5143     6.8167     6.1812   -53.2177
  258.5000   113.8765     7.6623     6.9901     6.3544   -53.0206
  259.0000   112.0938     7.7231     7.1231     6.5324   -52.7835
  259.5000   114.4229     7.7639     7.2587     6.7153   -52.5560
  260.0000   117.5769     7.8046     7.3968     6.9035   -52.5120
  260.5000   120.2622     7.8455     7.5067     6.9882   -52.4756
  261.0000   120.7721     7.8861     7.5757     7.0502   -52.4385
  261.5000   120.2460     7.9606     7.6452     7.1128   -52.4012
  262.0000   118.5877     8.0779     7.7155     7.1759   -52.3639
  262.5000   116.3619     8.1969     7.7863     7.2396   -52.3265
  263.0000   114.1125     8.3177     7.8579     7.3039   -52.2892
  263.5000   111.8510     8.4403     7.9301     7.3817   -52.2519
  264.0000   109.9528     8.5646     8.0029     7.4758   -52.2142
  264.5000   111.4407     8.6270     8.0764     7.5714   -52.1756
  265.0000   113.0215     8.6583     8.1506     7.6681   -52.1521
  265.5000   113.4841     8.6898     8.2255     7.7661   -52.3368
  266.0000   113.0593     8.7212     8.3013     7.8652   -52.5196
  266.5000   112.1522     8.7525     8.3771     7.9657   -52.7047
  267.0000   111.2636     8.7694     8.4463     8.0674   -52.6826
  267.5000   110.6309     8.7687     8.3011     8.1704   -52.5794
  268.0000   111.4511     8.7688     8.1718     8.2747   -52.4198
  268.5000   114.1900     8.7687     8.0437     8.3675   -52.2357
  269.0000   116.8957     8.7692     7.9090     8.2795   -52.0514
  269.5000   119.6329     8.6566     7.9108     8.2019   -51.8671
  270.0000   121.5616     8.5583     7.8044     8.1249   -51.6829
  270.5000   119.3255     8.4611     7.7362     8.0487   -51.4992
  271.0000   116.7826     8.3650     7.6684     7.9732   -51.3159
  271.5000   114.2570     8.2699     7.6014     7.8984   -51.0626
  272.0000   111.7359     8.1760     7.5349     7.8243   -51.6956
  272.5000   111.3448     8.1085     7.4689     7.7509   -52.3179
  273.0000   113.5823     8.0609     7.4036     7.6782   -52.0881
  273.5000   116.3060     8.0135     7.3388     7.6061   -51.8728
  274.0000   119.0587     7.9673     7.2748     7.4725   -51.7926
  274.5000   121.8101     7.9186     7.2110     7.0806   -51.9539
  275.0000   122.9541     7.7125     7.1479     6.7094   -52.1113
  275.5000   120.8592     7.3871     6.8302     6.3025   -52.2694
  276.0000   118.7642     7.0773     6.4675     5.8447   -52.4273
  276.5000   118.9751     6.7805     6.1240     5.4202   -52.5802
  277.0000   120.4815     6.5550     5.8063     5.0265   -52.7160
  277.5000   121.2550     6.1140     4.9936     4.5957   -52.8547
  278.0000   118.9616     5.7023     4.3097     4.1234   -53.1030
  278.5000   116.7332     5.3824     3.7195     3.6985   -53.8071
  279.0000   116.8715     4.9616     3.4294     3.3173   -54.4863
  279.5000   118.9387     4.5737     3.2012     2.9764   -54.8080
  280.0000   120.6967     4.2162     3.0286     2.7359   -53.8466
  280.5000   122.0395     3.8865     2.9780     2.5253   -53.1094
  281.0000   115.1948     3.7733     2.9283     2.4725   -52.9452
  281.5000   108.0942     3.7381     2.9025     2.5925   -52.7750
  282.0000   101.5695     3.7966     3.0724     2.7321   -52.7761
  282.5000   100.1615     3.9915     3.2394     2.8802   -52.8070
  283.0000   104.3609     4.3878     3.5387     3.0366   -52.8384
  283.5000   111.3763     4.7861     3.8656     3.2177   -52.8696
  284.0000   115.0471     5.2206     4.2227     3.6751   -52.9009
  284.5000   117.8868     5.6948     4.6131     4.1837   -52.9320
  285.0000   119.4961     6.2106     5.0415     4.5806   -52.9547
  285.5000   120.0886     6.7813     5.5406     5.0151   -52.9095
  286.0000   120.6551     7.0074     5.6938     5.2545   -52.8646
  286.5000   121.2764     6.9225     5.8640     5.4154   -52.8200
  287.0000   123.5817     6.8371     6.0405     5.5812   -52.7753
  287.5000   126.0782     6.7529     6.2093     5.7521   -52.7286
  288.0000   128.5011     6.6176     6.3171     5.9283   -52.6794
  288.5000   127.0825     6.6866     6.1661     5.9718   -52.6299
  289.0000   125.4099     6.7785     5.9170     5.8068   -52.5818
  289.5000   123.7289     6.8730     5.6779     5.4931   -52.5936
  290.0000   122.2381     6.9377     5.4485     5.1963   -52.8675
  290.5000   125.9584     6.5162     5.2283     4.9155   -53.1396
  291.0000   129.9787     6.1718     5.0151     4.6499   -53.4066
  291.5000   134.0186     5.8445     4.8141     4.3987   -53.4675
  292.0000   136.7068     5.5350     4.7247     4.2620   -52.8553
  292.5000   135.9846     5.2424     4.6807     4.2223   -52.9123
  293.0000   132.2744     5.1888     4.6807     4.2223   -53.1065
  293.5000   126.9517     5.4660     4.9067     4.2587   -53.3024
  294.0000   122.3675     5.6985     5.1374     4.3006   -53.5068
  294.5000   121.5490     5.9348     5.3791     4.7162   -53.1315
  295.0000   125.8932     6.1628     5.6319     5.0827   -52.4493
  295.5000   129.4327     6.3996     5.8967     5.4773   -52.3214
  296.0000   132.5217     6.6455     6.1740     5.7382   -52.2629
  296.5000   128.9424     6.9008     6.4643     5.9790   -52.2066
  297.0000   124.4066     7.1660     6.7683     6.2307   -52.1466
  297.5000   120.8415     7.4413     6.9725     6.4931   -52.2798
  298.0000   118.3104     7.7273     7.1248     6.7454   -52.4360
  298.5000   117.5098     8.0241     7.2804     6.8909   -52.5015
  299.0000   116.8336     8.0597     7.4394     7.0290   -52.2744
  299.5000   118.0294     8.0597     7.6191     7.1699   -52.0589
  300.0000   119.2138     8.0597     7.5481     7.2699   -51.8420
  300.5000   120.8814     7.9846     7.4349     7.1235   -51.9181
  301.0000   123.7514     7.8579     7.3334     7.0128   -52.2789
  301.5000   126.6119     7.6319     7.2332     6.9033   -52.6403
  302.0000   129.5913     7.4402     7.1345     6.7957   -52.9708
  302.5000   129.8527     7.2541     7.0145     6.6898   -52.8601
  303.0000   127.6463     7.1278     6.8511     6.5855   -52.7194
  303.5000   125.2291     7.0689     6.6915     6.4829   -52.5793
  304.0000   122.7911     7.0689     6.5357     6.4201   -52.4417
  304.5000   122.8669     7.0689     6.3835     6.3900   -52.3802
