~VERSION INFORMATION
 VERS.                2.0:   CWLS LOG ASCII STANDARD - VERSION 2.0
 WRAP.                 NO:   ONE LINE PER DEPTH STEP
~WELL INFORMATION
#MNEM.UNIT      DATA TYPE    INFORMATION
#----------   ------------   ------------------------------
 STRT.F           26.0000:   START DEPTH
 STOP.F          484.0000:   STOP DEPTH
 STEP.F            0.5000:   STEP LENGTH
 NULL.          -999.2500:   NO VALUE
 COMP.    FENIX & SCISSON:   COMPANY
 WELL.        NPR #44-S-3:   WELL
 FLD .              NPR-3:   FIELD
 LOC .       S3 T38N R78W:   LOCATION
 CNTY.            NATRONA:   COUNTY
 STAT.            WYOMING:   STATE
 CTRY. UNITED STATES OF AMERICA:   COUNTRY
 SRVC.              Welex:   SERVICE COMPANY
 DATE.        22-APR-1977:   LOGDATE
 API .       490251034000:   API NUMBER
~CURVE INFORMATION
#MNEM.UNIT       API CODE    CURVE DESCRIPTION
#----------   ------------   ------------------------------
 DEPT.F                  :   
 SPR .MV     07 010 01 00:   SPONTANEOUS POTENTIAL
 ILD .OHMM   07 120 46 00:   INDUCTION LOG DEEP
 ILM .OHMM   07 120 44 00:   INDUCTION LOG MEDIUM
 SGRD.OHMM   07 221 05 00:   SHALLOW SHORT GUARD RESISTIVITY
 GRD .GAPI   45 310 01 00:   GAMMA RAY FROM DENSITY LOG
 CALD.IN     45 280 60 00:   CALIPER FROM DENSITY LOG
 CORR.G/C3   45 356 01 00:   DENSITY CORRECTION
 RHOB.G/C3   45 350 01 00:   BULK DENSITY
 DPHI.DEC    45 890 12 00:   DENSITY POROSITY SANDSTONE
~PARAMETER INFORMATION
#MNEM.UNIT          VALUE    DESCRIPTION
#----------   ------------   ------------------------------
 PD  .                 GL:   PERMANENT DATUM
 EPD .F              5160:   ELEVATION PERMANENT DATUM
 LMF .                 GL:   LOG MEASURED FROM
 DMF .                 GL:   DRILLING MEASURED FROM
 EGL .F              5160:   GROUND LEVEL
 DATE.        22-APR-1977:   RUN DATE
 RUN .                  1:   RUN NUMBER
 DD  .F               490:   DEPTH DRILLER
 DL  .F               486:   DEPTH LOGGER
 BLI .F               484:   BOTTOM LOG INTERVAL
 TLI .F                30:   TOP LOG INTERVAL
 CS  .IN            8.625:   CASING SIZE
 CBD .F                40:   CASING BOTTOM DRILLER
 CBL .F                38:   CASING BOTTOM LOGGER
 BS  .IN            7.875:   BIT SIZE
 BSD .F               490:   BIT SIZE AT DEPTH
 DFT .            KCL GEL:   DRILLING FLUID TYPE
 DFD .                8.8:   DRILLING FLUID DENSITY
 DFV .                 36:   DRILLING FLUID VISCOSITY
 DFPH.                8.0:   DRILLING FLUID PH
 DFL .                6.4:   DRILLING FLUID LOSS
 MSS .            MUD PIT:   MUD SAMPLE SOURCE
 RMS .OHMM            .36:   RESISTIVITY MUD SAMPLE
 MST .F                60:   MUD SAMPLE TEMPERATURE
 RMF .OHMM            .30:   RESISTIVITY MUD FILTRATE SAMPLE
 MFST.F                60:   MUD FILTRATE SAMPLE TEMPERATURE
 RMC .OHMM            .42:   RESISTIVITY MUD CAKE
 MCST.F                60:   MUD CAKE SAMPLE TEMPERATURE
 MFSS.               MEAS:   MUD FILTRATE SAMPLE SOURCE
 MCSS.               MEAS:   MUD CAKE SAMPLE SOURCE
 RMB .OHMM            .30:   RESISTIVITY MUD AT BHT
 BHT .F                70:   BOTTOM HOLE TEMPERATURE
 TCS .HRS            0200:   TIME CURCULATED STOPPED
 MRT .F                70:   MAXIMUM RECORDED TEMPERATURE
 LUN .               8611:   LOGGING UNIT NUMBER
 LUL .             CASPER:   LOGGING UNIT LOCATION
 ENGI.          T. JOYNER:   RECORDING ENGINEER
 WITN.           ROB LYON:   WITNESSED BY
 CLNT.            A2DTECH:   CLIENT CODE
 ORIG.           5" PRINT:   ORIGIN OF DATA
 UWI .       490251034000:   UNIQUE WELL ID
 DICO. A2D Technologies, Inc.:   DIGITIZING COMPANY
~OTHER INFORMATION
~A   DEPT      SPR        ILD        ILM       SGRD        GRD       CALD       CORR       RHOB       DPHI   
# ...
  245.0000   -50.9641     8.0125     7.9244    11.2749   133.1828     7.7254    -0.0090     2.4738     0.1066
  245.5000   -50.8083     8.0175     7.9293    11.2819   130.5260     7.7270    -0.0088     2.4746     0.1060
  246.0000   -50.6526     7.9660     7.9342    11.2094   128.7608     7.7285    -0.0087     2.4762     0.1035
  246.5000   -50.6452     7.9160     7.8832    11.0640   129.0758     7.7301    -0.0085     2.4778     0.1011
  247.0000   -50.4894     7.8664     7.8893    10.9929   130.8767     7.7316    -0.0069     2.4801     0.0984
  247.5000   -50.4820     7.8170     7.8386    11.0014   132.9703     7.7480    -0.0052     2.4839     0.0966
  248.0000   -50.4747     7.7157     7.8446    11.0082   130.6152     7.7495    -0.0051     2.4870     0.0963
  248.5000   -50.4673     7.6673     7.7942    11.0150   126.1753     7.7511    -0.0049     2.4863     0.0992
  249.0000   -50.4599     7.5656     7.6931    10.9442   125.5944     7.7526    -0.0048     2.4849     0.0989
  249.5000   -50.4525     7.4161     7.6436    10.8756   128.1426     7.7542    -0.0046     2.4828     0.1003
  250.0000   -50.4451     7.3177     7.6962    11.0356   134.9911     7.7557    -0.0048     2.4806     0.1036
  250.5000   -50.9671     7.1421     8.0337    11.1173   132.1901     7.7425    -0.0067     2.4762     0.1071
  251.0000   -51.4892     6.9329     7.8731    10.9731   135.3282     7.7440    -0.0072     2.4696     0.1089
  251.5000   -51.6143     6.7012     7.6626    10.7545   132.8199     7.7304    -0.0070     2.4674     0.1106
  252.0000   -51.7567     6.5221     7.1546    10.6854   129.2715     7.7175    -0.0069     2.4660     0.1124
  252.5000   -51.9016     6.3041     6.6803    10.5468   131.3694     7.7191    -0.0083     2.4646     0.1136
  253.0000   -52.1899     6.0934     6.3243    10.4084   134.0618     7.7206    -0.0081     2.4595     0.1153
  253.5000   -52.1840     5.8898     6.0706     9.5738   137.6456     7.7222    -0.0064     2.4544     0.1177
  254.0000   -52.1780     5.7324     5.8272     6.7397   134.6916     7.7237    -0.0063     2.4470     0.1200
  254.5000   -52.1721     5.5792     5.6713     5.9674   136.3438     7.7253    -0.0077     2.4426     0.1221
  255.0000   -52.0129     5.4301     5.6346     7.5085   138.2932     7.7268    -0.0075     2.4419     0.1230
  255.5000   -51.8581     5.3217     5.6776     9.6908   137.8651     7.7284    -0.0059     2.4473     0.1205
  256.0000   -51.7092     5.2515     5.8401     9.3950   136.5455     7.7299    -0.0057     2.4705     0.1148
  256.5000   -51.8517     5.1816     6.0072     9.5959   134.7802     7.7315    -0.0041     2.4631     0.1118
  257.0000   -52.1425     5.1140     5.9691    10.1459   130.9346     7.7330    -0.0024     2.4572     0.1177
  257.5000   -52.2849     5.0467     5.4969    10.2205   132.5868     7.7346    -0.0007     2.4618     0.1159
  258.0000   -52.4274     5.0140     4.9580     8.9041   135.5763     7.7361     0.0009     2.4663     0.1129
  258.5000   -52.7182     4.9479     4.7922     7.2390   137.6699     7.7377    -0.0035     2.4500     0.1206
  259.0000   -52.5638     4.8827     4.7612     5.3423   134.1259     7.7392    -0.0063     2.4412     0.1263
  259.5000   -52.1128     4.9884     4.9663     4.6537   135.0352     7.7260    -0.0077     2.4271     0.1292
  260.0000   -51.6518     5.2385     5.2368     8.7357   135.6428     7.7275    -0.0090     2.4324     0.1220
  260.5000   -50.9139     5.5012     5.6453     9.9664   130.1672     7.7139    -0.0089     2.4564     0.1127
  261.0000   -50.4629     5.8170     5.8872    10.0386   127.8075     7.7306    -0.0072     2.4759     0.1011
  261.5000   -50.3086     6.1087     6.1317     9.9736   127.2111     7.7322    -0.0071     2.4804     0.0978
  262.0000   -50.1543     6.3269     6.3506     9.9787   128.8831     7.7337    -0.0054     2.4813     0.0980
  262.5000   -49.8516     6.5529     6.5697     9.9130   130.6839     7.7353    -0.0053     2.4843     0.0983
  263.0000   -49.6973     6.7870     6.7577     9.8488   132.3361     7.7368    -0.0036     2.4889     0.0950
  263.5000   -49.6914     6.7908     6.8556     9.9223   133.0967     7.7235    -0.0034     2.5032     0.0896
  264.0000   -49.6855     6.5186     6.9549     9.9952   133.5639     7.7251    -0.0018     2.5055     0.0892
  264.5000   -49.6795     6.2573     7.0070    10.1386   130.4491     7.7118    -0.0032     2.4989     0.0934
  265.0000   -49.8221     6.0482     6.9020    10.3554   126.1211     7.7134    -0.0060     2.4893     0.1032
  265.5000   -50.1129     5.8058     6.4006    10.5039   124.1038     7.7001    -0.0148     2.4759     0.1076
  266.0000   -50.2553     5.6118     5.9768     9.9428   127.1646     7.6869    -0.0207     2.4618     0.1133
  266.5000   -50.2493     5.4242     5.5811     7.8629   129.9347     7.6736    -0.0205     2.4492     0.1219
  267.0000   -50.3919     5.3151     5.3617     6.0069   127.4624     7.6307    -0.0174     2.4389     0.1246
  267.5000   -50.5343     5.2090     5.2583     5.0554   123.3657     7.4397    -0.0127     2.4397     0.1242
  268.0000   -50.5282     5.2126     5.2249     5.7278   124.4703     7.6190    -0.0081     2.4458     0.1212
  268.5000   -50.3739     5.3247     5.2673     9.2336   128.2264     7.7835    -0.0064     2.4533     0.1182
  269.0000   -50.2008     5.5916     5.4584     9.0478   130.3244     7.7999    -0.0048     2.4601     0.1157
  269.5000   -49.7493     5.8720     5.7716     8.0477   129.3020     7.7866    -0.0031     2.4744     0.1091
  270.0000   -49.4461     6.1664     6.1478     9.9069   121.1474     7.7733    -0.0045     2.4834     0.1081
  270.5000   -48.9946     6.4755     6.5425    10.6206   118.9363     7.7601    -0.0043     2.4752     0.1036
  271.0000   -48.4154     6.8473     6.9153    10.7730   120.4399     7.7468    -0.0027     2.4821     0.0976
  271.5000   -47.9644     7.2405     7.2142    10.9275   123.1322     7.7484    -0.0025     2.4897     0.0939
  272.0000   -47.8101     7.4992     7.4693    11.0842   124.9330     7.7499    -0.0009     2.4950     0.0916
  272.5000   -47.6335     7.7136     7.7342    11.2432   126.2880     7.7515    -0.0007     2.4973     0.0911
  273.0000   -47.2047     7.8795     7.9007    11.2479   127.4945     7.7530     0.0009     2.4967     0.0917
  273.5000   -47.1988     7.9385     7.9599    11.3306   125.1348     7.7546     0.0011     2.4960     0.0934
  274.0000   -47.0445     7.9429     7.9643    11.4139   125.3011     7.7561    -0.0003     2.4931     0.0936
  274.5000   -46.8660     8.0024     8.0797    11.4187   126.6561     7.7577    -0.0016     2.4917     0.0957
  275.0000   -46.7359     8.0068     8.0842    11.4234   126.2281     7.7593    -0.0030     2.4910     0.0981
  275.5000   -46.5816     8.0668     8.1448    11.4281   123.2740     7.7608    -0.0044     2.4889     0.0986
  276.0000   -46.5757     8.0713     8.2059    11.4328   121.2115     7.7624    -0.0042     2.4860     0.0974
  276.5000   -46.5435     8.1317     8.2674    11.4375   120.7791     7.7639    -0.0040     2.4868     0.0962
  277.0000   -46.3887     8.1926     8.3294    11.5217   121.5442     7.7655    -0.0039     2.4907     0.0973
  277.5000   -46.1128     8.1972     8.3918    11.6064   122.0076     7.7819    -0.0037     2.4907     0.0997
  278.0000   -45.9585     8.2586     8.5724    11.7729   121.2824     7.7834    -0.0036     2.4892     0.0996
  278.5000   -45.9525     8.3204     8.7570    11.8595   123.6776     7.7998    -0.0019     2.4834     0.0984
  279.0000   -45.9466     8.3250     8.7014    11.8644   127.4100     7.8013    -0.0018     2.4837     0.0978
  279.5000   -45.7923     8.3296     8.4688    11.6256   126.0904     7.8177    -0.0016     2.4860     0.0975
  280.0000   -45.7852     8.3343     8.3570    11.3131   124.3251     7.8044    -0.0030     2.4867     0.0983
  280.5000   -45.7792     8.3389     8.2468    11.2385   122.5598     7.7911    -0.0028     2.4823     0.1001
  281.0000   -45.7733     8.2290     8.2515    11.1644   120.2001     7.7778    -0.0027     2.4809     0.1018
