~VERSION INFORMATION
 VERS.                2.0:   CWLS LOG ASCII STANDARD - VERSION 2.0
 WRAP.                 NO:   ONE LINE PER DEPTH STEP
~WELL INFORMATION
#MNEM.UNIT      DATA TYPE    INFORMATION
#----------   ------------   ------------------------------
 STRT.F            6.0000:   START DEPTH
 STOP.F          622.0000:   STOP DEPTH
 STEP.F            0.5000:   STEP LENGTH
 NULL.          -999.2500:   NO VALUE
 COMP. BROWN JOHN E&C INC:   COMPANY
 WELL. 71-26 STX-15 #26-15:   WELL
 FLD .             TEAPOT:   FIELD
 LOC .      S15 T38N R78W:   LOCATION
 CNTY.            NATRONA:   COUNTY
 STAT.            WYOMING:   STATE
 CTRY. UNITED STATES OF AMERICA:   COUNTRY
 SRVC.           Gearhart:   SERVICE COMPANY
 DATE.        01-JUL-1987:   LOGDATE
 API .       490251114900:   API NUMBER
~CURVE INFORMATION
#MNEM.UNIT       API CODE    CURVE DESCRIPTION
#----------   ------------   ------------------------------
 DEPT.F                  :   
 GRR .GAPI   07 310 01 00:   GAMMA RAY FROM RES. LOG.
 RILD.OHMM   11 120 46 00:   INDUCTION LOG DEEP RESISTIVITY
 RILM.OHMM   07 120 44 00:   INDUCTION LOG MEDIUM RESISTIVITY
~PARAMETER INFORMATION
#MNEM.UNIT          VALUE    DESCRIPTION
#----------   ------------   ------------------------------
 PD  .                 GL:   PERMANENT DATUM
 EPD .F              5208:   ELEVATION PERMANENT DATUM
 LMF .                 KB:   LOG MEASURED FROM
 DAPD.F                 8:   FEET ABOVE PERMANENT DATUM
 DMF .                 KB:   DRILLING MEASURED FROM
 EKB .F              5216:   KELLING BUSHING
 EDF .F              5214:   DRILLING FLOOR
 EGL .F              5208:   GROUND LEVEL
 DATE.             7-1-87:   RUN DATE
 RUN .                  1:   RUN NUMBER
 DD  .F               630:   DEPTH DRILLER
 DL  .F               630:   DEPTH LOGGER
 BLI .F               622:   BOTTOM LOG INTERVAL
 CS  .IN            8.625:   CASING SIZE
 CBD .F                50:   CASING BOTTOM DRILLER
 CBL .F                50:   CASING BOTTOM LOGGER
 BS  .IN             7.87:   BIT SIZE
 BSD .F               630:   BIT SIZE AT DEPTH
 DFT .                AIR:   DRILLING FLUID TYPE
 TCS .HRS            0300:   TIME CURCULATED STOPPED
 TLAB.HRS            0505:   TIME LOGGER AT BOTTOM
 LUN .               7660:   LOGGING UNIT NUMBER
 LUL .           GILLETTE:   LOGGING UNIT LOCATION
 ENGI.           JOHNSTON:   RECORDING ENGINEER
 WITN.             STRONG:   WITNESSED BY
 CLNT.            A2DTECH:   CLIENT CODE
 ORIG.       2", 5" PRINT:   ORIGIN OF DATA
 UWI .       490251114900:   UNIQUE WELL ID
 DICO. A2D Technologies, Inc.:   DIGITIZING COMPANY
~OTHER INFORMATION
~A    DEPT      GRR      RILD       RILM   
# ...
  370.0000   134.1749     5.6910     4.9751
  370.5000   130.8962     5.7533     5.3462
  371.0000   127.8829     5.8163     5.7368
  371.5000   127.4511     5.8815     6.1561
  372.0000   128.1765     6.3278     6.6059
  372.5000   126.4140     6.7302     6.8572
  373.0000   123.7815     6.8861     7.0633
  373.5000   122.0483     7.0456     7.2757
  374.0000   122.8365     7.1291     7.4944
  374.5000   125.5257     7.3875     7.7197
  375.0000   128.9660     7.6552     7.7838
  375.5000   130.6993     7.8615     7.8071
  376.0000   129.8113     8.0249     7.8305
  376.5000   128.0307     8.1012     7.8539
  377.0000   126.2358     8.1550     7.8774
  377.5000   124.3734     8.2098     7.9012
  378.0000   124.1280     8.3611     7.9379
  378.5000   124.4282     8.5192     7.9839
  379.0000   124.7553     8.4510     8.0301
  379.5000   125.0891     8.3826     8.0548
  380.0000   124.8694     8.3144     8.0176
  380.5000   124.3123     8.2563     7.9879
  381.0000   122.8783     8.2059     7.9584
  381.5000   121.8746     8.1338     7.9143
  382.0000   123.1803     8.2015     7.9534
  382.5000   125.8031     8.3210     8.0693
  383.0000   126.1423     8.4423     8.1868
  383.5000   126.2332     8.5471     8.3142
  384.0000   124.4472     8.6216     8.4853
  384.5000   122.7180     8.6967     8.6599
  385.0000   121.0096     8.7603     8.8380
  385.5000   119.4893     8.1368     9.0199
  386.0000   119.4240     7.6105     9.1762
  386.5000   120.7169     7.1000     8.7109
  387.0000   122.3771     6.7092     7.4464
  387.5000   125.4904     6.3909     6.3654
  388.0000   129.5291     6.2734     5.4414
  388.5000   136.5041     6.3298     5.0682
  389.0000   140.3761     6.4340     5.1798
  389.5000   139.3168     6.5400     5.4331
  390.0000   132.3241     6.7434     5.9925
  390.5000   125.6255     7.5901     6.6101
  391.0000   120.3846     8.4081     7.2916
  391.5000   116.3953     9.0265     8.0952
  392.0000   114.3012     9.6904     9.0079
  392.5000   115.9339    10.1907     9.8890
  393.0000   118.4026    10.2784     9.9200
  393.5000   118.2489    10.3669     9.9528
  394.0000   115.1674    10.4561     9.9750
  394.5000   112.1621    10.5461     9.9344
  395.0000   110.2640    10.6438     9.9038
  395.5000   110.5399    11.2882     9.8830
  396.0000   111.6309    12.0333    10.2672
  396.5000   111.1307    12.8283    11.0609
  397.0000   105.6465    13.6748    12.1617
  397.5000    91.2685    14.8124    13.6185
  398.0000    77.4230    16.1490    15.2691
  398.5000    64.7235    17.6062    17.1687
  399.0000    65.1181    19.1950    19.2978
  399.5000    71.3635    20.9271    21.5765
  400.0000    74.9647    22.8155    23.8103
  400.5000    72.9470    23.7143    26.2745
  401.0000    68.3468    24.1477    28.7164
  401.5000    63.7175    24.5890    28.7164
  402.0000    59.9890    25.0384    28.3335
  402.5000    60.2338    25.4544    27.5725
  403.0000    65.4407    25.3476    26.8320
  403.5000    70.6330    25.2500    26.1726
  404.0000    74.2272    25.1528    25.9310
  404.5000    77.3387    25.0560    26.4173
  405.0000    75.9617    24.9866    26.8022
  405.5000    74.0726    25.5860    27.1619
  406.0000    72.6684    26.0641    28.2682
  406.5000    71.6073    26.6978    29.3360
  407.0000    71.3955    27.7476    30.4413
  407.5000    70.5222    28.9245    31.5900
  408.0000    67.3812    28.5550    32.7826
  408.5000    62.4868    28.0697    33.9386
  409.0000    57.6382    27.5927    34.2536
  409.5000    54.0994    27.1237    32.5780
  410.0000    59.0336    26.6627    29.8161
  410.5000    66.5591    26.3854    27.5962
  411.0000    74.0972    26.3176    26.5224
  411.5000    80.5424    26.2500    25.9824
  412.0000    80.4942    26.1826    25.6916
  412.5000    78.4151    26.7689    26.7224
  413.0000    76.4035    27.4863    27.6799
  413.5000    74.4033    28.2230    29.7176
  414.0000    73.6036    28.9794    31.7995
  414.5000    75.1209    29.7560    33.9315
  415.0000    76.4678    30.3598    34.8885
  415.5000    75.6409    29.7843    34.5374
  416.0000    72.6434    29.3283    33.7509
  416.5000    71.3095    28.8793    32.5620
  417.0000    73.9996    27.9814    30.9042
  417.5000    77.5656    26.8589    29.3307
  418.0000    80.1388    25.7821    27.8374
  418.5000    79.8814    24.7500    26.4201
  419.0000    80.0768    23.7598    25.0749
  419.5000    81.8683    22.9929    23.9492
  420.0000    83.6365    22.4944    23.3812
  420.5000    85.3001    22.0117    22.8328
  421.0000    84.9048    21.5392    22.2957
  421.5000    83.1503    21.0770    21.7704
  422.0000    81.8406    20.6246    21.2577
  422.5000    82.6953    20.1864    20.7568
  423.0000    83.5988    20.2932    20.4310
  423.5000    84.8451    20.3995    20.2139
  424.0000    86.1019    20.5064    20.0000
  424.5000    87.3533    20.6138    20.0000
  425.0000    88.5954    20.7218    20.0000
  425.5000    88.8429    20.8304    20.0450
  426.0000    87.2955    20.9395    20.1204
  426.5000    85.0397    21.0492    20.1960
  427.0000    83.5167    21.1596    20.2720
  427.5000    83.5582    21.2704    20.3482
  428.0000    83.6339    21.3818    20.4254
  428.5000    83.3511    21.5405    20.5028
  429.0000    84.2427    21.3880    20.5637
  429.5000    85.9488    21.1299    20.3039
  430.0000    88.6527    20.8750    20.0852
  430.5000    91.2956    20.6231    19.8692
  431.0000    91.7441    20.3742    19.6557
  431.5000    90.8767    20.1284    19.4446
  432.0000    89.7280    19.8855    19.2357
  432.5000    88.5947    19.6455    19.0291
  433.0000    88.7490    19.4085    18.8247
  433.5000    88.9699    19.1743    18.6225
  434.0000    89.1798    18.9429    18.4225
  434.5000    89.2752    18.7144    18.2246
  435.0000    88.7100    18.5549    18.0378
  435.5000    88.1975    18.5141    17.8992
  436.0000    89.7579    18.4733    17.7281
  436.5000    92.0921    18.4326    17.7972
  437.0000    94.4581    18.3921    17.8934
  437.5000    94.9866    18.3516    17.8554
  438.0000    94.3114    18.3112    17.8167
  438.5000    92.5065    18.2709    17.7778
  439.0000    91.0740    18.2284    17.7389
  439.5000    92.2208    18.0632    17.6021
  440.0000    95.4330    17.8899    17.4329
  440.5000    98.1456    17.7182    17.2654
  441.0000    97.2996    17.5482    17.0996
  441.5000    93.5414    17.3798    16.9356
  442.0000    90.2581    17.2130    16.7730
  442.5000    87.0634    17.0478    16.6121
  443.0000    86.7608    16.8843    16.4527
  443.5000    87.7341    16.7222    16.2948
  444.0000    89.4316    16.5618    16.1384
  444.5000    91.2408    16.4028    15.9836
  445.0000    93.0607    16.2454    15.8302
  445.5000    94.9255    16.0897    15.6780
  446.0000    95.0567    15.9355    15.5274
  446.5000    92.4769    15.8599    15.4250
  447.0000    89.8475    15.8610    15.4252
  447.5000    88.5095    15.8608    15.4254
  448.0000    90.6986    15.8609    15.4256
  448.5000    93.7975    15.8612    15.4259
  449.0000    93.6107    15.8608    15.4255
  449.5000    92.3083    15.7670    15.3895
  450.0000    90.9610    15.6347    15.2711
  450.5000    89.7667    15.5035    15.1535
  451.0000    89.7730    15.3734    15.0369
  451.5000    88.6785    15.2443    14.9211
  452.0000    87.3238    15.1164    14.8063
  452.5000    87.6154    14.9895    14.6923
  453.0000    90.5962    14.8637    14.5792
  453.5000    93.7471    14.7265    14.4558
  454.0000    94.5813    14.6707    14.3773
  454.5000    93.1260    14.6090    14.2906
  455.0000    92.1752    14.5475    14.2044
  455.5000    94.4106    14.4863    14.1188
  456.0000    96.8587    14.4558    14.0591
  456.5000    99.1743    14.4558    14.0591
  457.0000    98.3220    14.4558    14.0591
  457.5000    96.8548    14.5006    14.0591
  458.0000    95.3518    14.6508    14.2194
  458.5000    94.6596    14.8026    14.3667
  459.0000    95.2116    14.9557    14.5155
  459.5000    96.4969    15.1101    14.6659
  460.0000    97.6349    15.2821    14.8637
  460.5000    96.5293    15.1765    14.8316
