~VERSION INFORMATION
 VERS.                2.0:   CWLS LOG ASCII STANDARD - VERSION 2.0
 WRAP.                 NO:   ONE LINE PER DEPTH STEP
~WELL INFORMATION
#MNEM.UNIT      DATA TYPE    INFORMATION
#----------   ------------   ------------------------------
 STRT.F           28.0000:   START DEPTH
 STOP.F          693.0000:   STOP DEPTH
 STEP.F            0.5000:   STEP LENGTH
 NULL.          -999.2500:   NO VALUE
 COMP. FENIX & SCISSON INC:   COMPANY
 WELL.       NPR-3 #63-15:   WELL
 FLD .             TEAPOT:   FIELD
 LOC .      S15 T38N R78W:   LOCATION
 CNTY.            NATRONA:   COUNTY
 STAT.            WYOMING:   STATE
 CTRY. UNITED STATES OF AMERICA:   COUNTRY
 SRVC.            Unknown:   SERVICE COMPANY
 DATE.        10-JUN-1978:   LOGDATE
 API .       490251063800:   API NUMBER
~CURVE INFORMATION
#MNEM.UNIT       API CODE    CURVE DESCRIPTION
#----------   ------------   ------------------------------
 DEPT.F                  :   
 SPR .MV     05 010 01 00:   SPONTANEOUS POTENTIAL FROM RES.
 SN  .OHMM   05 040 16 00:   SHORT NORMAL 16"
 ILD .OHMM   05 120 46 00:   INDUCTION LOG DEEP
 CALD.IN     45 280 60 00:   CALIPER FROM DENSITY LOG
 GRD .GAPI   45 310 01 00:   GAMMA RAY FROM DENSITY LOG
 CORR.G/C3   45 356 01 00:   DENSITY CORRECTION
 DPHI.DEC    45 890 12 00:   DENSITY POROSITY SANDSTONE
 DEN .G/C3   45 350 01 00:   DENSITY
~PARAMETER INFORMATION
#MNEM.UNIT          VALUE    DESCRIPTION
#----------   ------------   ------------------------------
 PD  .                 GL:   PERMANENT DATUM
 EPD .F              5265:   ELEVATION PERMANENT DATUM
 LMF .                 KB:   LOG MEASURED FROM
 DAPD.F                 4:   FEET ABOVE PERMANENT DATUM
 DMF .                 KB:   DRILLING MEASURED FROM
 EKB .F              5269:   KELLING BUSHING
 EGL .F              5265:   GROUND LEVEL
 DATE.        10-JUN-1978:   RUN DATE
 RUN .                  1:   RUN NUMBER
 DD  .F               690:   DEPTH DRILLER
 DL  .F               697:   DEPTH LOGGER
 BLI .F               690:   BOTTOM LOG INTERVAL
 TLI .F                35:   TOP LOG INTERVAL
 CS  .IN            8.625:   CASING SIZE
 CBD .F                40:   CASING BOTTOM DRILLER
 CBL .F                35:   CASING BOTTOM LOGGER
 BS  .IN            7.875:   BIT SIZE
 BSD .F               690:   BIT SIZE AT DEPTH
 DFT .                KCL:   DRILLING FLUID TYPE
 DFD .                8.7:   DRILLING FLUID DENSITY
 DFV .                 34:   DRILLING FLUID VISCOSITY
 DFPH.                 10:   DRILLING FLUID PH
 DFL .               11.6:   DRILLING FLUID LOSS
 MSS .            MUD PIT:   MUD SAMPLE SOURCE
 RMS .OHMM            .32:   RESISTIVITY MUD SAMPLE
 MST .F                74:   MUD SAMPLE TEMPERATURE
 RMF .OHMM            .28:   RESISTIVITY MUD FILTRATE SAMPLE
 MFST.F                78:   MUD FILTRATE SAMPLE TEMPERATURE
 RMC .OHMM            .36:   RESISTIVITY MUD CAKE
 MCST.F                78:   MUD CAKE SAMPLE TEMPERATURE
 MFSS.               MEAS:   MUD FILTRATE SAMPLE SOURCE
 MCSS.               MEAS:   MUD CAKE SAMPLE SOURCE
 BHT .F                80:   BOTTOM HOLE TEMPERATURE
 TCS .HRS            0100:   TIME CURCULATED STOPPED
 MRT .F                80:   MAXIMUM RECORDED TEMPERATURE
 LUN .               2958:   LOGGING UNIT NUMBER
 LUL .               CASP:   LOGGING UNIT LOCATION
 ENGI.             MILLER:   RECORDING ENGINEER
 WITN.           MCGINLEY:   WITNESSED BY
 CLNT.            A2DTECH:   CLIENT CODE
 ORIG.           5" PRINT:   ORIGIN OF DATA
 UWI .       490251063800:   UNIQUE WELL ID
 DICO. A2D Technologies, Inc.:   DIGITIZING COMPANY
~OTHER INFORMATION
~A   DEPT      SPR         SN        ILD       CALD        GRD       CORR       DPHI        DEN   
# ...
  109.0000    -7.2132     2.4563     1.9717     7.9544    83.3254     0.0397     0.1298     2.4269
  109.5000    -7.1986     2.5975     2.1155     7.9713    72.8716     0.0008     0.1285     2.4555
  110.0000    -7.1839     2.9233     2.4048     7.9732    69.2530    -0.0006     0.1297     2.4615
  110.5000    -7.1693     3.7784     3.5337     8.0050    71.5102     0.0010     0.1294     2.4601
  111.0000    -7.0050     4.1441     4.2626     8.0369    73.0174     0.0042     0.1252     2.4617
  111.5000    -6.9903     5.5077     5.7841     8.0238    72.8829     0.0073     0.1230     2.4640
  112.0000    -7.1254     7.0557     8.7685     7.9505    72.0021     0.0089     0.1299     2.4648
  112.5000    -7.4102     7.3588     9.5997     7.8318    69.9272     0.0060     0.1488     2.4558
  113.0000    -7.5589     7.6220     9.6716     7.7429    67.1061    -0.0044     0.1605     2.4304
  113.5000    -7.6803     7.8402     9.4779     7.7475    62.6432    -0.0148     0.1764     2.4110
  114.0000    -7.3626     7.8444     9.0343     7.8093    63.1057    -0.0162     0.1887     2.3750
  114.5000    -7.1983     7.7408     8.1474     7.8262    64.6129    -0.0145     0.2061     2.3556
  115.0000    -6.8843     7.5335     7.0453     7.8880    72.3888    -0.0114     0.2184     2.3324
  115.5000    -6.8696     7.2311     6.3597     7.9643    89.1199     0.0007     0.2370     2.2926
  116.0000    -6.8550     6.9889     4.6577     7.7866    98.2391     0.0114     0.2347     2.2792
  116.5000    -6.8404     5.9313     4.6275     7.8638   100.4926     0.0235     0.2154     2.2838
  117.0000    -6.8258     5.0361     4.7278     7.9401    98.3582     0.0266     0.1883     2.3034
  117.5000    -5.4638     4.8183     4.7626     7.8227    92.0597     0.0222     0.1450     2.4070
  118.0000    -3.6527     4.9220     4.6996     7.7647    81.6716     0.0208     0.1371     2.4439
  118.5000    -3.7879     5.2050     4.6697     7.8116    73.8387     0.0210     0.1365     2.4469
  119.0000    -3.7696     5.7774     4.7381     7.8284    70.8646     0.0226     0.1347     2.4470
  119.5000    -3.7549     6.8723     5.8353     7.8304    71.7785     0.0227     0.1332     2.4478
  120.0000    -3.7403     8.2885     7.0388     7.8623    72.8380     0.0183     0.1428     2.4464
  120.5000    -3.8790     8.7650     8.5504     7.9245    73.8975     0.0094     0.1506     2.4345
  121.0000    -3.8608     8.8307    10.9014     7.9114    74.9570     0.0020     0.1553     2.4188
  121.5000    -3.5467     8.9594    11.0595     7.8535    73.7777     0.0037     0.1559     2.4158
  122.0000    -1.7357     9.2288    10.8379     7.8105    72.7476     0.0053     0.1583     2.4039
  122.5000    -1.5714     9.7461    10.7675     7.7824    72.1653     0.0039     0.1640     2.4017
  123.0000    -1.5567    10.2353    10.6252     7.7843    72.6277     0.0025     0.1694     2.3988
  123.5000    -1.2425    10.7491    10.6324     7.8012    74.4335     0.0057     0.1699     2.3913
  124.0000    -0.9062    11.2887    11.0895     7.8326    74.2990     0.0103     0.1645     2.3906
  124.5000    -0.4613    11.5318    12.7449     7.7751    73.1196     0.0149     0.1639     2.3975
  125.0000    -0.4467    11.5380    13.0195     7.8668    69.1045     0.0120     0.1654     2.4013
  125.5000    -0.2823    11.6244    13.0265     7.8238    69.9194     0.0046     0.1626     2.4006
  126.0000    -0.2677    11.7115    13.2154     7.7808    71.0742     0.0017     0.1614     2.4014
  126.5000    -0.2531    11.7178    13.5001     7.7678    70.7642     0.0034     0.1614     2.4022
  127.0000    -0.2384    11.6433    13.6958     7.8014    73.3461     0.0050     0.1605     2.4053
  127.5000    -0.3772    11.5693    13.8943     7.8615    76.1966     0.0051     0.1574     2.4076
  128.0000    -0.2092    11.6575    14.0958     7.8938    77.5546     0.0052     0.1580     2.4092
  128.5000    -0.1946    11.7448    14.1164     7.9107    78.3156     0.0056     0.1613     2.4093
  129.0000    -0.1796    12.0810    14.3098     7.9126    79.9721     0.0070     0.1637     2.4071
  129.5000    -0.1647    12.4267    14.6181     7.9145    79.9868     0.0086     0.1648     2.4004
  130.0000    -0.1470    12.4335    14.9330     7.9164    78.5089     0.0102     0.1699     2.3892
  130.5000    -0.1324    12.3527    15.1495     7.9183    76.2848     0.0103     0.1717     2.3855
  131.0000    -0.1178    12.4452    15.4759     7.9347    71.0769     0.0074     0.1748     2.3871
  131.5000    -0.1031    12.3667    15.5919     7.8622    70.9387     0.0060     0.1771     2.3849
  132.0000    -0.0885    12.3750    15.6004     7.7893    72.5988     0.0077     0.1737     2.3812
  132.5000    -0.0739    12.3817    15.6088     7.7463    72.4643     0.0138     0.1701     2.3813
  133.0000    -0.2096    12.3884    15.6173     7.6883    71.1357     0.0244     0.1659     2.3838
  133.5000    -0.1943    12.3951    15.6258     7.6753    69.9564     0.0276     0.1622     2.3987
  134.0000    -0.1796    12.4019    15.6345     7.6146    69.5196     0.0262     0.1652     2.4040
  134.5000    -0.1647    12.4087    15.4275     7.5270    69.8365     0.0203     0.1658     2.4011
  135.0000    -0.1468    12.5032    15.2236     7.4714    70.5975     0.0174     0.1610     2.4004
  135.5000    -0.1321    12.5099    15.1267     7.4738    73.4480     0.0191     0.1537     2.4035
  136.0000    -0.1175    12.6036    15.1369     7.5057    71.8209     0.0252     0.1405     2.4185
  136.5000    -0.1029    12.6104    15.1451     7.5076    71.3879     0.0313     0.1272     2.4329
  137.0000    -0.0883    12.6173    15.5790     7.5095    72.4478     0.0329     0.1227     2.4547
  137.5000    -0.0736    12.6241    16.5898     7.4815    71.7662     0.0270     0.1170     2.4660
  138.0000    -0.0590    12.6309    17.0650     7.4834    67.1073     0.0182     0.1199     2.4721
  138.5000    -0.1946    12.6377    17.1929     7.5602    65.9243     0.0093     0.1310     2.4737
  139.0000    -0.1794    12.6446    17.3218     7.6519    66.8382    -0.0086     0.1427     2.4608
  139.5000    -0.1647    12.7393    17.3314     7.7287    70.1365    -0.0116     0.1596     2.4480
  140.0000    -0.1497    12.6469    17.3429     7.8354    72.0878    -0.0069     0.1809     2.3973
  140.5000    -0.1319    12.3210    17.3523     7.8822    69.1211     0.0037     0.1848     2.3726
  141.0000    -0.1173    11.8263    17.2396     7.9141    68.6844     0.0099     0.1847     2.3681
  141.5000    -0.4020    11.5800    16.7799     7.8989    70.7923     0.0130     0.1838     2.3690
  142.0000    -0.5371    11.2788    16.4438     7.8580    72.8966     0.0131     0.1823     2.3713
  142.5000    -0.8219    11.2849    15.8928     7.8304    72.6091     0.0117     0.1777     2.3729
  143.0000    -1.1103    11.2911    15.1469     7.8174    73.5230     0.0134     0.1702     2.3752
  143.5000    -1.5448    11.3758    15.0523     7.8038    77.4183     0.0165     0.1654     2.3895
  144.0000    -2.1253    11.4623    15.0608     7.8212    80.4181     0.0256     0.1641     2.3993
  144.5000    -1.9610    11.5482    15.1737     7.8980    78.3403     0.0227     0.1635     2.4039
  145.0000    -1.9461    11.5544    15.0771     7.9598    77.7609     0.0213     0.1620     2.4040
  145.5000    -1.9311    11.4810    15.1921     7.9168    78.1124     0.0230     0.1592     2.4063
  146.0000    -1.9134    11.4872    15.2004     7.9032    78.5373     0.0231     0.1559     2.4148
  146.5000    -2.3479    11.4934    15.2086     7.9356    76.3162     0.0187     0.1535     2.4192
  147.0000    -2.9321    11.4188    15.2169     7.9674    73.3458     0.0113     0.1526     2.4200
  147.5000    -3.5163    11.0379    14.8092     7.9394    72.7598     0.0099     0.1508     2.4208
  148.0000    -4.1004    10.8169    14.1160     7.8956    73.5245     0.0131     0.1462     2.4254
  148.5000    -5.1337    10.6741    13.5489     7.8534    77.4198     0.0177     0.1372     2.4382
  149.0000    -5.8676    10.5957    12.5619     7.8109    79.3748     0.0223     0.1224     2.4563
