~VERSION INFORMATION
 VERS.                2.0:   CWLS LOG ASCII STANDARD - VERSION 2.0
 WRAP.                 NO:   ONE LINE PER DEPTH STEP
~WELL INFORMATION
#MNEM.UNIT      DATA TYPE    INFORMATION
#----------   ------------   ------------------------------
 STRT.F           30.0000:   START DEPTH
 STOP.F          691.0000:   STOP DEPTH
 STEP.F            0.5000:   STEP LENGTH
 NULL.          -999.2500:   NO VALUE
 COMP. U.S. DEPARTMENT OF ENERGY:   COMPANY
 WELL. NAVAL PETROLEUM RESERVE #3 #77-S-34:   WELL
 FLD .        TEAPOT DOME:   FIELD
 LOC .      S34 T39N R78W:   LOCATION
 CNTY.            NATRONA:   COUNTY
 STAT.            WYOMING:   STATE
 CTRY. UNITED STATES OF AMERICA:   COUNTRY
 SRVC.              Welex:   SERVICE COMPANY
 DATE.        26-APR-1977:   LOGDATE
 API .       490251034700:   API NUMBER
~CURVE INFORMATION
#MNEM.UNIT       API CODE    CURVE DESCRIPTION
#----------   ------------   ------------------------------
 DEPT.F                  :   
 CALD.IN     45 280 60 00:   CALIPER FROM DENSITY LOG
 CORR.G/C3   45 356 01 00:   DENSITY CORRECTION
 DPHI.DEC    45 890 12 00:   DENSITY POROSITY SANDSTONE
 RHOB.G/C3   45 350 01 00:   BULK DENSITY
 GRD .GAPI   45 310 01 00:   GAMMA RAY FROM DENSITY LOG
 ILD .OHMM   07 120 46 00:   INDUCTION LOG DEEP
 ILM .OHMM   07 120 44 00:   INDUCTION LOG MEDIUM
 SGRD.OHMM   07 220 05 00:   SHALLOW GUARD RESISTIVITY
 SPR .MV     07 010 01 00:   SPONTANEOUS POTENTIAL FROM RES.
~PARAMETER INFORMATION
#MNEM.UNIT          VALUE    DESCRIPTION
#----------   ------------   ------------------------------
 PD  .                 GL:   PERMANENT DATUM
 EPD .F              5075:   ELEVATION PERMANENT DATUM
 LMF .                 GL:   LOG MEASURED FROM
 DMF .                 GL:   DRILLING MEASURED FROM
 EGL .F              5075:   GROUND LEVEL
 DATE.          4-26-1977:   RUN DATE
 RUN .                  1:   RUN NUMBER
 DD  .F               700:   DEPTH DRILLER
 DL  .F               693:   DEPTH LOGGER
 BLI .F               691:   BOTTOM LOG INTERVAL
 TLI .F                35:   TOP LOG INTERVAL
 CS  .IN            8.625:   CASING SIZE
 CBD .F                40:   CASING BOTTOM DRILLER
 CBL .F                39:   CASING BOTTOM LOGGER
 BS  .IN            7.875:   BIT SIZE
 BSD .F               700:   BIT SIZE AT DEPTH
 DFT .            KCL MUD:   DRILLING FLUID TYPE
 DFD .                9.5:   DRILLING FLUID DENSITY
 DFV .                 35:   DRILLING FLUID VISCOSITY
 DFPH.               10.5:   DRILLING FLUID PH
 DFL .                 12:   DRILLING FLUID LOSS
 MSS .           FLOWLINE:   MUD SAMPLE SOURCE
 RMS .OHMM            .32:   RESISTIVITY MUD SAMPLE
 MST .F                66:   MUD SAMPLE TEMPERATURE
 RMF .OHMM            .28:   RESISTIVITY MUD FILTRATE SAMPLE
 MFST.F                66:   MUD FILTRATE SAMPLE TEMPERATURE
 RMC .OHMM            .49:   RESISTIVITY MUD CAKE
 MCST.F                66:   MUD CAKE SAMPLE TEMPERATURE
 RMB .OHMM            .28:   RESISTIVITY MUD AT BHT
 BHT .F                74:   BOTTOM HOLE TEMPERATURE
 TCS .HRS             1.5:   TIME CURCULATED STOPPED
 MRT .F                74:   MAXIMUM RECORDED TEMPERATURE
 LUN .               8611:   LOGGING UNIT NUMBER
 LUL .           GILLETTE:   LOGGING UNIT LOCATION
 ENGI.            C. DOAK:   RECORDING ENGINEER
 WITN.       MR. ROB LYON:   WITNESSED BY
 CLNT.            A2DTECH:   CLIENT CODE
 ORIG.           5" PRINT:   ORIGIN OF DATA
 UWI .       490251034700:   UNIQUE WELL ID
 DICO. A2D Technologies, Inc.:   DIGITIZING COMPANY
~OTHER INFORMATION
~A   DEPT       CALD      CORR      DPHI         RHOB       GRD       ILD        ILM       SGRD        SPR   
# ...
  139.5000     7.9519     0.0177     0.2112     2.3249   104.1106    13.7986    14.8803    16.2283   -28.1016
  140.0000     7.9522     0.0160     0.2136     2.3182   101.8685    13.8023    14.9856    15.9005   -28.5501
  140.5000     7.9525     0.0147     0.2112     2.3167   101.7190    13.7109    14.8847    15.1559   -28.8490
  141.0000     7.9528     0.0132     0.2061     2.3287   102.7573    13.4347    14.6834    14.9524   -29.1480
  141.5000     7.9531     0.0148     0.2001     2.3399   104.4096    13.1631    14.3849    15.2696   -29.2975
  142.0000     7.9534     0.0178     0.1938     2.3490   105.6074    12.9768    14.2880    15.2735   -29.7459
  142.5000     7.9537     0.0208     0.1902     2.3587   106.0538    12.6371    14.0943    15.2775   -30.1943
  143.0000     7.9540     0.0193     0.1873     2.3647   108.1465    12.3816    14.0966    15.2825   -30.6427
  143.5000     7.9543     0.0177     0.1867     2.3640   111.7339    12.1313    14.0012    15.2864   -31.0912
  144.0000     7.9546     0.0133     0.1866     2.3624   115.4329    12.0446    13.7170    14.9776   -31.7070
  144.5000     7.9549     0.0103     0.1869     2.3618   120.8520    11.8083    13.4386    14.6751   -32.4365
  145.0000     7.9552     0.0059     0.1857     2.3633   125.0374    11.6489    13.1655    14.3796   -33.3333
  145.5000     7.9704     0.0059     0.1792     2.3700   124.4395    11.1805    12.7214    14.2837   -34.3797
  146.0000     7.9707     0.0029     0.1717     2.3820   122.4963    10.1398    12.0408    14.4865   -35.5874
  146.5000     7.9788     0.0044     0.1654     2.3925   121.0015     9.0344    11.0112    14.0964   -37.2197
  147.0000     7.9863     0.0074     0.1564     2.4105   122.4963     8.1490    10.1388    12.2861   -38.4155
  147.5000     7.9866     0.0119     0.1441     2.4292   124.8879     7.4012     9.0195    10.2740   -39.3124
  148.0000     7.9869     0.0150     0.1408     2.4352   125.3363     6.8128     8.0238     8.2436   -39.9103
  148.5000     7.9872     0.0150     0.1408     2.4360   125.3363     6.3633     6.9922     7.7500   -40.3587
  149.0000     7.9875     0.0135     0.1405     2.4383   125.3363     6.0235     6.8028     7.4901   -40.6577
  149.5000     7.9878     0.0120     0.1381     2.4444   125.3363     5.7809     6.7570     7.1887   -40.8072
  150.0000     7.9731     0.0120     0.1360     2.4132   125.6353     5.5481     6.8048     6.9466   -40.9567
  150.5000     7.9430     0.0120     0.1342     2.4499   125.4845     5.4725     6.7126     7.3416   -40.9567
  151.0000     7.9728     0.0075     0.1360     2.4491   125.4827     5.4729     6.7137     8.0860   -41.1061
  151.5000     7.9876     0.0045     0.1417     2.4413   125.0328     5.5112     6.7146     8.4866   -41.2556
  152.0000     8.0024     0.0000     0.1522     2.4275   124.1345     5.5497     6.6691     8.3716   -41.2556
  152.5000     8.0172    -0.0030     0.1552     2.4200   123.8341     5.5884     6.6244     8.3152   -41.2556
  153.0000     8.0320    -0.0045     0.1573     2.4163   125.0281     5.6275     6.6255     8.4319   -41.2556
  153.5000     8.0318    -0.0060     0.1608     2.4111   126.0730     5.6668     6.5357     8.3749   -41.2556
  154.0000     8.0317    -0.0060     0.1659     2.4029   126.8190     5.7064     6.4472     8.0371   -41.2556
  154.5000     8.0166    -0.0075     0.1707     2.3931   126.8175     5.7463     6.3598     7.8197   -41.2556
  155.0000     8.0015    -0.0075     0.1746     2.3863   126.6666     5.8264     6.3169     7.7137   -41.2556
  155.5000     8.0013    -0.0060     0.1641     2.3940   125.7683     5.8268     6.3616     7.6091   -41.2556
  156.0000     8.0012    -0.0030     0.1571     2.4060   123.4649     5.8272     6.4953     7.7693   -41.4051
  156.5000     8.0010     0.0030     0.1557     2.4127   121.4302     5.8680     6.7238     8.0448   -41.4051
  157.0000     8.0159     0.0060     0.1560     2.4142   120.9807     5.9499     6.8180     8.4997   -41.7040
  157.5000     8.0307     0.0075     0.1533     2.4180   121.5147     5.9914     6.9135     8.6187   -41.7040
  158.0000     8.0604     0.0060     0.1527     2.4226   122.1335     5.9918     6.9146     8.5016   -41.7040
  158.5000     8.0901     0.0045     0.1533     2.4225   122.9192     5.9922     6.9156     8.2719   -41.8535
  159.0000     8.0900     0.0045     0.1530     2.4211   123.9691     5.9927     6.8688     8.3302   -41.8535
  159.5000     8.0898     0.0045     0.1540     2.4211   125.3076     5.9931     6.7759     8.3892   -41.8535
  160.0000     8.0897     0.0075     0.1557     2.4219   127.5483     5.9113     6.7302     8.2752   -42.0030
  160.5000     8.0746     0.0120     0.1533     2.4226   129.6396     5.8308     6.6849     8.1072   -42.0030
  161.0000     8.0595     0.0165     0.1506     2.4189   131.7308     5.7514     6.5945     7.8879   -42.0030
  161.5000     8.0593     0.0180     0.1464     2.4244   133.5231     5.6730     6.5051     7.7230   -42.0030
  162.0000     8.0442     0.0195     0.1428     2.4317   134.2690     5.6735     6.3729     7.6229   -42.0030
  162.5000     8.0441     0.0195     0.1413     2.4362   134.2426     5.6738     6.3738     7.7299   -42.0030
  163.0000     8.0439     0.0180     0.1444     2.4355   132.1731     5.7135     6.4632     7.8381   -42.0030
  163.5000     8.0438     0.0150     0.1467     2.4332   130.9759     5.7138     6.5991     7.6261   -42.0030
  164.0000     8.0287     0.0150     0.1464     2.4325   130.6755     5.7143     6.7378     7.4076   -42.0030
  164.5000     7.9986     0.0180     0.1455     2.4318   130.9730     5.7542     6.8321     7.8957   -42.0030
  165.0000     7.9985     0.0240     0.1431     2.4342   130.9715     5.7546     6.8803     8.5772   -42.0030
  165.5000     7.9834     0.0270     0.1407     2.4386   130.9701     5.8349     6.9289     9.0644   -42.0030
  166.0000     7.9683     0.0255     0.1379     2.4423   130.6497     5.9163     6.9299     8.9415   -42.0030
  166.5000     7.9682     0.0210     0.1365     2.4454   129.7710     5.9577     6.9308     8.5039   -42.0030
  167.0000     7.9680     0.0180     0.1376     2.4469   128.1254     5.9993     6.9796     7.9011   -42.0030
  167.5000     7.9678     0.0150     0.1400     2.4446   126.4797     6.0830     7.0774     7.6871   -42.0030
  168.0000     7.9677     0.0150     0.1445     2.4401   126.1793     6.1255     7.2763     8.0682   -42.0030
  168.5000     7.9676     0.0150     0.1484     2.4335   126.1778     6.2138     7.3782     8.4098   -42.0030
  169.0000     7.9674     0.0165     0.1502     2.4290   125.5685     6.2977     7.5332     8.8267   -42.0030
  169.5000     7.9822     0.0195     0.1496     2.4268   122.5871     6.3855     7.6388     9.1372   -42.0030
  170.0000     7.9970     0.0210     0.1478     2.4290   120.0446     6.5194     7.7457     9.2016   -42.0030
  170.5000     7.9968     0.0210     0.1457     2.4311   118.9968     6.6103     7.8545     9.0146   -42.0030
  171.0000     7.9967     0.0210     0.1430     2.4323   118.3975     6.6565     7.9098     8.7699   -42.0030
  171.5000     7.9966     0.0180     0.1418     2.4334   117.9476     6.7031     7.9109     8.9553   -42.0030
  172.0000     7.9964     0.0165     0.1436     2.4346   118.0956     6.7966     7.9119     9.2704   -42.0030
  172.5000     7.9963     0.0150     0.1430     2.4359   118.7170     6.7970     7.9129     9.4652   -42.0030
  173.0000     7.9961     0.0120     0.1411     2.4367   120.0356     6.7975     7.9142     9.3369   -42.0030
  173.5000     7.9959     0.0105     0.1409     2.4382   121.6784     6.7512     7.8070     9.0162   -42.0030
  174.0000     7.9958     0.0075     0.1420     2.4442   123.1717     6.7053     7.7541     8.8997   -41.8535
  174.5000     7.9807     0.0060     0.1441     2.4420   120.7787     6.6139     7.5968     8.9011   -42.0030
  175.0000     7.9656     0.0105     0.1450     2.4383   117.6382     6.5238     7.4938     8.6603   -42.0030
  175.5000     7.9655     0.0135     0.1423     2.4345   116.1420     6.4349     7.3415     8.4261   -42.0030
