~VERSION INFORMATION
 VERS.                2.0:   CWLS LOG ASCII STANDARD - VERSION 2.0
 WRAP.                 NO:   ONE LINE PER DEPTH STEP
~WELL INFORMATION
#MNEM.UNIT      DATA TYPE    INFORMATION
#----------   ------------   ------------------------------
 STRT.F           16.0000:   START DEPTH
 STOP.F         1334.0000:   STOP DEPTH
 STEP.F            0.5000:   STEP LENGTH
 NULL.          -999.2500:   NO VALUE
 COMP. U S NAVY/INTEX OIL CO:   COMPANY
 WELL.  S-11 NPR 3 #87-11:   WELL
 FLD .             TEAPOT:   FIELD
 LOC .      S11 T38N R78W:   LOCATION
 CNTY.            NATRONA:   COUNTY
 STAT.            WYOMING:   STATE
 CTRY. UNITED STATES OF AMERICA:   COUNTRY
 SRVC.       Schlumberger:   SERVICE COMPANY
 DATE.        17-JUN-1966:   LOGDATE
 API .       490250958900:   API NUMBER
~CURVE INFORMATION
#MNEM.UNIT       API CODE    CURVE DESCRIPTION
#----------   ------------   ------------------------------
 DEPT.F                  :   
 GRD .GAPI   45 310 01 00:   GAMMA RAY FROM DENSITY LOG
 CALD.IN     45 280 60 00:   CALIPER
 RHOB.G/C3   45 350 01 00:   BULK DENSITY
 DPOR.DEC    45 890 12 00:   DENSITY POROSITY SANDSTONE
 DRHO.G/C3   45 356 01 00:   DENSITY CORRECTION
 ASN .OHMM   05 041 16 00:   AMPLIFIED SHORT NORMAL 16"
 ILD .OHMM   05 120 46 00:   INDUCTION LOG DEEP
 CILD.MMHO   05 110 46 00:   CONDUCTIVITY INDUCTION LOG DEEP
 SPR .MV     05 010 01 00:   SPONTANEOUS POTENTIAL FROM RES.
~PARAMETER INFORMATION
#MNEM.UNIT          VALUE    DESCRIPTION
#----------   ------------   ------------------------------
 PD  .                 GL:   PERMANENT DATUM
 EPD .F              5284:   ELEVATION PERMANENT DATUM
 LMF .                 KB:   LOG MEASURED FROM
 DAPD.F                 5:   FEET ABOVE PERMANENT DATUM
 DMF .                 KB:   DRILLING MEASURED FROM
 EKB .F              5289:   KELLING BUSHING
 EGL .F              5284:   GROUND LEVEL
 DATE.          8-17-1966:   RUN DATE
 RUN .                  1:   RUN NUMBER
 DD  .F              1335:   DEPTH DRILLER
 DL  .F              1335:   DEPTH LOGGER
 BLI .F              1334:   BOTTOM LOG INTERVAL
 TLI .F                50:   TOP LOG INTERVAL
 CS  .IN            8.625:   CASING SIZE
 CBD .F                10:   CASING BOTTOM DRILLER
 BS  .IN            7.875:   BIT SIZE
 BSD .F              1335:   BIT SIZE AT DEPTH
 DFT .           GEL-CHEM:   DRILLING FLUID TYPE
 DFD .                9.3:   DRILLING FLUID DENSITY
 DFV .                 50:   DRILLING FLUID VISCOSITY
 MSS .          FLOW LINE:   MUD SAMPLE SOURCE
 RMS .OHMM           1.38:   RESISTIVITY MUD SAMPLE
 MST .F                80:   MUD SAMPLE TEMPERATURE
 RMF .OHMM           1.09:   RESISTIVITY MUD FILTRATE SAMPLE
 MFST.F                77:   MUD FILTRATE SAMPLE TEMPERATURE
 MFSS.                  M:   MUD FILTRATE SAMPLE SOURCE
 RMB .OHMM           1.70:   RESISTIVITY MUD AT BHT
 BHT .F               108:   BOTTOM HOLE TEMPERATURE
 TCS .HRS               1:   TIME CURCULATED STOPPED
 MRT .F               108:   MAXIMUM RECORDED TEMPERATURE
 LUN .               4507:   LOGGING UNIT NUMBER
 LUL .               CSPR:   LOGGING UNIT LOCATION
 ENGI.            MANGOLD:   RECORDING ENGINEER
 WITN.                MAY:   WITNESSED BY
 CLNT.            A2DTECH:   CLIENT CODE
 ORIG.       2", 5" PRINT:   ORIGIN OF DATA
 UWI .       490250958900:   UNIQUE WELL ID
 DICO. A2D Technologies, Inc.:   DIGITIZING COMPANY
~OTHER INFORMATION
~A   DEPT       GRD      CALD       RHOB       DPOR       DRHO        ASN        ILD       CILD        SPR   
# ...
 1038.0000   110.3000     8.5449     2.5396     0.0666     0.0485     6.4833     4.8797   219.9746   -35.4247
 1038.5000   108.8682     8.5449     2.5263     0.0729     0.0563     6.2426     4.6247   233.5341   -35.5488
 1039.0000   107.4140     8.5449     2.5131     0.0817     0.0641     5.9147     4.3714   241.1073   -35.4318
 1039.5000   105.9644     8.5449     2.5000     0.0905     0.0671     5.5375     4.2345   244.7865   -35.2329
 1040.0000   104.5176     8.5449     2.4865     0.1005     0.0568     5.1552     4.2742   243.7935   -35.0341
 1040.5000   103.7148     8.5449     2.4856     0.0976     0.0584     5.0165     4.3071   237.5792   -34.8330
 1041.0000   104.2506     8.5449     2.4989     0.0931     0.0620     5.0393     4.5562   231.8769   -34.7684
 1041.5000   105.8247     8.5449     2.5079     0.0886     0.0651     5.1396     4.8428   222.9394   -34.7914
 1042.0000   122.1694     8.5449     2.5027     0.0865     0.0559     5.5010     5.1304   209.3078   -34.8160
 1042.5000   119.2085     8.5449     2.4965     0.0964     0.0459     6.0829     5.4176   196.0973   -34.8407
 1043.0000   115.0808     8.5449     2.4959     0.0939     0.0359     6.4992     5.7049   182.8868   -34.8653
 1043.5000   110.6772     8.5449     2.5089     0.0958     0.0259     6.7073     5.9913   170.3078   -34.8899
 1044.0000   109.1085     8.5449     2.5212     0.0826     0.0225     6.8692     6.2302   164.3495   -34.9145
 1044.5000   109.3497     8.5449     2.5285     0.0759     0.0194     6.9716     6.3144   162.8273   -34.9391
 1045.0000   111.2857     8.5449     2.5080     0.0835     0.0197     7.0745     6.4001   161.3800   -34.9637
 1045.5000   115.5307     8.5449     2.5139     0.0861     0.0240     7.1774     6.4860   159.9327   -34.9883
 1046.0000   119.8048     8.5449     2.5230     0.0799     0.0283     7.2802     6.5719   158.4854   -35.0129
 1046.5000   119.8882     8.5449     2.5301     0.0748     0.0296     7.3830     6.6582   157.0381   -35.0375
 1047.0000   117.5129     8.5449     2.5377     0.0696     0.0288     7.4780     6.7283   155.5909   -35.0621
 1047.5000   115.0843     8.5449     2.5526     0.0645     0.0352     7.5593     6.7814   154.2018   -35.0865
 1048.0000   115.3369     8.5449     2.5673     0.0555     0.0419     7.6356     6.8345   152.8209   -35.1113
 1048.5000   117.8263     8.5449     2.5736     0.0471     0.0487     7.7116     6.8875   151.4400   -35.1373
 1049.0000   117.0095     8.5449     2.5578     0.0574     0.0553     7.7876     6.9406   150.0591   -35.2287
 1049.5000   115.7300     8.5449     2.5675     0.0506     0.0619     7.8636     6.9937   148.6782   -35.3949
 1050.0000   114.4385     8.5449     2.5692     0.0455     0.0591     7.9397     7.0469   147.2973   -35.5600
 1050.5000   113.1833     8.5449     2.5538     0.0652     0.0462     8.0158     7.1001   145.9152   -35.7259
 1051.0000   112.3134     8.5449     2.5433     0.0676     0.0340     8.0942     7.1532   144.5303   -35.8909
 1051.5000   111.5276     8.5449     2.5386     0.0686     0.0320     8.1440     7.1999   143.1546   -36.0573
 1052.0000   110.7556     8.5449     2.5579     0.0558     0.0382     8.1871     7.1896   142.6415   -36.0336
 1052.5000   111.2657     8.5449     2.5594     0.0597     0.0532     8.2298     7.1803   142.9049   -35.8308
 1053.0000   113.2442     8.5449     2.5448     0.0640     0.0570     8.2728     7.1712   143.1678   -35.6268
 1053.5000   115.2586     8.5449     2.5487     0.0649     0.0507     8.3028     7.1621   143.4318   -35.4223
 1054.0000   113.1652     8.5447     2.5535     0.0587     0.0450     8.3166     7.1530   143.6952   -35.2181
 1054.5000   108.8226     8.5443     2.5515     0.0632     0.0501     8.3249     7.1439   143.9586   -35.0135
 1055.0000   104.5783     8.5438     2.5512     0.0517     0.0444     8.3178     7.1348   144.2220   -34.8009
 1055.5000   103.2490     8.5434     2.5914     0.0359     0.0455     8.2308     7.1257   144.4854   -34.7753
 1056.0000   105.4944     8.5429     2.5805     0.0434     0.0529     8.1448     7.1168   144.7489   -34.8052
 1056.5000   106.2515     8.5425     2.5786     0.0479     0.0603     8.0590     7.1075   145.0123   -34.8367
 1057.0000   105.3266     8.5421     2.5803     0.0431     0.0670     7.9732     7.0814   145.2757   -34.8678
 1057.5000   106.8373     8.5416     2.5786     0.0478     0.0599     7.8874     6.9795   146.0673   -34.8988
 1058.0000   105.0102     8.5412     2.5920     0.0356     0.0524     7.8016     6.8797   148.8651   -34.9298
 1058.5000   103.8716     8.5407     2.6024     0.0296     0.0462     7.7164     6.7787   151.6274   -34.9608
 1059.0000   107.7307     8.5403     2.5974     0.0426     0.0594     7.6353     6.6324   154.4301   -34.9918
 1059.5000   111.4639     8.5398     2.5555     0.0561     0.0630     7.3962     6.2981   161.2393   -35.0228
 1060.0000   115.2438     8.5394     2.5213     0.0699     0.0357     7.1355     5.9713   170.2483   -35.0538
 1060.5000   115.8301     8.5390     2.5217     0.0805     0.0183     6.8745     5.6438   180.8251   -35.0861
 1061.0000   114.3484     8.5385     2.5151     0.0821     0.0245     6.6122     5.3208   192.2000   -35.1197
 1061.5000   110.2631     8.5381     2.5011     0.0879     0.0259     6.3195     4.8544   212.8756   -35.0987
 1062.0000   106.1973     8.5376     2.4990     0.0933     0.0229     5.8850     4.3371   240.8143   -34.8356
 1062.5000   105.8132     8.5372     2.4968     0.1010     0.0220     5.4632     3.8135   292.4163   -34.6084
 1063.0000   107.5994     8.5367     2.4855     0.1093     0.0286     5.0419     3.2912   335.3790   -34.3888
 1063.5000   106.2992     8.5363     2.4549     0.1267     0.0351     4.6204     2.8000   377.4894   -34.1685
 1064.0000   105.7308     8.5359     2.4251     0.1447     0.0418     4.1988     2.6692   419.5212   -33.9483
 1064.5000   108.6059     8.5354     2.3953     0.1628     0.0393     3.7790     2.5276   454.1410   -33.7256
 1065.0000   110.5879     8.5350     2.3655     0.1808     0.0304     3.3461     2.3833   482.9320   -33.5024
 1065.5000   108.0800     8.5345     2.3356     0.1989     0.0293     3.1361     2.2413   509.4936   -33.1545
 1066.0000   105.6360     8.5341     2.2940     0.2198     0.0338     2.9809     2.2856   510.3004   -33.2345
 1066.5000   103.1429     8.5337     2.3132     0.2056     0.0260     2.9144     2.3420   504.4687   -33.3108
 1067.0000   104.7093     8.5332     2.3577     0.1832     0.0213     2.8663     2.4003   456.8195   -33.3833
 1067.5000   107.9771     8.5328     2.4218     0.1608     0.0382     2.8859     2.6000   407.4524   -33.4559
 1068.0000   112.4260     8.5323     2.4415     0.1385     0.0499     3.4011     3.0556   358.0852   -33.5285
 1068.5000   115.7312     8.5319     2.4525     0.1161     0.0583     3.8766     3.5073   308.7147   -33.6011
 1069.0000   113.3648     8.5315     2.4832     0.0937     0.0507     4.0075     3.9597   259.1534   -33.6737
 1069.5000   112.0838     8.5310     2.5358     0.0714     0.0392     4.3565     4.4121   233.3251   -33.7463
 1070.0000   114.0723     8.5306     2.5432     0.0646     0.0604     5.0389     4.8637   212.9096   -33.8189
 1070.5000   114.9994     8.5301     2.5491     0.0612     0.0566     5.4837     5.2662   195.7365   -33.8915
 1071.0000   113.6104     8.5297     2.5552     0.0578     0.0526     5.5894     5.4850   189.6193   -33.9641
 1071.5000   112.2492     8.5292     2.5585     0.0637     0.0527     5.6245     5.3026   187.1897   -34.0367
 1072.0000   110.8980     8.5288     2.5230     0.0826     0.0629     5.6558     5.0573   202.1138   -34.1092
 1072.5000   110.5295     8.5284     2.4934     0.0980     0.0478     5.6876     4.7923   216.4137   -34.1820
 1073.0000   117.6431     8.5279     2.4956     0.0956     0.0364     5.7212     4.5311   230.7189   -34.2545
 1073.5000   121.9123     8.5275     2.4975     0.0977     0.0249     5.6472     4.2694   245.0302   -34.3268
 1074.0000   122.9675     8.5270     2.4892     0.0975     0.0235     5.4182     4.0093   259.2601   -34.3079
