~VERSION INFORMATION
 VERS.                2.0:   CWLS LOG ASCII STANDARD - VERSION 2.0
 WRAP.                 NO:   ONE LINE PER DEPTH STEP
~WELL INFORMATION
#MNEM.UNIT      DATA TYPE    INFORMATION
#----------   ------------   ------------------------------
 STRT.F           14.0000:   START DEPTH
 STOP.F          630.0000:   STOP DEPTH
 STEP.F            0.5000:   STEP LENGTH
 NULL.          -999.2500:   NO VALUE
 COMP. LAWRENCE/ALLISON INC:   COMPANY
 WELL.    78-53 SX #10-10:   WELL
 FLD .             TEAPOT:   FIELD
 LOC .      S10 T38N R78W:   LOCATION
 CNTY.            NATRONA:   COUNTY
 STAT.            WYOMING:   STATE
 CTRY. UNITED STATES OF AMERICA:   COUNTRY
 SRVC.           Gearhart:   SERVICE COMPANY
 DATE.        08-JUL-1986:   LOGDATE
 API .       490251108200:   API NUMBER
~CURVE INFORMATION
#MNEM.UNIT       API CODE    CURVE DESCRIPTION
#----------   ------------   ------------------------------
 DEPT.F                  :   
 GRR .GAPI   07 310 01 00:   GAMMA RAY FROM RES. LOG.
 RILD.OHMM   07 120 46 00:   INDUCTION LOG DEEP RESISTIVITY
 RILM.OHMM   07 120 44 00:   INDUCTION LOG MEDIUM
~PARAMETER INFORMATION
#MNEM.UNIT          VALUE    DESCRIPTION
#----------   ------------   ------------------------------
 PD  .                 GL:   PERMANENT DATUM
 EPD .F              5152:   ELEVATION PERMANENT DATUM
 LMF .                 KB:   LOG MEASURED FROM
 DAPD.F                 5:   FEET ABOVE PERMANENT DATUM
 DMF .                 KB:   DRILLING MEASURED FROM
 EKB .F              5157:   KELLING BUSHING
 EGL .F              5152:   GROUND LEVEL
 DATE.             7-8-86:   RUN DATE
 RUN .                  1:   RUN NUMBER
 DD  .F               630:   DEPTH DRILLER
 DL  .F               634:   DEPTH LOGGER
 BLI .F               625:   BOTTOM LOG INTERVAL
 TLI .F                47:   TOP LOG INTERVAL
 CS  .IN            8.625:   CASING SIZE
 CBD .F                47:   CASING BOTTOM DRILLER
 CBL .F                47:   CASING BOTTOM LOGGER
 BS  .IN            7.875:   BIT SIZE
 BSD .F               630:   BIT SIZE AT DEPTH
 DFT .               FOAM:   DRILLING FLUID TYPE
 TCS .HRS            1530:   TIME CURCULATED STOPPED
 TLAB.HRS            1644:   TIME LOGGER AT BOTTOM
 MRT .F                65:   MAXIMUM RECORDED TEMPERATURE
 LUN .               7609:   LOGGING UNIT NUMBER
 LUL .           GILLETTE:   LOGGING UNIT LOCATION
 ENGI.         WEATHERMON:   RECORDING ENGINEER
 WITN.             STRONG:   WITNESSED BY
 CLNT.            A2DTECH:   CLIENT CODE
 ORIG.       2", 5" PRINT:   ORIGIN OF DATA
 UWI .       490251108200:   UNIQUE WELL ID
 DICO. A2D Technologies, Inc.:   DIGITIZING COMPANY
~OTHER INFORMATION
~A   DEPT       GRR      RILD       RILM   
# ...
  469.0000    86.2878    14.6900    14.0585
  469.5000    84.8643    14.7833    14.1487
  470.0000    82.2290    14.8751    14.2237
  470.5000    81.9334    14.7721    14.3259
  471.0000    84.3230    14.6476    14.2797
  471.5000    86.1070    14.5243    14.2039
  472.0000    85.2020    14.4019    14.1293
  472.5000    82.5195    14.2806    14.0551
  473.0000    82.7491    14.1780    13.9813
  473.5000    84.4215    14.1248    13.9079
  474.0000    89.3677    14.0718    13.8349
  474.5000    91.8630    14.0190    13.7810
  475.0000    90.1402    13.9664    13.7235
  475.5000    86.7599    13.9140    13.6663
  476.0000    83.6876    13.8618    13.6093
  476.5000    84.1176    13.8098    13.5525
  477.0000    86.4836    13.7580    13.4960
  477.5000    87.7041    13.7064    13.4141
  478.0000    88.3227    13.6549    13.4470
  478.5000    88.9269    13.6037    13.5078
  479.0000    89.4216    13.5527    13.5689
  479.5000    89.6356    13.4320    13.6302
  480.0000    90.0456    13.2886    13.6686
  480.5000    91.0327    13.1070    13.6686
  481.0000    90.8408    12.9244    13.6406
  481.5000    89.4792    12.7442    13.4978
  482.0000    88.5037    12.5666    13.3696
  482.5000    89.8379    12.3915    13.1602
  483.0000    90.7546    12.2752    12.9540
  483.5000    90.4651    12.1938    12.7511
  484.0000    89.0206    12.1130    12.5513
  484.5000    89.9101    12.0328    12.4425
  485.0000    92.4882    11.9530    12.3024
  485.5000    95.0622    11.8738    12.1708
  486.0000    95.7289    11.7952    12.0407
  486.5000    95.0968    11.7170    11.9103
  487.0000    93.1235    11.6394    11.7595
  487.5000    91.1663    11.5622    11.5957
  488.0000    89.2336    11.4856    11.4352
  488.5000    90.0674    11.4010    11.2770
  489.0000    93.1240    11.1236    11.1210
  489.5000    96.1026    10.8532    10.9671
  490.0000    98.7741    10.5896    10.8064
  490.5000    96.5011    10.3320    10.4575
  491.0000    94.6801     9.9880    10.0988
  491.5000    94.3123     9.1851     9.7524
  492.0000    96.6098     8.4467     9.3273
  492.5000    98.9525     7.7677     8.5110
  493.0000    99.8301     7.1433     7.7662
  493.5000   101.3226     6.5668     7.0358
  494.0000   105.6911     6.2629     6.1870
  494.5000   113.3927     5.9754     5.8785
  495.0000   121.1878     5.6974     5.6307
  495.5000   122.2828     5.7034     5.4929
  496.0000   110.1671     5.8665     5.4929
  496.5000    98.6045     6.3145     5.8221
  497.0000    93.2501     6.7794     6.1514
  497.5000    91.8522     7.1465     6.8045
  498.0000    92.7359     7.6639     7.4981
  498.5000    93.1470     8.1866     8.2595
  499.0000    93.3054     8.7449     9.0981
  499.5000    93.4846     9.3413     9.8256
  500.0000    94.2127     9.9784    10.1089
  500.5000    95.6523    10.3597    10.4003
  501.0000    95.9187    10.5048    10.6368
  501.5000    95.1893    10.7080    10.7380
  502.0000    94.7864    10.9317    10.8402
  502.5000    95.2618    11.1606    10.9434
  503.0000    96.4067    11.3943    11.0476
  503.5000    97.8228    11.6329    11.2245
  504.0000    99.7068    11.8765    11.5389
  504.5000   101.2921    12.1252    11.8622
  505.0000   100.2794    12.3791    12.1946
  505.5000    99.0633    12.6391    12.5362
  506.0000    97.4605    12.8593    12.7595
  506.5000    95.2611    13.0176    12.8976
  507.0000    93.0613    13.1769    13.0372
  507.5000    91.0434    13.3383    13.1784
  508.0000    91.7234    13.5018    13.3210
  508.5000    94.6672    13.6673    13.4652
  509.0000    96.1576    13.8355    13.6109
  509.5000    96.3028    13.9428    13.7582
  510.0000    95.3730    14.0059    13.9071
  510.5000    92.5858    14.0679    13.9279
  511.0000    89.8881    14.1304    13.9279
  511.5000    87.1142    14.1933    13.9279
  512.0000    86.6439    14.2565    13.9279
  512.5000    86.8178    14.3205    13.9279
  513.0000    87.2224    14.2729    13.9279
  513.5000    87.7903    14.2137    13.9279
  514.0000    88.6522    14.1546    13.9279
  514.5000    90.0374    14.0959    13.9279
  515.0000    91.3925    14.0375    13.9279
  515.5000    91.5299    13.9793    13.9279
  516.0000    89.7377    13.9213    13.9279
  516.5000    87.9496    13.8636    13.9281
  517.0000    87.5192    13.8061    13.9280
  517.5000    87.9918    13.7493    13.9291
  518.0000    89.2242    13.6915    13.7928
  518.5000    90.3667    13.5129    13.6220
  519.0000    93.1514    13.2509    13.4533
  519.5000    96.0692    12.9949    13.2886
  520.0000    99.3657    12.7983    12.9819
  520.5000   101.1681    12.4567    12.7561
  521.0000   101.2507    12.1283    12.5364
  521.5000   101.5601    11.8063    12.3206
  522.0000   102.5808    11.6210    12.1085
  522.5000   102.7591    11.4089    11.9000
  523.0000   101.1380    11.2006    11.7309
  523.5000   100.8175    11.0115    11.5700
  524.0000   100.8126    10.8828    11.4112
  524.5000   100.9762    10.7645    11.2547
  525.0000   101.9255    10.6475    11.0981
  525.5000   102.9030    10.5317    10.9242
  526.0000   104.7103    10.4077    10.7531
  526.5000   105.9251    10.3734    10.6052
  527.0000   104.6487    10.3257    10.5749
  527.5000   103.4231    10.2783    10.5332
  528.0000   102.1915    10.2310    10.4917
  528.5000   102.3551    10.1840    10.4504
  529.0000   104.0560    10.1372    10.4092
  529.5000   105.6846    10.0907    10.3682
  530.0000   105.2441    10.0443    10.3274
  530.5000   104.8372     9.9982    10.2868
  531.0000   104.6132     9.9522    10.2460
  531.5000   103.8513     9.9065    10.1901
  532.0000   102.2927     9.8610    10.0695
  532.5000   100.4143     9.8157     9.9510
  533.0000    99.1599     9.7714     9.8339
  533.5000    99.5796     9.6820     9.7181
  534.0000    99.9444     9.5398     9.6037
  534.5000    98.5150     9.3985     9.4906
  535.0000    98.3191     9.2596     9.3789
  535.5000   100.2800     9.1228     9.2685
  536.0000   102.2148     8.9879     9.1594
  536.5000   104.0755     8.8570     9.0516
  537.0000   104.8572     8.6719     8.7656
  537.5000   105.5839     8.4438     8.4664
  538.0000   106.1299     8.2202     8.1773
  538.5000   106.2597     8.0025     7.8981
  539.0000   108.6938     7.7906     7.6285
  539.5000   109.3104     7.4903     7.3508
  540.0000   107.1486     7.5803     7.3485
  540.5000   104.1907     7.7511     7.3493
  541.0000   101.5246     7.9259     7.5335
  541.5000   103.3747     8.1514     7.7843
  542.0000   107.0585     8.6304     8.0819
  542.5000   110.2256     9.1568     8.5851
  543.0000   107.7383     9.7154     9.1246
  543.5000   104.0059     9.9300     9.5060
  544.0000   101.4528    10.1678     9.9083
  544.5000   101.0805    10.4109    10.3276
  545.0000   101.2163    10.6602    10.5780
  545.5000   102.2636    10.7174    10.7911
  546.0000   102.9235    10.7710    11.0069
  546.5000   100.5921    10.8249    11.3314
  547.0000    97.9879    10.8790    11.3231
  547.5000    99.8080    11.0115    11.3255
  548.0000   102.6555    11.0115    11.3278
  548.5000   105.3960    10.8957    11.1916
  549.0000   105.6491    10.7869    11.0653
  549.5000   103.9582    10.6767    10.9412
  550.0000   102.2871    10.5060    10.8064
  550.5000   100.6038    10.5060    10.8258
  551.0000    99.1509    10.5789    10.8472
  551.5000    97.6567    10.6349    10.8688
  552.0000    96.1450    10.6913    10.8903
  552.5000    95.4628    10.7054    10.9052
  553.0000    97.5041    10.4986    10.8104
  553.5000   100.0908    10.2866    10.5909
  554.0000   102.6996    10.0802    10.3168
  554.5000   105.3336     9.8721    10.0497
  555.0000   105.6408     9.4737     9.7933
  555.5000   103.3360     8.8958     9.3227
  556.0000   100.9922     8.3845     8.8335
  556.5000    98.6593     7.3423     8.3700
  557.0000    96.3324     6.2759     7.7181
  557.5000    94.1985     5.3644     7.0849
  558.0000    94.3290     4.5853     6.0037
  558.5000    96.4628     3.9193     5.0337
  559.0000   100.2925     3.3067     4.2187
  559.5000   104.1116     3.1541     3.5397
