~VERSION INFORMATION
 VERS.                2.0:   CWLS LOG ASCII STANDARD - VERSION 2.0
 WRAP.                 NO:   ONE LINE PER DEPTH STEP
~WELL INFORMATION
#MNEM.UNIT      DATA TYPE    INFORMATION
#----------   ------------   ------------------------------
 STRT.F           28.0000:   START DEPTH
 STOP.F          461.0000:   STOP DEPTH
 STEP.F            0.5000:   STEP LENGTH
 NULL.          -999.2500:   NO VALUE
 COMP. FENIX & SCISSON INC:   COMPANY
 WELL.       NPR-3 #47S-3:   WELL
 FLD .             TEAPOT:   FIELD
 LOC .       S3 T38N R78W:   LOCATION
 CNTY.            NATRONA:   COUNTY
 STAT.            WYOMING:   STATE
 CTRY. UNITED STATES OF AMERICA:   COUNTRY
 SRVC.            Unknown:   SERVICE COMPANY
 DATE.        06-JUL-1978:   LOGDATE
 API .       490251066400:   API NUMBER
~CURVE INFORMATION
#MNEM.UNIT       API CODE    CURVE DESCRIPTION
#----------   ------------   ------------------------------
 DEPT.F                  :   
 SPR .MV     05 010 01 00:   SPONTANEOUS POTENTIAL FROM RES.
 ILD .OHMM   05 120 46 00:   INDUCTION LOG DEEP
 SN  .OHMM   05 040 16 00:   SHORT NORMAL 16"
 GRD .GAPI   45 310 01 00:   GAMMA RAY FROM DENSITY LOG
 CALD.IN     45 280 60 00:   CALIPER FROM DENSITY LOG
 CORR.G/C3   45 356 01 00:   DENSITY CORRECTION
 DEN .G/C3   45 350 01 00:   DENSTIY
 DPHI.DEC    45 890 12 00:   DENSITY POROSITY SANDSTONE
~PARAMETER INFORMATION
#MNEM.UNIT          VALUE    DESCRIPTION
#----------   ------------   ------------------------------
 PD  .                 GL:   PERMANENT DATUM
 EPD .F              5202:   ELEVATION PERMANENT DATUM
 LMF .                 KB:   LOG MEASURED FROM
 DAPD.F                 4:   FEET ABOVE PERMANENT DATUM
 DMF .                 KB:   DRILLING MEASURED FROM
 EKB .F              5206:   KELLING BUSHING
 EGL .F              5202:   GROUND LEVEL
 DATE.        06-JUL-1978:   RUN DATE
 RUN .                  1:   RUN NUMBER
 DD  .F               460:   DEPTH DRILLER
 DL  .F               461:   DEPTH LOGGER
 BLI .F               461:   BOTTOM LOG INTERVAL
 TLI .F                40:   TOP LOG INTERVAL
 CS  .IN            8.625:   CASING SIZE
 CBD .F                40:   CASING BOTTOM DRILLER
 CBL .F                40:   CASING BOTTOM LOGGER
 BS  .IN            7.875:   BIT SIZE
 BSD .F               460:   BIT SIZE AT DEPTH
 DFT .                KCL:   DRILLING FLUID TYPE
 DFD .                8.6:   DRILLING FLUID DENSITY
 DFV .                 33:   DRILLING FLUID VISCOSITY
 DFPH.                9.5:   DRILLING FLUID PH
 MSS .           FLOWLINE:   MUD SAMPLE SOURCE
 TCS .HRS               1:   TIME CURCULATED STOPPED
 LUN .               2858:   LOGGING UNIT NUMBER
 LUL .               CASP:   LOGGING UNIT LOCATION
 ENGI.           REYNOLDS:   RECORDING ENGINEER
 WITN.           MCGENLEY:   WITNESSED BY
 CLNT.            A2DTECH:   CLIENT CODE
 ORIG.           5" PRINT:   ORIGIN OF DATA
 UWI .       490251066400:   UNIQUE WELL ID
 DICO. A2D Technologies, Inc.:   DIGITIZING COMPANY
~OTHER INFORMATION
~A   DEPT      SPR        ILD         SN         GRD      CALD       CORR        DEN       DPHI   
   28.0000  -999.2500  -999.2500  -999.2500    90.1685  -999.2500  -999.2500  -999.2500  -999.2500
   28.5000  -999.2500  -999.2500  -999.2500    90.5299  -999.2500  -999.2500  -999.2500  -999.2500
   29.0000  -999.2500  -999.2500  -999.2500    91.7334  -999.2500  -999.2500  -999.2500  -999.2500
   29.5000  -999.2500  -999.2500  -999.2500    87.0011  -999.2500  -999.2500  -999.2500  -999.2500
   30.0000  -999.2500  -999.2500  -999.2500    86.8629  -999.2500  -999.2500  -999.2500  -999.2500
   30.5000  -999.2500  -999.2500  -999.2500    85.6527  -999.2500  -999.2500  -999.2500  -999.2500
   31.0000  -999.2500  -999.2500  -999.2500    89.1899  -999.2500  -999.2500  -999.2500  -999.2500
   31.5000  -999.2500  -999.2500  -999.2500    89.9706  -999.2500  -999.2500  -999.2500  -999.2500
   32.0000  -999.2500  -999.2500  -999.2500    89.5262  -999.2500  -999.2500  -999.2500  -999.2500
   32.5000  -999.2500  -999.2500  -999.2500    90.9194  -999.2500  -999.2500  -999.2500  -999.2500
   33.0000  -999.2500  -999.2500  -999.2500    92.6461  -999.2500  -999.2500  -999.2500  -999.2500
   33.5000  -999.2500  -999.2500  -999.2500    89.3996  -999.2500  -999.2500  -999.2500  -999.2500
   34.0000  -999.2500  -999.2500  -999.2500    88.6672  -999.2500  -999.2500  -999.2500  -999.2500
   34.5000  -999.2500  -999.2500  -999.2500    90.0642  -999.2500  -999.2500  -999.2500  -999.2500
   35.0000  -999.2500  -999.2500  -999.2500    90.3855  -999.2500  -999.2500  -999.2500  -999.2500
   35.5000  -999.2500  -999.2500  -999.2500    89.6348  -999.2500  -999.2500  -999.2500  -999.2500
   36.0000  -999.2500  -999.2500  -999.2500    86.4338  -999.2500  -999.2500  -999.2500  -999.2500
   36.5000  -999.2500  -999.2500  -999.2500    82.3140  -999.2500  -999.2500  -999.2500  -999.2500
   37.0000  -999.2500  -999.2500  -999.2500    80.9507  -999.2500  -999.2500  -999.2500  -999.2500
   37.5000  -999.2500  -999.2500  -999.2500    81.2720  -999.2500  -999.2500  -999.2500  -999.2500
   38.0000  -999.2500  -999.2500  -999.2500    82.3589  -999.2500  -999.2500  -999.2500  -999.2500
   38.5000  -999.2500  -999.2500  -999.2500    82.6802  -999.2500  -999.2500  -999.2500  -999.2500
   39.0000  -999.2500  -999.2500  -999.2500    82.2329  -999.2500  -999.2500  -999.2500  -999.2500
   39.5000  -999.2500  -999.2500  -999.2500    80.8057  -999.2500  -999.2500  -999.2500  -999.2500
   40.0000  -999.2500  -999.2500  -999.2500    78.9004  -999.2500  -999.2500  -999.2500  -999.2500
   40.5000  -999.2500  -999.2500  -999.2500    80.2936     7.9585  -999.2500  -999.2500  -999.2500
   41.0000  -999.2500  -999.2500  -999.2500    83.0614     7.9293  -999.2500  -999.2500  -999.2500
   41.5000  -999.2500  -999.2500  -999.2500    78.9453     7.9311    -0.3760  -999.2500  -999.2500
   42.0000  -999.2500  -999.2500  -999.2500    77.7314     7.9326    -0.4135  -999.2500  -999.2500
   42.5000  -999.2500  -999.2500  -999.2500    80.6598     7.9184    -0.4313     2.2170     0.3047
   43.0000  -999.2500  -999.2500  -999.2500    81.2836     7.9203    -0.4337     2.1228     0.3319
   43.5000  -999.2500  -999.2500  -999.2500    79.6400     7.9218    -0.4564     2.1198     0.3668
   44.0000  -999.2500  -999.2500  -999.2500    84.2270     7.9233    -0.4102     2.0719     0.4110
   44.5000  -999.2500  -999.2500  -999.2500    88.9968     7.9251    -0.2051     1.9530     0.4106
   45.0000  -999.2500  -999.2500  -999.2500    92.8176     7.9266    -0.0565     1.8247     0.4087
   45.5000  -999.2500  -999.2500  -999.2500    99.2833     7.9281     0.0224     1.8094     0.4050
   46.0000  -999.2500  -999.2500  -999.2500   104.9644     7.9296     0.0432     1.8534     0.3546
   46.5000  -999.2500  -999.2500  -999.2500   104.9794     7.9311     0.0552     2.4864     0.1190
   47.0000  -999.2500  -999.2500  -999.2500   105.3006     7.9326     0.0612     2.4494     0.1137
   47.5000   -16.9109     1.3046     6.6227   106.2345     7.9341     0.0643     2.4858     0.1072
   48.0000   -16.8915     1.0403     7.1012   104.2586     7.9356     0.0673     2.4936     0.1016
   48.5000   -17.0257   298.4484     7.3554   102.7422     7.9371     0.0704     2.4967     0.1029
   49.0000   -17.1551    37.6203     8.3318   102.6033     7.9387     0.0707     2.5153     0.0954
   49.5000   -17.1309    10.3921    12.6889   102.6190     7.9558     0.0705     2.5231     0.0908
   50.0000   -17.7067     8.4594    10.9138   103.2466     7.9726     0.0587     2.4791     0.1105
   50.5000   -24.2349     8.1751    11.3044   103.9020     7.9895     0.0617     2.4985     0.1068
   51.0000   -24.5139     8.1292    12.0359   104.3492     7.9910     0.0529     2.5032     0.1083
   51.5000   -24.3449     8.1367    12.3811   104.8266     7.9925     0.0470     2.4878     0.1141
   52.0000   -24.9272     8.1428    11.9711   104.9910     7.9940     0.0516     2.4785     0.1262
   52.5000   -25.3478     8.1488    11.6547   103.4783     7.9955     0.0249     2.4584     0.1441
   53.0000   -25.4723     8.1549    11.5834   103.9527     7.9970     0.0175     2.4277     0.1580
   53.5000   -25.7554     8.1034    11.6724   105.1928     7.9823     0.0354     2.4394     0.1462
   54.0000   -26.4752     8.1670    11.6829   105.9735     7.9515     0.0563     2.4665     0.1149
   54.5000   -26.7534     8.1731    11.6916   106.1379     7.8944     0.0714     2.4797     0.1143
   55.0000   -26.5851     8.1791    11.5404   105.2377     7.8499     0.0760     2.4882     0.1175
   55.5000   -26.5657     8.1291    11.1582   105.4059     7.7901     0.0774     2.4814     0.1170
   56.0000   -26.5463     8.1351    11.1666   106.1991     7.7302     0.0759     2.4768     0.1161
   56.5000   -27.1222     8.0298    11.5662   106.3553     7.7007     0.0716     2.4738     0.1315
   57.0000   -27.1027     7.9259    12.2301   106.2165     7.6561     0.0657     2.4645     0.1340
   57.5000   -27.9762     7.8774    12.9321   107.6135     7.6273     0.0568     2.4623     0.1203
   58.0000   -28.1056     7.8847    13.6744   107.7816     7.6135     0.0480     2.4793     0.1182
   58.5000   -28.0853     8.0000    13.9702   107.3334     7.5997     0.0377     2.4725     0.1240
   59.0000   -28.0619     8.1730    14.1744   108.5772     7.6015     0.0333     2.4694     0.1261
   59.5000   -28.6377     8.2340    14.1849   107.3671     7.6030     0.0348     2.4687     0.1230
   60.0000   -29.0696     8.0178    14.2936   106.0038     7.6045     0.0379     2.4711     0.1208
   60.5000   -29.0454     7.9141    14.1024   104.7937     7.6060     0.0396     2.4719     0.1190
   61.0000   -28.7283     7.8642    13.7357   104.8087     7.6075     0.0410     2.4759     0.1183
   61.5000   -28.5601     7.8715    13.5580   106.2560     7.6090     0.0411     2.4790     0.1183
   62.0000   -28.9871     7.9317    13.6643   108.7168     7.6258     0.0412     2.4783     0.1186
   62.5000   -30.4558     7.9925    13.6745   108.6821     7.6427     0.0412     2.4776     0.1185
   63.0000   -31.0317     8.0537    13.5908   109.9259     7.6905     0.0413     2.4769     0.1188
   63.5000   -31.6075     8.0636    12.8722   110.2472     7.7703     0.0414     2.4769     0.1195
   64.0000   -32.0569     8.1216    12.2758   110.1090     7.8623     0.0415     2.4762     0.1213
   64.5000   -32.7591     8.1289    11.8693   111.3491     7.9404     0.0415     2.4732     0.1237
   65.0000   -33.4789     8.1911    11.6354   110.4452     7.9726     0.0416     2.4725     0.1209
   65.5000   -33.6132     8.1972    11.3278   109.8439     7.9741     0.0417     2.4733     0.1255
   66.0000   -33.5889     8.2600    11.2564   109.8626     7.9756     0.0477     2.4657     0.1292
   66.5000   -33.4255     8.2094    11.1893   109.2650     7.9771     0.0584     2.4618     0.1208
   67.0000   -33.5549     8.2723    10.9690   109.2802     7.9632     0.0706     2.4735     0.1140
   67.5000   -33.5307     8.2784    10.6791   109.4716     7.9647     0.0895     2.4767     0.1087
   68.0000   -33.9577     8.2846    10.2501   109.1606     7.9509     0.0985     2.5038     0.1056
