~VERSION INFORMATION
 VERS.                2.0:   CWLS LOG ASCII STANDARD - VERSION 2.0
 WRAP.                 NO:   ONE LINE PER DEPTH STEP
~WELL INFORMATION
#MNEM.UNIT      DATA TYPE    INFORMATION
#----------   ------------   ------------------------------
 STRT.F           18.0000:   START DEPTH
 STOP.F         2312.0000:   STOP DEPTH
 STEP.F            0.5000:   STEP LENGTH
 NULL.          -999.2500:   NO VALUE
 COMP. FENIX & SCISSON INC:   COMPANY
 WELL.  NPR 3 #51 SHX -15:   WELL
 FLD .             TEAPOT:   FIELD
 LOC .      S15 T38N R78W:   LOCATION
 CNTY.            NATRONA:   COUNTY
 STAT.            WYOMING:   STATE
 CTRY. UNITED STATES OF AMERICA:   COUNTRY
 SRVC.            Unknown:   SERVICE COMPANY
 DATE.        14-MAR-1978:   LOGDATE
 API .       490251060000:   API NUMBER
~CURVE INFORMATION
#MNEM.UNIT       API CODE    CURVE DESCRIPTION
#----------   ------------   ------------------------------
 DEPT.F                  :   
 ILD .OHMM   05 120 46 00:   INDUCTION LOG DEEP
 CILD.MMHO   05 110 46 00:   CONDUCTIVITY INDUCTION LOG DEEP
 CALD.IN     45 280 60 00:   CALIPER FROM DENSITY LOG
 GRD .GAPI   45 310 01 00:   GAMMA RAY FROM DENSITY LOG
 CORR.G/C3   45 356 01 00:   DENSITY CORRECTION
 RHOB.G/C3   45 350 01 00:   BULK DENSITY
 DPHI.DEC    45 890 12 00:   DENSITY POROSITY SANDSTONE
~PARAMETER INFORMATION
#MNEM.UNIT          VALUE    DESCRIPTION
#----------   ------------   ------------------------------
 PD  .                 GL:   PERMANENT DATUM
 EPD .F              5223:   ELEVATION PERMANENT DATUM
 LMF .                 KB:   LOG MEASURED FROM
 DAPD.F                10:   FEET ABOVE PERMANENT DATUM
 DMF .                 KB:   DRILLING MEASURED FROM
 EKB .F              5233:   KELLING BUSHING
 EGL .F              5223:   GROUND LEVEL
 DATE.            3-14-78:   RUN DATE
 RUN .                  1:   RUN NUMBER
 DD  .F              2323:   DEPTH DRILLER
 DL  .F              2314:   DEPTH LOGGER
 BLI .F              2312:   BOTTOM LOG INTERVAL
 TLI .F                20:   TOP LOG INTERVAL
 CS  .IN                9:   CASING SIZE
 CBD .F               680:   CASING BOTTOM DRILLER
 CBL .F               682:   CASING BOTTOM LOGGER
 BS  .IN            7.875:   BIT SIZE
 BSD .F              2323:   BIT SIZE AT DEPTH
 DFT .           AIR MIST:   DRILLING FLUID TYPE
 TCS .HRS               2:   TIME CURCULATED STOPPED
 LUN .               2958:   LOGGING UNIT NUMBER
 LUL .               CASP:   LOGGING UNIT LOCATION
 ENGI.             MILLER:   RECORDING ENGINEER
 WITN.           MCGINLEY:   WITNESSED BY
 CLNT.            A2DTECH:   CLIENT CODE
 ORIG.       2", 5" PRINT:   ORIGIN OF DATA
 UWI .       490251060000:   UNIQUE WELL ID
 DICO. A2D Technologies, Inc.:   DIGITIZING COMPANY
~OTHER INFORMATION
~A   DEPT      ILD       CILD       CALD         GRD      CORR       RHOB       DPHI   
# ...
  700.5000  -999.2500  -999.2500    10.8118    91.3937     0.0186     2.5029     0.0976
  701.0000  -999.2500  -999.2500    10.8221    89.0364     0.0149     2.5082     0.0936
  701.5000  -999.2500  -999.2500    10.8323    86.0920     0.0111     2.4934     0.0979
  702.0000  -999.2500  -999.2500    10.8377    83.6783     0.0074     2.4962     0.0998
  702.5000  -999.2500  -999.2500    10.8377    86.7452     0.0036     2.4682     0.1029
  703.0000  -999.2500  -999.2500    10.8378    87.1909    -0.0001     2.4789     0.1066
  703.5000  -999.2500  -999.2500    10.8378    86.4413    -0.0039     2.4821     0.1057
  704.0000  -999.2500  -999.2500    10.8378    84.5245    -0.0075     2.4732     0.1107
  704.5000  -999.2500  -999.2500    10.8378    78.9391    -0.0083     2.4712     0.1186
  705.0000  -999.2500  -999.2500    10.8378    80.0899    -0.0089     2.4809     0.1221
  705.5000  -999.2500  -999.2500    10.8378    82.8972    -0.0086     2.4615     0.1245
  706.0000  -999.2500  -999.2500    10.8378    85.6245    -0.0041     2.4600     0.1260
  706.5000  -999.2500  -999.2500    10.8378    86.9947     0.0004     2.4496     0.1220
  707.0000  -999.2500  -999.2500    10.8378    88.3487     0.0048     2.4591     0.1204
  707.5000  -999.2500  -999.2500    10.8378    88.4995     0.0085     2.4756     0.1153
  708.0000  -999.2500  -999.2500    10.8378    82.2343     0.0074     2.4809     0.1102
  708.5000  -999.2500  -999.2500    10.8378    79.6255     0.0064     2.4860     0.1072
  709.0000  -999.2500  -999.2500    10.8378    79.1783     0.0106     2.4955     0.1051
  709.5000  -999.2500  -999.2500    10.8378    84.3018     0.0159     2.5047     0.1028
  710.0000  -999.2500  -999.2500    10.8378    88.8294     0.0201     2.5090     0.0973
  710.5000  -999.2500  -999.2500    10.8373    93.3611     0.0174     2.5090     0.0900
  711.0000  -999.2500  -999.2500    10.8340    98.3103     0.0147     2.5085     0.0876
  711.5000  -999.2500  -999.2500    10.8307    97.0668     0.0183     2.5130     0.0894
  712.0000  -999.2500  -999.2500    10.8275    94.9639     0.0185     2.5155     0.0913
  712.5000  -999.2500  -999.2500    10.8241    96.1496     0.0148     2.5025     0.0967
  713.0000  -999.2500  -999.2500    10.8206    96.9346     0.0076     2.5014     0.1049
  713.5000  -999.2500  -999.2500    10.8192    91.6186     0.0003     2.4994     0.1078
  714.0000  -999.2500  -999.2500    10.8531    91.7323    -0.0044     2.4893     0.1104
  714.5000  -999.2500  -999.2500    10.8875    92.4937    -0.0064     2.4840     0.1087
  715.0000  -999.2500  -999.2500    10.8974    89.8691    -0.0084     2.4843     0.1067
  715.5000  -999.2500  -999.2500    10.9054    87.2471    -0.0093     2.4845     0.1064
  716.0000  -999.2500  -999.2500    10.9130    84.6674    -0.0089     2.4849     0.1090
  716.5000  -999.2500  -999.2500    10.9226    82.6235    -0.0085     2.4807     0.1120
  717.0000  -999.2500  -999.2500    10.9350    82.5591    -0.0081     2.4741     0.1151
  717.5000  -999.2500  -999.2500    10.9439    82.4780    -0.0077     2.4695     0.1177
  718.0000  -999.2500  -999.2500    10.9538    82.3193    -0.0069     2.4655     0.1188
  718.5000  -999.2500  -999.2500    10.9926    84.8952    -0.0055     2.4639     0.1145
  719.0000  -999.2500  -999.2500    11.0363    91.3306    -0.0041     2.4696     0.1136
  719.5000  -999.2500  -999.2500    11.0799    92.1889    -0.0027     2.4771     0.1149
  720.0000  -999.2500  -999.2500    11.1169    95.4256    -0.0003     2.4739     0.1152
  720.5000  -999.2500  -999.2500    11.1145    99.0378     0.0066     2.4712     0.1105
  721.0000  -999.2500  -999.2500    11.1131   101.0801     0.0135     2.4797     0.1036
  721.5000  -999.2500  -999.2500    11.1119   101.3532     0.0190     2.4888     0.1060
  722.0000  -999.2500  -999.2500    11.1106    97.4869     0.0233     2.4979     0.1080
  722.5000  -999.2500  -999.2500    11.1094    94.3346     0.0276     2.5031     0.1008
  723.0000  -999.2500  -999.2500    11.1081    91.1842     0.0303     2.5072     0.1044
  723.5000  -999.2500  -999.2500    11.1068    88.0292     0.0294     2.5085     0.0998
  724.0000  -999.2500  -999.2500    11.1056    85.1166     0.0285     2.5087     0.0983
  724.5000  -999.2500  -999.2500    11.1043    85.1843     0.0277     2.5041     0.1011
  725.0000  -999.2500  -999.2500    11.1030    85.4246     0.0267     2.4988     0.1037
  725.5000  -999.2500  -999.2500    11.1018    83.6851     0.0294     2.4959     0.1045
  726.0000  -999.2500  -999.2500    11.1005    81.3335     0.0339     2.4929     0.1053
  726.5000  -999.2500  -999.2500    11.0992    78.7018     0.0389     2.4872     0.1139
  727.0000  -999.2500  -999.2500    11.0980    76.0615     0.0453     2.4772     0.1259
  727.5000  -999.2500  -999.2500    11.0967    76.6713     0.0570     2.4570     0.1274
  728.0000  -999.2500  -999.2500    11.0970    78.0771     0.1137     2.4515     0.1111
  728.5000  -999.2500  -999.2500    11.0990    79.4927     0.1771     2.5522     0.0872
  729.0000  -999.2500  -999.2500    11.1011    80.9199     0.1346     2.4418     0.1054
  729.5000  -999.2500  -999.2500    11.1031    82.3530     0.0694     2.4611     0.1196
  730.0000  -999.2500  -999.2500    11.1052    79.1260     0.0287     2.4785     0.1078
  730.5000  -999.2500  -999.2500    11.1072    76.0573     0.0292     2.4730     0.1093
  731.0000  -999.2500  -999.2500    11.1093    76.9878     0.0298     2.4719     0.1108
  731.5000  -999.2500  -999.2500    11.1113    81.5791     0.0306     2.4740     0.1096
  732.0000  -999.2500  -999.2500    11.1134    86.6976     0.0314     2.4767     0.1084
  732.5000  -999.2500  -999.2500    11.1159    81.0959     0.0322     2.4795     0.1072
  733.0000  -999.2500  -999.2500    11.1036    73.7853     0.0299     2.4894     0.1011
  733.5000  -999.2500  -999.2500    11.0879    73.5643     0.0257     2.4986     0.0968
  734.0000  -999.2500  -999.2500    11.0721    78.3111     0.0187     2.5031     0.0952
  734.5000  -999.2500  -999.2500    11.0563    90.5105     0.0111     2.5070     0.0980
  735.0000  -999.2500  -999.2500    11.0401    94.1066     0.0036     2.5054     0.1015
  735.5000  -999.2500  -999.2500    11.0378    93.8161    -0.0006     2.4940     0.1035
  736.0000  -999.2500  -999.2500    11.0394    89.4110     0.0031     2.4825     0.1044
  736.5000  -999.2500  -999.2500    11.0411    84.7997     0.0066     2.4793     0.1019
  737.0000  -999.2500  -999.2500    11.0429    83.9180     0.0100     2.4927     0.1002
  737.5000  -999.2500  -999.2500    11.0446    91.8464     0.0136     2.4994     0.1011
  738.0000  -999.2500  -999.2500    11.0463    96.4738     0.0138     2.4925     0.1019
  738.5000  -999.2500  -999.2500    11.0481    92.8009     0.0129     2.4891     0.1014
  739.0000  -999.2500  -999.2500    11.0498    86.4561     0.0120     2.4917     0.1002
  739.5000  -999.2500  -999.2500    11.0515    79.9918     0.0110     2.4943     0.0999
  740.0000  -999.2500  -999.2500    11.0533    75.7342     0.0101     2.4942     0.1026
  740.5000  -999.2500  -999.2500    11.0550    79.0385     0.0092     2.4798     0.1052
  741.0000  -999.2500  -999.2500    11.0567    79.7560     0.0082     2.4892     0.1045
  741.5000  -999.2500  -999.2500    11.0584    78.3647     0.0073     2.5008     0.1053
  742.0000  -999.2500  -999.2500    11.0602    80.2345     0.0064     2.5021     0.1092
  742.5000  -999.2500  -999.2500    11.0619    84.7453     0.0054     2.4976     0.1044
  743.0000  -999.2500  -999.2500    11.0636    87.4302     0.0045     2.4894     0.1060
  743.5000  -999.2500  -999.2500    11.0654    87.2872     0.0050     2.4855     0.1085
  744.0000  -999.2500  -999.2500    11.0671    89.2207     0.0055     2.4815     0.1110
  744.5000  -999.2500  -999.2500    11.0688    91.8585     0.0060     2.4794     0.1112
  745.0000  -999.2500  -999.2500    11.0705    89.8467     0.0064     2.4783     0.1102
  745.5000  -999.2500  -999.2500    11.0723    86.5808     0.0035     2.4773     0.1110
