~VERSION INFORMATION
 VERS.                2.0:   CWLS LOG ASCII STANDARD - VERSION 2.0
 WRAP.                 NO:   ONE LINE PER DEPTH STEP
~WELL INFORMATION
#MNEM.UNIT      DATA TYPE    INFORMATION
#----------   ------------   ------------------------------
 STRT.F           82.0000:   START DEPTH
 STOP.F         1194.0000:   STOP DEPTH
 STEP.F            0.5000:   STEP LENGTH
 NULL.          -999.2500:   NO VALUE
 COMP.       INTEX OIL CO:   COMPANY
 WELL.   76S-11 NPR #3-11:   WELL
 FLD .             TEAPOT:   FIELD
 LOC .      S11 T38N R78W:   LOCATION
 CNTY.            NATRONA:   COUNTY
 STAT.            WYOMING:   STATE
 CTRY. UNITED STATES OF AMERICA:   COUNTRY
 SRVC.       Schlumberger:   SERVICE COMPANY
 DATE.        30-AUG-1966:   LOGDATE
 API .       490250972800:   API NUMBER
~CURVE INFORMATION
#MNEM.UNIT       API CODE    CURVE DESCRIPTION
#----------   ------------   ------------------------------
 DEPT.F                  :   
 SPR .MV     05 010 01 00:   SPONTANEOUS POTENTIAL FROM RES.
 CILD.MMHO   05 110 46 00:   CONDUCTIVITY INDUCTION LOG DEEP
 ILD .OHMM   05 120 46 00:   INDUCTION LOG DEEP
 ASN .OHMM   05 041 16 00:   AMPLIFIED SHORT NORMAL 16"
 CALD.IN     45 280 60 00:   CALIPER FROM DENSITY LOG
 CORR.G/C3   45 356 01 00:   DENSITY CORRECTION
 RHOB.G/C3   45 350 01 00:   BULK DENSITY
 DPHI.DEC    45 890 12 00:   DENSITY POROSITY SANDSTONE
 GRD .GAPI   45 310 01 00:   GAMMA RAY FROM DENSITY LOG
~PARAMETER INFORMATION
#MNEM.UNIT          VALUE    DESCRIPTION
#----------   ------------   ------------------------------
 PD  .                 GL:   PERMANENT DATUM
 EPD .F              5261:   ELEVATION PERMANENT DATUM
 LMF .                 KB:   LOG MEASURED FROM
 DAPD.F                 5:   FEET ABOVE PERMANENT DATUM
 DMF .                 KB:   DRILLING MEASURED FROM
 EKB .F              5266:   KELLING BUSHING
 EGL .F              5261:   GROUND LEVEL
 DATE.            8-30-66:   RUN DATE
 RUN .                  1:   RUN NUMBER
 DD  .F              1191:   DEPTH DRILLER
 DL  .F              1191:   DEPTH LOGGER
 BLI .F              1190:   BOTTOM LOG INTERVAL
 TLI .F                87:   TOP LOG INTERVAL
 CS  .IN            8.625:   CASING SIZE
 CBD .F                10:   CASING BOTTOM DRILLER
 BS  .IN             6.75:   BIT SIZE
 BSD .F              1191:   BIT SIZE AT DEPTH
 DFT .           CHEM-GEL:   DRILLING FLUID TYPE
 DFD .                9.8:   DRILLING FLUID DENSITY
 DFV .                 60:   DRILLING FLUID VISCOSITY
 MSS .         CIRCULATED:   MUD SAMPLE SOURCE
 RMS .OHMM            .76:   RESISTIVITY MUD SAMPLE
 MST .F                85:   MUD SAMPLE TEMPERATURE
 RMF .OHMM            .46:   RESISTIVITY MUD FILTRATE SAMPLE
 MFST.F                88:   MUD FILTRATE SAMPLE TEMPERATURE
 MFSS.                  M:   MUD FILTRATE SAMPLE SOURCE
 RMB .OHMM           .695:   RESISTIVITY MUD AT BHT
 BHT .F                93:   BOTTOM HOLE TEMPERATURE
 TCS .HRS               1:   TIME CURCULATED STOPPED
 MRT .F                93:   MAXIMUM RECORDED TEMPERATURE
 LUN .               3527:   LOGGING UNIT NUMBER
 LUL .               CSPR:   LOGGING UNIT LOCATION
 ENGI.               HAUG:   RECORDING ENGINEER
 WITN.                MAY:   WITNESSED BY
 CLNT.            A2DTECH:   CLIENT CODE
 ORIG. 2", 2.5", 5" PRINT:   ORIGIN OF DATA
 UWI .       490250972800:   UNIQUE WELL ID
 DICO. A2D Technologies, Inc.:   DIGITIZING COMPANY
~OTHER INFORMATION
~A   DEPT      SPR        CILD       ILD          ASN     CALD       CORR       RHOB       DPHI        GRD   
# ...
  848.5000   -45.7376   112.3438     8.4659    11.4472     7.2818     0.0263     2.4690     0.1066   109.3135
  849.0000   -45.3294   114.3971     8.3659    11.2948     7.2818     0.0184     2.4610     0.1142   106.9975
  849.5000   -45.4105   116.2675     8.2630    11.1543     7.2818     0.0280     2.4734     0.1088   104.5833
  850.0000   -45.6632   117.8337     8.1656    10.9900     7.2818     0.0403     2.4905     0.1020   103.7168
  850.5000   -46.0192   118.2635     8.0604    10.9630     7.2818     0.0525     2.5008     0.0952   102.9667
  851.0000   -45.9125   116.2675     8.0617    11.0676     7.2818     0.0615     2.4953     0.0914   102.2381
  851.5000   -45.5049   115.1577     8.1408    11.1558     7.2818     0.0517     2.4787     0.1024   101.5231
  852.0000   -45.5108   114.1557     8.2045    11.2431     7.2818     0.0596     2.4843     0.1002   100.7200
  852.5000   -45.5733   113.2735     8.2787    11.3492     7.2818     0.0918     2.5103     0.0863   101.1393
  853.0000   -45.6369   113.4369     8.3426    11.4242     7.2818     0.1213     2.5392     0.0735   101.7946
  853.5000   -45.6750   113.7500     8.4193    11.3119     7.2818     0.1590     2.5553     0.0615   101.1578
  854.0000   -45.6254   114.0631     8.3848    11.2171     7.2818     0.1462     2.5485     0.0636    97.7733
  854.5000   -45.5706   114.6500     8.2898    11.1280     7.2818     0.1124     2.5283     0.0741    96.0825
  855.0000   -45.5286   115.7813     8.2137    11.1370     7.2818     0.0812     2.5057     0.0864    96.2778
  855.5000   -45.4472   116.9126     8.1302    11.0423     7.2818     0.0633     2.5057     0.0864    98.5277
  856.0000   -45.1504   118.0439     8.0487    10.9158     7.2818     0.0772     2.5055     0.0888   101.2826
  856.5000   -44.8668   119.1752     7.9698    10.8325     7.2818     0.0788     2.5016     0.0926   104.1322
  857.0000   -44.5305   120.3065     7.8809    10.7343     7.2818     0.0720     2.4898     0.0968   105.4542
  857.5000   -44.5859   121.4378     7.8242    10.6448     7.2818     0.0666     2.4848     0.0937   105.9777
  858.0000   -44.7992   122.5691     7.7596    10.5404     7.2818     0.0753     2.5098     0.0867   106.1023
  858.5000   -44.7847   123.7003     7.6735    10.5065     7.2818     0.0784     2.5154     0.0803   105.1254
  859.0000   -44.4581   124.8316     7.5947    10.4799     7.2818     0.0658     2.5012     0.0937   104.1547
  859.5000   -44.0802   125.9629     7.5120    10.4542     7.2818     0.0546     2.4982     0.0914   103.0292
  860.0000   -43.8767   127.0942     7.4317    10.4054     7.2818     0.0671     2.5052     0.0842   101.7147
  860.5000   -43.9862   128.2435     7.3495    10.0804     7.2818     0.0605     2.5079     0.0913   102.0910
  861.0000   -44.0490   130.4347     7.2704    10.0123     7.2818     0.0384     2.5068     0.0881   104.0106
  861.5000   -44.1342   132.6613     7.1960    10.0233     7.2818     0.0464     2.5198     0.0795   105.5429
  862.0000   -44.2109   134.8880     7.1248     9.9518     7.2818     0.0741     2.5357     0.0700   103.9373
  862.5000   -44.2687   137.1147     7.0564     9.8345     7.2820     0.0855     2.5197     0.0761   102.2523
  863.0000   -44.2328   139.3413     6.9865     9.7470     7.2813     0.0677     2.4997     0.0883   101.3483
  863.5000   -44.1919   141.5680     6.9180     9.6720     7.2819     0.0666     2.4876     0.0992   102.1360
  864.0000   -44.1574   144.2116     6.8435     9.5778     7.2542     0.0776     2.4866     0.1024   105.1982
  864.5000   -44.1081   144.2116     6.8386     9.4498     7.2133     0.0880     2.4842     0.1036   108.0295
  865.0000   -44.1037   142.6595     6.8925     9.3791     7.1743     0.0909     2.4801     0.1072   110.3353
  865.5000   -44.2856   140.7592     6.9482     9.3778     7.1341     0.0786     2.4775     0.1124   112.1149
  866.0000   -44.5489   138.8588     7.0047     9.4402     7.1457     0.0645     2.4630     0.1176   110.8514
  866.5000   -44.8071   136.9585     7.0599     9.5140     7.1800     0.0598     2.4489     0.1229   106.7206
  867.0000   -44.2726   135.0582     7.1169     9.5800     7.2141     0.0552     2.4419     0.1300   103.9147
  867.5000   -44.3409   133.2335     7.1713     9.6575     7.2459     0.0520     2.4493     0.1278   103.1472
  868.0000   -44.6728   132.2355     7.2330     9.7038     7.2797     0.0493     2.4500     0.1236   102.1213
  868.5000   -44.6132   132.2355     7.2212     9.7418     7.2815     0.0460     2.4472     0.1259   101.3196
  869.0000   -44.4540   133.7974     7.0470     9.7247     7.2823     0.0420     2.4468     0.1300   101.6719
  869.5000   -44.3081   136.2275     6.8623     9.6836     7.2813     0.0415     2.4479     0.1269   103.0876
  870.0000   -44.1415   140.6707     6.6818     9.5007     7.2826     0.0417     2.4483     0.1214   105.6094
  870.5000   -44.1439   144.8790     6.4960     9.2104     7.2809     0.0509     2.4586     0.1165   108.1942
  871.0000   -44.3871   149.0874     6.3194     8.9583     7.2793     0.0601     2.4739     0.1122   109.6283
  871.5000   -44.4008   153.2958     6.1243     8.7066     7.2341     0.0677     2.4858     0.1079   109.4004
  872.0000   -44.1403   157.1856     6.0222     8.4968     7.1807     0.0739     2.4718     0.1064   108.1340
  872.5000   -43.8811   159.1373     6.0195     8.2881     7.1835     0.0683     2.4539     0.1126   107.0240
  873.0000   -43.7135   161.3639     5.9995     8.1684     7.2337     0.0575     2.4356     0.1248   105.8602
  873.5000   -44.0431   163.5906     5.9886     8.1184     7.2768     0.0552     2.4330     0.1347   104.7246
  874.0000   -44.0223   164.8459     5.9722     8.1904     7.3176     0.0598     2.4405     0.1300   105.5926
  874.5000   -43.8385   163.7325     5.9598     8.2828     7.3316     0.0582     2.4512     0.1251   107.0976
  875.0000   -43.6764   161.3591     5.9431     8.3724     7.3543     0.0543     2.4586     0.1209   108.5952
  875.5000   -43.4971   157.7155     5.9419     8.4625     7.3616     0.0586     2.4671     0.1169   110.0896
  876.0000   -43.5351   155.2665     5.9881     8.5537     7.3611     0.0669     2.4917     0.1068   111.5547
  876.5000   -43.6351   155.5170     6.0335     8.6321     7.3613     0.0764     2.4979     0.0957   113.1747
  877.0000   -43.6772   155.7675     6.0792     8.6748     7.3612     0.0600     2.4854     0.0983   113.1740
  877.5000   -43.6744   156.0180     6.1248     8.7120     7.3611     0.0480     2.4748     0.1028   110.6129
  878.0000   -43.6727   156.1876     6.1702     8.7478     7.3614     0.0440     2.4699     0.1072   108.0436
  878.5000   -43.6809   154.2176     6.2161     8.7207     7.3609     0.0390     2.4623     0.1118   106.4207
  879.0000   -43.6389   152.4641     6.2482     8.6955     7.3603     0.0336     2.4634     0.1135   107.7859
  879.5000   -43.2774   150.7106     6.3237     8.7125     7.3464     0.0326     2.4712     0.1103   109.5833
  880.0000   -42.9203   148.9571     6.4026     8.8486     7.3320     0.0433     2.4787     0.1072   111.2561
  880.5000   -43.0932   147.2036     6.4789     9.0574     7.3183     0.0535     2.4841     0.1041   113.0998
  881.0000   -43.3500   145.4501     6.5571     9.1795     7.3040     0.0634     2.4856     0.1015   111.4788
  881.5000   -43.6166   143.6966     6.6297     9.2751     7.2863     0.0668     2.4864     0.0995   109.1180
  882.0000   -43.4807   142.2156     6.6188     9.3150     7.3109     0.0691     2.4919     0.0975   108.9731
  882.5000   -43.0451   142.8185     6.5889     9.3118     7.3491     0.0672     2.4937     0.0952   110.3763
  883.0000   -42.8607   143.3404     6.5628     9.3046     7.2959     0.0582     2.4916     0.0961   111.7143
  883.5000   -42.8748   143.8623     6.5353     9.2289     7.2919     0.0514     2.4900     0.0982   113.2379
  884.0000   -42.8690   144.3842     6.5079     9.1592     7.3331     0.0494     2.4927     0.0992   112.7654
  884.5000   -42.8750   144.9060     6.4816     9.0822     7.3602     0.0504     2.4987     0.0933   113.6636
