~VERSION INFORMATION
 VERS.                2.0:   CWLS LOG ASCII STANDARD - VERSION 2.0
 WRAP.                 NO:   ONE LINE PER DEPTH STEP
~WELL INFORMATION
#MNEM.UNIT      DATA TYPE    INFORMATION
#----------   ------------   ------------------------------
 STRT.F           32.5000:   START DEPTH
 STOP.F          433.0000:   STOP DEPTH
 STEP.F            0.5000:   STEP LENGTH
 NULL.          -999.2500:   NO VALUE
 COMP.    FENIX & SCISSON:   COMPANY
 WELL. NPR-3 65-S-10 #65-10:   WELL
 FLD .             TEAPOT:   FIELD
 LOC .      S10 T38N R78W:   LOCATION
 CNTY.            NATRONA:   COUNTY
 STAT.            WYOMING:   STATE
 CTRY. UNITED STATES OF AMERICA:   COUNTRY
 SRVC.           BIRDWELL:   SERVICE COMPANY
 DATE.        13-JUN-1978:   LOGDATE
 API .       490251063000:   API NUMBER
~CURVE INFORMATION
#MNEM.UNIT       API CODE    CURVE DESCRIPTION
#----------   ------------   ------------------------------
 DEPT.F                  :   
 CALD.IN     45 280 60 00:   CALIPER FROM DENSITY LOG
 CORR.G/C3   45 356 01 00:   DENSITY CORRECTION
 DEN .G/C3   45 350 01 00:   COMPENSATED BULK DENSITY
 GRD .GAPI   45 310 01 00:   GAMMA RAY FROM DENSITY LOG
 DPHI.DEC    45 890 12 00:   DENSITY POROSITY SANDSTONE
 IL  .OHMM   05 120 00 00:   INDUCTION LOG 40"
 SN  .OHMM   05 040 16 00:   SHORT NORMAL 16"
 SPR .MV     05 010 01 00:   SPONTANEOUS POTENTIAL FROM RES.
~PARAMETER INFORMATION
#MNEM.UNIT          VALUE    DESCRIPTION
#----------   ------------   ------------------------------
 PD  .                 GL:   PERMANENT DATUM
 EPD .F              5193:   ELEVATION PERMANENT DATUM
 LMF .                 KB:   LOG MEASURED FROM
 DMF .                 KB:   DRILLING MEASURED FROM
 EKB .F              5197:   KELLING BUSHING
 EGL .F              5193:   GROUND LEVEL
 DATE.          6-13-1978:   RUN DATE
 RUN .                  1:   RUN NUMBER
 DD  .F               430:   DEPTH DRILLER
 DL  .F               433:   DEPTH LOGGER
 BLI .F               427:   BOTTOM LOG INTERVAL
 TLI .F                50:   TOP LOG INTERVAL
 CS  .IN            8.625:   CASING SIZE
 CBD .F                40:   CASING BOTTOM DRILLER
 CBL .F                48:   CASING BOTTOM LOGGER
 BS  .IN            7.875:   BIT SIZE
 BSD .F               430:   BIT SIZE AT DEPTH
 DFT .                KCL:   DRILLING FLUID TYPE
 DFD .                8.7:   DRILLING FLUID DENSITY
 DFV .                 32:   DRILLING FLUID VISCOSITY
 DFPH.                9.5:   DRILLING FLUID PH
 DFL .                8.4:   DRILLING FLUID LOSS
 MSS .           FLOWLINE:   MUD SAMPLE SOURCE
 RMS .OHMM            .38:   RESISTIVITY MUD SAMPLE
 MST .F                86:   MUD SAMPLE TEMPERATURE
 RMF .OHMM            .36:   RESISTIVITY MUD FILTRATE SAMPLE
 MFST.F                82:   MUD FILTRATE SAMPLE TEMPERATURE
 MFSS.               MEAS:   MUD FILTRATE SAMPLE SOURCE
 MCSS.               MEAS:   MUD CAKE SAMPLE SOURCE
 TCS .HRS               3:   TIME CURCULATED STOPPED
 MRT .F                73:   MAXIMUM RECORDED TEMPERATURE
 LUN .               2958:   LOGGING UNIT NUMBER
 LUL .               CASP:   LOGGING UNIT LOCATION
 ENGI.           REYNOLDS:   RECORDING ENGINEER
 WITN.           MCGINLEY:   WITNESSED BY
 CLNT.            A2DTECH:   CLIENT CODE
 ORIG.           5" PRINT:   ORIGIN OF DATA
 UWI .       490251063000:   UNIQUE WELL ID
 DICO. A2D Technologies, Inc.:   DIGITIZING COMPANY
~OTHER INFORMATION
~A   DEPT     CALD       CORR        DEN        GRD       DPHI         IL         SN        SPR   
# ...
  235.0000     7.3373     0.0534     2.4993   130.3286     0.1071     6.7400     9.0615   -61.9494
  235.5000     7.3967     0.0430     2.4948   131.5233     0.1019     6.7455     9.1312   -61.8652
  236.0000     7.5755     0.0342     2.4895   130.7742     0.0913     6.7499     9.0757   -61.6190
  236.5000     7.5752     0.0371     2.4858   131.2601     0.1005     6.7543     9.0224   -61.4508
  237.0000     7.6048     0.0371     2.4813   134.8069     0.0993     6.7126     8.9658   -61.4351
  237.5000     7.5746     0.0356     2.4768   133.9087     0.1025     6.7178     8.9746   -61.2707
  238.0000     7.5146     0.0342     2.4723   132.1136     0.1122     6.7683     9.1063   -61.2551
  238.5000     7.4397     0.0327     2.4679   127.6278     0.1155     6.7255     9.1150   -61.2394
  239.0000     7.3349     0.0296     2.4634   129.5693     0.1154     6.7776     9.1222   -61.2232
  239.5000     7.3048     0.0164     2.4574   131.2121     0.1142     6.7822     9.1294   -61.2043
  240.0000     7.1850     0.0075     2.4589   131.6592     0.1316     6.7875     9.1365   -61.1887
  240.5000     7.0355     0.0090     2.4588   130.9100     0.1387     6.7920     9.1440   -60.5778
  241.0000     6.9606     0.0105     2.4492   129.4139     0.1453     6.7964     9.1527   -59.8181
  241.5000     6.9454     0.0075     2.4253   129.1135     0.1549     6.7035     8.9113   -59.3557
  242.0000     6.9450     0.0105     2.4103   130.3180     0.1578     6.5299     8.5577   -59.6341
  242.5000     6.9268     0.0164     2.3983   132.5483     0.1501     6.4340     8.2182   -59.6185
  243.0000     6.9146     0.0116     2.3961   132.2480     0.1471     6.3609     8.0484   -59.6029
  243.5000     6.9293    -0.0043     2.4088   131.6487     0.1381     6.2359     7.6855   -59.5878
  244.0000     6.9439    -0.0013     2.4133   132.1515     0.1267     6.1650     8.2961   -59.5714
  244.5000     6.9286     0.0046     2.4332   134.1866     0.1228     6.0675     7.6976   -59.3881
  245.0000     6.9433     0.0105     2.4522   134.4845     0.1189     6.0368     7.4432   -59.2389
  245.5000     6.9429     0.0164     2.4559   132.6891     0.1171     6.0418     7.1002   -59.2232
  246.0000     6.9427     0.0282     2.4611   131.4915     0.1137     6.0457     7.3040   -59.2076
  246.5000     6.9723     0.0371     2.4679   129.9953     0.1078     6.2196     8.1043   -59.1920
  247.0000     6.9869     0.0464     2.4761   127.9012     0.1004     6.3099     8.2797   -59.2348
  247.5000     7.0015     0.0667     2.4895   126.2556     0.0994     6.4903     8.4010   -59.3095
  248.0000     7.0310     0.0933     2.4963   126.1044     0.0991     6.8152     8.6439   -59.4388
  248.5000     7.1203     0.1022     2.5022   126.7009     0.0970     6.8197     8.7705   -59.4232
  249.0000     7.3067     0.0874     2.4993   127.4469     0.0931     6.5042     8.7774   -59.5565
  249.5000     7.4928     0.0697     2.4940   127.8939     0.0898     6.2882     8.8449   -59.6895
  250.0000     7.5970     0.0563     2.4933   127.8921     0.0961     6.0794     8.7912   -59.6700
  250.5000     7.5967     0.0518     2.4993   128.0402     0.1296     5.9182     8.5610   -59.3568
  251.0000     7.5964     0.0578     2.5007   129.0852     0.1391     5.7612     8.1090   -58.7459
  251.5000     7.5513     0.0371     2.4544   130.9203     0.1350     5.6084     7.5240   -58.1350
  252.0000     7.4913     0.0194     2.4335   132.2210     0.1182     5.4974     6.7452   -57.6587
  252.5000     7.4311     0.0105     2.4395   132.6684     0.1104     5.5019     6.5208   -57.3558
  253.0000     7.3116     0.0016     2.4567   132.8161     0.1170     5.5435     6.3079   -57.1914
  253.5000     6.9382     0.0016     2.4723   126.8353     0.1247     5.5525     6.4445   -57.1277
  254.0000     6.8932     0.0031     2.4631   123.0970     0.1274     5.6348     6.8144   -57.0113
  254.5000     6.9675     0.0016     2.4514   122.4977     0.1267     5.7896     7.3054   -57.1445
  255.0000     7.0240    -0.0072     2.4462   122.4963     0.1193     5.9551     7.7799   -57.2738
  255.5000     6.9785    -0.0117     2.4492   122.4945     0.1113     6.2963     8.2261   -57.4109
  256.0000     6.9629    -0.0132     2.4562   122.7921     0.1140     6.7505     8.4622   -57.1310
  256.5000     6.9325    -0.0117     2.4604   121.9123     0.1152     7.0398     8.7051   -58.0111
  257.0000     6.9170    -0.0102     2.4671   120.4185     0.1100     7.2411     8.9550   -57.3999
  257.5000     6.9015    -0.0072     2.4679   119.2227     0.1014     7.3462     9.2789   -57.0927
  258.0000     6.8709    -0.0043     2.4723   119.2227     0.0988     7.4530     9.6760   -57.5232
  258.5000     6.8405    -0.0013     2.4873   119.8477     0.0987     7.5106     9.9537   -57.6593
  259.0000     6.8550     0.0016     2.4918   125.5007     0.0993     7.5674    10.0437   -57.9441
  259.5000     6.8394     0.0061     2.4910   127.2945     0.0990     7.5711    10.2207   -58.0802
  260.0000     6.8538     0.0135     2.4963   126.6966     0.0967     7.5558    10.2275   -58.0642
  260.5000     6.8978     0.0253     2.4993   121.6876     0.0943     7.5605    10.2359   -57.9026
  261.0000     6.9570     0.0342     2.4993   118.3259     0.0960     7.5648    10.2426   -57.7411
  261.5000     7.0477     0.0549     2.4985   118.7743     0.0954     7.5688    10.2486   -57.5763
  262.0000     7.1945     0.0733     2.4978   123.1091     0.0925     7.5730    10.2561   -57.5635
  262.5000     7.3134     0.0704     2.4985   124.1555     0.0862     7.5777    10.2628   -57.5508
  263.0000     7.4322     0.0704     2.4993   123.7070     0.0787     7.5297    10.2698   -57.5380
  263.5000     7.5112     0.0705     2.5023   123.4081     0.0757     7.5232    10.2780   -56.6324
  264.0000     7.6996     0.0424     2.5239   124.0060     0.0739     7.4859    10.2848   -56.3188
  264.5000     7.6095     0.0320     2.5266   125.0688     0.0914     7.4900    10.2916   -56.7556
  265.0000     7.5492     0.0247     2.5251   126.0987     0.1014     7.4941    10.2983   -56.7397
  265.5000     7.5038     0.0188     2.5251   127.2945     0.1080     7.4987    10.3051   -55.0900
  266.0000     7.4584     0.0085     2.4952   128.4903     0.1128     7.5545    10.1710   -55.0773
  266.5000     7.3982    -0.0093     2.4743   129.4280     0.1170     7.7162    10.0403   -55.0640
  267.0000     7.2484    -0.0181     2.4676   128.7892     0.1199     7.8814    10.1162   -55.2005
  267.5000     7.0984    -0.0180     2.4624   126.9955     0.1268     7.7787    10.2631   -55.0358
  268.0000     7.0083    -0.0136     2.4609   122.8102     0.1417     7.4166    10.3408   -54.4278
  268.5000     6.9331    -0.0001     2.4415   118.0269     0.1710     7.0229    10.3478   -54.4150
  269.0000     6.8876     0.0175     2.4131   116.0837     0.1857     6.6045    10.3561   -54.6998
  269.5000     6.8423     0.0353     2.3989   115.6353     0.1941     6.2906    10.0816   -53.4934
  270.0000     6.8268     0.0620     2.3537   118.6248     0.1973     6.1717     9.2890   -51.9926
  270.5000     6.8262     0.0408     2.3354   128.0419     0.1932     6.3481     8.3839   -52.4262
  271.0000     6.8257     0.0088     2.3384   129.0882     0.1289     6.4840     7.0484   -51.9670
  271.5000     6.8101     0.0088     2.3706   129.6861     0.1124     6.4429     6.5086   -51.0243
  272.0000     6.7946     0.0207     2.4282   126.9955     0.0997     6.4021     6.6957   -50.4534
  272.5000     6.8091     0.0297     2.4805   115.6353     0.0936     6.9579     7.1771   -50.7383
  273.0000     6.8233     0.0414     2.4925   113.8416     0.0948     7.4577     8.6476   -50.7223
  273.5000     6.8226     0.0474     2.5000   115.4858     0.0954     8.3304     9.7267   -50.7095
  274.0000     6.8220     0.0504     2.5059   118.9238     0.0932     8.9287    10.6101   -50.6964
  274.5000     6.8364     0.0504     2.5030   115.1868     0.0900     9.4391    11.4108   -50.8296
  275.0000     6.8357     0.0460     2.5007   113.8416     0.0876     9.7748    11.9815   -51.1145
