~VERSION INFORMATION
 VERS.                2.0:   CWLS LOG ASCII STANDARD - VERSION 2.0
 WRAP.                 NO:   ONE LINE PER DEPTH STEP
~WELL INFORMATION
#MNEM.UNIT      DATA TYPE    INFORMATION
#----------   ------------   ------------------------------
 STRT.F            0.0000:   START DEPTH
 STOP.F          528.0000:   STOP DEPTH
 STEP.F            0.5000:   STEP LENGTH
 NULL.          -999.2500:   NO VALUE
 COMP.   FLUOR DANIEL INC:   COMPANY
 WELL. NAVAL PETROLEUM RESERVE 3 SX-3 53 #2-3:   WELL
 FLD .             TEAPOT:   FIELD
 LOC .       S3 T38N R78W:   LOCATION
 CNTY.            NATRONA:   COUNTY
 STAT.            WYOMING:   STATE
 CTRY. UNITED STATES OF AMERICA:   COUNTRY
 SRVC.      Western Atlas:   SERVICE COMPANY
 DATE.        06-JUL-1995:   LOGDATE
 API .       490252273900:   API NUMBER
~CURVE INFORMATION
#MNEM.UNIT       API CODE    CURVE DESCRIPTION
#----------   ------------   ------------------------------
 DEPT.F                  :   
 GRR .GAPI   07 310 01 00:   GAMMA RAY FROM RES. LOG.
 RILD.OHMM   07 120 46 00:   INDUCTION LOG DEEP RESISTIVITY
 RILM.OHMM   07 120 44 00:   INDUCTION LOG MEDIUM
~PARAMETER INFORMATION
#MNEM.UNIT          VALUE    DESCRIPTION
#----------   ------------   ------------------------------
 PD  .                 GL:   PERMANENT DATUM
 EPD .F              5146:   ELEVATION PERMANENT DATUM
 LMF .                 KB:   LOG MEASURED FROM
 DAPD.F                10:   FEET ABOVE PERMANENT DATUM
 DMF .                 KB:   DRILLING MEASURED FROM
 EKB .F              5156:   KELLING BUSHING
 EDF .F              5155:   DRILLING FLOOR
 EGL .F              5146:   GROUND LEVEL
 DATE.             7-6-95:   RUN DATE
 RUN .                  1:   RUN NUMBER
 DD  .F               535:   DEPTH DRILLER
 DL  .F               536:   DEPTH LOGGER
 BLI .F               528:   BOTTOM LOG INTERVAL
 TLI .F                53:   TOP LOG INTERVAL
 CS  .IN            9.625:   CASING SIZE
 CBD .F                52:   CASING BOTTOM DRILLER
 CBL .F                53:   CASING BOTTOM LOGGER
 BS  .IN             8.75:   BIT SIZE
 BSD .F               535:   BIT SIZE AT DEPTH
 DFT .                AIR:   DRILLING FLUID TYPE
 BHT .F               102:   BOTTOM HOLE TEMPERATURE
 MRT .F               102:   MAXIMUM RECORDED TEMPERATURE
 LUN .            HL 6530:   LOGGING UNIT NUMBER
 LUL .             CASPER:   LOGGING UNIT LOCATION
 ENGI.             RAUTIO:   RECORDING ENGINEER
 WITN.             STRONG:   WITNESSED BY
 CLNT.            A2DTECH:   CLIENT CODE
 ORIG. 2", 2.5", 5" PRINT:   ORIGIN OF DATA
 UWI .       490252273900:   UNIQUE WELL ID
 DICO. A2D Technologies, Inc.:   DIGITIZING COMPANY
~OTHER INFORMATION
~A    DEPT      GRR      RILD       RILM   
    0.0000    12.7016  -999.2500  -999.2500
    0.5000    13.4129  -999.2500  -999.2500
    1.0000    15.5242  -999.2500  -999.2500
    1.5000    21.9180  -999.2500  -999.2500
    2.0000    29.9263  -999.2500  -999.2500
    2.5000    30.0088  -999.2500  -999.2500
    3.0000    25.3361  -999.2500  -999.2500
    3.5000    19.4236  -999.2500  -999.2500
    4.0000    13.5063  -999.2500  -999.2500
    4.5000    12.3438  -999.2500  -999.2500
    5.0000    13.4871  -999.2500  -999.2500
    5.5000    15.2206  -999.2500  -999.2500
    6.0000    15.4672  -999.2500  -999.2500
    6.5000    13.7396  -999.2500  -999.2500
    7.0000    11.8907  -999.2500  -999.2500
    7.5000    12.1049  -999.2500  -999.2500
    8.0000    12.9413  -999.2500  -999.2500
    8.5000    13.7914  -999.2500  -999.2500
    9.0000    13.6943  -999.2500  -999.2500
    9.5000    14.1451  -999.2500  -999.2500
   10.0000    16.8349  -999.2500  -999.2500
   10.5000    24.8227  -999.2500  -999.2500
   11.0000    34.0680  -999.2500  -999.2500
   11.5000    43.2430  -999.2500  -999.2500
   12.0000    51.2348  -999.2500  -999.2500
   12.5000    52.6889  -999.2500  -999.2500
   13.0000    53.2746  -999.2500  -999.2500
   13.5000    56.2149  -999.2500  -999.2500
   14.0000    59.5076  -999.2500  -999.2500
   14.5000    62.8500  -999.2500  -999.2500
   15.0000    64.8397  -999.2500  -999.2500
   15.5000    66.5262  -999.2500  -999.2500
   16.0000    66.7422  -999.2500  -999.2500
   16.5000    66.7532  -999.2500  -999.2500
   17.0000    66.6943  -999.2500  -999.2500
   17.5000    64.8163  -999.2500  -999.2500
   18.0000    61.4067  -999.2500  -999.2500
   18.5000    58.6484  -999.2500  -999.2500
   19.0000    62.4406  -999.2500  -999.2500
   19.5000    67.1907  -999.2500  -999.2500
   20.0000    71.4208  -999.2500  -999.2500
   20.5000    75.6366  -999.2500  -999.2500
   21.0000    79.4430  -999.2500  -999.2500
   21.5000    78.8128  -999.2500  -999.2500
   22.0000    77.3699  -999.2500  -999.2500
   22.5000    75.9229  -999.2500  -999.2500
   23.0000    75.4057  -999.2500  -999.2500
   23.5000    77.4289  -999.2500  -999.2500
   24.0000    80.7520  -999.2500  -999.2500
   24.5000    83.4105  -999.2500  -999.2500
   25.0000    83.3596  -999.2500  -999.2500
   25.5000    82.0525  -999.2500  -999.2500
   26.0000    81.5750  -999.2500  -999.2500
   26.5000    83.4660  -999.2500  -999.2500
   27.0000    88.3087  -999.2500  -999.2500
   27.5000    88.9165  -999.2500  -999.2500
   28.0000    85.9029  -999.2500  -999.2500
   28.5000    82.7909  -999.2500  -999.2500
   29.0000    81.5740  -999.2500  -999.2500
   29.5000    81.4128  -999.2500  -999.2500
   30.0000    81.2182  -999.2500  -999.2500
   30.5000    79.2347  -999.2500  -999.2500
   31.0000    78.1376  -999.2500  -999.2500
   31.5000    80.8094  -999.2500  -999.2500
   32.0000    83.7887  -999.2500  -999.2500
   32.5000    84.9944  -999.2500  -999.2500
   33.0000    85.2736  -999.2500  -999.2500
   33.5000    84.5328  -999.2500  -999.2500
   34.0000    82.7659  -999.2500  -999.2500
   34.5000    81.2073  -999.2500  -999.2500
   35.0000    81.2556  -999.2500  -999.2500
   35.5000    81.1879  -999.2500  -999.2500
   36.0000    79.5936  -999.2500  -999.2500
   36.5000    79.0123  -999.2500  -999.2500
   37.0000    81.1583  -999.2500  -999.2500
   37.5000    83.0465  -999.2500  -999.2500
   38.0000    81.5511  -999.2500  -999.2500
   38.5000    79.4645  -999.2500  -999.2500
   39.0000    79.5391  -999.2500  -999.2500
   39.5000    81.9809  -999.2500  -999.2500
   40.0000    83.0087  -999.2500  -999.2500
   40.5000    82.0917  -999.2500  -999.2500
   41.0000    80.5296  -999.2500  -999.2500
   41.5000    78.9932  -999.2500  -999.2500
   42.0000    78.0107  -999.2500  -999.2500
   42.5000    78.2696  -999.2500  -999.2500
   43.0000    78.6583  -999.2500  -999.2500
   43.5000    79.0533  -999.2500  -999.2500
   44.0000    79.8121  -999.2500  -999.2500
   44.5000    80.8195  -999.2500  -999.2500
   45.0000    81.5729  -999.2500  -999.2500
   45.5000    80.0998  -999.2500  -999.2500
   46.0000    79.0077  -999.2500  -999.2500
   46.5000    80.6283  -999.2500  -999.2500
   47.0000    82.2274  -999.2500  -999.2500
   47.5000    83.5986  -999.2500  -999.2500
   48.0000    82.4347  -999.2500  -999.2500
   48.5000    81.6530  -999.2500  -999.2500
   49.0000    82.1849  -999.2500  -999.2500
   49.5000    83.5181  -999.2500  -999.2500
   50.0000    83.9713  -999.2500  -999.2500
   50.5000    81.7838  -999.2500  -999.2500
   51.0000    80.5596  -999.2500  -999.2500
   51.5000    81.3932  -999.2500  -999.2500
   52.0000    82.2096  -999.2500  -999.2500
   52.5000    82.0987  -999.2500  -999.2500
   53.0000    83.2272     3.2050  9904.7373
   53.5000    88.7657     3.4359  9953.1055
   54.0000   105.0091     4.4137 10259.0400
   54.5000   121.5250     4.8530  3410.6533
   55.0000   128.0923     2.7263     8.4548
   55.5000   130.5294     2.7263     4.2145
   56.0000   133.2776     6.5025     5.1667
   56.5000   136.0800 11109.2588     7.8714
   57.0000   138.9279  9232.8184    10.5004
   57.5000   139.6923 10429.3643    13.1217
   58.0000   137.3483  2712.1841    16.4058
   58.5000   135.3524    11.1176    18.1494
   59.0000   136.5002     9.8583    13.1107
   59.5000   140.3241     9.3026    10.5922
   60.0000   144.1519     8.8042     9.9499
   60.5000   143.7829     8.3325    10.3248
   61.0000   139.2642     7.8973     9.9079
   61.5000   139.7695     7.9957     9.1700
   62.0000   141.6395     8.0409     8.2777
   62.5000   142.2292     7.4873     7.9678
   63.0000   140.4888     7.1351     7.8638
   63.5000   138.7821     6.7995     7.8235
   64.0000   138.0042     6.6854     8.1937
   64.5000   136.8285     7.2143     8.4921
   65.0000   134.3405     7.9789     8.7517
   65.5000   130.3284     8.8228     9.0729
   66.0000   130.1516     8.9048     9.0705
   66.5000   130.3745     8.9048     9.0714
   67.0000   127.8953     8.9048     9.0711
   67.5000   124.9414     8.9048     9.0710
   68.0000   124.5943     8.9048     9.0710
   68.5000   125.1213     8.9048     9.0710
   69.0000   125.4265     8.9048     9.0710
   69.5000   126.0470     8.9048     9.0710
   70.0000   127.4535     8.9047     9.0710
   70.5000   129.7625     8.9037     9.0711
   71.0000   132.4626     8.9284     9.0664
   71.5000   133.5154     8.9802     9.0593
   72.0000   134.5041     9.0329     9.0522
   72.5000   135.5412     9.0858     9.0450
   73.0000   134.8127     9.1390     9.0379
   73.5000   132.2528     9.1925     9.0307
   74.0000   130.0357     9.2403     9.0236
   74.5000   128.7555     9.2129     9.0165
   75.0000   127.4428     9.1883     9.0094
   75.5000   126.8117     9.1637     9.0022
   76.0000   128.9076     9.1392     8.9952
   76.5000   131.4800     9.1148     8.9879
   77.0000   132.2211     9.0903     8.9764
   77.5000   132.5068     9.0704     8.9563
   78.0000   133.9998     9.0525     8.9362
   78.5000   135.5281     9.0341     8.9161
   79.0000   135.9211     9.0158     8.8960
   79.5000   135.7669     8.9976     8.8760
   80.0000   134.8284     8.9793     8.8561
   80.5000   133.9086     8.9611     8.8362
   81.0000   133.5563     8.9430     8.8163
   81.5000   135.2810     8.9248     8.7965
   82.0000   137.5949     8.9067     8.7767
   82.5000   137.4012     8.8887     8.7569
   83.0000   134.7357     8.8707     8.7373
   83.5000   132.4484     8.8527     8.7176
   84.0000   131.1248     8.8348     8.6980
   84.5000   129.6376     8.8169     8.6784
   85.0000   127.4094     8.7990     8.6589
   85.5000   125.1905     8.7812     8.6394
   86.0000   127.2102     8.7633     8.6200
   86.5000   130.0592     8.7457     8.6006
   87.0000   131.2258     8.7133     8.5812
   87.5000   131.2505     8.6769     8.5507
   88.0000   131.4978     8.6406     8.5202
   88.5000   133.3884     8.6045     8.4898
   89.0000   137.1815     8.5685     8.4596
   89.5000   141.0242     8.5326     8.4294
   90.0000   144.8387     8.4970     8.3994
   90.5000   145.7902     8.4615     8.3695
