~VERSION INFORMATION
 VERS.                2.0:   CWLS LOG ASCII STANDARD - VERSION 2.0
 WRAP.                 NO:   ONE LINE PER DEPTH STEP
~WELL INFORMATION
#MNEM.UNIT      DATA TYPE    INFORMATION
#----------   ------------   ------------------------------
 STRT.F           22.0000:   START DEPTH
 STOP.F          500.0000:   STOP DEPTH
 STEP.F            0.5000:   STEP LENGTH
 NULL.          -999.2500:   NO VALUE
 COMP.    FENIX & SCISSON:   COMPANY
 WELL.      NPR-3 #65S3-3:   WELL
 FLD .             teapot:   FIELD
 LOC .       S3 T38N R78W:   LOCATION
 CNTY.            NATRONA:   COUNTY
 STAT.            WYOMING:   STATE
 CTRY. UNITED STATES OF AMERICA:   COUNTRY
 SRVC.           BIRDWELL:   SERVICE COMPANY
 DATE.        07-JAN-1978:   LOGDATE
 API .       490251055200:   API NUMBER
~CURVE INFORMATION
#MNEM.UNIT       API CODE    CURVE DESCRIPTION
#----------   ------------   ------------------------------
 DEPT.F                  :   
 ILD .OHMM   05 120 46 00:   INDUCTION LOG DEEP
 SN  .OHMM   05 040 16 00:   SHORT NORMAL 16"
 SPR .MV     05 010 01 00:   SPONTANEOUS POTENTIAL FROM RES.
 CALD.IN     45 280 60 00:   CALIPER FROM DENSITY LOG
 DPHI.DEC    45 890 12 00:   DENSITY POROSITY SANDSTONE
 DRHO.G/C3   45 356 01 00:   DENSITY CORRECTION
 GRD .GAPI   45 310 01 00:   GAMMA RAY FROM DENSITY LOG
 RHOB.G/C3   45 350 01 00:   BULK DENSITY
~PARAMETER INFORMATION
#MNEM.UNIT          VALUE    DESCRIPTION
#----------   ------------   ------------------------------
 PD  .                 GL:   PERMANENT DATUM
 EPD .F              5156:   ELEVATION PERMANENT DATUM
 LMF .                 KB:   LOG MEASURED FROM
 DAPD.F                 4:   FEET ABOVE PERMANENT DATUM
 DMF .                 KB:   DRILLING MEASURED FROM
 EKB .F              5160:   KELLING BUSHING
 EGL .F              5156:   GROUND LEVEL
 DATE.        07-JAN-1978:   RUN DATE
 RUN .                  1:   RUN NUMBER
 DD  .F               500:   DEPTH DRILLER
 DL  .F               502:   DEPTH LOGGER
 BLI .F               500:   BOTTOM LOG INTERVAL
 TLI .F                30:   TOP LOG INTERVAL
 CS  .IN            8.625:   CASING SIZE
 CBD .F                40:   CASING BOTTOM DRILLER
 CBL .F                40:   CASING BOTTOM LOGGER
 BS  .IN            7.875:   BIT SIZE
 BSD .F               500:   BIT SIZE AT DEPTH
 DFT .                KCL:   DRILLING FLUID TYPE
 DFD .                8.6:   DRILLING FLUID DENSITY
 DFV .                 33:   DRILLING FLUID VISCOSITY
 DFPH.                9.0:   DRILLING FLUID PH
 DFL .                7.6:   DRILLING FLUID LOSS
 MSS .           FLOWLINE:   MUD SAMPLE SOURCE
 RMS .OHMM           0.23:   RESISTIVITY MUD SAMPLE
 MST .F                60:   MUD SAMPLE TEMPERATURE
 RMF .OHMM            2.2:   RESISTIVITY MUD FILTRATE SAMPLE
 MFST.F                60:   MUD FILTRATE SAMPLE TEMPERATURE
 RMC .OHMM            3.4:   RESISTIVITY MUD CAKE
 MCST.F                60:   MUD CAKE SAMPLE TEMPERATURE
 MFSS.               MEAS:   MUD FILTRATE SAMPLE SOURCE
 MCSS.               MEAS:   MUD CAKE SAMPLE SOURCE
 RMB .OHMM            1.9:   RESISTIVITY MUD AT BHT
 BHT .F                71:   BOTTOM HOLE TEMPERATURE
 TCS .HRS               8:   TIME CURCULATED STOPPED
 MRT .F                71:   MAXIMUM RECORDED TEMPERATURE
 LUN .               2958:   LOGGING UNIT NUMBER
 LUL .             CASPER:   LOGGING UNIT LOCATION
 ENGI.            POINTER:   RECORDING ENGINEER
 WITN.      DAVE MCGINLEY:   WITNESSED BY
 CLNT.            A2DTECH:   CLIENT CODE
 ORIG.           5" PRINT:   ORIGIN OF DATA
 UWI .       490251055200:   UNIQUE WELL ID
 DICO. A2D Technologies, Inc.:   DIGITIZING COMPANY
~OTHER INFORMATION
~A   DEPT      ILD         SN        SPR       CALD       DPHI       DRHO         GRD      RHOB   
# ...
  184.0000     7.7667    12.0896   -39.8782     8.0102     0.0993     0.0165    96.4385     2.4792
  184.5000     7.7576    12.0757   -40.2061     8.0111     0.0984     0.0173    96.7653     2.4777
  185.0000     7.7466    12.0618   -40.5332     8.0120     0.0962     0.0234    97.0862     2.4793
  185.5000     7.7377    12.1323   -39.9503     7.9979     0.0929     0.0287    97.7048     2.4861
  186.0000     7.7852    12.1184   -39.9725     7.9990     0.0905     0.0295    97.1329     2.4929
  186.5000     7.7740    12.1896   -39.8365     7.9999     0.0905     0.0258    95.6681     2.4945
  187.0000     7.8217    12.1751   -40.0169     7.9855     0.0936     0.0205    93.6081     2.4908
  187.5000     7.8104    12.2465   -40.3444     7.9866     0.0963     0.0190    92.7381     2.4871
  188.0000     7.9666    12.2289   -40.8246     7.9875     0.0995     0.0153    93.6548     2.4834
  188.5000     7.8421    12.0454   -41.0000     8.0034     0.1021     0.0108    95.2162     2.4797
  189.0000     7.7272    11.8647   -41.3326     8.0043     0.1042     0.0063    97.3234     2.4745
  189.5000     7.6647    11.6054   -41.3548     8.0202     0.1096     0.0071    98.1948     2.4692
  190.0000     7.6026    11.5114   -41.2188     8.0210     0.1030     0.0200    96.4325     2.4618
  190.5000     7.4886    11.4981   -41.7045     8.0219     0.0916     0.0291    96.4558     2.4799
  191.0000     7.4280    11.4847   -42.0321     8.0228     0.0940     0.0314    97.0743     2.4897
  191.5000     7.4195    11.4684   -42.2070     8.0387     0.0921     0.0314    97.3953     2.4995
  192.0000     7.4110    11.3755   -42.3818     8.0396     0.0915     0.0292    97.4186     2.4973
  192.5000     7.1985    11.1269   -42.2514     8.0405     0.0951     0.0232    97.4419     2.4801
  193.0000     7.0395    11.1151   -42.2791     8.0415     0.1002     0.0240    96.8700     2.4719
  193.5000     6.9825    10.8706   -42.3013     8.0424     0.1041     0.0233    96.2976     2.4719
  194.0000     6.9260    10.6233   -42.3235     8.0433     0.1065     0.0173    95.4286     2.4720
  194.5000     6.8221    10.3991   -42.3457     8.0292     0.1188     0.0135    94.2614     2.4630
  195.0000     6.6731    10.1011   -42.5206     8.0301     0.1254     0.0106    93.9871     2.4451
  195.5000     6.4820     9.6755   -42.6954     8.0310     0.1329     0.0076    94.9091     2.4346
  196.0000     6.2091     9.3327   -43.0230     8.0318     0.1389     0.0053    94.9325     2.4247
  196.5000     5.8923     8.8155   -43.6565     8.0327     0.1464     0.0069    94.6582     2.4103
  197.0000     5.3118     8.3270   -44.1416     8.0186     0.1547     0.0092    94.6815     2.3943
  197.5000     4.7452     7.6988   -44.4692     8.0195     0.1634     0.0153    95.3000     2.3741
  198.0000     4.1224     7.0437   -45.2547     8.0204     0.1694     0.0230    96.2162     2.3606
  198.5000     3.2708     6.2742   -45.5823     8.0213     0.1784     0.0298    95.3467     2.3532
  199.0000     3.0256     5.7633   -45.6045     8.0222     0.1865     0.0297    94.4762     2.3450
  199.5000     2.9390     5.3310   -45.7793     8.0233     0.1961     0.0282    93.6076     2.3338
  200.0000     2.8349     5.1418   -45.9542     8.0240     0.2084     0.0268    93.3333     2.2978
  200.5000     2.7330     5.1366   -45.6715     8.0251     0.2393     0.0178    93.3621     2.2701
  201.0000     2.7125     5.2400   -45.6909     8.0263     0.2444     0.0065    94.5792     2.2469
  201.5000     2.7864     5.4206   -45.7103     8.0274     0.2393    -0.0116    96.3914     2.2431
  202.0000     2.9434     5.6863   -45.7297     8.0285     0.2366    -0.0093    98.7990     2.2568
  202.5000     3.2648     6.1771   -45.7491     8.0296     0.2101     0.0171   100.0160     2.2851
  203.0000     3.6722     6.7101   -45.1578     8.0307     0.1843     0.0051   100.6378     2.3321
  203.5000     4.1885     7.4131   -43.9558     8.0319     0.1458    -0.0243   102.1525     2.3800
  204.0000     4.6136     8.4297   -43.5172     8.0330     0.1294    -0.0200   103.9647     2.3162
  204.5000     5.1893     9.1571   -43.3839     8.0341     0.1166     0.0083   104.2889     2.4033
  205.0000     5.5587     9.6733   -43.2555     8.0352     0.1115     0.0097   102.5298     2.4506
  205.5000     5.8431     9.5987   -42.3588     8.0363     0.1085     0.0098   101.3658     2.4596
  206.0000     5.9904     9.7213   -42.2207     8.0375     0.1106     0.0083   103.8334     2.4567
  206.5000     6.0261     9.7114   -42.0874     8.0386     0.1148     0.0053   106.2113     2.4552
  207.0000     6.1046     9.8379   -42.1117     8.0397     0.1121     0.0016   106.8036     2.4552
  207.5000     6.0968     9.8968   -41.9784     8.0408     0.1136     0.0008   107.4752     2.4545
  208.0000     6.0482     9.8865   -41.8443     8.0420     0.1145     0.0024   108.0529     2.4523
  208.5000     5.9583     9.8054   -41.8645     8.0431     0.1190     0.0024   107.7752     2.4464
  209.0000     5.9052     9.8666   -42.1893     8.0442     0.1247     0.0032   107.5042     2.4419
  209.5000     5.7408     9.9926   -42.5145     8.0453     0.1297     0.0092   109.0255     2.4367
  210.0000     5.5383     9.5062   -42.8436     8.0464     0.1333     0.0153   111.4330     2.4300
  210.5000     5.3430     9.0435   -43.4737     8.0476     0.1351     0.0206   111.7572     2.4226
  211.0000     5.1545     8.7854   -44.1037     8.0487     0.1345     0.0244   109.9980     2.4203
  211.5000     5.0076     8.7154   -44.1231     8.0498     0.1349     0.0124   105.5603     2.4136
  212.0000     4.8648     8.7676   -44.1425     8.0509     0.1501     0.0056   102.6107     2.3949
  212.5000     4.8260     8.7586   -43.8517     8.0521     0.1466     0.0170   100.8515     2.3935
  213.0000     4.8211     8.8110   -43.7185     8.0532     0.1356     0.0230   100.5738     2.4089
  213.5000     4.8510     8.9860   -43.2847     8.0543     0.1308     0.0201   100.9047     2.4244
  214.0000     4.9519     9.1031   -43.3041     8.0554     0.1281     0.0171   101.8241     2.4275
  214.5000     5.1524     9.3514   -43.3237     8.0565     0.1194     0.0194   101.8506     2.4463
  215.0000     5.4426     9.7416   -43.3435     8.0577     0.1074     0.0209   101.5796     2.4635
  215.5000     5.7092    10.0775   -43.2096     8.0588     0.1067     0.0194   101.3019     2.4650
  216.0000     6.0308    10.4980   -42.7710     8.0599     0.1001     0.0179   101.3351     2.4668
  216.5000     6.4151    10.7843   -42.6377     8.0610     0.1019     0.0157   101.6593     2.4726
  217.0000     6.7293    11.0014   -41.8986     8.0622     0.0986     0.0142   101.9835     2.4787
  217.5000     6.9611    11.0672   -41.7604     8.0633     0.0974     0.0127   102.3077     2.4795
  218.0000     7.0517    11.1334   -41.6272     8.0644     0.0992     0.0120   103.2271     2.4757
  218.5000     7.0939    11.1192   -41.6514     8.0655     0.1034     0.0121   104.7417     2.4713
  219.0000     7.0864    11.1886   -41.5176     8.0666     0.1045     0.0121   106.2564     2.4713
  219.5000     7.0284    11.1743   -41.3849     8.0678     0.1099     0.0129   108.0687     2.4684
  220.0000     7.0212    11.1629   -41.4046     8.0691     0.1108     0.0137   108.6905     2.4624
  220.5000     6.9653    11.1516   -41.4244     8.0689     0.1105     0.0152   107.8242     2.4572
  221.0000     6.8617    11.1402   -41.4479     8.0687     0.1084     0.0182   109.6568     2.4603
  221.5000     6.8071    11.0512   -41.3146     8.0684     0.1048     0.0167   111.7470     2.4671
  222.0000     6.7528    10.9628   -41.6394     8.0681     0.1111     0.0099   111.6945     2.4596
  222.5000     6.6524    10.7224   -42.1168     8.0679     0.1174     0.0039   110.4613     2.4499
  223.0000     6.5994    10.5629   -42.2888     8.0676     0.1220     0.0018   107.6660     2.4402
  223.5000     6.4998    10.3334   -42.4609     8.0674     0.1251     0.0026   107.6926     2.4350
  224.0000     6.3099    10.1089   -42.6330     8.0671     0.1245     0.0139   108.9030     2.4388
