~VERSION INFORMATION
 VERS.                2.0:   CWLS LOG ASCII STANDARD - VERSION 2.0
 WRAP.                 NO:   ONE LINE PER DEPTH STEP
~WELL INFORMATION
#MNEM.UNIT      DATA TYPE    INFORMATION
#----------   ------------   ------------------------------
 STRT.F           46.0000:   START DEPTH
 STOP.F          490.0000:   STOP DEPTH
 STEP.F            0.5000:   STEP LENGTH
 NULL.          -999.2500:   NO VALUE
 COMP.    FENIX & SCISSON:   COMPANY
 WELL.        NPR #55-S-3:   WELL
 FLD .              NPR 3:   FIELD
 LOC .       S3 T38N R78W:   LOCATION
 CNTY.            NATRONA:   COUNTY
 STAT.            WYOMING:   STATE
 CTRY. UNITED STATES OF AMERICA:   COUNTRY
 SRVC.      Dresser Atlas:   SERVICE COMPANY
 DATE.        12-MAR-1977:   LOGDATE
 API .       490251028700:   API NUMBER
~CURVE INFORMATION
#MNEM.UNIT       API CODE    CURVE DESCRIPTION
#----------   ------------   ------------------------------
 DEPT.F                  :   
 SPR .MV     07 010 01 00:   SPONTANEOUS POTENTIAL
 ILM .OHMM   07 120 44 00:   INDUCTION LOG MEDIUM
 ILD .OHMM   07 120 46 00:   INDUCTION LOG DEEP
 SFL .OHMM   07 220 01 00:   SHALLOW FOCUSED LOG RESISTIVITY
 CALD.IN     45 280 60 00:   CALIPER FROM DENSITY LOG
 GRD .GAPI   45 310 01 00:   GAMMA RAY FROM DENSITY LOG
 CORR.G/C3   45 356 01 00:   DENSITY CORRECTION
 DPHI.DEC    45 890 12 00:   DENSITY POROSITY SANDSTONE
 RHOB.G/C3   45 350 01 00:   BULK DENSITY
~PARAMETER INFORMATION
#MNEM.UNIT          VALUE    DESCRIPTION
#----------   ------------   ------------------------------
 PD  .                 GL:   PERMANENT DATUM
 EPD .F              5169:   ELEVATION PERMANENT DATUM
 LMF .                 GL:   LOG MEASURED FROM
 DMF .                 GL:   DRILLING MEASURED FROM
 EGL .F              5169:   GROUND LEVEL
 DATE.        12-MAR-1977:   RUN DATE
 RUN .                  1:   RUN NUMBER
 DD  .F               498:   DEPTH DRILLER
 DL  .F               492:   DEPTH LOGGER
 BLI .F               490:   BOTTOM LOG INTERVAL
 TLI .F               046:   TOP LOG INTERVAL
 CS  .IN            8.625:   CASING SIZE
 CBD .F                40:   CASING BOTTOM DRILLER
 CBL .F               046:   CASING BOTTOM LOGGER
 BS  .IN            7.875:   BIT SIZE
 BSD .F               498:   BIT SIZE AT DEPTH
 DFT .           CHEM GEL:   DRILLING FLUID TYPE
 DFD .                8.7:   DRILLING FLUID DENSITY
 DFV .                 35:   DRILLING FLUID VISCOSITY
 DFPH.                8.0:   DRILLING FLUID PH
 DFL .                7.2:   DRILLING FLUID LOSS
 MSS .           FLOWLINE:   MUD SAMPLE SOURCE
 RMS .OHMM            .35:   RESISTIVITY MUD SAMPLE
 MST .F                60:   MUD SAMPLE TEMPERATURE
 RMF .OHMM             .3:   RESISTIVITY MUD FILTRATE SAMPLE
 MFST.F                60:   MUD FILTRATE SAMPLE TEMPERATURE
 RMC .OHMM            .73:   RESISTIVITY MUD CAKE
 MCST.F                60:   MUD CAKE SAMPLE TEMPERATURE
 MFSS.               MEAS:   MUD FILTRATE SAMPLE SOURCE
 MCSS.               MEAS:   MUD CAKE SAMPLE SOURCE
 RMB .OHMM            .33:   RESISTIVITY MUD AT BHT
 BHT .F                63:   BOTTOM HOLE TEMPERATURE
 TCS .HRS            1400:   TIME CURCULATED STOPPED
 MRT .F                63:   MAXIMUM RECORDED TEMPERATURE
 LUN .               6134:   LOGGING UNIT NUMBER
 LUL .              GLTTE:   LOGGING UNIT LOCATION
 ENGI.              NOYER:   RECORDING ENGINEER
 WITN.         STUEBINGER:   WITNESSED BY
 CLNT.            A2DTECH:   CLIENT CODE
 ORIG.           5" PRINT:   ORIGIN OF DATA
 UWI .       490251028700:   UNIQUE WELL ID
 DICO. A2D Technologies, Inc.:   DIGITIZING COMPANY
~OTHER INFORMATION
~A   DEPT      SPR        ILM        ILD        SFL       CALD        GRD       CORR         DPHI       RHOB 
# ...
  265.0000   -56.6626     7.6600     7.1578     9.0794     7.8662   115.9298     0.0279     0.0728     2.5333
  265.5000   -56.9692     7.5559     7.1589     9.2119     7.8674   114.0070     0.0265     0.0670     2.5311
  266.0000   -56.9764     7.5569     7.2056     9.4675     7.8686   114.1678     0.0266     0.0628     2.5417
  266.5000   -56.9836     7.7164     7.2044     9.5315     7.8697   113.7325     0.0267     0.0798     2.5383
  267.0000   -56.8411     7.6643     7.2034     9.5289     7.8709   112.5519     0.0283     0.0834     2.5173
  267.5000   -56.8501     7.6126     7.2025     9.5268     7.8423   109.4340     0.0299     0.0786     2.5110
  268.0000   -56.8573     7.5611     7.1519     9.7242     7.8435   109.8929     0.0300     0.0894     2.5065
  268.5000   -56.7218     7.4584     7.1017     9.9945     7.8298   111.9955     0.0301     0.0839     2.5035
  269.0000   -56.7265     7.3442     7.0700     9.5199     7.8310   112.1518     0.0302     0.0789     2.5179
  269.5000   -56.7315     7.2070     7.1190     8.9440     7.8321   111.2693     0.0303     0.0894     2.5029
  270.0000   -56.8858     7.2582     7.1683     8.6982     7.8482   112.0292     0.0320     0.0845     2.5007
  270.5000   -56.5912     7.4626     7.5236     8.8785     7.8345   112.4851     0.0321     0.0749     2.5188
  271.0000   -56.4463     7.5674     7.7344     9.3164     7.8508   110.2643     0.0337     0.0668     2.5301
  271.5000   -56.3024     7.7805     7.8964    10.3033     7.8669   107.2954     0.0338     0.0626     2.5414
  272.0000   -56.3074     8.0160     7.8964    11.2215     7.8383   105.9658     0.0323     0.0605     2.5527
  272.5000   -56.4870     8.2251     7.5757    11.7750     7.8394   102.9969     0.0325     0.0722     2.5362
  273.0000   -56.9170     8.2262     6.8967    11.8546     7.8406   106.5854     0.0281     0.0806     2.5242
  273.5000   -57.5206     7.7849     6.0311    11.7698     7.8418   112.5584     0.0267     0.0853     2.5145
  274.0000   -57.9745     5.8248     5.2891    11.5257     7.8429   121.5120     0.0238     0.0913     2.5055
  274.5000   -58.1537     5.3992     5.0047    10.0042     7.8590   125.8457     0.0209     0.1048     2.4861
  275.0000   -57.2355     5.0396     4.9703     6.7670     7.8602   127.3721     0.0195     0.1153     2.4591
  275.5000   -55.5948     5.0402     4.9703     4.7235     7.8613   122.2924     0.0181     0.1480     2.3854
  276.0000   -55.4487     5.0758     5.0047     4.0008     7.8476   115.2997     0.0152     0.1972     2.3297
  276.5000   -55.4547     5.5921     5.0744     7.1468     7.8339   108.5703     0.0093     0.1924     2.3270
  277.0000   -55.3098     5.9930     5.1450    13.8704     7.8351   103.9712     0.0154     0.1521     2.4352
  277.5000   -55.0152     6.6056     5.6675    13.4362     7.8187   107.5261     0.0215     0.0876     2.5262
  278.0000   -54.4212     7.2743     6.9249    11.5041     7.7928   109.0902     0.0231     0.0695     2.5345
  278.5000   -53.8271     7.9590     7.9770    11.3437     7.7942   109.2510     0.0217     0.0687     2.5330
  279.0000   -53.2343     8.7685     8.6385    11.3412     7.7954   108.9647     0.0218     0.0750     2.5308
  279.5000   -52.6403     9.0155     8.8806    11.1831     7.7966   107.4861     0.0219     0.0744     2.5286
  280.0000   -52.4942     9.0792     8.8806    11.1806     7.8126   106.8988     0.0220     0.0698     2.5271
  280.5000   -52.5002     9.0178     8.8806    11.0209     7.8138   109.1489     0.0221     0.0719     2.5234
  281.0000   -52.5050     9.0193     8.8806    10.7212     7.8299   107.9684     0.0222     0.0770     2.5174
  281.5000   -51.8364     9.0831     8.9422    10.4266     7.8459   105.7447     0.0208     0.0836     2.5100
  282.0000   -50.7182     9.3389     9.1295    10.0010     7.8471   103.3719     0.0180     0.0971     2.5018
  282.5000   -49.6763     9.8029     9.4504     9.7262     7.8506    99.6579     0.0166     0.1073     2.4875
  283.0000   -48.6331    10.3614    10.1966    10.0659     7.8550    96.2419     0.0167     0.1118     2.4748
  283.5000   -47.8892    10.8893    10.8508    12.1391     7.8595    88.5040     0.0168     0.1138     2.4651
  284.0000   -46.8463    12.0661    12.1644    15.8740     7.8640    79.5738     0.0169     0.1165     2.4531
  284.5000   -45.9541    13.0206    13.8194    17.3620     7.8679    72.1013     0.0230     0.1246     2.4381
  285.0000   -45.0607    14.6454    15.9774    16.6532     7.8691    69.4039     0.0276     0.1342     2.4206
  285.5000   -44.3170    16.9346    17.9688    15.5388     7.8554    66.3731     0.0337     0.1411     2.4055
  286.0000   -43.7230    18.4010    19.7938    19.7845     7.8565    63.3793     0.0338     0.1552     2.3933
  286.5000   -43.7277    19.3258    21.0859    23.6727     7.8412    60.2614     0.0294     0.1696     2.3654
  287.0000   -43.7325    20.1364    22.7271    27.6082     7.8265    56.9944     0.0250     0.1738     2.3587
  287.5000   -43.7375    20.8470    23.8533    29.9266     7.8306    56.2581     0.0236     0.1826     2.3482
  288.0000   -44.1924    21.7323    24.8630    30.5483     7.8317    60.4456     0.0237     0.1956     2.3325
  288.5000   -44.3469    22.8122    26.0951    29.9133     7.8177    66.2696     0.0358     0.1899     2.3280
  289.0000   -44.3517    22.3472    26.6417    28.4947     7.8192    68.3648     0.0299     0.2148     2.3108
  289.5000   -44.0571    21.8916    26.6417    27.5210     7.8204    63.6076     0.0360     0.2175     2.2951
  290.0000   -43.6128    22.3539    26.4582    24.7309     7.8215    65.4106     0.0466     0.2052     2.3034
  290.5000   -42.9940    24.6275    26.2760    23.1447     7.8075    67.8039     0.0377     0.1917     2.3372
  291.0000   -42.1265    26.3919    26.0951    27.3118     7.8239    66.4773     0.0303     0.1883     2.3403
  291.5000   -41.9804    24.2960    25.5598    30.7091     7.8251    64.1045     0.0260     0.2084     2.3223
  292.0000   -41.9864    22.3657    25.3838    32.6721     7.8262    60.9866     0.0261     0.2129     2.3021
  292.5000   -42.2906    21.1658    25.5598    32.6839     7.8274    61.1550     0.0307     0.2141     2.2976
  293.0000   -42.4451    21.6127    26.2760    30.8361     7.8286    63.1812     0.0368     0.2099     2.3037
  293.5000   -42.1505    22.5305    26.6417    29.6400     7.8135    64.3005     0.0431     0.1907     2.3232
  294.0000   -42.0056    23.0054    25.9154    31.5330     7.7714    63.1200     0.0490     0.1786     2.3632
  294.5000   -42.0116    22.8493    24.6918    33.3195     7.7728    66.1153     0.0431     0.1771     2.3661
  295.0000   -42.0164    22.5395    23.5260    30.8724     7.7591    69.1077     0.0372     0.1942     2.3318
  295.5000   -41.8715    22.3872    23.0433    29.2057     7.7603    70.7588     0.0358     0.2002     2.3242
  296.0000   -41.4271    22.7025    22.7271    27.2251     7.7317    69.8763     0.0434     0.1588     2.3798
  296.5000   -41.6068    23.0215    22.2608    26.6849     7.7180    68.9939     0.0435     0.1582     2.3904
  297.0000   -42.0367    23.6697    22.2608    29.5908     7.7192    67.8133     0.0376     0.1669     2.3792
  297.5000   -42.0415    24.8460    22.2737    29.9960     7.7203    67.5241     0.0332     0.1662     2.3792
  298.0000   -41.8954    25.0216    22.8847    29.9893     7.7215    69.0291     0.0318     0.1706     2.3687
  298.5000   -41.9014    25.0250    23.3640    29.7762     7.7227    71.5743     0.0319     0.1758     2.3635
  299.0000   -41.9062    25.5533    24.0187    28.3576     7.7239    76.0570     0.0320     0.1644     2.3763
  299.5000   -42.0609    26.4550    24.3529    26.4646     7.7399    75.3236     0.0366     0.1497     2.3899
  300.0000   -42.5158    27.1991    24.3529    35.3652     7.7411    75.7824     0.0382     0.1284     2.4636
  300.5000   -42.6703    26.0228    23.2031    34.8721     7.7546    77.5898     0.0337     0.1169     2.4591
  301.0000   -42.9744    24.3603    22.1076    28.3374     7.7681    80.4377     0.0215     0.1618     2.3742
