~VERSION INFORMATION
 VERS.                2.0:   CWLS LOG ASCII STANDARD - VERSION 2.0
 WRAP.                 NO:   ONE LINE PER DEPTH STEP
~WELL INFORMATION
#MNEM.UNIT      DATA TYPE    INFORMATION
#----------   ------------   ------------------------------
 STRT.F            0.0000:   START DEPTH
 STOP.F          962.0000:   STOP DEPTH
 STEP.F            0.5000:   STEP LENGTH
 NULL.          -999.2500:   NO VALUE
 COMP. FENIX & SCISSON INC:   COMPANY
 WELL.      NPR #3 #51-14:   WELL
 FLD .             TEAPOT:   FIELD
 LOC .      S14 T38N R78W:   LOCATION
 CNTY.            NATRONA:   COUNTY
 STAT.            WYOMING:   STATE
 CTRY. UNITED STATES OF AMERICA:   COUNTRY
 SRVC.              Welex:   SERVICE COMPANY
 DATE.        03-MAR-1977:   LOGDATE
 API .       490251029700:   API NUMBER
~CURVE INFORMATION
#MNEM.UNIT       API CODE    CURVE DESCRIPTION
#----------   ------------   ------------------------------
 DEPT.F                  :   
 SGRD.OHMM   07 220 05 00:   SHALLOW RESISTIVITY
 ILM .OHMM   07 120 44 00:   INDUCTION LOG MEDIUM
 ILD .OHMM   07 120 46 00:   INDUCTION LOG DEEP
 SPR .MV     07 010 01 00:   SPONTANEOUS POTENTIAL
 DPHI.DEC    45 890 12 00:   DENSITY POROSITY SANDSTONE
 RHOB.G/C3   45 350 01 00:   BULK DENSITY
 CORR.G/C3   45 356 01 00:   DENSITY CORRECTION
 CALD.IN     45 280 60 00:   CALIPER
 GRD .GAPI   45 310 01 00:   GAMMA RAY FROM DENSITY LOG
~PARAMETER INFORMATION
#MNEM.UNIT          VALUE    DESCRIPTION
#----------   ------------   ------------------------------
 PD  .                 GL:   PERMANENT DATUM
 EPD .F            5221.8:   ELEVATION PERMANENT DATUM
 LMF .                 GL:   LOG MEASURED FROM
 DMF .                 GL:   DRILLING MEASURED FROM
 EGL .F            5221.8:   GROUND LEVEL
 DATE.             3-3-77:   RUN DATE
 RUN .                  1:   RUN NUMBER
 DD  .F               967:   DEPTH DRILLER
 DL  .F               964:   DEPTH LOGGER
 BLI .F               962:   BOTTOM LOG INTERVAL
 TLI .F                42:   TOP LOG INTERVAL
 CS  .IN            8.625:   CASING SIZE
 CBD .F                42:   CASING BOTTOM DRILLER
 CBL .F                42:   CASING BOTTOM LOGGER
 BS  .IN            7.875:   BIT SIZE
 BSD .F               967:   BIT SIZE AT DEPTH
 DFT .           CHEM-GEL:   DRILLING FLUID TYPE
 DFD .                8.7:   DRILLING FLUID DENSITY
 DFV .                 33:   DRILLING FLUID VISCOSITY
 DFPH.                7.2:   DRILLING FLUID PH
 DFL .                 10:   DRILLING FLUID LOSS
 MSS .          FLOW LINE:   MUD SAMPLE SOURCE
 RMS .OHMM           .422:   RESISTIVITY MUD SAMPLE
 MST .F                56:   MUD SAMPLE TEMPERATURE
 RMF .OHMM           .372:   RESISTIVITY MUD FILTRATE SAMPLE
 MFST.F                56:   MUD FILTRATE SAMPLE TEMPERATURE
 RMC .OHMM           .484:   RESISTIVITY MUD CAKE
 MCST.F                56:   MUD CAKE SAMPLE TEMPERATURE
 MFSS.           MEASURED:   MUD FILTRATE SAMPLE SOURCE
 MCSS.           MEASURED:   MUD CAKE SAMPLE SOURCE
 RMB .OHMM           .284:   RESISTIVITY MUD AT BHT
 BHT .F                83:   BOTTOM HOLE TEMPERATURE
 TCS .HRS               2:   TIME CURCULATED STOPPED
 MRT .F                83:   MAXIMUM RECORDED TEMPERATURE
 LUN .               8611:   LOGGING UNIT NUMBER
 LUL .           GILLETTE:   LOGGING UNIT LOCATION
 ENGI.          D. LAWSON:   RECORDING ENGINEER
 WITN.         STUEBINGER:   WITNESSED BY
 CLNT.            A2DTECH:   CLIENT CODE
 ORIG.        2" 5" PRINT:   ORIGIN OF DATA
 UWI .       490251029700:   UNIQUE WELL ID
 DICO. A2D Technologies, Inc.:   DIGITIZING COMPANY
~OTHER INFORMATION
~A    DEPT    SGRD        ILM        ILD        SPR       DPHI       RHOB       CORR       CALD        GRD   
# ...
   36.5000  -999.2500  -999.2500  -999.2500  -999.2500     0.3002     2.1316    -0.2220     8.7851    76.8720
   37.0000  -999.2500  -999.2500  -999.2500  -999.2500     0.3002     2.0798    -0.2120     8.5422    74.9728
   37.5000  -999.2500  -999.2500  -999.2500  -999.2500     0.3002     2.0217    -0.1962     8.4143    73.0654
   38.0000  -999.2500  -999.2500  -999.2500  -999.2500     0.3002     1.9920    -0.1598     8.4260    71.2808
   38.5000  -999.2500  -999.2500  -999.2500  -999.2500     0.3002     1.9730    -0.1130     8.6167    72.5364
   39.0000  -999.2500  -999.2500  -999.2500  -999.2500     0.3002     1.9595    -0.0553     8.9227    75.6855
   39.5000  -999.2500  -999.2500  -999.2500  -999.2500     0.3002     2.0080     0.0022     9.2340    78.8059
   40.0000     0.6806   345.2087   512.1492  -999.2500     0.3002     2.0967     0.0597     9.5453    81.9316
   40.5000     0.6806   345.2087   512.1492  -999.2500     0.2938     2.1601     0.1099     9.8612    85.0329
   41.0000     1.5062   345.2087     0.7668  -999.2500     0.2981     2.1542     0.1019    10.1866    87.2502
   41.5000     2.7923   284.8740    69.2200  -999.2500     0.3001     2.1383     0.0938    10.5108    85.7387
   42.0000     5.4113     3.0083     0.7668  -999.2500     0.2998     2.1148     0.0859    10.8286    85.3771
   42.5000     5.7175    15.1849     0.6078  -999.2500     0.2996     2.1212     0.0780    10.9881    87.9056
   43.0000     5.8313     3.0083     0.4803  -999.2500     0.2993     2.1309     0.0736    10.0675    87.7008
   43.5000     5.8296     4.1409     0.3795  -999.2500     0.2991     2.1467     0.0693     9.8618    87.0219
   44.0000     5.3623     5.8187     0.2729  -999.2500     0.2894     2.1732     0.0651     9.7999    86.3052
   44.5000     4.8663     5.4761     0.5126  -999.2500     0.2731     2.1993     0.0624     9.9765    87.0750
   45.0000     5.3113     5.8951     1.3456  -999.2500     0.2569     2.2179     0.0667    10.1450    88.5619
   45.5000     5.7104     6.2140     3.7276  -999.2500     0.2636     2.2039     0.0759    10.3087    89.6462
   46.0000     6.1161     6.5500     8.5853  -999.2500     0.2701     2.1990     0.0860    10.3787    87.1631
   46.5000     6.5524     6.9063     6.2947  -999.2500     0.2770     2.1943     0.0926     9.6985    84.6818
   47.0000     7.0202     6.7590     5.7702  -999.2500     0.2842     2.1741     0.0944     9.6056    82.1942
   47.5000     7.5215     6.9057     6.3306  -999.2500     0.2914     2.1549     0.0955     9.6836    79.9620
   48.0000     7.9867     6.9961     6.7955  -999.2500     0.2982     2.1635     0.0942     9.8718    78.0009
   48.5000     8.6983     7.0793     7.3107  -999.2500     0.2912     2.1651     0.0894    10.0299    76.5048
   49.0000     8.4703     6.4634     7.8550  -999.2500     0.2848     2.1776     0.0842     9.9221    75.1164
   49.5000     8.8181     6.2060     8.4208  -999.2500     0.2652     2.2021     0.0910     9.7959    73.7231
   50.0000     9.2173     5.9588     8.9013  -999.2500     0.2561     2.2185     0.0981    10.0920    72.3297
   50.5000     8.4534     5.7215     8.2097  -999.2500     0.2742     2.1922     0.0968    10.5455    70.9669
   51.0000     8.1942     5.4051     8.1702  -999.2500     0.2874     2.1727     0.0927    11.0400    70.5026
   51.5000     7.9847     8.2578     8.1768  -999.2500     0.2870     2.1686     0.0863    10.4642    72.3892
   52.0000    10.7040     9.5319     8.1768  -999.2500     0.2805     2.1795     0.0745    10.7679    74.2286
   52.5000    11.9493    11.3231     7.6390  -999.2500     0.2734     2.1958     0.0727    11.2250    76.0694
   53.0000    13.0372     5.6653     7.7170  -999.2500     0.2658     2.2056     0.0738    10.5601    77.9091
   53.5000    13.7370     5.0765     5.3467  -999.2500     0.2636     2.2090     0.0751     9.8048    80.1271
   54.0000     7.3104     4.4730     4.6641  -999.2500     0.2720     2.1930     0.0710     9.3385    84.5360
   54.5000     7.0118     6.5190     4.1144  -999.2500     0.2809     2.1816     0.0621    10.0586    88.9992
   55.0000     8.6723     7.7288     5.9312  -999.2500     0.2886     2.1727     0.0532     9.8835    93.4607
   55.5000     8.8392    10.9835     5.9312  -999.2500     0.2764     2.1974     0.0464     9.6145    97.9029
   56.0000     8.5872    12.3237     5.9312  -999.2500     0.2349     2.2707     0.0535     9.3637   102.3881
   56.5000    13.9838    13.0421     5.9312  -999.2500     0.1891     2.3448     0.0605     9.0889   104.1661
   57.0000    13.5354     6.2836     5.9312  -999.2500     0.1659     2.3717     0.0674     8.7677   101.0955
   57.5000    13.9197     5.1957     5.9312  -999.2500     0.1626     2.3788     0.0658     8.6632   102.9586
   58.0000    10.9341     4.5132     5.9298  -999.2500     0.1606     2.3807     0.0638     8.6176   105.2525
   58.5000    10.9417     6.8229     5.9234    -4.1625     0.1593     2.3827     0.0617     8.5695   107.3244
   59.0000    13.1968     6.9014     5.9594   -10.4678     0.1582     2.3861     0.0597     8.5211   108.0356
   59.5000    13.7890     6.9807     5.2983   -18.0366     0.1545     2.3897     0.0577     8.4727   108.7794
   60.0000     9.8781     7.0933     5.2567   -24.1444     0.1511     2.3932     0.0557     8.4244   109.5291
   60.5000     9.4613     5.6144     5.0291   -30.7689     0.1505     2.3968     0.0537     8.3756   110.2749
   61.0000     7.1135     5.3537     4.9023   -30.9926     0.1460     2.4022     0.0531     8.3554   111.0393
   61.5000     6.3046     5.1539     4.7607   -25.0632     0.1342     2.4180     0.0525     8.3538   110.3583
   62.0000    14.0886     6.7017     4.7027   -20.9686     0.1224     2.4416     0.0519     8.3525   108.4454
   62.5000    16.4281     6.8254     5.1215   -20.1315     0.1177     2.4499     0.0517     8.3513   106.5162
   63.0000     9.8676     5.4145     5.1224   -20.0713     0.1178     2.4488     0.0516     8.3500   104.5541
   63.5000     9.0533     6.1974     5.1207   -19.9879     0.1179     2.4476     0.0516     8.3487   102.6348
   64.0000    13.0640     6.2066     5.1501   -19.9016     0.1180     2.4462     0.0517     8.3474   102.5916
   64.5000    11.4814     6.2576     5.7223   -19.8119     0.1181     2.4515     0.0517     8.3462   104.5439
   65.0000     9.7813     6.0967     5.2163   -19.9232     0.1163     2.4605     0.0516     8.3449   107.0540
   65.5000    10.2827     6.3828     5.2163   -20.1591     0.1146     2.4697     0.0501     8.3436   108.2504
   66.0000     9.4191     6.3464     4.8626   -18.2271     0.1129     2.4787     0.0486     8.3423   107.2989
   66.5000     9.4191     6.3464     5.0446   -18.0279     0.1112     2.4836     0.0470     8.3410   108.0544
   67.0000     9.5937     6.3464     5.2333   -16.6335     0.1137     2.4661     0.0455     8.3398   105.2654
   67.5000     9.7715     6.4640     5.3303   -16.4864     0.1160     2.4516     0.0440     8.3385   102.3887
   68.0000     9.7715     6.4640     5.4792   -15.6481     0.1184     2.4372     0.0425     8.3373   100.7991
   68.5000    10.1371     6.4640     5.5297   -14.7893     0.1185     2.4337     0.0416     8.3355    99.6148
   69.0000    10.1371     6.6445     5.5808   -14.6460     0.1159     2.4517     0.0416     8.3230   100.6461
   69.5000    10.4203     6.7677     5.6842   -14.6316     0.1133     2.4532     0.0416     8.3104   101.6292
   70.0000    10.9099     6.7677     5.7366   -14.8948     0.1107     2.4597     0.0416     8.2978   103.6262
   70.5000    11.4225     6.7677     5.7901   -15.1928     0.1081     2.4685     0.0416     8.2856   106.0657
   71.0000    10.3250     7.0437     5.7894   -15.4910     0.1055     2.4772     0.0416     8.2876   108.3352
   71.5000    10.7113     7.3508     5.7896   -15.7883     0.1029     2.4808     0.0422     8.3396   108.8366
   72.0000    10.7133     8.0708     5.7895   -16.0857     0.1025     2.4755     0.0446     8.3897   107.9216
   72.5000    10.7128     8.0605     5.7895   -16.3830     0.1032     2.4764     0.0470     8.4355   106.4362
