~VERSION INFORMATION
 VERS.                2.0:   CWLS LOG ASCII STANDARD - VERSION 2.0
 WRAP.                 NO:   ONE LINE PER DEPTH STEP
~WELL INFORMATION
#MNEM.UNIT      DATA TYPE    INFORMATION
#----------   ------------   ------------------------------
 STRT.F         1400.0000:   START DEPTH
 STOP.F         3422.0000:   STOP DEPTH
 STEP.F            0.5000:   STEP LENGTH
 NULL.          -999.2500:   NO VALUE
 COMP. LAWRENCE/ALLISON INC:   COMPANY
 WELL.   NPR 3 #36-STX-23:   WELL
 FLD .             TEAPOT:   FIELD
 LOC .      S23 T38N R78W:   LOCATION
 CNTY.            NATRONA:   COUNTY
 STAT.            WYOMING:   STATE
 CTRY. UNITED STATES OF AMERICA:   COUNTRY
 SRVC.            Unknown:   SERVICE COMPANY
 DATE.        04-JAN-1985:   LOGDATE
 API .       490251137700:   API NUMBER
~CURVE INFORMATION
#MNEM.UNIT       API CODE    CURVE DESCRIPTION
#----------   ------------   ------------------------------
 DEPT.F                  :   
 ROP .MIN/FT 91 810 01 00:   RAT OF DRILLING PENETRATION
 TGAS.UNITS  91 830 01 00:   TOTAL GAS UNIT
~PARAMETER INFORMATION
#MNEM.UNIT          VALUE    DESCRIPTION
#----------   ------------   ------------------------------
 DATE.           1-4-1985:   RUN DATE
 RUN .                  1:   RUN NUMBER
 DD  .F              3427:   DEPTH DRILLER
 TLI .F              1400:   TOP LOG INTERVAL
 BSD .F              3427:   BIT SIZE AT DEPTH
 WITN. RAY ANDERSON/JACK HARBISON:   WITNESSED BY
 CLNT.            A2DTECH:   CLIENT CODE
 ORIG.           5" PRINT:   ORIGIN OF DATA
 UWI .       490251137700:   UNIQUE WELL ID
 DICO. A2D Technologies, Inc.:   DIGITIZING COMPANY
~OTHER INFORMATION
~A  DEPT       ROP       TGAS   
# ...
 3344.0000     1.0000    85.0265
 3344.5000     1.0000    84.9311
 3345.0000     0.9904    86.7664
 3345.5000     1.0108    88.5540
 3346.0000     1.0944    90.3655
 3346.5000     1.1774    90.2701
 3347.0000     1.2712    88.2680
 3347.5000     1.4192    86.2659
 3348.0000     1.3899    84.2638
 3348.5000     1.2536    82.2617
 3349.0000     1.1660    80.2595
 3349.5000     1.1007    78.2574
 3350.0000     1.0075    78.1859
 3350.5000     1.0448    79.7104
 3351.0000     1.1287    81.1180
 3351.5000     1.1847    82.5256
 3352.0000     1.2407    83.9333
 3352.5000     1.3060    85.3292
 3353.0000     1.3619    85.2331
 3353.5000     1.4272    85.1377
 3354.0000     1.5019    85.0424
 3354.5000     1.4925    84.9471
 3355.0000     1.4179    84.8517
 3355.5000     1.3153    84.7564
 3356.0000     1.2687    84.6610
 3356.5000     1.2687    84.5657
 3357.0000     1.2687    84.4704
 3357.5000     1.2687    80.5614
 3358.0000     1.2687    78.5593
 3358.5000     1.3060    80.3734
 3359.0000     1.3993    78.3687
 3359.5000     1.4739    80.1831
 3360.0000     1.4739    83.7677
 3360.5000     1.4744   211.5447
 3361.0000     1.4086   140.8986
 3361.5000     1.3340   113.5375
 3362.0000     1.2593    96.2588
 3362.5000     1.1940    86.9180
 3363.0000     1.1191    87.1440
 3363.5000     1.0347    90.8623
 3364.0000     1.0075    94.9338
 3364.5000     1.0075    96.3923
 3365.0000     1.0075    98.2039
 3365.5000     1.0075    98.0849
 3366.0000     1.0075    97.9897
 3366.5000     1.0075    97.8946
 3367.0000     1.0075    97.7994
 3367.5000     1.0075    97.7042
 3368.0000     1.0075    97.6090
 3368.5000     1.0075    97.5139
 3369.0000     1.0075    97.4187
 3369.5000     1.0075    97.3235
 3370.0000     0.9888    97.2283
 3370.5000     0.9328    97.1331
 3371.0000     0.8489    98.9686
 3371.5000     0.7707   100.7801
 3372.0000     0.7369   104.4985
 3372.5000     0.8022   108.2169
 3373.0000     0.8769   110.0285
 3373.5000     0.9142   109.9095
 3374.0000     0.9888   109.8143
 3374.5000     1.0075   107.8124
 3375.0000     1.0075   107.7172
 3375.5000     1.0075   107.6220
 3376.0000     1.0075   105.6200
 3376.5000     1.0075   105.5249
 3377.0000     1.0075   103.5229
 3377.5000     1.0075   103.4277
 3378.0000     1.0075   101.4258
 3378.5000     1.0075    99.4238
 3379.0000     1.0075    95.5151
 3379.5000     1.0075    93.5131
 3380.0000     1.0075    93.4179
 3380.5000     1.0075    91.4160
 3381.0000     1.0075    91.3208
 3381.5000     1.0075    91.2256
 3382.0000     1.0075    91.1304
 3382.5000     1.0075    92.9658
 3383.0000     1.0075    92.8468
 3383.5000     1.0168    94.6584
 3384.0000     1.0728    96.4701
 3384.5000     1.1381    96.3749
 3385.0000     1.1940    96.2797
 3385.5000     1.2313    98.1151
 3386.0000     1.2687    97.9961
 3386.5000     1.2878    97.9009
 3387.0000     1.2687    97.8057
 3387.5000     1.2687    95.8038
 3388.0000     1.3249    95.7086
 3388.5000     1.4094    95.6134
 3389.0000     1.5221    95.5182
 3389.5000     1.6526    93.5163
 3390.0000     1.7537    95.3517
 3390.5000     1.7537    97.1633
 3391.0000     1.7537   165.6884
 3391.5000     1.6045   194.1949
 3392.0000     1.2127   110.2014
 3392.5000     1.0914   104.3859
 3393.0000     1.0168    96.6636
 3393.5000     1.1101    85.1277
 3394.0000     1.1660    81.2190
 3394.5000     1.2220    81.1238
 3395.0000     1.2687    81.0286
 3395.5000     1.2873    82.8640
 3396.0000     1.2127    86.5586
 3396.5000     1.1381    92.1838
 3397.0000     1.0821    99.7157
 3397.5000     1.0448   103.4578
 3398.0000     1.0261    95.7117
 3398.5000     1.0261    87.9895
 3399.0000     1.0168    87.8943
 3399.5000     1.0261    87.7991
 3400.0000     1.0168    88.2149
 3400.5000     1.2034    91.1409
 3401.0000     1.3433    94.0669
 3401.5000     1.4272    95.0660
 3402.0000     1.5112    96.8765
 3402.5000     1.5112    85.3154
 3403.0000     1.5019    85.2190
 3403.5000     1.4646    85.1226
 3404.0000     1.4086    85.0263
 3404.5000     1.3526    84.9300
 3405.0000     1.2873    84.8336
 3405.5000     1.2299    84.7373
 3406.0000     1.1660    84.6610
 3406.5000     1.1287    84.5657
 3407.0000     1.0728    84.4703
 3407.5000     1.0168    84.3750
 3408.0000     1.0168    84.2797
 3408.5000     1.0075    84.1833
 3409.0000     0.9981    84.0870
 3409.5000     0.9981    80.1771
 3410.0000     1.0075    76.2672
 3410.5000     1.0075    72.3573
 3411.0000     1.0168    72.2609
 3411.5000     1.0168    72.1646
 3412.0000     1.0168    72.0683
 3412.5000     1.0168    71.9719
 3413.0000     1.0168    71.8755
 3413.5000     1.0168    71.7873
 3414.0000     1.0168    75.5044
 3414.5000     1.0075    75.4081
 3415.0000     1.0075    75.3118
 3415.5000     1.0075    75.2154
 3416.0000     1.0075    75.1191
 3416.5000     1.0168    76.9295
 3417.0000     1.0168    76.8332
 3417.5000     1.0168   103.4237
 3418.0000     1.0168   105.2582
 3418.5000     1.0168   105.1589
 3419.0000     1.0168   105.0636
 3419.5000     1.0168    89.6989
 3420.0000     1.0168    80.0687
 3420.5000     1.0168    79.9723
 3421.0000     1.0168    79.8760
 3421.5000     1.0168    79.7987
 3422.0000     1.0168    81.6142
