~VERSION INFORMATION
 VERS.                2.0:   CWLS LOG ASCII STANDARD - VERSION 2.0
 WRAP.                 NO:   ONE LINE PER DEPTH STEP
~WELL INFORMATION
#MNEM.UNIT      DATA TYPE    INFORMATION
#----------   ------------   ------------------------------
 STRT.F            2.0000:   START DEPTH
 STOP.F          508.0000:   STOP DEPTH
 STEP.F            0.1000:   STEP LENGTH
 NULL.          -999.2500:   NO VALUE
 COMP. LAWRENCE/ALLISON INC:   COMPANY
 WELL.      48-41 SX #3-3:   WELL
 FLD .             TEAPOT:   FIELD
 LOC .       S3 T38N R78W:   LOCATION
 CNTY.            NATRONA:   COUNTY
 STAT.            WYOMING:   STATE
 CTRY. UNITED STATES OF AMERICA:   COUNTRY
 SRVC.           Gearhart:   SERVICE COMPANY
 DATE.        09-JUL-1988:   LOGDATE
 API .       490251123300:   API NUMBER
~CURVE INFORMATION
#MNEM.UNIT       API CODE    CURVE DESCRIPTION
#----------   ------------   ------------------------------
 DEPT.F                  :   
 GRR .GAPI   07 310 01 00:   GAMMA RAY
 RILD.OHMM   07 120 46 00:   INDUCTION LOG DEEP RESISTIVITY
 RILM.OHMM   07 120 44 00:   INDUCTION LOG MEDIUM RESISTIVITY
~PARAMETER INFORMATION
#MNEM.UNIT          VALUE    DESCRIPTION
#----------   ------------   ------------------------------
 PD  .                 GL:   PERMANENT DATUM
 EPD .F              5200:   ELEVATION PERMANENT DATUM
 LMF .                 KB:   LOG MEASURED FROM
 DAPD.F                 5:   FEET ABOVE PERMANENT DATUM
 DMF .                 KB:   DRILLING MEASURED FROM
 EKB .F              5205:   KELLING BUSHING
 EDF .F              5204:   DRILLING FLOOR
 EGL .F              5200:   GROUND LEVEL
 DATE.        09-JUL-1988:   RUN DATE
 RUN .                  1:   RUN NUMBER
 DD  .F               510:   DEPTH DRILLER
 DL  .F               516:   DEPTH LOGGER
 BLI .F               508:   BOTTOM LOG INTERVAL
 TLI .F               1.5:   TOP LOG INTERVAL
 CS  .IN            9.625:   CASING SIZE
 CBD .F                40:   CASING BOTTOM DRILLER
 CBL .F                45:   CASING BOTTOM LOGGER
 BS  .IN             8.75:   BIT SIZE
 BSD .F               510:   BIT SIZE AT DEPTH
 DFT .                AIR:   DRILLING FLUID TYPE
 TCS .HRS            1800:   TIME CURCULATED STOPPED
 TLAB.HRS            1843:   TIME LOGGER AT BOTTOM
 MRT .F                70:   MAXIMUM RECORDED TEMPERATURE
 LUN .               7597:   LOGGING UNIT NUMBER
 LUL .           GILLETTE:   LOGGING UNIT LOCATION
 ENGI.         WEATHERMON:   RECORDING ENGINEER
 WITN.              FIVAS:   WITNESSED BY
 CLNT.            A2DTECH:   CLIENT CODE
 ORIG.           5" PRINT:   ORIGIN OF DATA
 UWI .       490251123300:   UNIQUE WELL ID
 DICO. A2D Technologies, Inc.:   DIGITIZING COMPANY
~OTHER INFORMATION
~A    DEPT      GRR      RILD       RILM   
# ...
  184.0000   114.9442     8.2658     8.3161
  184.1000   114.9461     8.2658     8.3733
  184.2000   114.9478     8.2658     8.3729
  184.3000   114.9496     8.2658     8.3724
  184.4000   114.9515     8.2658     8.3927
  184.5000   114.8719     8.2658     8.4408
  184.6000   114.6532     8.2658     8.4878
  184.7000   114.6553     8.2812     8.4873
  184.8000   114.8886     8.3232     8.4869
  184.9000   115.1416     8.3232     8.4864
  185.0000   115.3945     8.3232     8.5075
  185.1000   115.6476     8.3579     8.5444
  185.2000   115.8709     8.3811     8.5440
  185.3000   115.8728     8.3965     8.5434
  185.4000   116.1051     8.4394     8.5430
  185.5000   116.3581     8.4394     8.5747
  185.6000   116.6110     8.4842     8.6014
  185.7000   116.8640     8.4981     8.6010
  185.8000   117.0884     8.4981     8.6005
  185.9000   117.0904     8.5135     8.5999
  186.0000   117.3214     8.5572     8.5995
  186.1000   117.5743     8.5572     8.5990
  186.2000   117.6989     8.5572     8.5986
  186.3000   117.5450     8.5924     8.6116
  186.4000   117.0444     8.6167     8.6574
  186.5000   116.4979     8.6321     8.6568
  186.6000   116.0435     8.6766     8.6564
  186.7000   115.7205     8.6766     8.6559
  186.8000   115.3440     8.6766     8.6797
  186.9000   114.9201     8.6766     8.7151
  187.0000   114.6707     8.6766     8.7147
  187.1000   114.3972     8.6918     8.7141
  187.2000   113.9452     8.7370     8.7137
  187.3000   113.6209     8.7370     8.7132
  187.4000   113.3716     8.7370     8.7127
  187.5000   113.1222     8.7370     8.7122
  187.6000   112.8729     8.7370     8.7169
  187.7000   112.5981     8.7370     8.7717
  187.8000   112.5997     8.7420     8.7712
  187.9000   112.9516     8.7977     8.7708
  188.0000   113.5804     8.7977     8.7703
  188.1000   114.2617     8.7977     8.7698
  188.2000   114.7658     8.7977     8.7693
  188.3000   115.3239     8.7977     8.7688
  188.4000   115.7745     8.7977     8.8152
  188.5000   116.4529     8.7977     8.8288
  188.6000   116.9610     8.7977     8.8283
  188.7000   117.3602     8.8329     8.8278
  188.8000   118.0929     8.8589     8.8273
  188.9000   118.6530     8.8737     8.8268
  189.0000   119.1012     8.9205     8.8263
  189.1000   119.4325     8.9205     8.8636
  189.2000   119.8078     8.9205     8.8867
  189.3000   120.2402     8.9560     8.8862
  189.4000   120.4716     8.9826     8.8857
  189.5000   119.5688     8.9826     8.8852
  189.6000   119.3484     8.9869     8.8847
  189.7000   118.9275     9.0450     8.8842
  189.8000   118.4270     9.0450     8.8837
  189.9000   117.9970     9.0450     8.8833
  190.0000   117.7276     9.0450     8.8746
  190.1000   117.1664     9.0450     8.8210
  190.2000   116.9473     9.0450     8.8205
  190.3000   116.8682     9.0450     8.8200
  190.4000   116.7501     9.0450     8.8486
  190.5000   116.5701     9.0450     8.8803
  190.6000   116.5531     9.0450     8.8798
  190.7000   116.2723     9.0450     8.8793
  190.8000   116.0544     9.0450     8.9292
  190.9000   115.9740     9.0450     8.9400
  191.0000   116.0944     9.0450     8.9395
  191.1000   116.2113     9.0450     8.9390
  191.2000   115.9794     9.0450     8.9386
  191.3000   115.9815     9.0450     8.9381
  191.4000   115.5464     9.0450     8.9376
  191.5000   115.0458     9.0450     8.9371
  191.6000   114.6626     9.0450     8.9366
  191.7000   114.4132     9.0103     8.9361
  191.8000   114.1472     8.9826     8.9356
  191.9000   113.5791     8.9826     8.9351
  192.0000   113.3634     8.9826     8.9345
  192.1000   113.1141     8.9826     8.9341
  192.2000   112.7484     8.9826     8.9336
  192.3000   112.3137     8.9826     8.9331
  192.4000   112.0643     8.9826     8.9326
  192.5000   111.7800     8.9826     8.9321
  192.6000   111.7816     8.9826     8.9315
  192.7000   111.6179     8.9826     8.9312
  192.8000   111.3685     8.9826     8.9307
  192.9000   111.1192     8.9826     8.9302
  193.0000   110.8838     8.9826     8.9178
  193.1000   110.8859     8.9826     8.8676
  193.2000   110.6727     8.9826     8.8670
  193.3000   110.4234     8.9826     8.8666
  193.4000   110.2878     8.9826     8.8661
  193.5000   110.2896     8.9826     8.8656
  193.6000   110.2914     8.9826     8.8651
  193.7000   110.2935     8.9826     8.8646
  193.8000   110.2951     8.9826     8.8640
  193.9000   110.2968     8.9826     8.8636
  194.0000   110.2986     8.9387     8.8631
  194.1000   110.3005     8.9205     8.8626
  194.2000   110.3141     8.9205     8.8622
  194.3000   110.6060     8.9205     8.8617
  194.4000   111.0324     8.9182     8.8611
  194.5000   111.5367     8.8589     8.8607
  194.6000   112.0408     8.8589     8.8260
  194.7000   112.6060     8.8261     8.7986
  194.8000   113.3507     8.7977     8.7981
  194.9000   113.9351     8.7977     8.7976
  195.0000   114.5704     8.7977     8.7970
  195.1000   115.1650     8.7977     8.7966
  195.2000   115.6691     8.7977     8.7614
  195.3000   116.1135     8.7655     8.7349
  195.4000   116.3757     8.7370     8.7199
  195.5000   116.9626     8.7251     8.6737
  195.6000   117.3841     8.6749     8.6731
  195.7000   117.7287     8.6167     8.6280
  195.8000   117.6547     8.5754     8.5778
  195.9000   117.2127     8.5261     8.5278
  196.0000   116.9633     8.4770     8.4781
  196.1000   116.6718     8.4282     8.4288
  196.2000   116.4646     8.3797     8.3752
  196.3000   116.0570     8.3232     8.3309
  196.4000   115.7719     8.2835     8.3165
  196.5000   115.7165     8.2658     8.2913
  196.6000   115.4604     8.2455     8.2430
  196.7000   114.8727     8.1980     8.1951
  196.8000   114.8742     8.1508     8.1437
  196.9000   114.7190     8.0957     8.0999
  197.0000   114.5762     8.0957     8.0866
  197.1000   114.4660     8.0667     8.0615
  197.2000   113.9709     8.0202     8.0146
  197.3000   113.6769     7.9740     7.9678
  197.4000   113.4721     7.9281     7.9186
  197.5000   113.2228     7.8743     7.8753
  197.6000   112.9734     7.8372     7.8295
  197.7000   112.7239     7.7922     7.7839
  197.8000   112.4745     7.7473     7.7232
  197.9000   112.1795     7.6931     7.6404
  198.0000   111.9758     7.6055     7.5938
  198.1000   111.8811     7.5536     7.5517
  198.2000   111.7787     7.5182     7.4751
  198.3000   111.5831     7.4487     7.4364
  198.4000   111.5849     7.3459     7.4205
  198.5000   111.2854     7.2284     7.3773
  198.6000   111.2869     7.1453     7.3329
  198.7000   111.4422     7.0479     7.2511
  198.8000   111.9011     6.9825     7.1992
  198.9000   112.6039     6.8783     7.1337
  199.0000   113.1101     6.7760     7.0665
  199.1000   114.0112     6.6982     7.0181
  199.2000   114.6208     6.6210     6.9354
  199.3000   115.5284     6.4855     6.8569
  199.4000   116.3314     6.4256     6.7776
  199.5000   116.8868     6.3519     6.6993
  199.6000   117.6413     6.2789     6.6219
  199.7000   118.2453     6.2068     6.5454
  199.8000   118.6496     6.1356     6.4692
  199.9000   119.1538     6.0512     6.4318
  200.0000   119.7584     5.9682     6.3943
  200.1000   120.4638     5.8658     6.3351
  200.2000   120.9689     5.7783     6.2764
  200.3000   121.4721     5.7055     6.2325
  200.4000   122.7801     5.6071     6.1604
  200.5000   122.7813     5.5113     6.0759
  200.6000   122.7825     5.3922     6.0189
  200.7000   122.7837     5.2642     5.9264
  200.8000   122.7849     5.1882     5.8199
  200.9000   122.7861     5.1292     5.7134
  201.0000   122.7874     5.0607     5.6069
  201.1000   122.7885     4.9743     5.4910
  201.2000   122.7897     4.8846     5.3754
  201.3000   122.7909     4.8063     5.2815
  201.4000   122.7921     4.7245     5.1460
  201.5000   122.7934     4.6300     5.0210
  201.6000   122.7947     4.5250     4.8617
  201.7000   122.7958     4.4222     4.7093
  201.8000   122.7970     4.3132     4.5591
  201.9000   122.7982     4.2462     4.3546
  202.0000   122.7994     4.1571     4.1515
  202.1000   122.8006     4.0514     4.0025
