~VERSION INFORMATION
 VERS.                2.0:   CWLS LOG ASCII STANDARD - VERSION 2.0
 WRAP.                 NO:   ONE LINE PER DEPTH STEP
~WELL INFORMATION
#MNEM.UNIT      DATA TYPE    INFORMATION
#----------   ------------   ------------------------------
 STRT.F           67.0000:   START DEPTH
 STOP.F          812.0000:   STOP DEPTH
 STEP.F            0.5000:   STEP LENGTH
 NULL.          -999.2500:   NO VALUE
 COMP. U S NAVY-INTEX OIL:   COMPANY
 WELL.  N.P.R. #3 #48-S-2:   WELL
 FLD .             TEAPOT:   FIELD
 LOC .       S2 T38N R78W:   LOCATION
 CNTY.            NATRONA:   COUNTY
 STAT.            WYOMING:   STATE
 CTRY. UNITED STATES OF AMERICA:   COUNTRY
 SRVC.      NL McCullough:   SERVICE COMPANY
 DATE.        11-AUG-1961:   LOGDATE
 API .       490250639200:   API NUMBER
~CURVE INFORMATION
#MNEM.UNIT       API CODE    CURVE DESCRIPTION
#----------   ------------   ------------------------------
 DEPT.F                  :   
 GRN .MG/TON 35 310 01 00:   GAMMA RAY
 NEUT.CPS    35 330 30 00:   NEUTRON
~PARAMETER INFORMATION
#MNEM.UNIT          VALUE    DESCRIPTION
#----------   ------------   ------------------------------
 PD  .                 GL:   PERMANENT DATUM
 EPD .F              5168:   ELEVATION PERMANENT DATUM
 LMF .                 KB:   LOG MEASURED FROM
 DAPD.F                 6:   FEET ABOVE PERMANENT DATUM
 DMF .                 KB:   DRILLING MEASURED FROM
 EKB .F              5174:   KELLING BUSHING
 EGL .F              5168:   GROUND LEVEL
 DATE.          8-11-1961:   RUN DATE
 RUN .                  1:   RUN NUMBER
 DD  .F               810:   DEPTH DRILLER
 DL  .F            813.75:   DEPTH LOGGER
 BLI .F               812:   BOTTOM LOG INTERVAL
 TLI .F                80:   TOP LOG INTERVAL
 BSD .F               810:   BIT SIZE AT DEPTH
 DFT .       OIL EMULSION:   DRILLING FLUID TYPE
 TCS .HRS               1:   TIME CURCULATED STOPPED
 ENGI.            JACKSON:   RECORDING ENGINEER
 WITN.          JORGENSON:   WITNESSED BY
 CLNT.            A2DTECH:   CLIENT CODE
 ORIG.        2" 5" PRINT:   ORIGIN OF DATA
 UWI .       490250639200:   UNIQUE WELL ID
 DICO. A2D Technologies, Inc.:   DIGITIZING COMPANY
~OTHER INFORMATION
~A   DEPT        GRN     NEUT   
# ...
  674.5000     5.7915   618.7066
  675.0000     5.3666   634.5005
  675.5000     4.7728   664.9452
  676.0000     4.2067   717.3406
  676.5000     3.7263   769.4223
  677.0000     3.8152   784.3625
  677.5000     3.8293   753.4861
  678.0000     4.0884   665.8367
  678.5000     4.6156   679.7809
  679.0000     4.5501   668.8247
  679.5000     4.5233   637.7164
  680.0000     4.5675   599.6107
  680.5000     4.5647   583.1674
  681.0000     4.5093   588.0677
  681.5000     4.4036   584.1633
  682.0000     4.3661   593.9567
  682.5000     4.3883   603.0876
  683.0000     3.8844   612.9059
  683.5000     3.9832   631.6139
  684.0000     3.9239   645.9251
  684.5000     4.3384   604.0931
  685.0000     4.5410   596.1330
  685.5000     4.5060   599.1049
  686.0000     4.6301   593.1443
  686.5000     4.6153   627.9838
  687.0000     4.6416   643.9390
  687.5000     4.4023   643.9100
  688.0000     4.3740   643.9402
  688.5000     4.3139   664.8249
  689.0000     4.2458   648.9194
  689.5000     4.2967   631.4864
  690.0000     4.2545   628.7989
  690.5000     4.2365   636.0228
  691.0000     4.2994   652.0859
  691.5000     4.3656   657.0483
  692.0000     4.4282   641.2142
  692.5000     4.4953   621.6563
  693.0000     4.5453   629.4369
  693.5000     4.5083   647.6133
  694.0000     4.7726   673.8080
  694.5000     4.6748   670.4031
  695.0000     4.6286   666.8517
  695.5000     4.6368   697.3239
  696.0000     4.6142   725.6633
  696.5000     4.6761   727.6696
  697.0000     4.6673   709.6891
  697.5000     4.6723   703.6135
  698.0000     4.6915   673.2377
  698.5000     4.6423   667.3531
  699.0000     4.6564   644.6500
  699.5000     4.6771   607.0171
  700.0000     4.9788   618.0970
  700.5000     4.9836   626.9348
  701.0000     4.9788   611.1295
  701.5000     5.1250   634.9197
  702.0000     5.2279   640.6852
  702.5000     4.9044   646.8743
  703.0000     4.9000   644.9848
  703.5000     4.9041   647.9307
  704.0000     5.1374   650.9487
  704.5000     5.0716   627.9736
  705.0000     5.2452   621.0637
  705.5000     5.3970   641.9206
  706.0000     5.3162   647.3253
  706.5000     5.2717   627.9917
  707.0000     5.0031   625.9874
  707.5000     4.9725   651.9027
  708.0000     5.1938   662.7964
  708.5000     5.2942   690.7575
  709.0000     5.1062   723.3083
  709.5000     5.0178   752.1947
  710.0000     5.0018   749.7602
  710.5000     4.9270   744.2311
  711.0000     4.9693   755.3849
  711.5000     5.0366   697.7635
  712.0000     5.0018   697.6329
  712.5000     5.0272   697.7531
  713.0000     4.8668   686.0696
  713.5000     4.9905   670.7487
  714.0000     4.9592   658.8190
  714.5000     4.9215   631.9943
  715.0000     5.0905   630.9653
  715.5000     5.1270   650.8973
  716.0000     5.1696   634.9706
  716.5000     5.0533   642.8385
  717.0000     5.0030   653.9177
  717.5000     5.0399   676.7538
  718.0000     4.9917   676.8322
  718.5000     5.0239   653.3600
  719.0000     4.7978   643.2557
  719.5000     4.7250   644.3755
  720.0000     4.9137   651.1627
  720.5000     5.0044   650.3505
  721.0000     4.9933   641.4288
  721.5000     5.0280   633.8369
  722.0000     5.1701   623.7394
  722.5000     5.3752   638.7925
  723.0000     5.3578   635.1016
  723.5000     5.3950   623.6023
  724.0000     5.2393   612.2031
  724.5000     5.1184   615.9832
  725.0000     4.8986   584.6157
  725.5000     4.9357   580.0395
  726.0000     4.9728   576.0527
  726.5000     4.9108   568.9086
  727.0000     5.1696   562.4077
  727.5000     5.1689   582.4811
  728.0000     4.9831   589.6116
  728.5000     5.0329   590.0434
  729.0000     5.1019   587.7477
  729.5000     5.2714   583.4350
  730.0000     5.2505   586.7590
  730.5000     5.3245   594.0114
  731.0000     5.2385   588.8102
  731.5000     5.3610   580.0632
  732.0000     5.4218   587.2711
  732.5000     5.3605   592.8550
  733.0000     5.3092   578.2924
  733.5000     5.5321   576.0859
  734.0000     5.3286   576.2950
  734.5000     5.4344   613.9151
  735.0000     5.0812   615.1138
  735.5000     5.1718   603.0297
  736.0000     5.2781   606.3761
  736.5000     5.0898   612.4319
  737.0000     5.0899   624.0502
  737.5000     5.0212   624.6501
  738.0000     5.3294   606.4465
  738.5000     5.3457   577.7908
  739.0000     5.3854   561.8563
  739.5000     5.3797   563.2232
  740.0000     5.4939   557.7266
  740.5000     5.3312   550.2858
  741.0000     5.4366   561.6176
  741.5000     5.6639   564.6119
  742.0000     5.5436   549.3601
  742.5000     5.7009   563.0337
  743.0000     5.8034   566.2644
  743.5000     5.5450   570.2417
  744.0000     5.4683   599.4321
  744.5000     5.4024   630.0144
  745.0000     5.3863   614.8346
  745.5000     5.1395   606.7803
  746.0000     5.0903   612.1489
  746.5000     5.2645   626.5242
  747.0000     5.1771   647.8092
  747.5000     5.2278   621.1090
  748.0000     5.3080   644.2188
  748.5000     5.3685   662.9441
  749.0000     5.3792   655.6368
  749.5000     5.3855   649.9984
  750.0000     5.4467   674.6864
  750.5000     5.6915   650.9799
  751.0000     5.8024   643.8351
  751.5000     5.7395   625.6964
  752.0000     5.6938   618.0812
  752.5000     5.7967   608.1185
  753.0000     5.5555   609.0399
  753.5000     5.6967   640.3508
  754.0000     5.7362   648.1571
  754.5000     5.5895   656.5541
  755.0000     5.4520   641.5464
  755.5000     5.4472   625.9769
  756.0000     5.6049   645.8713
  756.5000     5.6055   672.2380
  757.0000     5.5911   678.8006
  757.5000     5.5227   681.7389
  758.0000     5.2399   667.8495
  758.5000     5.3551   660.3816
  759.0000     4.9434   653.5397
  759.5000     4.8715   650.8719
  760.0000     4.7160   660.3352
  760.5000     4.7198   656.9343
  761.0000     4.6900   645.9653
  761.5000     4.6149   637.7665
  762.0000     4.5872   631.2972
  762.5000     4.4274   635.4250
  763.0000     4.4341   639.9316
  763.5000     4.4377   648.5418
  764.0000     4.5273   657.3686
  764.5000     4.5269   651.7743
  765.0000     4.5271   642.9249
  765.5000     4.6911   632.2309
  766.0000     4.8256   626.2443
  766.5000     4.9084   620.2201
  767.0000     4.9219   618.8092
  767.5000     4.8924   626.9886
  768.0000     4.7204   609.8985
  768.5000     4.5958   592.1492
  769.0000     4.6455   566.2513
  769.5000     4.6297   564.2314
  770.0000     4.6159   561.2756
  770.5000     4.6155   512.2620
  771.0000     4.6160   508.5147
  771.5000     4.8167   519.5822
  772.0000     5.0310   524.5151
  772.5000     5.0007   523.4531
  773.0000     5.1396   532.4195
  773.5000     5.2972   550.3353
  774.0000     5.0587   556.3134
  774.5000     4.9430   569.6194
  775.0000     4.9823   571.0475
  775.5000     5.0506   593.1119
  776.0000     4.7633   602.4954
  776.5000     4.8905   610.1279
  777.0000     5.0396   616.4175
  777.5000     5.0213   622.7789
  778.0000     5.3657   634.9088
  778.5000     5.4760   637.0203
  779.0000     5.8990   676.6912
  779.5000     5.9306   678.1880
  780.0000     5.8117   679.0824
  780.5000     5.6442   681.8246
  781.0000     5.7291   685.6353
  781.5000     5.7036   698.5574
  782.0000     5.3326   713.7236
  782.5000     4.9230   732.9080
  783.0000     4.8420   757.6398
  783.5000     4.6265   780.3806
  784.0000     4.5933   820.2463
  784.5000     4.6171   831.1135
  785.0000     4.5556   826.3823
  785.5000     4.6955   817.2009
  786.0000     5.1386   775.4181
  786.5000     5.0719   732.5580
  787.0000     5.0004   692.8713
  787.5000     5.1796   656.9882
  788.0000     5.1664   647.1290
  788.5000     5.1598   639.3918
  789.0000     5.5341   646.2656
  789.5000     5.3560   651.8626
  790.0000     5.1388   651.9336
  790.5000     5.1695   674.7668
  791.0000     5.0302   671.2946
  791.5000     5.0608   665.8239
  792.0000     5.0401   656.1149
  792.5000     4.8576   636.9468
  793.0000     4.8435   625.0308
  793.5000     4.8040   646.3747
  794.0000     4.9221   671.8268
  794.5000     4.8646   681.7671
  795.0000     4.9981   653.7896
  795.5000     5.1904   651.8898
