~VERSION INFORMATION
 VERS.                2.0:   CWLS LOG ASCII STANDARD - VERSION 2.0
 WRAP.                 NO:   ONE LINE PER DEPTH STEP
~WELL INFORMATION
#MNEM.UNIT      DATA TYPE    INFORMATION
#----------   ------------   ------------------------------
 STRT.F           38.0000:   START DEPTH
 STOP.F          890.0000:   STOP DEPTH
 STEP.F            0.5000:   STEP LENGTH
 NULL.          -999.2500:   NO VALUE
 COMP. FENIX & SCISSON INC:   COMPANY
 WELL.       43 SX #14-14:   WELL
 FLD .             TEAPOT:   FIELD
 LOC .      S14 T38N R78W:   LOCATION
 CNTY.            NATRONA:   COUNTY
 STAT.            WYOMING:   STATE
 CTRY. UNITED STATES OF AMERICA:   COUNTRY
 SRVC.            Unknown:   SERVICE COMPANY
 DATE.        28-APR-1978:   LOGDATE
 API .       490251063600:   API NUMBER
~CURVE INFORMATION
#MNEM.UNIT       API CODE    CURVE DESCRIPTION
#----------   ------------   ------------------------------
 DEPT.F                  :   
 SPR .MV     05 010 01 00:   SPONTANEOUS POTENTIAL FROM RES.
 SN  .OHMM   05 040 16 00:   SHORT NORMAL 16"
 ILD .OHMM   05 120 46 00:   INDUCTION LOG DEEP
 CILD.MMHO   05 110 46 00:   CONDUCTIVITY INDUCTION LOG DEEP
 CALD.IN     45 280 60 00:   CALIPER FROM DENSITY LOG
 GRD .GAPI   45 310 01 00:   GAMMA RAY FROM DENSITY LOG
 CORR.G/C3   45 356 01 00:   DENSITY CORRECTION
 DPHI.DEC    45 890 12 00:   DENSITY POROSITY SANDSTONE
 DEN .G/C3   45 350 01 00:   COMPENSATED BULK DENSTIY
~PARAMETER INFORMATION
#MNEM.UNIT          VALUE    DESCRIPTION
#----------   ------------   ------------------------------
 PD  .                 GL:   PERMANENT DATUM
 EPD .F              5217:   ELEVATION PERMANENT DATUM
 LMF .                 KB:   LOG MEASURED FROM
 DMF .                 KB:   DRILLING MEASURED FROM
 EKB .F              5221:   KELLING BUSHING
 EGL .F              5217:   GROUND LEVEL
 DATE.        28-APR-1978:   RUN DATE
 RUN .                  1:   RUN NUMBER
 DD  .F               890:   DEPTH DRILLER
 DL  .F               890:   DEPTH LOGGER
 BLI .F               884:   BOTTOM LOG INTERVAL
 TLI .F                40:   TOP LOG INTERVAL
 CS  .IN            8.625:   CASING SIZE
 CBD .F                40:   CASING BOTTOM DRILLER
 CBL .F                40:   CASING BOTTOM LOGGER
 BS  .IN            7.875:   BIT SIZE
 BSD .F               890:   BIT SIZE AT DEPTH
 DFT .                KCL:   DRILLING FLUID TYPE
 DFD .                8.7:   DRILLING FLUID DENSITY
 DFV .                 34:   DRILLING FLUID VISCOSITY
 DFL .                4.8:   DRILLING FLUID LOSS
 MSS .            MUD PIT:   MUD SAMPLE SOURCE
 RMS .OHMM             .4:   RESISTIVITY MUD SAMPLE
 MST .F                56:   MUD SAMPLE TEMPERATURE
 RMF .OHMM            .38:   RESISTIVITY MUD FILTRATE SAMPLE
 MFST.F                64:   MUD FILTRATE SAMPLE TEMPERATURE
 RMC .OHMM              1:   RESISTIVITY MUD CAKE
 MCST.F                66:   MUD CAKE SAMPLE TEMPERATURE
 MFSS.               MEAS:   MUD FILTRATE SAMPLE SOURCE
 RMB .OHMM             .3:   RESISTIVITY MUD AT BHT
 BHT .F                74:   BOTTOM HOLE TEMPERATURE
 TCS .HRS            0100:   TIME CURCULATED STOPPED
 MRT .F                74:   MAXIMUM RECORDED TEMPERATURE
 LUN .               2958:   LOGGING UNIT NUMBER
 LUL .               CASP:   LOGGING UNIT LOCATION
 ENGI.             MILLER:   RECORDING ENGINEER
 WITN.           MCGINLEY:   WITNESSED BY
 CLNT.            A2DTECH:   CLIENT CODE
 ORIG.           5" PRINT:   ORIGIN OF DATA
 UWI .       490251063600:   UNIQUE WELL ID
 DICO. A2D Technologies, Inc.:   DIGITIZING COMPANY
~OTHER INFORMATION
~A   DEPT      SPR         SN        ILD       CILD       CALD        GRD       CORR       DPHI        DEN   
# ...
  366.5000   -37.0443     7.1427     7.1951   139.0865     7.4468    72.8337     0.0417     0.0806     2.4897
  367.0000   -37.0384     7.2459     7.3491   137.5136     7.5378    72.8466     0.0418     0.0824     2.5048
  367.5000   -36.8841     7.4014     7.4036   134.4426     7.6138    73.0069     0.0435     0.0787     2.5019
  368.0000   -36.7299     7.5083     7.5101   131.3716     7.6749    73.3170     0.0481     0.0850     2.5087
  368.5000   -36.5756     7.6167     7.5657   129.0496     7.7510    76.1759     0.0468     0.0838     2.4975
  369.0000   -36.5697     7.6209     7.5694   127.4767     7.7820    80.0843     0.0454     0.0819     2.4968
  369.5000   -36.4154     7.6778     7.5200   126.6528     7.8002    83.0931     0.0396     0.0813     2.4969
  370.0000   -36.4095     7.6282     7.4215   125.8290     7.8745    82.5038     0.0352     0.0855     2.4993
  370.5000   -36.4036     7.6335     7.3740   125.0051     7.9355    82.9840     0.0339     0.0935     2.4992
  371.0000   -36.3976     7.5852     7.3775   124.9304     7.9816    83.8741     0.0325     0.0974     2.4971
  371.5000   -36.2433     7.5372     7.3811   125.6233     7.9978    83.8866     0.0312     0.1004     2.4732
  372.0000   -36.2374     7.4896     7.2334   126.2976     8.0289    83.2972     0.0314     0.0981     2.4725
  372.5000   -36.3799     7.3403     7.1377   128.4513     8.0451    82.4080     0.0330     0.0928     2.4763
  373.0000   -36.3735     7.1940     7.0424   132.1219     8.0462    80.7692     0.0347     0.0919     2.4816
  373.5000   -36.3676     7.0504     6.9974   135.0620     8.0771    80.1772     0.0348     0.0885     2.4795
  374.0000   -36.3612     6.9101     6.9526   137.9648     8.0184    80.6399     0.0349     0.0879     2.4811
  374.5000   -36.3561     6.8192     6.9568   139.3882     8.0947    81.6997     0.0336     0.0897     2.4924
  375.0000   -36.3499     6.8230     6.9602   139.3134     8.1707    82.3097     0.0337     0.0902     2.4895
  375.5000   -36.3435     6.8267     6.9635   139.2386     8.2318    82.9197     0.0339     0.0902     2.4865
  376.0000   -36.3371     6.8305     7.0151   139.9316     8.2329    83.3798     0.0340     0.0896     2.4851
  376.5000   -36.3323     6.8815     7.0185   138.3400     8.1892    82.4906     0.0342     0.0874     2.4852
  377.0000   -36.2596     6.9329     7.0705   137.5161     8.2353    79.5024     0.0377     0.0805     2.4943
  377.5000   -36.1710     7.0817     7.1722   135.1942     8.2515    79.8126     0.0450     0.0642     2.5117
  378.0000   -36.1651     7.1346     7.2253   132.8722     8.2829    81.0826     0.0422     0.0566     2.5197
  378.5000   -36.1597     7.2881     7.2789   130.5502     8.2990    83.2819     0.0348     0.0717     2.5434
  379.0000   -36.3016     7.3930     7.3328   128.2282     8.3451    83.4443     0.0350     0.0879     2.5111
  379.5000   -36.2957     7.4997     7.3871   128.1535     8.3613    83.3022     0.0366     0.0943     2.5044
  380.0000   -36.2898     7.5039     7.4418   127.3296     8.3774    83.3151     0.0307     0.0965     2.4963
  380.5000   -36.8774     7.5599     7.4457   128.0039     8.3636    83.4753     0.0294     0.0959     2.4738
  381.0000   -37.0213     7.5641     7.4490   127.9291     8.3199    83.4856     0.0310     0.0949     2.4746
  381.5000   -37.1638     7.5163     7.5045   127.8543     8.2312    82.8963     0.0312     0.0937     2.4747
  382.0000   -37.1564     7.5204     7.5598   127.7795     8.1576    83.2064     0.0313     0.0907     2.4747
  382.5000   -37.0021     7.5245     7.5635   127.7048     8.1135    84.1163     0.0315     0.0888     2.4831
  383.0000   -36.9962     7.5287     7.5671   127.6300     8.0551    83.9767     0.0316     0.0885     2.4832
  383.5000   -36.9903     7.5328     7.5178   128.3043     8.0114    83.5372     0.0318     0.0885     2.4840
  384.0000   -36.8360     7.4852     7.5223   128.2295     7.9826    82.7980     0.0320     0.0896     2.4871
  384.5000   -36.8301     7.4893     7.5260   128.9038     7.9533    81.9087     0.0321     0.0962     2.4894
  385.0000   -36.8242     7.4941     7.5296   128.8290     7.9087    81.1694     0.0307     0.0983     2.4872
  385.5000   -36.8183     7.4464     7.5332   129.5220     7.8341    81.0298     0.0309     0.0986     2.4738
  386.0000   -36.8124     7.4502     7.4844   130.1962     7.7927    81.0405     0.0311     0.0967     2.4723
  386.5000   -36.9548     7.4030     7.4886   131.6009     7.7790    80.9005     0.0297     0.0961     2.4754
  387.0000   -37.0973     7.4072     7.4922   133.0429     7.7804    80.7609     0.0313     0.0960     2.4762
  387.5000   -37.2412     7.3603     7.3930   134.4476     7.7816    80.6213     0.0315     0.0927     2.4756
  388.0000   -37.3837     7.3644     7.2952   135.8896     7.7678    80.6342     0.0316     0.0951     2.4869
  388.5000   -37.3763     7.3685     7.2989   136.5452     7.7540    80.6446     0.0318     0.0954     2.4757
  389.0000   -37.2220     7.3725     7.2520   135.7214     7.7552    80.6549     0.0304     0.0947     2.4758
  389.5000   -37.0677     7.3766     7.2557   135.6466     7.7262    80.6652     0.0306     0.0959     2.4789
  390.0000   -36.7651     7.3807     7.2592   134.8227     7.5929    80.6755     0.0307     0.0989     2.4729
  390.5000   -36.1657     7.3849     7.2627   133.2498     7.6540    80.5333     0.0309     0.0982     2.4715
  391.0000   -35.8631     7.3888     7.2662   132.4260     7.6701    80.5462     0.0311     0.0949     2.4723
  391.5000   -35.4120     7.3931     7.3200   130.8531     7.7012    80.5566     0.0327     0.0958     2.4709
  392.0000   -34.9610     7.4058     7.3235   130.0292     7.7174    80.5669     0.0344     0.0960     2.4687
  392.5000   -34.6584     7.4523     7.3778   129.9545     7.7186    80.4273     0.0495     0.0879     2.4786
  393.0000   -34.5041     7.4564     7.3814   129.8797     7.6715    80.1378     0.0496     0.0857     2.4877
  393.5000   -34.3498     7.4090     7.4360   129.8049     7.4938    79.8482     0.0498     0.0890     2.4938
  394.0000   -34.3439     7.4141     7.4911   129.7301     7.4227    79.7086     0.0514     0.0899     2.4901
  394.5000   -34.3380     7.4182     7.4947   128.9062     7.5140    80.7710     0.0606     0.0890     2.4849
  395.0000   -34.3321     7.5253     7.5503   128.8315     7.5301    82.7304     0.0622     0.0850     2.4865
  395.5000   -34.3262     7.5815     7.5539   127.2586     7.5463    84.5398     0.0594     0.0734     2.4889
  396.0000   -34.3203     7.6374     7.5576   126.4347     7.5322    85.1498     0.0473     0.0717     2.5143
  396.5000   -34.3144     7.7485     7.5612   125.6109     7.5184    85.3101     0.0447     0.0864     2.5220
  397.0000   -34.3085     7.8064     7.6172   124.7870     7.5648    85.1679     0.0449     0.0822     2.4935
  397.5000   -34.3025     7.8647     7.6736   123.2141     7.6258    84.7310     0.0450     0.0839     2.4951
  398.0000   -34.2961     7.8691     7.7305   123.1393     7.7318    84.5888     0.0406     0.0854     2.5020
  398.5000   -34.2907     7.8734     7.7878   123.0646     7.7480    84.4492     0.0393     0.0821     2.4975
  399.0000   -34.2843     7.8777     7.8998   122.9898     7.7341    84.3118     0.0409     0.0820     2.4976
  399.5000   -34.2789     7.8268     8.0134   122.9150     7.7353    84.3225     0.0396     0.0823     2.4984
  400.0000   -34.4277     7.8341     8.0173   123.0967     7.8116    84.7853     0.0393     0.0812     2.5015
  400.5000   -34.4473     7.8698     7.9742   124.2883     7.8133    84.6475     0.0369     0.0762     2.5016
  401.0000   -34.4669     7.8925     7.9311   122.7059     7.8448    84.5136     0.0370     0.0750     2.5175
  401.5000   -34.4865     7.9504     7.9183   119.6422     7.8764    84.5338     0.0372     0.0744     2.5183
  402.0000   -34.5061     8.1199     8.0888   116.5784     7.9378    84.5499     0.0373     0.0741     2.5184
  402.5000   -34.5257     8.2360     8.2051   115.0128     7.9993    84.5660     0.0360     0.0744     2.5139
