~VERSION INFORMATION
 VERS.                2.0:   CWLS LOG ASCII STANDARD - VERSION 2.0
 WRAP.                 NO:   ONE LINE PER DEPTH STEP
~WELL INFORMATION
#MNEM.UNIT      DATA TYPE    INFORMATION
#----------   ------------   ------------------------------
 STRT.F            0.0000:   START DEPTH
 STOP.F         3030.0000:   STOP DEPTH
 STEP.F            0.5000:   STEP LENGTH
 NULL.          -999.2500:   NO VALUE
 COMP. LAWRENCE/ALLISON INC:   COMPANY
 WELL. NAVAL PETROLEUM RESERVE 3 AX-3 #36  X 34-34:   WELL
 FLD .         N. P. R #3:   FIELD
 LOC .      S34 T39N R78W:   LOCATION
 CNTY.            NATRONA:   COUNTY
 STAT.            WYOMING:   STATE
 CTRY. UNITED STATES OF AMERICA:   COUNTRY
 SRVC.      Dresser Atlas:   SERVICE COMPANY
 DATE.        29-JUN-1985:   LOGDATE
 API .       490251103200:   API NUMBER
~CURVE INFORMATION
#MNEM.UNIT       API CODE    CURVE DESCRIPTION
#----------   ------------   ------------------------------
 DEPT.F                  :   
 RFOC.OHMM   07 220 01 00:   RESISTIVITY FOCUSED LOG
 RILM.OHMM   07 120 44 00:   RESITIVITY LONG MEDIUM
 SPR .MV     07 010 01 00:   SPONTANEOUS POTENTIAL
 RILD.OHMM   07 120 46 00:   INDUCTION LOG DEEP RESITIVITY
 GRR .GAPI   07 310 01 00:   GAMMA RAY
 DT  .US/F   60 520 00 00:   INTERVAL TRANSIT TIME
 CALD.IN     45 280 60 00:   CALIPER FROM DENSITY LOG
 CORR.G/C3   45 356 01 00:   DENSITY CORRECTION
 CNC .DEC    42 890 03 00:   NEUTRON POROSITY SANDSTONE
 DEN .G/C3   45 350 01 00:   COMPENSATED BULK DENSTIY
 PORD.DEC    45 890 12 00:   POROSITY DENSITY SANDSTONE
~PARAMETER INFORMATION
#MNEM.UNIT          VALUE    DESCRIPTION
#----------   ------------   ------------------------------
 PD  .                 GL:   PERMANENT DATUM
 EPD .F              5108:   ELEVATION PERMANENT DATUM
 LMF .                 KB:   LOG MEASURED FROM
 DAPD.F                12:   FEET ABOVE PERMANENT DATUM
 DMF .                 KB:   DRILLING MEASURED FROM
 EKB .F              5120:   KELLING BUSHING
 EGL .F              5108:   GROUND LEVEL
 DATE.       29-JUNE-1985:   RUN DATE
 RUN .                  1:   RUN NUMBER
 DD  .F              3033:   DEPTH DRILLER
 DL  .F              3033:   DEPTH LOGGER
 BLI .F              3030:   BOTTOM LOG INTERVAL
 CS  .IN            8.625:   CASING SIZE
 CBD .F               601:   CASING BOTTOM DRILLER
 CBL .F               601:   CASING BOTTOM LOGGER
 BS  .IN            7.875:   BIT SIZE
 BSD .F              3033:   BIT SIZE AT DEPTH
 DFT .   FOAM & KCL WATER:   DRILLING FLUID TYPE
 MSS .           FLOWLINE:   MUD SAMPLE SOURCE
 RMS .OHMM           0.44:   RESISTIVITY MUD SAMPLE
 MST .F                82:   MUD SAMPLE TEMPERATURE
 RMF .OHMM           0.44:   RESISTIVITY MUD FILTRATE SAMPLE
 MFST.F                82:   MUD FILTRATE SAMPLE TEMPERATURE
 MFSS.               MEAS:   MUD FILTRATE SAMPLE SOURCE
 RMB .OHMM           0.31:   RESISTIVITY MUD AT BHT
 BHT .F               116:   BOTTOM HOLE TEMPERATURE
 TCS .HRS               3:   TIME CURCULATED STOPPED
 MRT .F               116:   MAXIMUM RECORDED TEMPERATURE
 LUN .               6274:   LOGGING UNIT NUMBER
 LUL .               GLTE:   LOGGING UNIT LOCATION
 ENGI.             RAUTIO:   RECORDING ENGINEER
 WITN.       MR. JENNINGS:   WITNESSED BY
 CLNT.            A2DTECH:   CLIENT CODE
 ORIG.        2" 5" PRINT:   ORIGIN OF DATA
 UWI .       490251103200:   UNIQUE WELL ID
 DICO. A2D Technologies, Inc.:   DIGITIZING COMPANY
~OTHER INFORMATION
~A    DEPT    RFOC       RILM        SPR       RILD         GRR        DT       CALD       CORR        CNC        DEN       PORD   
# ...
 2440.0000     6.5343     5.1412    37.4508     5.0741   109.8788    93.7793     7.3645     0.0303     0.2914     2.5368     0.0737
 2440.5000     6.1827     5.0381    37.7557     4.9406   110.2019    86.8470     7.3648     0.0363     0.2938     2.5285     0.0815
 2441.0000     6.0990     4.8688    38.0720     4.8744   109.3178    85.3368     7.3801     0.0319     0.3234     2.5143     0.0905
 2441.5000     6.0597     4.6349    38.9729     4.6136   107.8227    85.7844     7.4106     0.0454     0.3246     2.4962     0.1053
 2442.0000     6.0627     4.2715    39.7331     4.3628   108.7518    87.3191     7.4608     0.0635     0.3240     2.4684     0.1464
 2442.5000     6.1074     3.9313    40.6450     4.2486   109.6860   101.2876     7.6070     0.0850     0.3097     2.4131     0.2043
 2443.0000     5.6989     3.7472    41.7118     4.3114   110.0091   109.2649     8.2398     0.1267     0.2919     2.3007     0.2656
 2443.5000     4.7111     3.8556    42.1657     4.4050   110.3321   104.9806     8.6317     0.1794     0.2967     2.1848     0.2985
 2444.0000     3.9715     4.4042    42.1671     4.4695   110.3522    86.9663     8.4813     0.3207     0.3018     2.1525     0.2940
 2444.5000     3.8906     4.8586    42.0168     4.4411   110.7058    70.6592     7.3220     0.3282     0.3027     2.1668     0.2440
 2445.0000     4.0585     5.0000    41.5630     4.4128   111.3064    71.7466     7.3072     0.2636     0.2993     2.2898     0.1637
 2445.5000     4.9412     4.9341    40.8061     4.4161   111.9325    76.0345     7.3678     0.1674     0.2914     2.4249     0.0969
 2446.0000     5.7936     4.9022    40.2005     4.4196   114.6798    78.7401     7.3681     0.0624     0.2851     2.5341     0.0649
 2446.5000     6.0853     4.8721    39.8981     4.5154   116.8313    78.8117     7.3533     0.0790     0.2872     2.5461     0.0730
 2447.0000     6.0035     4.8762    39.8999     4.6457   117.7552    79.6349     7.3235     0.1616     0.3177     2.5206     0.0802
 2447.5000     5.7602     4.9478    40.0531     4.8132   117.1692    80.5343     7.3238     0.2443     0.3198     2.5191     0.0835
 2448.0000     5.6439     4.9857    40.0548     4.9178   116.5832    82.8644     7.3090     0.2624     0.3167     2.5108     0.0805
 2448.5000     5.4911     5.0238    40.0563     4.9905   115.0880    85.8711     7.3245     0.1612     0.3125     2.5349     0.0702
 2449.0000     5.4167     5.0280    39.9060     4.9934   117.2343    86.5446     7.3398     0.1228     0.3064     2.5425     0.0647
 2449.5000     5.4194     5.0313    39.9074     5.0313   119.6786    86.6167     7.3552     0.1183     0.3000     2.5455     0.0620
 2450.0000     5.5365     5.0529    39.8701     5.0695   122.7289    86.4608     7.3554     0.0913     0.2952     2.5455     0.0601
 2450.5000     5.7349     5.1755    39.7554     5.2898   124.2641    87.2086     7.3406     0.0102     0.2948     2.5170     0.0834
 2451.0000     5.9403     5.3672    39.2580     5.4805   123.3751    87.0537     7.3108     0.0012     0.2963     2.5004     0.0879
 2451.5000     6.2477     5.5607    38.6904     5.6388   120.6412    86.6730     7.2790    -0.0017     0.2987     2.5030     0.0863
 2452.0000     6.6000     5.6421    38.2216     5.7612   120.3496    86.1356     7.2512    -0.0032     0.2990     2.5208     0.0818
 2452.5000     6.8365     5.7254    37.6250     5.8464   122.1820    85.9105     7.2365    -0.0047     0.2975     2.5276     0.0763
 2453.0000     6.9200     5.7689    37.1683     5.8908   124.0144    85.8309     7.2368    -0.0076     0.2884     2.5314     0.0727
 2453.5000     6.9722     5.8533    36.8634     5.8942   123.7228    85.5255     7.2521    -0.0061     0.2845     2.5329     0.0690
 2454.0000     7.0957     5.8988    36.7099     5.8977   122.2191    85.0684     7.3127     0.0120     0.2875     2.5270     0.0687
 2454.5000     7.1481     5.9433    36.8605     5.9021   121.3214    84.9136     7.3280     0.0230     0.2887     2.5255     0.0726
 2455.0000     6.9563     5.9468    36.8588     5.9056   119.8205    84.9093     7.3585     0.0186     0.2863     2.5255     0.0744
 2455.5000     6.7697     5.9081    36.8573     5.8683   115.5894    84.9804     7.3588    -0.0114     0.2793     2.5239     0.0741
 2456.0000     6.6787     5.9556    36.7038     5.9128   113.7827    85.5775     7.3591    -0.0528     0.2690     2.5128     0.0780
 2456.5000     6.6358     5.9582    36.7024     5.8344   112.5818    86.1857     7.3543    -0.0578     0.2725     2.5038     0.0846
 2457.0000     6.6866     5.8783    36.7010     5.8387   113.5053    86.2575     7.3446    -0.0186     0.2880     2.5113     0.0876
 2457.5000     7.0742     5.8410    36.6995     5.8830   114.7288    85.9519     7.3449     0.0205     0.3021     2.5272     0.0818
 2458.0000     7.1273     5.9296    36.5460     5.9691   117.4675    85.4965     7.3452     0.0296     0.3092     2.5332     0.0748
 2458.5000     6.9827     6.0149    36.5446     6.0144   122.6304    85.1165     7.3455     0.0207     0.3043     2.5333     0.0709
 2459.0000     6.7954     6.1029    36.5432     6.1033   125.0689    84.8107     7.3458     0.0163     0.2901     2.5310     0.0712
 2459.5000     6.6593     6.1492    36.3900     6.2358   125.6863    84.4308     7.3461     0.0119     0.2747     2.5303     0.0714
 2460.0000     6.6628     6.3298    36.3883     6.3713   124.7858    84.2767     7.3313     0.0075     0.2722     2.5318     0.0711
 2460.5000     6.9992     6.5103    36.2351     6.4645   124.4970    84.0473     7.3316     0.0045     0.2737     2.5334     0.0702
 2461.0000     7.6188     6.6055    36.2337     6.5601   125.1173    83.8931     7.3320     0.0031     0.2828     2.5319     0.0699
 2461.5000     7.8331     6.7022    36.0801     6.5639   126.6439    83.8893     7.3323     0.0017     0.2822     2.5146     0.0737
 2462.0000     7.8372     6.7062    36.0787     6.5678   128.1704    83.9608     7.3325     0.0123     0.2795     2.5071     0.0810
 2462.5000     7.8413     6.6182    36.0773     6.4807   129.0909    84.3328     7.3328     0.0079     0.3109     2.5064     0.0840
 2463.0000     7.8454     6.4851    36.0727     6.2635   127.8930    84.4055     7.3331     0.0005     0.3284     2.5049     0.0855
 2463.5000     7.7410     6.3106    35.9226     6.1376   127.2955    84.5517     7.3183     0.0036     0.3190     2.5019     0.0870
 2464.0000     7.5333     6.0943    36.0730     6.0553   129.4310    84.9247     7.3187     0.0202     0.2993     2.5050     0.0878
 2464.5000     7.0795     5.9756    36.0713     5.9344   131.5674    86.2757     7.3190     0.0203     0.2845     2.5110     0.0827
 2465.0000     6.6008     6.0218    36.0850     5.9388   133.0930    86.7242     7.3193     0.0098     0.2809     2.5111     0.0811
 2465.5000     6.4288     6.0253    36.2202     5.9423   129.7711    86.9466     7.3196    -0.0357     0.2833     2.5081     0.0826
 2466.0000     6.4779     6.0290    36.2184     5.9458   121.2976    86.1139     7.3199    -0.0606     0.2800     2.5059     0.0851
 2466.5000     6.7109     6.0755    36.0653     5.9493   119.1803    84.6043     7.3051    -0.0304     0.2766     2.5036     0.0877
 2467.0000     7.1994     6.0369    36.0634     5.9124   118.2901    83.7725     7.3054    -0.0213     0.2736     2.4999     0.0901
 2467.5000     7.6157     5.9984    36.0622     5.7134   122.8498    83.4599     7.3057    -0.0277     0.2727     2.4977     0.0925
 2468.0000     7.9447     5.7516    36.2127     5.4446   126.4976    83.3889     7.2910    -0.0557     0.2848     2.4947     0.0934
 2468.5000     8.1734     5.4864    36.5144     5.2981   127.4308    83.6104     7.2869    -0.0481     0.2989     2.4767     0.1166
 2469.0000     7.7357     5.4133    36.9679     5.2644   128.6444    84.2845     7.2765     0.0016     0.2926     2.4270     0.1477
 2469.5000     7.0700     5.4547    37.4217     5.2317   130.7770    86.7962     7.2768     0.0454     0.2778     2.3834     0.1673
 2470.0000     5.9438     5.5398    37.8755     5.2714   142.9097    90.3907     7.2771     0.0483     0.2572     2.3737     0.1598
