~VERSION INFORMATION
 VERS.                2.0:   CWLS LOG ASCII STANDARD - VERSION 2.0
 WRAP.                 NO:   ONE LINE PER DEPTH STEP
~WELL INFORMATION
#MNEM.UNIT      DATA TYPE    INFORMATION
#----------   ------------   ------------------------------
 STRT.F           12.5000:   START DEPTH
 STOP.F          688.0000:   STOP DEPTH
 STEP.F            0.5000:   STEP LENGTH
 NULL.          -999.2500:   NO VALUE
 COMP. FENIX & SCISSON INC:   COMPANY
 WELL. 26-66 SX 11 WO #26-11:   WELL
 FLD .             TEAPOT:   FIELD
 LOC .      S11 T38N R78W:   LOCATION
 CNTY.            NATRONA:   COUNTY
 STAT.            WYOMING:   STATE
 CTRY. UNITED STATES OF AMERICA:   COUNTRY
 SRVC.      Dresser Atlas:   SERVICE COMPANY
 DATE.        28-AUG-1980:   LOGDATE
 API .       490251084700:   API NUMBER
~CURVE INFORMATION
#MNEM.UNIT       API CODE    CURVE DESCRIPTION
#----------   ------------   ------------------------------
 DEPT.F                  :   
 SFL .OHMM   07 220 01 00:   SHALLOW FOCUSED LOG RESISTIVITY
 ILD .OHMM   07 120 46 00:   INDUCTION LOG DEEP
 ILM .OHMM   07 120 44 00:   INDUCTION LOG MEDIUM
 SPR .MV     07 010 01 00:   SPONTANEOUS POTENTIAL
 CORR.G/C3   45 356 01 00:   DENSITY CORRECTION
 RHOB.G/C3   45 350 01 00:   BULK DENSITY
 DPOR.DEC    45 890 12 00:   DENSITY POROSITY SANDSTONE
 NPOR.DEC    42 890 03 00:   NEUTRON POROSITY SANDSTONE
 GRD .GAPI   45 310 01 00:   GAMMA RAY FROM DENSITY LOG
~PARAMETER INFORMATION
#MNEM.UNIT          VALUE    DESCRIPTION
#----------   ------------   ------------------------------
 PD  .                 GL:   PERMANENT DATUM
 EPD .F              5194:   ELEVATION PERMANENT DATUM
 LMF .                 KB:   LOG MEASURED FROM
 DAPD.F                 5:   FEET ABOVE PERMANENT DATUM
 DMF .                 KB:   DRILLING MEASURED FROM
 EKB .F              5199:   KELLING BUSHING
 EGL .F              5194:   GROUND LEVEL
 DATE.          8-28-1980:   RUN DATE
 RUN .                  1:   RUN NUMBER
 DD  .F               700:   DEPTH DRILLER
 DL  .F               689:   DEPTH LOGGER
 BLI .F               688:   BOTTOM LOG INTERVAL
 TLI .F                14:   TOP LOG INTERVAL
 BS  .IN             8.75:   BIT SIZE
 BSD .F               700:   BIT SIZE AT DEPTH
 DFT .                KCL:   DRILLING FLUID TYPE
 DFD .                8.8:   DRILLING FLUID DENSITY
 DFV .                 55:   DRILLING FLUID VISCOSITY
 DFPH.                 11:   DRILLING FLUID PH
 DFL .                  8:   DRILLING FLUID LOSS
 MSS .           FLOWLINE:   MUD SAMPLE SOURCE
 RMS .OHMM            .72:   RESISTIVITY MUD SAMPLE
 MST .F                66:   MUD SAMPLE TEMPERATURE
 RMF .OHMM            .21:   RESISTIVITY MUD FILTRATE SAMPLE
 MFST.F                66:   MUD FILTRATE SAMPLE TEMPERATURE
 RMC .OHMM           1.24:   RESISTIVITY MUD CAKE
 MCST.F                66:   MUD CAKE SAMPLE TEMPERATURE
 MFSS.               MEAS:   MUD FILTRATE SAMPLE SOURCE
 MCSS.               MEAS:   MUD CAKE SAMPLE SOURCE
 BHT .F               100:   BOTTOM HOLE TEMPERATURE
 TCS .HRS               2:   TIME CURCULATED STOPPED
 MRT .F               100:   MAXIMUM RECORDED TEMPERATURE
 LUN .               6240:   LOGGING UNIT NUMBER
 LUL .               RYTN:   LOGGING UNIT LOCATION
 ENGI.           J. GETTY:   RECORDING ENGINEER
 WITN.              FIVAS:   WITNESSED BY
 CLNT.            A2DTECH:   CLIENT CODE
 ORIG.      1" 2.5" PRINT:   ORIGIN OF DATA
 UWI .       490251084700:   UNIQUE WELL ID
 DICO. A2D Technologies, Inc.:   DIGITIZING COMPANY
~OTHER INFORMATION
~A   DEPT      SFL        ILD        ILM        SPR       CORR       RHOB       DPOR         NPOR      GRD   
   12.5000  -999.2500  -999.2500  -999.2500  -999.2500  -999.2500  -999.2500  -999.2500     0.2251  -999.2500
   13.0000  -999.2500  -999.2500  -999.2500  -999.2500  -999.2500  -999.2500  -999.2500     0.2209   100.2976
   13.5000  3386.3789  -999.2500  -999.2500  -999.2500  -999.2500  -999.2500  -999.2500     0.2172   100.2264
   14.0000  9753.4609  -999.2500  -999.2500   -80.1086    -0.0329  -999.2500     0.5713     0.2134   102.8011
   14.5000   443.0113    46.9085    24.9810   -80.9426    -0.0254  -999.2500     0.5789     0.2063   107.8976
   15.0000   137.4207    48.3216    24.5223   -89.2986    -0.0363  -999.2500     0.5864     0.2008   112.8125
   15.5000    83.3198    49.5902    20.7552   -96.1066    -0.0490  -999.2500     0.5854     0.2159   113.2030
   16.0000   110.0203    40.6878    21.5389   -94.4352    -0.0620  -999.2500     0.5806     0.2236   110.5183
   16.5000  2293.9016    35.1281    26.7495   -90.9900    -0.0420  -999.2500     0.5761     0.2449   109.5249
   17.0000  9935.8965    31.2025    33.6401   -87.5448    -0.0125  -999.2500     0.5787     0.2598   109.3329
   17.5000  9958.4590    32.3806    42.3057   -85.7270     0.0187  -999.2500     0.5867     0.2471   106.9259
   18.0000 10024.5186    32.0059    50.2744   -82.6539     0.0133  -999.2500     0.5881     0.2215   103.7706
   18.5000 10091.0166    35.5185    65.4818   -82.0562    -0.0012  -999.2500     0.5681     0.2091   100.5610
   19.0000 10121.7441    39.1846   809.9807   -81.4170    -0.0156  -999.2500     0.5485     0.1957   101.1100
   19.5000 10121.7441    41.2015  9226.0098   -82.0790    -0.0308  -999.2500     0.5290     0.1907   104.0473
   20.0000 10121.7441    43.1053   842.9047   -82.8150    -0.0322  -999.2500     0.5068     0.1928   106.8539
   20.5000  9736.3135    45.8815   118.4857   -83.5932    -0.0322  -999.2500     0.4835     0.2207   109.7320
   21.0000 10563.4336    49.2341    34.0407   -83.7284    -0.0310  -999.2500     0.4732     0.2330   112.5982
   21.5000  4066.2590    56.6294    21.3470   -83.5719    -0.0139  -999.2500     0.4733     0.2450   114.6714
   22.0000   667.2859    69.2254    20.2410   -83.4186     0.0028  -999.2500     0.4819     0.2428   114.9821
   22.5000    56.8962    65.5246    19.4779   -83.2766     0.0203  -999.2500     0.4931     0.2390   114.7926
   23.0000    64.0293    48.4892    18.7020   -83.1455     0.0372  -999.2500     0.4973     0.2535   113.2483
   23.5000    60.4870    35.8828    15.2254   -83.0123     0.0553  -999.2500     0.4972     0.2723   112.2670
   24.0000    64.4670    26.5539    11.8257   -83.3289     0.0657  -999.2500     0.4913     0.2910   112.5962
   24.5000    49.6497    19.6503     9.1839   -83.6450     0.0585  -999.2500     0.4694     0.3028   112.6817
   25.0000    29.3409    16.3022     8.3582   -83.9746     0.0480  -999.2500     0.4387     0.3311   112.6555
   25.5000    23.1962    14.6474     9.2488   -84.3067     0.0381  -999.2500     0.4183     0.3551   108.8520
   26.0000    23.1962    13.7103    10.6933   -84.6371     0.0279  -999.2500     0.4149     0.3583   108.1935
   26.5000    28.5916    12.8331    12.3531   -85.0756     0.0181  -999.2500     0.4175     0.3210   108.7631
   27.0000    36.8658    11.6246    11.5074   -85.5075     0.0085  -999.2500     0.4165     0.3058   109.5262
   27.5000    34.5562    10.0700     9.7328   -85.9573     0.0081  -999.2500     0.4112     0.2932   110.3265
   28.0000    29.0436     8.6867     8.6867   -86.4222     0.0080  -999.2500     0.4119     0.3075   108.4644
   28.5000    23.5731     8.6867     8.7168   -86.6827     0.0077  -999.2500     0.4319     0.3204   107.3721
   29.0000    23.6797     8.7451     8.7655   -86.6100     0.0115  -999.2500     0.4319     0.3173   108.7414
   29.5000    24.3731     8.8485     8.8144   -86.5566     0.0229  -999.2500     0.4191     0.3398   114.7147
   30.0000    25.2024     9.0110     8.8636   -86.5133     0.0225  -999.2500     0.4191     0.3335   115.5225
   30.5000    26.0650     8.9419     8.9131   -86.4637     0.0042  -999.2500     0.4353     0.3163   113.9835
   31.0000    26.9606     8.7606     8.9629   -86.4118    -0.0041  -999.2500     0.4510     0.2983   111.5323
   31.5000    27.8911     8.5834     9.0147   -86.3604    -0.0084  -999.2500     0.4552     0.2775   108.3628
   32.0000    28.9451     8.4100     8.7271   -86.3189     0.0018  -999.2500     0.4462     0.2733   105.3116
   32.5000    26.3603     8.2172     8.4382   -86.2863     0.0144  -999.2500     0.4313     0.3028   102.7866
   33.0000    23.7665     7.7802     8.1589   -86.5185     0.0272  -999.2500     0.4179     0.3116   106.3240
   33.5000    21.4279     7.3022     7.9180   -86.7153     0.0281     2.0358     0.4083     0.3311   110.9740
   34.0000    19.3195     6.8523     7.6137   -86.9265     0.0287     2.0545     0.3952     0.3505   112.1143
   34.5000    17.4185     6.4309     7.0563   -87.1354     0.0373     2.0684     0.3811     0.3692   109.9482
   35.0000    15.7045     6.0354     6.5396   -87.3350     0.0481     2.0822     0.3689     0.3845   109.9136
   35.5000    14.1592     5.6642     6.0609   -87.5557     0.0500     2.0864     0.3625     0.3845   112.1618
   36.0000    12.1351     5.2669     5.6171   -87.7832     0.0435     2.0745     0.3546     0.3806   109.7768
   36.5000    12.1431     5.1582     5.2669   -87.4231     0.0380     2.0607     0.3570     0.3746   104.7353
   37.0000    12.1927     5.0338     5.2088   -85.7947     0.0325     2.0529     0.3652     0.3538    99.7427
   37.5000    12.2438     4.9124     5.1589   -84.2149     0.0267     2.0477     0.3735     0.3330    94.4725
   38.0000    12.2950     4.7939     5.1096   -82.6142     0.0211     2.0561     0.3762     0.3036    91.3631
   38.5000    12.3424     4.6447     4.9955   -81.7940     0.0160     2.0476     0.3729     0.3070    93.6613
   39.0000    11.6036     4.4249     4.7382   -81.2851     0.0127     2.0327     0.3729     0.3185   100.5526
   39.5000    10.4353     4.2155     4.4941   -79.0133     0.0099     2.0180     0.3829     0.3300   103.2565
   40.0000     9.3827     4.0160     4.2625   -76.6198     0.0067     2.0154     0.3944     0.3401   102.0482
   40.5000     8.4362     3.8435     4.0429   -74.4179     0.0033     2.0344     0.3906     0.3634   100.3418
   41.0000     7.5860     3.6873     3.8347   -73.6286     0.0019     2.0541     0.3786     0.3734    99.2135
   41.5000     7.0748     3.5753     3.7140   -72.9083     0.0113     2.0745     0.3666     0.3604   101.4435
   42.0000     7.0741     3.4666     3.6307   -72.2003     0.0198     2.0828     0.3562     0.3421   105.2308
   42.5000     7.0957     3.3613     3.5492   -71.4881     0.0238     2.0694     0.3620     0.3514   108.4479
   43.0000     7.0950     3.2797     3.4695   -70.8369     0.0133     2.0519     0.3701     0.3741   107.9384
   43.5000     7.0937     3.2172     3.3916   -70.2672     0.0034     2.0411     0.3785     0.3717   105.8096
   44.0000     6.5287     3.1559     3.3154   -69.8020    -0.0003     2.0336     0.3828     0.3648   103.1144
   44.5000     6.0765     3.0958     3.2411   -69.5497     0.0001     2.0271     0.3874     0.3719   100.4264
   45.0000     5.6556     3.0586     3.1785   -69.2738     0.0003     2.0239     0.3912     0.3927    98.6335
   45.5000     5.2638     3.0318     3.1375   -69.0228     0.0084     2.0365     0.3863     0.4135   101.9348
   46.0000     4.9820     3.0052     3.0772   -68.2450     0.0183     2.0636     0.3748     0.4226   109.8503
   46.5000     5.0490     2.9652     3.0995   -67.5479     0.0287     2.0902     0.3552     0.4114   110.1651
   47.0000     5.1259     2.9990     3.2250   -67.0517     0.0384     2.1154     0.3424     0.4034   106.8603
   47.5000     5.2039     3.0703     3.3555   -67.2095     0.0474     2.1074     0.3363     0.4042   104.5467
   48.0000     5.2832     3.1433     3.4913   -67.3442     0.0349     2.0793     0.3511     0.4044   103.8106
   48.5000     5.3654     3.2493     3.6325   -66.0151     0.0234     2.0519     0.3662     0.4012   102.5894
