~VERSION INFORMATION
 VERS.                2.0:   CWLS LOG ASCII STANDARD - VERSION 2.0
 WRAP.                 NO:   ONE LINE PER DEPTH STEP
~WELL INFORMATION
#MNEM.UNIT      DATA TYPE    INFORMATION
#----------   ------------   ------------------------------
 STRT.F           86.5000:   START DEPTH
 STOP.F         1282.0000:   STOP DEPTH
 STEP.F            0.5000:   STEP LENGTH
 NULL.          -999.2500:   NO VALUE
 COMP.      UNITED STATES:   COMPANY
 WELL.             NPR #3:   WELL
 FLD .        TEAPOT DOME:   FIELD
 LOC .      S14 T38N R78W:   LOCATION
 CNTY.            NATRONA:   COUNTY
 STAT.            WYOMING:   STATE
 CTRY. UNITED STATES OF AMERICA:   COUNTRY
 SRVC.       Schlumberger:   SERVICE COMPANY
 DATE.        06-JUL-1962:   LOGDATE
 API .       490250631800:   API NUMBER
~CURVE INFORMATION
#MNEM.UNIT       API CODE    CURVE DESCRIPTION
#----------   ------------   ------------------------------
 DEPT.F                  :   
 SPR .MV     05 010 01 00:   SPONTANEOUS POTENTIAL FROM RES.
 CILD.MMHO   05 110 00 00:   CONDUCTIVITY INDUCTION LOG
 ASN .OHMM   05 041 16 00:   AMPLIFIED SHORT NORMAL 16"
 ILD .OHMM   05 120 46 00:   INDUCTION LOG DEEP
 GR  .GAPI   30 310 01 00:   GAMMA RAY
~PARAMETER INFORMATION
#MNEM.UNIT          VALUE    DESCRIPTION
#----------   ------------   ------------------------------
 PD  .                 GL:   PERMANENT DATUM
 EPD .F              5288:   ELEVATION PERMANENT DATUM
 LMF .                 KB:   LOG MEASURED FROM
 DAPD.F                 5:   FEET ABOVE PERMANENT DATUM
 DMF .                 KB:   DRILLING MEASURED FROM
 EKB .F              5293:   KELLING BUSHING
 EGL .F              5288:   GROUND LEVEL
 DATE.             7-6-62:   RUN DATE
 RUN .                  1:   RUN NUMBER
 DD  .F              1286:   DEPTH DRILLER
 DL  .F              1283:   DEPTH LOGGER
 BLI .F              1282:   BOTTOM LOG INTERVAL
 TLI .F                87:   TOP LOG INTERVAL
 CBD .F                10:   CASING BOTTOM DRILLER
 BS  .IN             6.75:   BIT SIZE
 BSD .F              1286:   BIT SIZE AT DEPTH
 DFT .            GEL-OIL:   DRILLING FLUID TYPE
 DFD .               10.3:   DRILLING FLUID DENSITY
 DFV .                 53:   DRILLING FLUID VISCOSITY
 DFL .                3.6:   DRILLING FLUID LOSS
 MSS .           FLOWLINE:   MUD SAMPLE SOURCE
 RMS .OHMM           5.66:   RESISTIVITY MUD SAMPLE
 MST .F                78:   MUD SAMPLE TEMPERATURE
 RMF .OHMM           5.59:   RESISTIVITY MUD FILTRATE SAMPLE
 MFST.F                78:   MUD FILTRATE SAMPLE TEMPERATURE
 RMC .OHMM           4.47:   RESISTIVITY MUD CAKE
 MCST.F                78:   MUD CAKE SAMPLE TEMPERATURE
 MFSS.                  M:   MUD FILTRATE SAMPLE SOURCE
 MCSS.                  M:   MUD CAKE SAMPLE SOURCE
 RMB .OHMM           5.08:   RESISTIVITY MUD AT BHT
 BHT .F                88:   BOTTOM HOLE TEMPERATURE
 TCS .HRS               1:   TIME CURCULATED STOPPED
 MRT .F                88:   MAXIMUM RECORDED TEMPERATURE
 LUN .               2503:   LOGGING UNIT NUMBER
 LUL .               CSPR:   LOGGING UNIT LOCATION
 ENGI.             KNOBEL:   RECORDING ENGINEER
 WITN.          JORGENSEN:   WITNESSED BY
 CLNT.            A2DTECH:   CLIENT CODE
 ORIG.       2", 5" PRINT:   ORIGIN OF DATA
 UWI .       490250631800:   UNIQUE WELL ID
 DICO. A2D Technologies, Inc.:   DIGITIZING COMPANY
~OTHER INFORMATION
~A   DEPT      SPR       CILD        ASN        ILD         GR   
# ...
  269.5000   -43.1296   153.3655     6.7676     6.7453  -999.2500
  270.0000   -43.1183   159.0071     6.5493     6.5499  -999.2500
  270.5000   -42.8677   163.5866     6.3399     6.3645  -999.2500
  271.0000   -42.6146   167.7095     6.1830     6.1802  -999.2500
  271.5000   -42.5222   171.8331     6.0771     6.0236  -999.2500
  272.0000   -42.7576   175.9678     5.9703     5.9327  -999.2500
  272.5000   -43.0259   179.6891     5.8592     5.8417  -999.2500
  273.0000   -43.2961   182.1362     5.7924     5.7497  -999.2500
  273.5000   -43.5638   184.3607     5.7243     5.6547  -999.2500
  274.0000   -43.7249   186.5853     5.6534     5.6498  -999.2500
  274.5000   -43.7208   187.6976     5.6352     5.6505  -999.2500
  275.0000   -43.5906   187.6976     5.6347     5.6507  -999.2500
  275.5000   -43.4545   187.6976     5.6348     5.6506  -999.2500
  276.0000   -43.3194   186.6965     5.6347     5.6505  -999.2500
  276.5000   -43.1824   183.2517     5.6344     5.6509  -999.2500
  277.0000   -43.1294   179.4242     5.6386     5.6512  -999.2500
  277.5000   -43.1470   175.5992     5.6518     5.7175  -999.2500
  278.0000   -42.9323   171.9635     5.7504     5.8496  -999.2500
  278.5000   -43.1154   168.5240     5.8851     5.9818  -999.2500
  279.0000   -43.3041   165.0849     6.0196     6.1144  -999.2500
  279.5000   -43.4959   161.8562     6.1183     6.2469  -999.2500
  280.0000   -43.6877   159.1274     6.1452     6.3796  -999.2500
  280.5000   -43.8797   156.6781     6.2598     6.5156  -999.2500
  281.0000   -44.0768   156.6845     6.3527     6.5259  -999.2500
  281.5000   -44.1216   159.9070     6.2016     6.4310  -999.2500
  282.0000   -44.0699   162.8304     6.0218     6.3375  -999.2500
  282.5000   -43.8710   165.7610     6.0768     6.2444  -999.2500
  283.0000   -43.6792   168.6961     6.1702     6.1512  -999.2500
  283.5000   -43.4877   171.6310     6.1342     6.0581  -999.2500
  284.0000   -43.2957   174.0608     6.0157     5.9650  -999.2500
  284.5000   -43.1035   175.3117     5.8964     5.8719  -999.2500
  285.0000   -42.9295   176.5609     5.8319     5.7756  -999.2500
  285.5000   -42.9281   177.8122     5.8161     5.7508  -999.2500
  286.0000   -42.9790   179.0635     5.8141     5.7512  -999.2500
  286.5000   -43.1932   179.6891     5.8467     5.7873  -999.2500
  287.0000   -43.4013   177.0011     5.8915     5.9271  -999.2500
  287.5000   -43.6076   171.6251     5.9244     6.0577  -999.2500
  288.0000   -43.7233   166.2491     5.9936     6.2332  -999.2500
  288.5000   -43.6161   160.8730     6.2192     6.4015  -999.2500
  289.0000   -43.3685   155.4970     6.4491     6.5696  -999.2500
  289.5000   -43.1212   150.6586     6.5167     6.7454  -999.2500
  290.0000   -42.8737   149.6933     6.7261     6.8784  -999.2500
  290.5000   -42.6242   146.4756     6.9945     7.0164  -999.2500
  291.0000   -42.5307   143.2610     7.2371     7.1546  -999.2500
  291.5000   -42.5269   141.6434     7.1372     7.2578  -999.2500
  292.0000   -42.6119   144.2675     6.9938     7.1227  -999.2500
  292.5000   -42.7139   148.0243     6.8508     6.9390  -999.2500
  293.0000   -42.8166   151.7848     6.7078     6.7542  -999.2500
  293.5000   -42.9193   155.5387     6.6127     6.5593  -999.2500
  294.0000   -43.0226   159.6681     6.5654     6.4647  -999.2500
  294.5000   -43.1241   159.6681     6.5178     6.4916  -999.2500
  295.0000   -43.1277   159.6430     6.4734     6.5171  -999.2500
  295.5000   -43.0760   156.3019     6.4915     6.5411  -999.2500
  296.0000   -42.9883   153.2655     6.5239     6.6898  -999.2500
  296.5000   -42.9651   150.2233     6.7277     6.8856  -999.2500
  297.0000   -43.0954   147.1767     6.9251     7.0825  -999.2500
  297.5000   -43.2188   143.6870     7.1203     7.2793  -999.2500
  298.0000   -43.3134   139.7543     7.2942     7.4753  -999.2500
  298.5000   -43.2156   135.8215     7.4222     7.6568  -999.2500
  299.0000   -43.1454   133.3279     7.5393     7.7794  -999.2500
  299.5000   -43.2926   131.1380     7.6099     7.8957  -999.2500
  300.0000   -43.4429   130.6375     7.6582     7.9494  -999.2500
  300.5000   -43.5923   131.1424     7.6581     7.8709  -999.2500
  301.0000   -43.7244   132.1473     7.6118     7.7949  -999.2500
  301.5000   -43.7257   133.1521     7.5483     7.7193  -999.2500
  302.0000   -43.7250   134.1576     7.5173     7.6530  -999.2500
  302.5000   -43.7255   134.9309     7.5169     7.6524  -999.2500
  303.0000   -43.7259   135.4893     7.5107     7.6524  -999.2500
  303.5000   -43.8318   135.6428     7.4667     7.6536  -999.2500
  304.0000   -44.0312   135.1350     7.4605     7.7207  -999.2500
  304.5000   -44.2290   133.5995     7.6444     7.7945  -999.2500
  305.0000   -44.4287   132.0640     7.8301     7.8681  -999.2500
  305.5000   -44.3248   130.5285     7.7957     7.9417  -999.2500
  306.0000   -43.9702   128.9930     7.7223     8.0153  -999.2500
  306.5000   -43.6072   127.4575     8.0244     8.0888  -999.2500
  307.0000   -43.5281   125.9220     7.8831     8.1625  -999.2500
  307.5000   -43.4931   124.6312     7.6158     8.2370  -999.2500
  308.0000   -43.4525   125.4506     7.5262     8.2527  -999.2500
  308.5000   -43.4109   126.5275     7.8914     8.1863  -999.2500
  309.0000   -43.3691   127.6344     8.0029     8.0703  -999.2500
  309.5000   -43.3277   130.7748     7.8998     7.9538  -999.2500
  310.0000   -43.3210   134.0053     7.7751     7.8368  -999.2500
  310.5000   -43.4917   137.2359     7.6492     7.7198  -999.2500
  311.0000   -43.7013   140.4664     7.5233     7.6030  -999.2500
  311.5000   -43.9142   143.6970     7.3975     7.4859  -999.2500
  312.0000   -44.1158   145.6568     7.2717     7.3684  -999.2500
  312.5000   -44.0299   145.6573     7.1573     7.2553  -999.2500
  313.0000   -43.9320   145.6564     7.1557     7.2517  -999.2500
  313.5000   -43.8355   144.9522     7.1565     7.2683  -999.2500
  314.0000   -43.7393   143.7914     7.1716     7.3089  -999.2500
  314.5000   -43.6431   142.6317     7.2496     7.3492  -999.2500
  315.0000   -43.5470   141.4720     7.3266     7.3895  -999.2500
  315.5000   -43.4508   140.3123     7.4032     7.4289  -999.2500
  316.0000   -43.3546   139.6470     7.3527     7.4349  -999.2500
  316.5000   -43.2585   139.6470     7.2010     7.3498  -999.2500
  317.0000   -43.1610   141.6971     7.0598     7.2661  -999.2500
  317.5000   -43.1262   143.6838     7.0925     7.1824  -999.2500
  318.0000   -43.1337   145.6701     7.1757     7.0985  -999.2500
  318.5000   -43.3246   147.6573     7.1089     7.0148  -999.2500
  319.0000   -43.5166   149.6443     7.0041     6.9310  -999.2500
  319.5000   -43.7081   151.6307     6.8990     6.8474  -999.2500
  320.0000   -43.8980   153.6175     6.7937     6.7637  -999.2500
  320.5000   -43.9245   155.6043     6.6973     6.6767  -999.2500
  321.0000   -43.9292   156.7882     6.6954     6.6525  -999.2500
  321.5000   -43.6990   157.0527     6.6898     6.6511  -999.2500
  322.0000   -43.3702   157.3172     6.6771     6.6329  -999.2500
  322.5000   -43.3255   157.5817     6.6802     6.5556  -999.2500
  323.0000   -43.0518   157.3683     6.6943     6.4800  -999.2500
  323.5000   -42.7398   156.9313     6.5669     6.4050  -999.2500
  324.0000   -42.4167   156.4943     6.4380     6.3495  -999.2500
  324.5000   -42.3328   156.0573     6.5893     6.3541  -999.2500
  325.0000   -42.3284   155.6639     6.7687     6.4196  -999.2500
  325.5000   -42.2846   157.0453     6.7763     6.4837  -999.2500
  326.0000   -42.1282   158.3016     6.7000     6.5490  -999.2500
  326.5000   -42.2891   159.6681     6.7352     6.5532  -999.2500
  327.0000   -42.5113   159.6681     6.8144     6.5148  -999.2500
  327.5000   -42.7339   159.6665     6.7648     6.4635  -999.2500
  328.0000   -42.9281   159.6697     6.6927     6.4118  -999.2500
  328.5000   -42.9156   159.6724     6.6195     6.3603  -999.2500
  329.0000   -42.8100   161.8358     6.6628     6.3087  -999.2500
  329.5000   -42.7043   164.1405     6.7328     6.2570  -999.2500
  330.0000   -42.5994   164.6733     6.5251     6.2047  -999.2500
