~VERSION INFORMATION
 VERS.                2.0:   CWLS LOG ASCII STANDARD - VERSION 2.0
 WRAP.                 NO:   ONE LINE PER DEPTH STEP
~WELL INFORMATION
#MNEM.UNIT      DATA TYPE    INFORMATION
#----------   ------------   ------------------------------
 STRT.F          672.0000:   START DEPTH
 STOP.F         2343.5000:   STOP DEPTH
 STEP.F            0.5000:   STEP LENGTH
 NULL.          -999.2500:   NO VALUE
 COMP. FENIX & SCISSON INC:   COMPANY
 WELL.   23 SHX-33 #23-33:   WELL
 FLD .             TEAPOT:   FIELD
 LOC .      S33 T39N R78W:   LOCATION
 CNTY.            NATRONA:   COUNTY
 STAT.            WYOMING:   STATE
 CTRY. UNITED STATES OF AMERICA:   COUNTRY
 SRVC.            Unknown:   SERVICE COMPANY
 DATE.        01-MAY-1978:   LOGDATE
 API .       490251062700:   API NUMBER
~CURVE INFORMATION
#MNEM.UNIT       API CODE    CURVE DESCRIPTION
#----------   ------------   ------------------------------
 DEPT.F                  :   
 IL  .OHMM   05 120 00 00:   INDUCTION LOG
 CIL .MMHO   05 110 00 00:   CONDUCTIVITY INDUCTION LOG
 CALD.IN     45 280 60 00:   CALIPER FROM DENSITY LOG
 GRD .GAPI   45 310 01 00:   GAMMA RAY FROM DENSITY LOG
 DPHI.DEC    45 890 12 00:   DENSITY POROSITY SANDSTONE
 RHOB.G/C3   45 350 01 00:   BULK DENSITY
 CORR.G/C3   45 356 01 00:   DENSITY CORRECTION
~PARAMETER INFORMATION
#MNEM.UNIT          VALUE    DESCRIPTION
#----------   ------------   ------------------------------
 PD  .                 GL:   PERMANENT DATUM
 EPD .F              5163:   ELEVATION PERMANENT DATUM
 LMF .                 KB:   LOG MEASURED FROM
 DAPD.F                10:   FEET ABOVE PERMANENT DATUM
 DMF .                 KB:   DRILLING MEASURED FROM
 EKB .F              5173:   KELLING BUSHING
 EGL .F              5163:   GROUND LEVEL
 DATE.           5-1-1978:   RUN DATE
 RUN .                  1:   RUN NUMBER
 DD  .F              2331:   DEPTH DRILLER
 DL  .F              2260:   DEPTH LOGGER
 BLI .F              2250:   BOTTOM LOG INTERVAL
 TLI .F               690:   TOP LOG INTERVAL
 CS  .IN            9.625:   CASING SIZE
 CBD .F               683:   CASING BOTTOM DRILLER
 CBL .F               690:   CASING BOTTOM LOGGER
 BS  .IN             8.75:   BIT SIZE
 BSD .F              2331:   BIT SIZE AT DEPTH
 DFT .                OIL:   DRILLING FLUID TYPE
 BHT .F               104:   BOTTOM HOLE TEMPERATURE
 TCS .HRS               5:   TIME CURCULATED STOPPED
 MRT .F               104:   MAXIMUM RECORDED TEMPERATURE
 LUN .               2958:   LOGGING UNIT NUMBER
 LUL .               CASP:   LOGGING UNIT LOCATION
 ENGI.             MILLER:   RECORDING ENGINEER
 WITN.           MCGINLEY:   WITNESSED BY
 CLNT.            A2DTECH:   CLIENT CODE
 ORIG.       2", 5" PRINT:   ORIGIN OF DATA
 UWI .       490251062700:   UNIQUE WELL ID
 DICO. A2D Technologies, Inc.:   DIGITIZING COMPANY
~OTHER INFORMATION
~A   DEPT       IL        CIL       CALD         GRD      DPHI       RHOB       CORR   
# ...
 2037.0000    10.8889    75.6485     8.5646   146.6065    -0.0072     2.5648     0.1068
 2037.5000    10.9774    72.5758     8.8087   139.7175    -0.0152     2.5527     0.0471
 2038.0000    11.2893    69.5030     8.8060   136.0541    -0.0186     2.5559     0.0448
 2038.5000    11.6280    66.4303     8.6678   135.1186    -0.0220     2.5637     0.0446
 2039.0000    11.9662    65.0401     8.5301   138.0834    -0.0234     2.5716     0.0437
 2039.5000    12.3039    64.9001     8.5785   139.4426    -0.0226     2.5788     0.0432
 2040.0000    12.6419    64.7435     8.7601   136.8402    -0.0212     2.5817     0.0433
 2040.5000    12.9798    64.5868     8.8526   132.5329    -0.0166     2.5813     0.0400
 2041.0000    13.3181    64.4292     8.4649   129.1430    -0.0047     2.5704     0.0335
 2041.5000    13.4762    64.2716     8.4108   129.1168    -0.0033     2.5586     0.0277
 2042.0000    13.4759    64.1141     8.4696   135.3493    -0.0022     2.5480     0.0258
 2042.5000    13.4688    63.9565     8.4945   139.9413    -0.0010     2.5480     0.0255
 2043.0000    13.3446    63.7989     8.4472   142.4305     0.0001     2.5493     0.0234
 2043.5000    13.2237    63.6413     8.4098   142.5907     0.0040     2.5511     0.0234
 2044.0000    13.1009    63.4838     8.4177   138.5204     0.0103     2.5477     0.0234
 2044.5000    13.0308    63.3262     8.4249   135.7836     0.0136     2.5318     0.0233
 2045.0000    13.0283    63.1686     8.4316   135.6197     0.0086     2.5160     0.0300
 2045.5000    13.0974    62.1540     8.4395   143.2633     0.0030     2.5168     0.0390
 2046.0000    13.1889    60.8737     8.4438   143.1809    -0.0027     2.5265     0.0481
 2046.5000    13.3028    59.5934     8.6361   138.8157    -0.0075     2.5421     0.0572
 2047.0000    13.5993    58.3131     8.7532   132.1681    -0.0065     2.5556     0.0589
 2047.5000    14.1067    58.0808     9.0611   127.5722    -0.0069     2.5552     0.0564
 2048.0000    14.6095    59.0909     8.3361   126.2814    -0.0141     2.5536     0.0537
 2048.5000    14.8221    60.5354     8.6610   129.9750    -0.0130     2.5614     0.0509
 2049.0000    14.8218    62.2424     8.5499   134.7875    -0.0120     2.5678     0.0481
 2049.5000    14.4467    63.9495     8.8976   144.2911    -0.0140     2.5635     0.0472
 2050.0000    13.9562    66.7352     8.5334   151.2036    -0.0158     2.5588     0.0488
 2050.5000    13.4628    69.5301     8.5183   145.7348    -0.0151     2.5716     0.0510
 2051.0000    12.9687    72.6350     8.5319   146.1662    -0.0128     2.5750     0.0532
 2051.5000    12.4748    75.7400     8.5449   147.8934    -0.0132     2.5694     0.0555
 2052.0000    11.9810    78.8450     8.5573   148.9535    -0.0170     2.5642     0.0577
 2052.5000    11.4867    81.9499     8.5696   144.0233    -0.0208     2.5608     0.0600
 2053.0000    10.9897    83.4098     8.5820   139.0240    -0.0246     2.5658     0.0622
 2053.5000    10.5033    83.5476     8.5872   134.3368    -0.0277     2.5742     0.0646
 2054.0000    10.4549    83.6855     8.6883   133.5418    -0.0263     2.5826     0.0616
 2054.5000    10.4439    83.8234     8.7899   134.8191    -0.0217     2.5902     0.0546
 2055.0000    10.4437    83.9612     8.6463   136.3405    -0.0172     2.5883     0.0476
 2055.5000    10.4476    84.0991     8.6598   136.3070    -0.0126     2.5795     0.0407
 2056.0000    10.5469    84.2370     8.7067   136.0369    -0.0129     2.5708     0.0354
 2056.5000    10.6492    84.4284     8.6754   134.6899    -0.0130     2.5621     0.0366
 2057.0000    10.7618    84.8017     8.6438   133.3690    -0.0123     2.5633     0.0377
 2057.5000    10.6917    85.1748     8.6530   132.6828    -0.0114     2.5640     0.0387
 2058.0000    10.6082    85.5482     8.7011   135.6183    -0.0105     2.5567     0.0398
 2058.5000    10.6076    85.9214     8.7499   139.1547    -0.0096     2.5526     0.0408
 2059.0000    10.5264    86.2943     8.8016   139.5455    -0.0086     2.5568     0.0412
 2059.5000    10.4491    86.6679     8.6984   138.6038    -0.0100     2.5599     0.0430
 2060.0000    10.5166    87.0411     8.4346   138.4157    -0.0141     2.5564     0.0451
 2060.5000    10.5446    87.6515     9.4474   140.3629    -0.0178     2.5592     0.0473
 2061.0000    10.5234    90.2020     8.8449   146.4987    -0.0145     2.5702     0.0494
 2061.5000    10.3381    92.7525     8.6327   152.6236    -0.0097     2.5710     0.0516
 2062.0000    10.1336    94.1818     8.9928   157.6760    -0.0049     2.5677     0.0537
 2062.5000     9.9291    95.2020     8.9419   162.6110    -0.0019     2.5570     0.0558
 2063.0000     9.7265    95.0707     9.2989   164.3261    -0.0014     2.5479     0.0580
 2063.5000     9.5686    94.5606     9.0189   160.4714     0.0043     2.5473     0.0627
 2064.0000     9.4986    94.0505     8.9187   144.4613     0.0106     2.5442     0.0665
 2064.5000     9.4268    93.5404     8.8455   143.0865     0.0182     2.5318     0.0706
 2065.0000     9.3555    93.0303     8.7751   147.1433     0.0259     2.5199     0.0752
 2065.5000     9.3092    92.5202     8.7754   150.6997     0.0327     2.5080     0.0927
 2066.0000     9.4426    92.0101     8.9159   151.6609     0.0323     2.4959     0.1112
 2066.5000     9.6021    91.5000     9.0555   148.5841     0.0221     2.4902     0.1297
 2067.0000     9.7625    91.4141     9.0830   142.2221     0.0098     2.4978     0.1479
 2067.5000     9.9218    89.8072     9.1062   134.7169    -0.0025     2.5067     0.1548
 2068.0000    10.0430    90.7346     9.2865   134.0539    -0.0043     2.5201     0.1346
 2068.5000    10.0330    91.6621     9.4489   134.1189    -0.0049     2.5723     0.1022
 2069.0000     9.9983    92.5895     8.9847   133.2115    -0.0055     2.5828     0.0699
 2069.5000     9.9649    93.4343     8.4816   132.0082    -0.0202     2.5438     0.0648
 2070.0000     9.9316    93.6927     8.4023   134.7190    -0.0177     2.5545     0.0651
 2070.5000     9.8982    93.9300     8.3570   136.5418    -0.0136     2.5714     0.0652
 2071.0000     9.8649    94.1673     8.3064   138.0574    -0.0095     2.5745     0.0606
 2071.5000     9.8316    94.4045     8.2552   139.6252    -0.0059     2.5670     0.0554
 2072.0000     9.7983    94.6418     8.2022   141.2019    -0.0051     2.5596     0.0501
 2072.5000     9.7650    94.8790     8.2165   141.2883    -0.0042     2.5522     0.0448
 2073.0000     9.7315    95.1163     8.2632   141.4082    -0.0035     2.5506     0.0395
 2073.5000     9.7174    95.3535     8.3103   141.9026    -0.0005     2.5538     0.0343
 2074.0000     9.7171    95.5908     8.3573   143.6829     0.0025     2.5461     0.0312
 2074.5000     9.7172    95.8280     8.4043   145.6482     0.0018     2.5398     0.0330
 2075.0000     9.7177    96.0653     8.4514   147.8188    -0.0031     2.5371     0.0355
 2075.5000     9.7191    96.3026     8.4976   149.5880    -0.0047     2.5371     0.0381
 2076.0000     9.6325    96.5398     8.5306   151.4683    -0.0015     2.5452     0.0368
 2076.5000     9.5641    96.7771     8.3694   153.1350     0.0020     2.5534     0.0323
 2077.0000     9.4931    97.0143     8.6740   149.4482     0.0031     2.5502     0.0291
 2077.5000     9.4221    97.2516     8.5078   144.9397     0.0006     2.5379     0.0344
 2078.0000     9.3501    97.4747     8.6130   140.4092    -0.0020     2.5389     0.0405
 2078.5000     9.2500   100.1768     8.3835   137.6520    -0.0043     2.5450     0.0466
 2079.0000     9.1136   102.7273     8.5669   137.9903    -0.0015     2.5512     0.0465
 2079.5000     8.9778   105.2778     8.5934   140.4575     0.0015     2.5531     0.0453
 2080.0000     8.8418   107.8283     8.6277   141.7999     0.0045     2.5457     0.0441
 2080.5000     8.7058   110.6061     8.6617   140.9642     0.0049     2.5380     0.0432
 2081.0000     8.5694   111.0707     8.6959   140.7096     0.0033     2.5332     0.0432
 2081.5000     8.4322   111.5808     8.7276   141.4405     0.0005     2.5368     0.0472
 2082.0000     8.2710   112.0909     8.7320   142.1712    -0.0022     2.5346     0.0531
