~VERSION INFORMATION
 VERS.                2.0:   CWLS LOG ASCII STANDARD - VERSION 2.0
 WRAP.                 NO:   ONE LINE PER DEPTH STEP
~WELL INFORMATION
#MNEM.UNIT      DATA TYPE    INFORMATION
#----------   ------------   ------------------------------
 STRT.F          110.5000:   START DEPTH
 STOP.F         1944.0000:   STOP DEPTH
 STEP.F            0.5000:   STEP LENGTH
 NULL.          -999.2500:   NO VALUE
 COMP.    FENIX & SCISSON:   COMPANY
 WELL.   NPR 3 SHX #34-10:   WELL
 FLD .             TEAPOT:   FIELD
 LOC .      S10 T38N R78W:   LOCATION
 CNTY.            NATRONA:   COUNTY
 STAT.            WYOMING:   STATE
 CTRY. UNITED STATES OF AMERICA:   COUNTRY
 SRVC.            Unknown:   SERVICE COMPANY
 DATE.        14-APR-1978:   LOGDATE
 API .       490251061800:   API NUMBER
~CURVE INFORMATION
#MNEM.UNIT       API CODE    CURVE DESCRIPTION
#----------   ------------   ------------------------------
 DEPT.F                  :   
 ILD .OHMM   05 120 46 00:   INDUCTION LOG DEEP
 CILD.MMHO   05 110 00 00:   CONDUCTIVITY INDUCTION LOG
 NPHI.DEC    42 890 01 00:   NEUTRON POROSITY LIMESTONE
 GRD .GAPI   45 310 01 00:   GAMMA RAY FROM DENSITY LOG
~PARAMETER INFORMATION
#MNEM.UNIT          VALUE    DESCRIPTION
#----------   ------------   ------------------------------
 PD  .                 GL:   PERMANENT DATUM
 EPD .F              5244:   ELEVATION PERMANENT DATUM
 LMF .                 KB:   LOG MEASURED FROM
 DMF .                 KB:   DRILLING MEASURED FROM
 EKB .F              5252:   KELLING BUSHING
 EGL .F              5244:   GROUND LEVEL
 DATE.          4-14-1978:   RUN DATE
 RUN .                  1:   RUN NUMBER
 DD  .F              1953:   DEPTH DRILLER
 DL  .F              1950:   DEPTH LOGGER
 BLI .F              1944:   BOTTOM LOG INTERVAL
 TLI .F               715:   TOP LOG INTERVAL
 CS  .IN            9.625:   CASING SIZE
 CBD .F               708:   CASING BOTTOM DRILLER
 CBL .F               712:   CASING BOTTOM LOGGER
 BS  .IN             8.75:   BIT SIZE
 BSD .F              1953:   BIT SIZE AT DEPTH
 DFT .                OIL:   DRILLING FLUID TYPE
 TCS .HRS               5:   TIME CURCULATED STOPPED
 LUN .               2958:   LOGGING UNIT NUMBER
 LUL .               CASP:   LOGGING UNIT LOCATION
 ENGI.             MILLER:   RECORDING ENGINEER
 CLNT.            A2DTECH:   CLIENT CODE
 ORIG.           5" PRINT:   ORIGIN OF DATA
 UWI .       490251061800:   UNIQUE WELL ID
 DICO. A2D Technologies, Inc.:   DIGITIZING COMPANY
~OTHER INFORMATION
~A   DEPT      ILD       CILD       NPHI        GRD   
# ...
  767.5000     9.4017   111.4419  -999.2500  -999.2500
  768.0000     9.3925   111.4883  -999.2500  -999.2500
  768.5000     9.3834   111.5347  -999.2500  -999.2500
  769.0000     9.3741   111.5812  -999.2500  -999.2500
  769.5000     9.3789   111.6276  -999.2500  -999.2500
  770.0000     9.3922   111.6740  -999.2500  -999.2500
  770.5000     9.4056   111.7205  -999.2500  -999.2500
  771.0000     9.4191   111.7669  -999.2500  -999.2500
  771.5000     9.4325   111.8133  -999.2500  -999.2500
  772.0000     9.4459   111.8598  -999.2500  -999.2500
  772.5000     9.4593   111.9062  -999.2500  -999.2500
  773.0000     9.4730   111.5236  -999.2500  -999.2500
  773.5000     9.4848   109.9565  -999.2500  -999.2500
  774.0000     9.5820   108.3893  -999.2500  -999.2500
  774.5000     9.7132   106.8221  -999.2500  -999.2500
  775.0000     9.8462   105.2550  -999.2500  -999.2500
  775.5000     9.9792   103.6878  -999.2500  -999.2500
  776.0000    10.1120   101.9901  -999.2500  -999.2500
  776.5000    10.2448   102.2270  -999.2500  -999.2500
  777.0000    10.3778   102.4855  -999.2500  -999.2500
  777.5000    10.5107   102.7440  -999.2500  -999.2500
  778.0000    10.6423   103.0025  -999.2500  -999.2500
  778.5000    10.7373   103.2610  -999.2500  -999.2500
  779.0000    10.7555   103.5195  -999.2500  -999.2500
  779.5000    10.7752   103.7780  -999.2500  -999.2500
  780.0000    10.7946   104.0365  -999.2500  -999.2500
  780.5000    10.8143   104.2950  -999.2500  -999.2500
  781.0000    10.8337   104.5535  -999.2500  -999.2500
  781.5000    10.8423   104.8120  -999.2500  -999.2500
  782.0000    10.8009   105.0705  -999.2500  -999.2500
  782.5000    10.7605   105.3290  -999.2500  -999.2500
  783.0000    10.7166   105.5875  -999.2500  -999.2500
  783.5000    10.6552   105.8460  -999.2500  -999.2500
  784.0000    10.5909   106.1045  -999.2500  -999.2500
  784.5000    10.5071   106.3630  -999.2500  -999.2500
  785.0000    10.4246   106.6215  -999.2500  -999.2500
  785.5000    10.3419   106.8800  -999.2500  -999.2500
  786.0000    10.2596   107.0067  -999.2500  -999.2500
  786.5000    10.2536   107.0686  -999.2500  -999.2500
  787.0000    10.2584   107.1306  -999.2500  -999.2500
  787.5000    10.2632   107.1925  -999.2500  -999.2500
  788.0000    10.2679   107.2544  -999.2500  -999.2500
  788.5000    10.2726   107.3163  -999.2500  -999.2500
  789.0000    10.2773   107.3783  -999.2500  -999.2500
  789.5000    10.2821   107.4402  -999.2500  -999.2500
  790.0000    10.2864   107.5021  -999.2500  -999.2500
  790.5000    10.2682   107.5640  -999.2500  -999.2500
  791.0000    10.2030   107.6260  -999.2500  -999.2500
  791.5000    10.1386   107.6879  -999.2500  -999.2500
  792.0000    10.0740   107.7498  -999.2500  -999.2500
  792.5000    10.0100   107.8117  -999.2500  -999.2500
  793.0000     9.9638   107.8737  -999.2500  -999.2500
  793.5000     9.9492   107.9356  -999.2500  -999.2500
  794.0000     9.9340   107.9975  -999.2500  -999.2500
  794.5000     9.9189   108.0594  -999.2500  -999.2500
  795.0000     9.9038   108.1214  -999.2500  -999.2500
  795.5000     9.8887   108.1833  -999.2500  -999.2500
  796.0000     9.8736   108.2452  -999.2500  -999.2500
  796.5000     9.8580   108.3072  -999.2500  -999.2500
  797.0000     9.8202   108.3691  -999.2500  -999.2500
  797.5000     9.7528   108.4310  -999.2500  -999.2500
  798.0000     9.6858   108.4929  -999.2500  -999.2500
  798.5000     9.6186   108.5548  -999.2500  -999.2500
  799.0000     9.5504   108.6168  -999.2500  -999.2500
  799.5000     9.5457   108.6787  -999.2500  -999.2500
  800.0000     9.5667   108.7406  -999.2500  -999.2500
  800.5000     9.5885   108.8030  -999.2500  -999.2500
  801.0000     9.6100   108.8659  -999.2500  -999.2500
  801.5000     9.6316   108.9264  -999.2500  -999.2500
  802.0000     9.6613   108.6149  -999.2500  -999.2500
  802.5000     9.7389   107.9716  -999.2500  -999.2500
  803.0000     9.8170   107.3293  -999.2500  -999.2500
  803.5000     9.8951   106.6878  -999.2500  -999.2500
  804.0000     9.9730   106.0464  -999.2500  -999.2500
  804.5000    10.0510   105.4049  -999.2500  -999.2500
  805.0000    10.1290   104.7634  -999.2500  -999.2500
  805.5000    10.2070   104.1219  -999.2500  -999.2500
  806.0000    10.2846   103.4805  -999.2500  -999.2500
  806.5000    10.3330   103.0089  -999.2500  -999.2500
  807.0000    10.3396   103.1136  -999.2500  -999.2500
  807.5000    10.3466   103.2183  -999.2500  -999.2500
  808.0000    10.3535   103.3230  -999.2500  -999.2500
  808.5000    10.3605   103.4277  -999.2500  -999.2500
  809.0000    10.3672   103.5323  -999.2500  -999.2500
  809.5000    10.3889   103.6370  -999.2500  -999.2500
  810.0000    10.4164   103.7417  -999.2500  -999.2500
  810.5000    10.4443   103.8464  -999.2500  -999.2500
  811.0000    10.4721   103.9511  -999.2500  -999.2500
  811.5000    10.5000   104.0558  -999.2500  -999.2500
  812.0000    10.5288   104.1605  -999.2500  -999.2500
  812.5000    10.5674   104.2651  -999.2500  -999.2500
  813.0000    10.6078   104.3698  -999.2500  -999.2500
  813.5000    10.6482   104.4745  -999.2500  -999.2500
  814.0000    10.6885   104.5792  -999.2500  -999.2500
  814.5000    10.7290   104.6839  -999.2500  -999.2500
  815.0000    10.7697   104.7886  -999.2500  -999.2500
  815.5000    10.8073   104.8932  -999.2500  -999.2500
  816.0000    10.7813   104.9979  -999.2500  -999.2500
  816.5000    10.7529   105.1026  -999.2500  -999.2500
  817.0000    10.7248   105.2073  -999.2500  -999.2500
  817.5000    10.6968   105.3120  -999.2500  -999.2500
  818.0000    10.6688   105.4167  -999.2500  -999.2500
  818.5000    10.6409   105.5213  -999.2500  -999.2500
  819.0000    10.6147   105.6260  -999.2500  -999.2500
  819.5000    10.5450   105.7307  -999.2500  -999.2500
  820.0000    10.4701   105.8328  -999.2500  -999.2500
  820.5000    10.3574   105.9340  -999.2500  -999.2500
  821.0000    10.2268   107.6378  -999.2500  -999.2500
  821.5000    10.0961   109.9807  -999.2500  -999.2500
  822.0000     9.9652   112.3508  -999.2500  -999.2500
  822.5000     9.8344   113.5483  -999.2500  -999.2500
  823.0000     9.7036   114.3908  -999.2500  -999.2500
  823.5000     9.5728   115.2322  -999.2500  -999.2500
  824.0000     9.4420   116.9652  -999.2500  -999.2500
  824.5000     9.3111   122.8856  -999.2500  -999.2500
  825.0000     9.1799   123.5345  -999.2500  -999.2500
  825.5000     9.0528   124.1899  -999.2500  -999.2500
  826.0000     9.0015   124.8453  -999.2500  -999.2500
  826.5000     8.9535   125.5008  -999.2500  -999.2500
  827.0000     8.9053   126.1562  -999.2500  -999.2500
  827.5000     8.8575   126.8116  -999.2500  -999.2500
  828.0000     8.8063   127.4660  -999.2500  -999.2500
  828.5000     8.6761   128.1266  -999.2500  -999.2500
  829.0000     8.5516   128.7514  -999.2500  -999.2500
  829.5000     8.3672   131.1168  -999.2500  -999.2500
  830.0000     8.1828   133.6826  -999.2500  -999.2500
  830.5000     7.9882   136.2485  -999.2500  -999.2500
  831.0000     7.8259   138.8144  -999.2500  -999.2500
  831.5000     7.6573   141.3803  -999.2500  -999.2500
  832.0000     7.4889   143.9462  -999.2500  -999.2500
  832.5000     7.3225   146.5121  -999.2500  -999.2500
  833.0000     7.2118   149.0780  -999.2500  -999.2500
  833.5000     7.2109   151.6439  -999.2500  -999.2500
  834.0000     7.1154   153.2610  -999.2500  -999.2500
  834.5000     7.0141   154.1746  -999.2500  -999.2500
  835.0000     6.9131   155.0882  -999.2500  -999.2500
  835.5000     6.8119   156.0018  -999.2500  -999.2500
  836.0000     6.7100   156.5752  -999.2500  -999.2500
  836.5000     6.6839   155.9268  -999.2500  -999.2500
  837.0000     6.6724   155.2784  -999.2500  -999.2500
  837.5000     6.6617   154.6300  -999.2500  -999.2500
  838.0000     6.6731   153.9839  -999.2500  -999.2500
  838.5000     6.7660   153.3488  -999.2500  -999.2500
  839.0000     6.8558   152.7363  -999.2500  -999.2500
  839.5000     6.9455   149.6712  -999.2500  -999.2500
  840.0000     7.0352   146.8311  -999.2500  -999.2500
