~VERSION INFORMATION
 VERS.                2.0:   CWLS LOG ASCII STANDARD - VERSION 2.0
 WRAP.                 NO:   ONE LINE PER DEPTH STEP
~WELL INFORMATION
#MNEM.UNIT      DATA TYPE    INFORMATION
#----------   ------------   ------------------------------
 STRT.F            2.0000:   START DEPTH
 STOP.F          467.0000:   STOP DEPTH
 STEP.F            0.5000:   STEP LENGTH
 NULL.          -999.2500:   NO VALUE
 COMP. LAWRENCE/ALLISON INC:   COMPANY
 WELL.      57-36 SX #3-3:   WELL
 FLD .             TEAPOT:   FIELD
 LOC .       S3 T38N R78W:   LOCATION
 CNTY.            NATRONA:   COUNTY
 STAT.            WYOMING:   STATE
 CTRY. UNITED STATES OF AMERICA:   COUNTRY
 SRVC.      NL McCullough:   SERVICE COMPANY
 DATE.        13-SEP-1988:   LOGDATE
 API .       490251120900:   API NUMBER
~CURVE INFORMATION
#MNEM.UNIT       API CODE    CURVE DESCRIPTION
#----------   ------------   ------------------------------
 DEPT.F                  :   
 GRR .GAPI   07 310 01 00:   GAMMA RAY
 ILD .OHMM   07 120 46 00:   INDUCTION LOG DEEP
 ILM .OHMM   07 120 44 00:   INDUCTION LOG MEDIUM
~PARAMETER INFORMATION
#MNEM.UNIT          VALUE    DESCRIPTION
#----------   ------------   ------------------------------
 PD  .                 GL:   PERMANENT DATUM
 EPD .F              5186:   ELEVATION PERMANENT DATUM
 LMF .                 KB:   LOG MEASURED FROM
 DMF .                 KB:   DRILLING MEASURED FROM
 EKB .F              5191:   KELLING BUSHING
 EGL .F              5186:   GROUND LEVEL
 DATE.        13-SEP-1988:   RUN DATE
 RUN .                  1:   RUN NUMBER
 DD  .F               409:   DEPTH DRILLER
 DL  .F               409:   DEPTH LOGGER
 BLI .F               404:   BOTTOM LOG INTERVAL
 BSD .F               409:   BIT SIZE AT DEPTH
 DFT .              WATER:   DRILLING FLUID TYPE
 ENGI.          BANGERTER:   RECORDING ENGINEER
 WITN.            SCHULTE:   WITNESSED BY
 CLNT.            A2DTECH:   CLIENT CODE
 ORIG.           5" PRINT:   ORIGIN OF DATA
 UWI .       490251120900:   UNIQUE WELL ID
 DICO. A2D Technologies, Inc.:   DIGITIZING COMPANY
~OTHER INFORMATION
~A    DEPT      GRR       ILD        ILM   
# ...
  366.0000    79.0514    28.6460    28.5384
  366.5000    78.4664    28.4494    28.9458
  367.0000    78.4885    28.4542    28.9497
  367.5000    78.8115    28.4580    29.3630
  368.0000    78.8292    28.2617    29.1615
  368.5000    79.1522    28.0686    28.9615
  369.0000    79.1699    28.0724    28.7628
  369.5000    79.1878    27.6844    28.3665
  370.0000    77.9883    27.4688    27.9739
  370.5000    78.0059    26.9255    27.5885
  371.0000    79.2450    26.3675    27.2076
  371.5000    80.4840    25.8211    27.1980
  372.0000    81.1124    25.2860    26.6478
  372.5000    81.7408    24.4165    26.2798
  373.0000    81.7099    23.7431    25.7365
  373.5000    79.3378    23.4158    25.2035
  374.0000    78.1341    23.4189    24.8554
  374.5000    78.4571    23.4221    23.9998
  375.0000    79.3908    23.4253    23.1230
  375.5000    81.5459    23.4284    22.2245
  376.0000    83.7009    23.5968    21.7643
  376.5000    86.1944    23.4141    21.6142
  377.0000    87.4048    22.7893    21.7702
  377.5000    86.8074    22.4398    21.9265
  378.0000    85.9090    21.9631    21.6237
  378.5000    84.7098    21.5525    21.1767
  379.0000    84.1167    20.9581    20.8843
  379.5000    84.1344    20.3801    20.4518
  380.0000    84.4580    19.8187    20.1687
  380.5000    84.7849    19.5442    19.6135
  381.0000    85.1079    19.0058    18.9334
  381.5000    85.7362    18.6119    18.2894
  382.0000    85.7539    18.2262    17.9107
  382.5000    85.7716    17.9744    17.5392
  383.0000    85.4799    17.7260    17.1766
  383.5000    84.5856    17.3592    16.9388
  384.0000    84.9130    17.1188    16.5886
  384.5000    85.8467    16.7640    16.3596
  385.0000    86.4751    16.4172    16.1337
  385.5000    86.1830    16.0769    15.9114
  386.0000    85.8992    15.8503    15.5814
  386.5000    86.5282    15.6357    15.2593
  387.0000    87.1609    15.4198    15.2613
  387.5000    88.7052    15.2065    15.2634
  388.0000    89.6389    15.1791    15.1587
  388.5000    88.4308    15.0761    15.1612
  389.0000    87.5325    15.0006    15.0567
  389.5000    87.2489    14.8980    14.8493
  390.0000    88.2036    14.7961    14.7474
  390.5000    88.5103    14.7981    14.7494
  391.0000    87.3066    14.8001    14.6482
  391.5000    87.3243    14.8021    14.6506
  392.0000    88.8687    14.8041    14.7559
  392.5000    90.1078    14.8062    14.8618
  393.0000    88.5985    14.8087    14.7593
  393.5000    87.3950    14.8107    14.6585
  394.0000    88.0278    14.7085    14.4561
  394.5000    89.8775    14.6080    14.3574
  395.0000    91.7272    14.6099    14.3594
  395.5000    92.9663    14.5096    14.3613
  396.0000    94.2053    14.4100    14.3633
  396.5000    92.3908    14.3115    14.2647
  397.0000    93.0931    14.2128    14.2667
  397.5000    93.9574    14.2150    14.2691
  398.0000    94.2804    14.1174    14.2710
  398.5000    93.9884    14.0206    14.0734
  399.0000    93.3953    13.9244    13.7825
  399.5000    94.3335    13.8288    13.5921
  400.0000    95.5725    13.7301    13.4989
  400.5000    95.7080    13.6833    13.3626
  401.0000    95.8436    13.6432    13.3124
  401.5000    96.2677    13.5504    13.5018
  402.0000    97.5511    13.6494    13.5978
  402.5000    98.4470    13.6522    13.6946
  403.0000    99.0814    13.5594    13.6955
  403.5000    99.1051    13.4672    13.7931
  404.0000    98.8234    13.5649    13.6974
  404.5000    97.9311    13.3791    13.6985
  405.0000    96.7334    13.3818    13.6036
  405.5000    96.4518    13.3846    13.5091
  406.0000    97.1318    13.2935    13.4158
  406.5000    98.0318    13.2963    13.1371
  407.0000    97.7502    13.2059    13.1382
  407.5000    96.2412    13.1161    12.8653
  408.0000    95.3489    13.0276    12.7759
  408.5000    95.0672    12.9384    12.6876
  409.0000    95.0969    12.9417    12.5995
  409.5000    95.7344    12.7638    12.6006
  410.0000    97.6692    12.7664    12.5133
  410.5000    99.1433    12.6796    12.4266
  411.0000    99.1670    12.5279    12.2542
  411.5000    97.6640    12.3333    12.1693
  412.0000    96.7658    12.2494    12.0850
  412.5000    96.7954    11.9970    11.9173
  413.0000    97.7351    11.9148    11.6866
  413.5000    98.9802    11.6687    11.4275
  414.0000   100.2625    11.4283    11.2637
  414.5000   100.5602    11.0356    10.9577
  415.0000   100.2726    10.7225    10.6551
  415.5000   100.3023    10.3646    10.3608
  416.0000   100.3260     9.9389    10.2171
  416.5000   100.9603     9.5978     9.7963
  417.0000   102.2054     9.3337     9.3272
  417.5000   103.1451     9.0134     8.6346
  418.0000   104.3908     8.0567     7.9228
  418.5000   105.6412     7.0991     7.2969
  419.0000   107.1916     6.7076     6.6143
  419.5000   110.2688     6.5300     6.0804
  420.0000   116.7047     6.5313     5.5895
  420.5000   128.9421     6.6251     5.0666
  421.0000   133.5459     6.8153     5.3597
  421.5000   132.9590     7.0110     6.0936
  422.0000   123.6234     7.2123     7.0984
  422.5000   111.9436     7.6901     7.9427
  423.0000   107.3871     8.2737     8.7636
  423.5000   104.0520     9.0364     9.9446
  424.0000   102.2437     9.8333    10.3006
  424.5000   102.5727    10.4039    10.5205
  425.0000   104.7338    10.7026    10.7452
  425.5000   106.2842    10.8563    10.9030
  426.0000   107.5542    11.0898    11.2091
  426.5000   106.0322    11.2527    11.5291
  427.0000   103.6132    11.4245    11.8583
  427.5000   102.4095    11.6565    12.1115
  428.0000   103.3552    11.7411    12.3701
  428.5000   105.2110    11.8263    12.5458
  429.0000   107.0667    11.9961    12.8198
  429.5000   107.4127    12.1683    12.9960
  430.0000   105.8524    12.3430    13.1807
  430.5000   104.3956    12.6138    13.2744
  431.0000   103.4974    12.8803    13.3971
  431.5000   102.6110    13.0652    13.5588
  432.0000   102.9400    13.2528    13.6552
  432.5000   104.1851    13.4607    13.6562
  433.0000   104.8195    13.5406    13.7533
  433.5000   104.8432    13.6971    13.7672
  434.0000   104.8672    13.8347    13.9499
  434.5000   104.8965    13.9351    14.0491
  435.0000   104.9202    13.9387    14.0501
  435.5000   104.9439    13.9415    14.1500
  436.0000   103.7462    13.8460    14.0520
  436.5000   101.6325    13.8496    14.0464
  437.0000    98.2974    13.8522    13.9556
  437.5000    95.8784    13.8552    13.7619
  438.0000    94.0700    13.9558    13.7631
  438.5000    94.0947    13.9587    13.6675
  439.0000    96.2607    13.9616    13.6687
  439.5000    98.4218    13.9650    13.6696
  440.0000   101.1936    13.8694    13.6706
  440.5000   103.0494    13.8729    13.6715
  441.0000   103.6837    13.8756    13.6726
  441.5000   102.1807    13.8786    13.7699
  442.0000   100.9751    13.7842    13.7707
  442.5000    99.7854    13.6380    13.7718
  443.0000    99.1984    13.4947    13.5805
  443.5000   101.0601    13.3571    13.4654
  444.0000   104.1372    13.2195    13.2995
  444.5000   106.6036    12.9536    13.0234
  445.0000   108.1541    12.5090    12.9330
  445.5000   109.7045    12.0797    12.8017
  446.0000   108.8000    11.8302    12.4888
  446.5000   106.6984    11.7405    12.3153
  447.0000   106.1114    11.5882    12.0597
  447.5000   106.4464    11.5094    11.8092
  448.0000   107.0808    11.5123    11.4723
  448.5000   107.7152    11.4335    11.1659
  449.0000   108.6549    11.3563    11.0108
  449.5000   109.2893    11.2001    10.9345
  450.0000   109.3130    10.9688    10.8588
  450.5000  -999.2500    10.8180    10.8597
  451.0000  -999.2500    10.6698    10.7090
  451.5000  -999.2500    10.5231    10.4817
  452.0000  -999.2500    10.5252    10.3411
  452.5000  -999.2500    10.5274    10.2694
  453.0000  -999.2500    10.5295    10.2703
  453.5000  -999.2500    10.3847    10.2710
  454.0000  -999.2500    10.3868    10.2717
  454.5000  -999.2500    10.3162    10.2005
  455.0000  -999.2500    10.2461    10.1299
  455.5000  -999.2500    10.1052    10.1306
  456.0000  -999.2500    10.0365    10.0604
  456.5000  -999.2500    10.0391    10.1321
