~VERSION INFORMATION
 VERS.                2.0:   CWLS LOG ASCII STANDARD - VERSION 2.0
 WRAP.                 NO:   ONE LINE PER DEPTH STEP
~WELL INFORMATION
#MNEM.UNIT      DATA TYPE    INFORMATION
#----------   ------------   ------------------------------
 STRT.F           36.0000:   START DEPTH
 STOP.F          686.0000:   STOP DEPTH
 STEP.F            0.5000:   STEP LENGTH
 NULL.          -999.2500:   NO VALUE
 COMP.    FENIX & SCISSON:   COMPANY
 WELL.        NPR #15-S-2:   WELL
 FLD .             TEAPOT:   FIELD
 LOC .       S2 T38N R78W:   LOCATION
 CNTY.            NATRONA:   COUNTY
 STAT.            WYOMING:   STATE
 CTRY. UNITED STATES OF AMERICA:   COUNTRY
 SRVC.       Schlumberger:   SERVICE COMPANY
 DATE.        16-MAR-1977:   LOGDATE
 API .       490251029900:   API NUMBER
~CURVE INFORMATION
#MNEM.UNIT       API CODE    CURVE DESCRIPTION
#----------   ------------   ------------------------------
 DEPT.F                  :   
 SPR .MV     07 010 01 00:   SPONTANEOUS POTENTIAL FROM RES.
 ILD .OHMM   07 120 46 00:   INDUCTION LOG DEEP
 ILM .OHMM   07 120 44 00:   INDUCTION LOG MEDIUM
 LL8 .OHMM   07 220 08 00:   LATEROLOG-8 RES.
 GRD .GAPI   45 310 01 00:   GAMMA RAY FROM DENSITY LOG
 CALD.IN     45 280 60 00:   CALIPER FROM DENSITY LOG
 CORR.G/C3   45 356 01 00:   DENSITY CORRECTION
 RHOB.G/C3   45 350 01 00:   BULK DENSITY
 DPHI.DEC    45 890 12 00:   DENSITY POROSITY SANDSTONE
~PARAMETER INFORMATION
#MNEM.UNIT          VALUE    DESCRIPTION
#----------   ------------   ------------------------------
 PD  .                 GL:   PERMANENT DATUM
 EPD .F              5129:   ELEVATION PERMANENT DATUM
 LMF .                 KB:   LOG MEASURED FROM
 DAPD.F                 4:   FEET ABOVE PERMANENT DATUM
 DMF .                 KB:   DRILLING MEASURED FROM
 EKB .F              5133:   KELLING BUSHING
 EGL .F              5129:   GROUND LEVEL
 DATE.        15-MAR-1977:   RUN DATE
 RUN .                  1:   RUN NUMBER
 DD  .F               680:   DEPTH DRILLER
 DL  .F               680:   DEPTH LOGGER
 BLI .F               683:   BOTTOM LOG INTERVAL
 TLI .F                48:   TOP LOG INTERVAL
 CS  .IN            8.625:   CASING SIZE
 CBD .F                40:   CASING BOTTOM DRILLER
 CBL .F                49:   CASING BOTTOM LOGGER
 BS  .IN            7.875:   BIT SIZE
 BSD .F               680:   BIT SIZE AT DEPTH
 DFT .            KCL MUD:   DRILLING FLUID TYPE
 DFD .                8.8:   DRILLING FLUID DENSITY
 DFV .                 33:   DRILLING FLUID VISCOSITY
 DFPH.                9.6:   DRILLING FLUID PH
 DFL .                9.0:   DRILLING FLUID LOSS
 MSS .                PIT:   MUD SAMPLE SOURCE
 RMS .OHMM           0.22:   RESISTIVITY MUD SAMPLE
 MST .F                50:   MUD SAMPLE TEMPERATURE
 RMF .OHMM           0.21:   RESISTIVITY MUD FILTRATE SAMPLE
 MFST.F                50:   MUD FILTRATE SAMPLE TEMPERATURE
 MFSS.               MEAS:   MUD FILTRATE SAMPLE SOURCE
 TCS .HRS            1800:   TIME CURCULATED STOPPED
 TLAB.HRS            2130:   TIME LOGGER AT BOTTOM
 LUN .               7711:   LOGGING UNIT NUMBER
 LUL .               CSPR:   LOGGING UNIT LOCATION
 ENGI.             TAYLER:   RECORDING ENGINEER
 CLNT.            A2DTECH:   CLIENT CODE
 ORIG.           5" PRINT:   ORIGIN OF DATA
 UWI .       490251029900:   UNIQUE WELL ID
 DICO. A2D Technologies, Inc.:   DIGITIZING COMPANY
~OTHER INFORMATION
~A   DEPT      SPR        ILD        ILM        LL8         GRD      CALD       CORR       RHOB       DPHI   
# ...
   72.5000   -59.5745     6.8291     7.5206     7.5739   115.1565     8.2909     0.0111     2.4486     0.1207
   73.0000   -60.1582     6.7390     7.4699     7.4236   114.1311     8.3075     0.0156     2.4546     0.1201
   73.5000   -60.4483     6.6500     7.3774     7.3255   112.0657     8.3241     0.0081     2.4442     0.1240
   74.0000   -60.7113     6.5623     7.4366     7.2807   111.1889     8.3408     0.0052     2.4292     0.1281
   74.5000   -60.6875     6.5667     7.5470     7.2362   110.0150     8.2980     0.0052     2.4368     0.1245
   75.0000   -60.6685     6.5703     7.7663     7.2436   107.3551     8.2848     0.0045     2.4414     0.1224
   75.5000   -60.6494     6.6195     7.9920     7.3512   104.8439     8.2422     0.0053     2.4429     0.1209
   76.0000   -60.7844     6.6691     8.2243     7.4603   105.6255     8.2291     0.0091     2.4535     0.1196
   76.5000   -60.7606     6.7656     8.2885     7.7886   108.0534     8.2606     0.0092     2.4716     0.1085
   77.0000   -61.0400     6.8636     8.2953     9.5502   111.4043     8.2623     0.0093     2.4882     0.1016
   77.5000   -61.1750     6.9629     8.3021    10.0864   116.2557     8.2789     0.0109     2.4995     0.0922
   78.0000   -61.3052     7.0637     8.2497     8.4850   116.8048     8.2807     0.0116     2.4838     0.1009
   78.5000   -61.4313     7.1660     8.1992     8.6711   116.2252     8.2676     0.0086     2.4779     0.1039
   79.0000   -61.7101     7.3202     8.2077     8.1515   115.6493     8.2694     0.0147     2.4749     0.1069
   79.5000   -61.8403     7.4261     8.2717     7.9327   114.3267     8.2861     0.0200     2.4705     0.1068
   80.0000   -61.9705     7.5337     8.5716     8.2220   111.0725     8.2879     0.0148     2.4675     0.1104
   80.5000   -62.1007     7.6994     8.8207     8.8831   108.1155     8.2896     0.0028     2.4629     0.1134
   81.0000   -62.2309     7.8614     9.0142     9.0779   107.0902     8.2914     0.0028     2.4640     0.1125
   81.5000   -62.0578     8.0316     9.0217     9.1488   107.4021     8.2935     0.0051     2.4752     0.1107
   82.0000   -61.8895     8.1479     9.0292     9.0279   109.4971     8.2953     0.0067     2.4711     0.1103
   82.5000   -61.5719     8.2089     9.0382     8.9123   109.3633     8.2971     0.0082     2.4765     0.1097
   83.0000   -61.2544     8.2133     9.2364     8.9819   108.9323     8.3137     0.0090     2.4852     0.1085
   83.5000   -61.0861     8.2178     9.3735     9.3075   108.9470     8.3001     0.0091     2.4717     0.1088
   84.0000   -61.5148     8.1645     9.4467     9.5116   109.5562     8.3024     0.0061     2.4643     0.1123
   84.5000   -61.7942     8.0578     9.3239     9.5195   111.9483     8.3190     0.0016     2.4598     0.1126
   85.0000   -61.6259     8.0056     9.2026     9.3178   115.2320     8.3207     0.0017     2.4651     0.1102
   85.5000   -61.4576     7.9547     8.9574     8.9365   118.0700     8.3225     0.0032     2.4659     0.1105
   86.0000   -61.1400     7.8498     8.5983     8.5991   121.2051     8.3243     0.0048     2.4667     0.1101
   86.5000   -61.1209     7.6938     8.4260     8.4873   120.7741     8.3260     0.0063     2.4698     0.1086
   87.0000   -61.4139     7.5922     8.3744     8.3751   116.9256     8.3278     0.0079     2.4879     0.1058
   87.5000   -61.5547     7.4921     8.5598     8.3838   104.6075     8.3296     0.0102     2.4962     0.1000
   88.0000   -61.6608     7.4411     8.7475     7.7187    95.7069     8.3313     0.0125     2.5362     0.0802
   88.5000   -61.7910     7.3463     8.9394     7.6699    91.5612     8.2886     0.0133     2.5550     0.0648
   89.0000   -61.9212     7.2493     9.0721     8.1171    90.5322     8.2751     0.0065     2.5633     0.0515
   89.5000   -62.0514     7.2543     9.0796    11.5032    96.9399     8.2773    -0.0017     2.5604     0.0527
   90.0000   -62.4754     7.3086     9.0873    17.7209   105.2756     8.2939    -0.0024     2.5289     0.0667
   90.5000   -62.7548     7.3633     9.0333    15.4319   110.7882     8.3105     0.0006     2.4951     0.1057
   91.0000   -63.0343     7.4699     8.9158    10.6821   112.5860     8.3271    -0.0061     2.4493     0.1183
   91.5000   -63.3138     7.5258     8.9231     8.4391   113.0465     8.3437    -0.0008     2.4486     0.1210
   92.0000   -63.7425     7.5821     8.9305     7.8238   112.3183     8.3305     0.0015     2.4517     0.1201
   92.5000   -63.8732     7.5863     8.9378     7.8330   111.2930     8.3027     0.0008     2.4495     0.1197
   93.0000   -63.8536     7.6431     8.9452     8.1270   111.7535     8.2897    -0.0021     2.4473     0.1209
   93.5000   -63.9838     7.6282     8.8886     8.7384   112.5112     8.2914    -0.0006     2.4488     0.1200
   94.0000   -63.9462     7.6123     8.8978     8.9606   113.1204     8.2932     0.0040     2.4527     0.1164
   94.5000   -63.7917     7.6025     8.8434     8.8440   113.7415     8.2950     0.0048     2.4648     0.1109
   95.0000   -63.6234     7.7136     8.6679     8.6084   115.8644     8.2967     0.0026     2.4671     0.1103
   95.5000   -63.6043     7.8252     8.4941     8.4358   118.1238     8.2985     0.0018     2.4679     0.1091
   96.0000   -63.4360     7.9385     8.4436     8.3278   119.2715     8.3003     0.0019     2.4717     0.1078
   96.5000   -63.4170     7.9980     8.3921     8.2752   116.4597     8.3021     0.0042     2.4845     0.1043
   97.0000   -63.2486     8.0023     8.4578     8.3415   113.1066     8.2890     0.0076     2.4861     0.1003
   97.5000   -63.0803     8.0067     8.8892     8.4653   110.7013     8.2759     0.0081     2.4817     0.1045
   98.0000   -62.9120     7.9558     9.1515     8.7722   112.2020     8.2781     0.0043     2.4607     0.1126
   98.5000   -62.7437     7.9602     9.2171     9.0271   114.1484     8.2646     0.0029     2.4615     0.1077
   99.0000   -62.5754     7.9645     9.2263     9.2251   115.0547     8.2668     0.0112     2.4743     0.1053
   99.5000   -62.4071     7.9688     9.1680     9.2971   116.1095     8.2686     0.0120     2.4729     0.1047
  100.0000   -62.3881     7.9182     8.9872     9.0498   116.4178     8.2699     0.0062     2.4594     0.1093
  100.5000   -62.2215     7.8274     8.8698     9.0548   115.4246     8.2658     0.0000     2.4550     0.1179
  101.0000   -62.0567     7.7582     8.7523     8.8727   113.7799     8.2620     0.0016     2.4528     0.1187
  101.5000   -62.1898     7.6002     8.5203     8.5742   110.6759     8.2599     0.0024     2.4506     0.1193
  102.0000   -62.6348     7.4453     8.3491     8.3424   108.3148     8.2620     0.0032     2.4485     0.1199
  102.5000   -62.7542     7.3002     8.1845     8.0628   107.4356     8.2785     0.0048     2.4500     0.1204
  103.0000   -62.7164     7.2025     7.9660     7.9006   109.6848     8.2055     0.0063     2.4599     0.1172
  103.5000   -62.4224     7.1462     7.8075     7.8491   111.3357     8.2224     0.0094     2.4660     0.1141
  104.0000   -62.5560     7.0594     7.7578     7.7990   112.9865     8.2685     0.0109     2.4653     0.1128
  104.5000   -62.8382     7.0132     7.8740     7.8589   114.7859     8.2701     0.0140     2.4579     0.1167
  105.0000   -63.2696     6.9673     7.9904     7.9182   116.1396     8.2565     0.0155     2.4670     0.1134
  105.5000   -63.7010     6.9216     8.1652     8.0336   116.3004     8.2586     0.0133     2.4693     0.1115
  106.0000   -63.9832     6.8769     8.1715     8.0941   114.6864     8.2602     0.0096     2.4754     0.1100
  106.5000   -64.4106     6.8792     8.0632     8.1552   113.5140     8.2618     0.0074     2.4695     0.1139
  107.0000   -64.3943     6.8816     7.9042     8.1029   114.1248     8.2482     0.0021     2.4538     0.1166
  107.5000   -64.3779     6.8840     7.7454     7.9956   114.1411     8.2651     0.0014     2.4434     0.1216
  108.0000   -64.2124     6.9341     7.6976     7.7805   113.4104     8.2667     0.0037     2.4366     0.1267
  108.5000   -63.8975     6.9846     7.7050     7.6239   113.5795     8.2683     0.0075     2.4555     0.1201
