~VERSION INFORMATION
 VERS.                2.0:   CWLS LOG ASCII STANDARD - VERSION 2.0
 WRAP.                 NO:   ONE LINE PER DEPTH STEP
~WELL INFORMATION
#MNEM.UNIT      DATA TYPE    INFORMATION
#----------   ------------   ------------------------------
 STRT.F           14.0000:   START DEPTH
 STOP.F          432.0000:   STOP DEPTH
 STEP.F            0.5000:   STEP LENGTH
 NULL.          -999.2500:   NO VALUE
 COMP.    FENIX & SCISSON:   COMPANY
 WELL.   NPR-3 #63SX10-10:   WELL
 FLD .             TEAPOT:   FIELD
 LOC .      S10 T38N R78W:   LOCATION
 CNTY.            NATRONA:   COUNTY
 STAT.            WYOMING:   STATE
 CTRY. UNITED STATES OF AMERICA:   COUNTRY
 SRVC.           BIRDWELL:   SERVICE COMPANY
 DATE.        10-FEB-1978:   LOGDATE
 API .       490251066800:   API NUMBER
~CURVE INFORMATION
#MNEM.UNIT       API CODE    CURVE DESCRIPTION
#----------   ------------   ------------------------------
 DEPT.F                  :   
 CALD.IN     45 280 60 00:   CALIPER FROM DENSITY LOG
 CORR.G/C3   45 356 01 00:   DENSITY CORRECTION
 DPHI.DEC    45 890 12 00:   DENSITY POROSITY SANDSTONE
 GRD .GAPI   45 310 01 00:   GAMMA RAY FROM DENSITY LOG
 RHOB.G/C3   45 350 01 00:   BULK DENSITY
 ILD .OHMM   05 120 46 00:   INDUCTION LOG DEEP
 SN  .OHMM   05 040 16 00:   SHORT NORMAL 16"
 SPR .MV     05 010 01 00:   SPONTANEOUS POTENTIAL FROM RES.
~PARAMETER INFORMATION
#MNEM.UNIT          VALUE    DESCRIPTION
#----------   ------------   ------------------------------
 PD  .                 GL:   PERMANENT DATUM
 EPD .F              5186:   ELEVATION PERMANENT DATUM
 LMF .                 KB:   LOG MEASURED FROM
 DAPD.F                 4:   FEET ABOVE PERMANENT DATUM
 DMF .                 KB:   DRILLING MEASURED FROM
 EKB .F              5190:   KELLING BUSHING
 EGL .F              5186:   GROUND LEVEL
 DATE.        10-FEB-1978:   RUN DATE
 RUN .                  1:   RUN NUMBER
 DD  .F               429:   DEPTH DRILLER
 DL  .F               432:   DEPTH LOGGER
 BLI .F               424:   BOTTOM LOG INTERVAL
 TLI .F                20:   TOP LOG INTERVAL
 CS  .IN            8.625:   CASING SIZE
 CBD .F                29:   CASING BOTTOM DRILLER
 CBL .F                29:   CASING BOTTOM LOGGER
 BS  .IN            7.875:   BIT SIZE
 BSD .F               429:   BIT SIZE AT DEPTH
 DFT .    LIGNO SULF/FULL:   DRILLING FLUID TYPE
 DFD .                8.6:   DRILLING FLUID DENSITY
 DFV .                 34:   DRILLING FLUID VISCOSITY
 DFPH.                9.8:   DRILLING FLUID PH
 DFL .                5.6:   DRILLING FLUID LOSS
 MSS .           FLOWLINE:   MUD SAMPLE SOURCE
 RMS .OHMM            1.2:   RESISTIVITY MUD SAMPLE
 MST .F                62:   MUD SAMPLE TEMPERATURE
 RMF .OHMM            1.4:   RESISTIVITY MUD FILTRATE SAMPLE
 MFST.F                62:   MUD FILTRATE SAMPLE TEMPERATURE
 RMC .OHMM            1.0:   RESISTIVITY MUD CAKE
 MCST.F                62:   MUD CAKE SAMPLE TEMPERATURE
 MFSS.               MEAS:   MUD FILTRATE SAMPLE SOURCE
 RMB .OHMM            1.2:   RESISTIVITY MUD AT BHT
 BHT .F                62:   BOTTOM HOLE TEMPERATURE
 TCS .HRS               4:   TIME CURCULATED STOPPED
 MRT .F                62:   MAXIMUM RECORDED TEMPERATURE
 LUN .               2958:   LOGGING UNIT NUMBER
 LUL .                CAS:   LOGGING UNIT LOCATION
 ENGI.            POINTER:   RECORDING ENGINEER
 WITN.          MC GINLEY:   WITNESSED BY
 CLNT.            A2DTECH:   CLIENT CODE
 ORIG.           5" PRINT:   ORIGIN OF DATA
 UWI .       490251066800:   UNIQUE WELL ID
 DICO. A2D Technologies, Inc.:   DIGITIZING COMPANY
~OTHER INFORMATION
~A   DEPT     CALD       CORR       DPHI         GRD      RHOB        ILD         SN        SPR   
# ...
  176.0000     7.9594     0.1889     0.1333    95.3264     2.4411     5.8190     6.5690   -38.0153
  176.5000     7.9599     0.1890     0.1429    95.3336     2.4260     5.7009     6.3039   -38.3199
  177.0000     7.9604     0.1890     0.1483    95.3409     2.4089     5.5853     6.0479   -38.3228
  177.5000     7.9610     0.1891     0.1372    95.3681     2.4104     5.3599     5.8457   -37.8732
  178.0000     7.9616     0.1921     0.1222    94.3934     2.4322     5.2145     5.7672   -37.8769
  178.5000     7.9621     0.1952     0.1145    90.8258     2.4435     5.1442     5.8096   -37.8798
  179.0000     7.9627     0.2047     0.1083    88.4124     2.4502     5.1816     5.8925   -37.8827
  179.5000     7.9632     0.2238     0.1062    87.9640     2.4596     5.3658     6.0185   -37.8856
  180.0000     7.9486     0.2314     0.1068    89.3346     2.4720     5.6727     6.2324   -37.8885
  180.5000     7.9493     0.2374     0.1071    91.6434     2.4780     5.9558     6.4988   -37.7406
  181.0000     7.9498     0.2420     0.1056    95.0997     2.4818     6.2530     6.7936   -37.7442
  181.5000     7.9503     0.2466     0.1059    97.5275     2.4818     6.6110     7.3154   -37.5955
  182.0000     7.9509     0.2481     0.1068    99.3502     2.4811     6.8931     7.7343   -37.5992
  182.5000     7.9515     0.2482     0.1071    99.8113     2.4833     7.1376     8.0648   -37.6021
  183.0000     7.9520     0.2452     0.1080    97.5492     2.4864     7.3446     8.3521   -37.7558
  183.5000     7.9525     0.2391     0.1094    89.5401     2.4871     7.6535     8.4713   -37.9095
  184.0000     7.9372     0.2318     0.1160    85.7651     2.4804     7.7086     8.6518   -38.0774
  184.5000     7.8932     0.2319     0.1178    86.9827     2.4737     7.7642     8.7147   -38.2170
  185.0000     7.8636     0.2304     0.1166    89.2592     2.4617     7.7662     8.7787   -37.7682
  185.5000     7.8188     0.2275     0.1163    90.0228     2.4534     7.7687     8.7816   -37.3186
  186.0000     7.7438     0.2200     0.1199    88.7393     2.4512     7.7171     8.7232   -37.1699
  186.5000     7.6538     0.2141     0.1238    87.7680     2.4535     7.6659     8.6665   -37.0226
  187.0000     7.6090     0.2021     0.1241    89.8950     2.4527     7.5625     8.5509   -36.8748
  187.5000     7.5792     0.1871     0.1229    90.2815     2.4504     7.5123     8.4361   -36.9030
  188.0000     7.5799     0.1704     0.1214    91.8044     2.4505     7.4115     8.2655   -37.1830
  188.5000     7.5955     0.1512     0.1187    93.1760     2.4573     7.3115     8.0972   -37.1859
  189.0000     7.6113     0.1362     0.1145    93.7993     2.4663     7.1137     7.8260   -37.1888
  189.5000     7.6420     0.1228     0.1024    94.7113     2.4776     6.9218     7.7740   -37.3425
  190.0000     7.6727     0.1093     0.0898    95.3264     2.4911     6.7813     7.6167   -37.6471
  190.5000     7.7043     0.0759     0.0979    94.2774     2.4956     6.5524     7.4602   -37.8009
  191.0000     7.7343     0.0704     0.1061    92.6233     2.4746     6.1588     7.2625   -37.9546
  191.5000     7.7802     0.0734     0.1174    92.4820     2.4679     5.7884     7.0178   -37.8067
  192.0000     7.8014     0.0795     0.1204    92.4945     2.4626     5.5541     6.7813   -37.6587
  192.5000     7.8416     0.0902     0.1246    93.1096     2.4574     5.4795     6.5032   -37.3600
  193.0000     7.8725     0.1066     0.1309    94.0273     2.4505     5.5194     6.2889   -37.2127
  193.5000     7.9032     0.1202     0.1309    94.1886     2.4439     5.5978     6.2909   -36.9130
  194.0000     7.9189     0.1353     0.1302    93.7472     2.4462     5.6381     6.3807   -36.7661
  194.5000     7.9345     0.1548     0.1053    93.1521     2.4552     5.7182     6.6204   -37.0714
  195.0000     7.9502     0.1718     0.1047    93.0106     2.4687     5.8400     7.1825   -37.2244
  195.5000     7.9659     0.1910     0.1047    93.1745     2.4770     6.0055     7.6465   -37.0765
  196.0000     7.9664     0.2030     0.1044    93.1845     2.4785     6.3052     8.0843   -36.7784
  196.5000     7.9669     0.2121     0.1041    93.3458     2.4778     6.8533     8.2573   -36.7813
  197.0000     7.9675     0.2212     0.1026    93.8096     2.4778     7.2956     8.2030   -36.7843
  197.5000     7.9681     0.2287     0.1008    93.9713     2.4793     7.5544     8.2057   -36.7879
  198.0000     7.9686     0.2363     0.0975    93.3783     2.4831     7.7149     8.2653   -37.0925
  198.5000     7.9692     0.2438     0.0942    92.4805     2.4878     7.7709     8.6791   -37.3970
  199.0000     7.9697     0.2514     0.0948    92.1876     2.4943     7.8269     8.8640   -37.7016
  199.5000     7.9703     0.2578     0.0969    94.5239     2.4966     7.8833     8.9285   -37.8553
  200.0000     7.9709     0.2635     0.0989    96.9003     2.4974     7.9953     8.8086   -37.8582
  200.5000     7.9714     0.2681     0.0998    97.6667     2.4936     7.9892     8.8710   -37.8612
  201.0000     7.9719     0.2696     0.0998    97.8280     2.4892     7.9433     8.8724   -37.7132
  201.5000     7.9725     0.2742     0.0986    97.6867     2.4809     8.0005     8.8736   -37.5653
  202.0000     7.9731     0.2757     0.0971    96.7915     2.4810     8.0021     8.8748   -37.2673
  202.5000     7.9736     0.2728     0.0983    95.2886     2.4862     8.0037     8.8760   -37.1193
  203.0000     7.9741     0.2683     0.1016    92.8780     2.4923     8.0053     8.8157   -36.8205
  203.5000     7.9747     0.2594     0.1055    91.0706     2.4930     8.0069     8.9402   -36.8235
  204.0000     7.9601     0.2471     0.1100    91.9928     2.4908     8.0086     8.9414   -36.8271
  204.5000     7.9456     0.2370     0.1151    93.8182     2.4841     8.0105     8.8810   -36.8300
  205.0000     7.9159     0.2340     0.1154    94.7359     2.4736     8.0121     8.8206   -36.9837
  205.5000     7.9014     0.2326     0.1163    95.0485     2.4639     8.0137     8.7005   -36.9867
  206.0000     7.8566     0.2281     0.1178    95.0610     2.4586     8.0153     8.7624   -36.8386
  206.5000     7.8118     0.2267     0.1190    94.9172     2.4534     8.0169     8.9474   -36.9925
  207.0000     7.7671     0.2222     0.1190    94.7759     2.4519     8.0186     8.9489   -36.8445
  207.5000     7.7374     0.2178     0.1199    94.9397     2.4565     8.0202     9.0120   -36.6973
  208.0000     7.7077     0.2103     0.1298    95.2547     2.4587     7.9119     8.9510   -36.7002
  208.5000     7.6932     0.1997     0.1376    95.4160     2.4392     7.8043     8.8295   -36.5516
  209.0000     7.6938     0.1864     0.1364    96.3337     2.4273     7.5928     8.7695   -36.2528
  209.5000     7.7094     0.1774     0.1354    98.7643     2.4250     7.3870     8.7104   -36.1056
  210.0000     7.7261     0.1655     0.1327   101.5985     2.4266     7.1376     8.6515   -35.9577
  210.5000     7.7408     0.1445     0.1207   104.3843     2.4341     6.9923     8.4594   -35.9613
  211.0000     7.7565     0.1265     0.1029   105.4533     2.4461     6.9455     8.0755   -35.9643
  211.5000     7.7872     0.0996     0.0994   105.6146     2.4716     6.9473     7.7481   -36.4660
  212.0000     7.8028     0.0636     0.0997   105.4453     2.4845     6.9486     7.4340   -36.3137
  212.5000     7.8639     0.0606     0.1000   103.5191     2.4589     6.9500     7.1327   -36.3120
  213.0000     7.9097     0.0637     0.1003   100.9572     2.4702     6.8086     7.0353   -36.4617
  213.5000     7.9254     0.0652     0.1012    96.1260     2.4875     6.5330     7.1346   -36.7616
  214.0000     7.9712     0.0653     0.1043    94.0180     2.4876     6.2254     7.1355   -37.0619
  214.5000     7.9718     0.0638     0.1204    95.9972     2.4815     5.9273     7.0384   -37.5129
  215.0000     7.9874     0.0624     0.1423    98.5791     2.4755     5.6924     6.8002   -37.6620
  215.5000     7.9728     0.0609     0.1573    99.6481     2.4478     5.5765     6.4348   -37.5097
  216.0000     7.9734     0.0775     0.1627    99.3515     2.3938     5.5776     6.1314   -37.1925
