~VERSION INFORMATION
 VERS.                2.0:   CWLS LOG ASCII STANDARD - VERSION 2.0
 WRAP.                 NO:   ONE LINE PER DEPTH STEP
~WELL INFORMATION
#MNEM.UNIT      DATA TYPE    INFORMATION
#----------   ------------   ------------------------------
 STRT.F           38.0000:   START DEPTH
 STOP.F          818.0000:   STOP DEPTH
 STEP.F            0.5000:   STEP LENGTH
 NULL.          -999.2500:   NO VALUE
 COMP. FENIX & SCISSON INC:   COMPANY
 WELL. NAVAL PETROLEUM RESERVE 3 SX-1 #32-14:   WELL
 FLD .             TEAPOT:   FIELD
 LOC .      S14 T38N R78W:   LOCATION
 CNTY.            NATRONA:   COUNTY
 STAT.            WYOMING:   STATE
 CTRY. UNITED STATES OF AMERICA:   COUNTRY
 SRVC.            Unknown:   SERVICE COMPANY
 DATE.        03-MAY-1978:   LOGDATE
 API .       490251061900:   API NUMBER
~CURVE INFORMATION
#MNEM.UNIT       API CODE    CURVE DESCRIPTION
#----------   ------------   ------------------------------
 DEPT.F                  :   
 SPR .MV     05 010 01 00:   SPONTANEOUS POTENTIAL FROM RES.
 ILD .OHMM   05 120 46 00:   INDUCTION LOG DEEP
 SN  .OHMM   05 040 16 00:   SHORT NORMAL 16"
 CALD.IN     45 280 60 00:   CALIPER
 GRD .GAPI   45 310 01 00:   GAMMA RAY FROM DENSITY LOG
 RHOB.G/C3   45 350 01 00:   BULK DENSITY
 DPHI.DEC    45 890 12 00:   DENSITY POROSITY SANDSTONE
 CORR.G/C3   45 356 01 00:   DENSITY CORRECTION
~PARAMETER INFORMATION
#MNEM.UNIT          VALUE    DESCRIPTION
#----------   ------------   ------------------------------
 PD  .                 GL:   PERMANENT DATUM
 EPD .F              5209:   ELEVATION PERMANENT DATUM
 LMF .                 KB:   LOG MEASURED FROM
 DAPD.F                 4:   FEET ABOVE PERMANENT DATUM
 DMF .                 KB:   DRILLING MEASURED FROM
 EKB .F              5213:   KELLING BUSHING
 EGL .F              5209:   GROUND LEVEL
 DATE.           5-3-1978:   RUN DATE
 RUN .                  1:   RUN NUMBER
 DD  .F               806:   DEPTH DRILLER
 DL  .F               824:   DEPTH LOGGER
 BLI .F               818:   BOTTOM LOG INTERVAL
 TLI .F                50:   TOP LOG INTERVAL
 CS  .IN            8.625:   CASING SIZE
 CBD .F                40:   CASING BOTTOM DRILLER
 BS  .IN            7.875:   BIT SIZE
 BSD .F               806:   BIT SIZE AT DEPTH
 DFT .                KCL:   DRILLING FLUID TYPE
 DFD .                8.6:   DRILLING FLUID DENSITY
 DFV .                 34:   DRILLING FLUID VISCOSITY
 DFPH.                  9:   DRILLING FLUID PH
 DFL .               16.4:   DRILLING FLUID LOSS
 MSS .           FLOWLINE:   MUD SAMPLE SOURCE
 RMS .OHMM            .75:   RESISTIVITY MUD SAMPLE
 MST .F                52:   MUD SAMPLE TEMPERATURE
 RMF .OHMM            .65:   RESISTIVITY MUD FILTRATE SAMPLE
 MFST.F                60:   MUD FILTRATE SAMPLE TEMPERATURE
 RMC .OHMM            1.2:   RESISTIVITY MUD CAKE
 MCST.F                62:   MUD CAKE SAMPLE TEMPERATURE
 MFSS.               MEAS:   MUD FILTRATE SAMPLE SOURCE
 RMB .OHMM            .54:   RESISTIVITY MUD AT BHT
 BHT .F                72:   BOTTOM HOLE TEMPERATURE
 TCS .HRS               1:   TIME CURCULATED STOPPED
 MRT .F                72:   MAXIMUM RECORDED TEMPERATURE
 LUN .               2958:   LOGGING UNIT NUMBER
 LUL .               CASP:   LOGGING UNIT LOCATION
 ENGI.             MILLER:   RECORDING ENGINEER
 WITN.           MCGINLEY:   WITNESSED BY
 CLNT.            A2DTECH:   CLIENT CODE
 ORIG.           5" PRINT:   ORIGIN OF DATA
 UWI .       490251061900:   UNIQUE WELL ID
 DICO. A2D Technologies, Inc.:   DIGITIZING COMPANY
~OTHER INFORMATION
~A   DEPT      SPR        ILD         SN         CALD      GRD       RHOB       DPHI       CORR   
# ...
  524.0000   -33.4857     7.1930     6.9212     8.2010   100.8507     2.4699     0.1379     0.0071
  524.5000   -33.4589     7.1288     6.8396     8.1948   101.7289     2.4710     0.1376     0.0071
  525.0000   -33.4319     7.0652     6.8396     8.1553   102.6511     2.4693     0.1387     0.0070
  525.5000   -33.4053     7.0022     6.6948     8.1175   104.3974     2.4670     0.1414     0.0070
  526.0000   -33.3778     6.8390     6.5531     7.9833   106.1908     2.4619     0.1459     0.0069
  526.5000   -33.4328     6.5539     6.2911     7.7957   105.0763     2.4555     0.1538     0.0069
  527.0000   -33.5498     6.2813     6.0185     7.6019   102.9223     2.4448     0.1580     0.0068
  527.5000   -33.6674     6.0180     5.7578     7.4651   102.1044     2.4342     0.1632     0.0068
  528.0000   -33.7841     5.7096     5.4176     7.6282   101.5351     2.4236     0.1697     0.0067
  528.5000   -33.9033     5.2960     5.0201     8.5008   100.9140     2.4134     0.1854     0.0067
  529.0000   -34.0600     4.9139     4.6518     7.5944    99.9175     2.3926     0.1993     0.0066
  529.5000   -34.4685     4.5594     4.3105     8.0708    99.0390     2.3703     0.2090     0.0066
  530.0000   -34.8746     4.2367     3.9191     8.0520    99.2278     2.3481     0.2217     0.0065
  530.5000   -34.8755     3.7578     3.4677     7.8696   100.2539     2.3252     0.2372     0.0078
  531.0000   -34.7241     3.3700     3.1414     7.8423   101.1406     2.3025     0.2338     0.0103
  531.5000   -34.5701     3.0537     2.8761     7.8425   101.1055     2.2793     0.2274     0.0129
  532.0000   -34.4160     2.8503     2.7719     7.8425    99.0043     2.2777     0.2211     0.0154
  532.5000   -34.3975     2.8159     2.7331     7.8419    91.2377     2.2892     0.2147     0.0161
  533.0000   -34.4752     2.7983     2.7229     7.8358    87.1177     2.3196     0.2085     0.0144
  533.5000   -34.5677     2.9673     2.8478     8.0480    88.3679     2.3500     0.2027     0.0125
  534.0000   -35.3813     3.1552     2.9582     8.1801    95.8746     2.3640     0.1917     0.0219
  534.5000   -35.3602     3.8359     3.4586     8.2249   101.5653     2.3877     0.1650     0.0332
  535.0000   -35.3586     4.1289     3.9358     8.2667   100.7865     2.4187     0.1522     0.0231
  535.5000   -35.3586     4.4947     4.1992     8.3003    99.5052     2.4495     0.1488     0.0064
  536.0000   -35.3586     5.1224     4.7694     8.2901    98.9053     2.4505     0.1490     0.0059
  536.5000   -35.3586     5.4780     5.4692     8.2808    93.8128     2.4513     0.1446     0.0160
  537.0000   -35.3586     5.6889     5.8007     8.2715    93.9184     2.4589     0.1406     0.0162
  537.5000   -35.3586     5.6889     5.9051     8.2622    93.9031     2.4663     0.1433     0.0155
  538.0000   -35.3586     5.6293     5.8551     8.2626    93.6515     2.4630     0.1447     0.0147
  538.5000   -35.3586     5.5851     5.8049     8.2646    89.3107     2.4580     0.1482     0.0140
  539.0000   -35.3586     5.5156     5.7552     8.2666    85.6524     2.4534     0.1544     0.0133
  539.5000   -35.3586     5.4329     5.7062     8.2686    85.7376     2.4495     0.1602     0.0125
  540.0000   -35.3586     5.1426     5.5175     8.2706    91.3240     2.4346     0.1690     0.0157
  540.5000   -35.3586     4.9455     5.1549     8.2726    95.3965     2.4200     0.1738     0.0193
  541.0000   -35.3587     4.8562     5.0188     8.2746    95.4851     2.4075     0.1730     0.0224
  541.5000   -35.3586     4.8217     4.9548     8.2766    95.6902     2.4082     0.1683     0.0171
  542.0000   -35.3589     4.8845     4.9545     8.2786    93.4320     2.4233     0.1661     0.0124
  542.5000   -35.2756     4.9529     5.0986     8.2806    90.0714     2.4154     0.1638     0.0125
  543.0000   -35.1186     5.0203     5.2558     8.2809    86.6572     2.4275     0.1578     0.0125
  543.5000   -34.9625     5.1607     5.4218     8.2809    85.1760     2.4480     0.1508     0.0125
  544.0000   -34.8555     5.3577     5.6106     8.2809    85.2984     2.4592     0.1443     0.0125
  544.5000   -34.7503     5.5615     5.7947     8.2809    88.4996     2.4580     0.1423     0.0125
  545.0000   -34.6448     5.7730     6.1040     8.2809    92.8343     2.4572     0.1373     0.0125
  545.5000   -34.5391     5.9932     6.4118     8.2809    97.0586     2.4761     0.1323     0.0125
  546.0000   -34.4349     6.2362     6.7352     8.2809    99.9155     2.4796     0.1315     0.0125
  546.5000   -34.3614     6.5465     7.0749     8.2808    99.3875     2.4819     0.1315     0.0124
  547.0000   -34.3627     6.9029     7.2311     8.2803    94.9452     2.4831     0.1315     0.0156
  547.5000   -34.3625     7.0312     7.2491     8.2837    92.9859     2.4824     0.1292     0.0210
  548.0000   -34.3625     6.9662     7.2670     8.3694    95.2573     2.4812     0.1300     0.0264
  548.5000   -34.3625     6.9197     7.2851     8.4128    97.8925     2.4801     0.1331     0.0295
  549.0000   -34.3625     6.9027     7.2951     8.3945    98.6938     2.4792     0.1309     0.0335
  549.5000   -34.3625     6.9026     7.2953     8.3765   100.5407     2.4862     0.1223     0.0403
  550.0000   -34.3626     6.9035     7.2953     8.3609   101.4588     2.4974     0.1259     0.0428
  550.5000   -34.3626     6.8448     7.2791     8.3997   100.0222     2.4906     0.1291     0.0434
  551.0000   -34.3624     6.7913     7.1321     8.4107    97.1236     2.4815     0.1316     0.0440
  551.5000   -34.3485     6.6634     6.9878     8.3389    96.2619     2.4801     0.1313     0.0454
  552.0000   -34.3042     6.5096     6.8396     8.2668    96.4984     2.4829     0.1303     0.0482
  552.5000   -34.2604     6.3597     6.6560     8.2032    99.7823     2.4815     0.1335     0.0457
  553.0000   -34.2166     6.2131     6.4667     8.1562   105.2527     2.4787     0.1332     0.0428
  553.5000   -34.1731     6.1293     6.3525     8.1092   106.4736     2.4776     0.1328     0.0400
  554.0000   -34.1061     6.0637     6.3531     8.0862   107.0451     2.4791     0.1346     0.0363
  554.5000   -34.0336     5.9652     6.3552     8.1112   107.9865     2.4796     0.1397     0.0312
  555.0000   -33.9702     5.7420     6.0503     8.1353   108.9199     2.4676     0.1470     0.0261
  555.5000   -34.2195     5.5339     5.8414     8.1597   109.9568     2.4555     0.1543     0.0233
  556.0000   -34.8262     5.1903     5.6344     8.1827   113.0910     2.4394     0.1611     0.0216
  556.5000   -35.1611     5.0937     5.4138     8.1308   114.2102     2.4236     0.1737     0.0200
  557.0000   -35.1593     4.8724     5.2018     8.0735   114.2140     2.4080     0.1809     0.0199
  557.5000   -35.1598     4.6455     5.0796     8.0146   114.1982     2.3918     0.1857     0.0235
  558.0000   -35.1594     4.5993     5.0501     8.0016   111.7607     2.3894     0.1701     0.0294
  558.5000   -35.1594     4.7777     5.0470     8.0697   108.0088     2.4162     0.1514     0.0227
  559.0000   -35.1594     4.9571     5.2744     8.1881   106.2431     2.4423     0.1441     0.0127
  559.5000   -35.1594     5.1908     5.5543     8.2617   106.8972     2.4653     0.1367     0.0063
  560.0000   -35.1594     5.6184     6.3445     8.2625   107.6045     2.4709     0.1331     0.0061
  560.5000   -35.1594     6.1934     6.6730     8.2653   107.4800     2.4788     0.1333     0.0059
  561.0000   -35.1594     6.7147     7.0312     8.2679   107.4674     2.4803     0.1368     0.0056
  561.5000   -35.1594     6.9338     7.2007     8.2706   114.1221     2.4657     0.1455     0.0054
  562.0000   -35.1594     7.0963     7.2951     8.2732   114.8171     2.4572     0.1422     0.0051
  562.5000   -35.1594     7.0807     7.2900     8.2759   114.8058     2.4615     0.1411     0.0049
  563.0000   -35.1594     7.0650     7.2858     8.2785   114.3881     2.4671     0.1411     0.0046
  563.5000   -35.1594     7.0494     7.2815     8.2810   114.2073     2.4671     0.1405     0.0050
  564.0000   -35.1594     7.0317     7.2773     8.2856   116.1923     2.4670     0.1387     0.0059
