~VERSION INFORMATION
 VERS.                2.0:   CWLS LOG ASCII STANDARD - VERSION 2.0
 WRAP.                 NO:   ONE LINE PER DEPTH STEP
~WELL INFORMATION
#MNEM.UNIT      DATA TYPE    INFORMATION
#----------   ------------   ------------------------------
 STRT.F           80.0000:   START DEPTH
 STOP.F          930.0000:   STOP DEPTH
 STEP.F            0.5000:   STEP LENGTH
 NULL.          -999.2500:   NO VALUE
 COMP. U S NAVY-INTEX OIL:   COMPANY
 WELL. RES 3 TEAPOT DOM #56-S-2:   WELL
 FLD .             TEAPOT:   FIELD
 LOC .       S2 T38N R78W:   LOCATION
 CNTY.            NATRONA:   COUNTY
 STAT.            WYOMING:   STATE
 CTRY. UNITED STATES OF AMERICA:   COUNTRY
 SRVC.       Schlumberger:   SERVICE COMPANY
 DATE.        24-JUN-1962:   LOGDATE
 API .       490250641900:   API NUMBER
~CURVE INFORMATION
#MNEM.UNIT       API CODE    CURVE DESCRIPTION
#----------   ------------   ------------------------------
 DEPT.F                  :   
 ASN .OHMM   05 041 16 00:   AMPLIFIED SHORT NORMAL 16"
 ILD .OHMM   05 120 46 00:   INDUCTION LOG DEEP
 CILD.MMHO   05 110 46 00:   CONDUCTIVITY INDUCTION LOG DEEP
 SPR .MV     05 010 01 00:   SPONTANEOUS POTENTIAL FROM RES.
 GR  .GAPI   30 310 01 00:   GAMMA RAY
~PARAMETER INFORMATION
#MNEM.UNIT          VALUE    DESCRIPTION
#----------   ------------   ------------------------------
 PD  .                 KB:   PERMANENT DATUM
 LMF .                 KB:   LOG MEASURED FROM
 DMF .                 KB:   DRILLING MEASURED FROM
 EKB .F              5179:   KELLING BUSHING
 EGL .F              5174:   GROUND LEVEL
 DATE.        24-JUN-1962:   RUN DATE
 RUN .                  1:   RUN NUMBER
 DD  .F               942:   DEPTH DRILLER
 DL  .F               931:   DEPTH LOGGER
 BLI .F               930:   BOTTOM LOG INTERVAL
 TLI .F                80:   TOP LOG INTERVAL
 BS  .IN             6.75:   BIT SIZE
 BSD .F               942:   BIT SIZE AT DEPTH
 DFT .       OIL EMULSION:   DRILLING FLUID TYPE
 DFD .                9.9:   DRILLING FLUID DENSITY
 DFV .                 55:   DRILLING FLUID VISCOSITY
 DFL .                3.7:   DRILLING FLUID LOSS
 RMS .OHMM            4.2:   RESISTIVITY MUD SAMPLE
 MST .F                79:   MUD SAMPLE TEMPERATURE
 RMF .OHMM            3.7:   RESISTIVITY MUD FILTRATE SAMPLE
 MFST.F                79:   MUD FILTRATE SAMPLE TEMPERATURE
 RMC .OHMM            4.0:   RESISTIVITY MUD CAKE
 MCST.F                79:   MUD CAKE SAMPLE TEMPERATURE
 TCS .HRS               1:   TIME CURCULATED STOPPED
 LUN .               2503:   LOGGING UNIT NUMBER
 LUL .               CSPR:   LOGGING UNIT LOCATION
 ENGI.             DANNER:   RECORDING ENGINEER
 WITN.          JORGENSEN:   WITNESSED BY
 CLNT.            A2DTECH:   CLIENT CODE
 ORIG.           5" PRINT:   ORIGIN OF DATA
 UWI .       490250641900:   UNIQUE WELL ID
 DICO. A2D Technologies, Inc.:   DIGITIZING COMPANY
~OTHER INFORMATION
~A   DEPT        ASN        ILD      CILD       SPR         GR   
# ...
  629.0000     9.2652     9.4715   111.4573   -58.7205  -999.2500
  629.5000     9.2217     9.4730   112.1772   -58.8670  -999.2500
  630.0000     9.1481     9.4745   112.8970   -58.8640  -999.2500
  630.5000     9.0595     9.3233   114.3665   -58.7115  -999.2500
  631.0000     8.9560     9.1723   115.0864   -58.5590  -999.2500
  631.5000     8.9122     9.0285   115.8062   -58.5555  -999.2500
  632.0000     8.8386     8.9549   116.5261   -58.5525  -999.2500
  632.5000     8.6155     8.9565   117.9882   -58.6990  -999.2500
  633.0000     8.6475     8.9583   119.4576   -58.9950  -999.2500
  633.5000     8.7732     8.9597   120.9271   -59.7394  -999.2500
  634.0000     8.7832     8.9612   120.8974   -59.8867  -999.2500
  634.5000     8.6949     8.8876   121.6172   -59.8830  -999.2500
  635.0000     8.5313     8.8137   121.5875   -59.8800  -999.2500
  635.5000     8.5175     8.8156   120.8081   -59.8770  -999.2500
  636.0000     8.5936     8.8921   120.0287   -59.7246  -999.2500
  636.5000     8.6093     8.9687   118.4997   -59.2732  -999.2500
  637.0000     8.5955     9.0452   118.4699   -58.8218  -999.2500
  637.5000     8.6417     9.0467   117.6905   -58.8188  -999.2500
  638.0000     8.7774     9.0482   116.1615   -59.1156  -999.2500
  638.5000     8.7785     9.0497   115.3821   -59.4115  -999.2500
  639.0000     8.5902     8.9758   115.3523   -58.8099  -999.2500
  639.5000     8.2126     8.6773   115.3223   -58.2090  -999.2500
  640.0000     8.2885     9.0542   115.2928   -58.0566  -999.2500
  640.5000     8.6873     9.1307   116.8342   -58.0536  -999.2500
  641.0000     8.9184     9.0572   119.8250   -58.2009  -999.2500
  641.5000     8.5909     8.7583   125.1828   -58.4961  -999.2500
  642.0000     8.1136     8.3454   133.4436   -58.9416  -999.2500
  642.5000     7.6962     7.9355   137.6254   -59.6860  -999.2500
  643.0000     7.6524     7.8618   139.0948   -59.8326  -999.2500
  643.5000     7.5878     7.7133   142.8132   -59.5306  -999.2500
  644.0000     7.2959     7.5646   146.5316   -58.3318  -999.2500
  644.5000     7.2973     7.4910   148.0011   -58.0299  -999.2500
  645.0000     7.1935     7.4925   149.4780   -58.3259  -999.2500
  645.5000     7.2248     7.4965   148.6912   -58.6219  -999.2500
  646.0000     7.4202     7.7207   144.1637   -58.3199  -999.2500
  646.5000     7.4512     7.8048   138.1369   -57.9995  -999.2500
  647.0000     7.4371     7.8739   136.6079   -57.7160  -999.2500
  647.5000     7.4232     7.8879   136.5781   -57.7130  -999.2500
  648.0000     7.4545     8.0273   136.5484   -57.7094  -999.2500
  648.5000     7.6051     8.1039   135.7690   -58.0054  -999.2500
  649.0000     7.7706     8.1054   135.7392   -58.1527  -999.2500
  649.5000     7.7866     8.1069   134.2102   -58.1490  -999.2500
  650.0000     7.6532     8.1112   133.3374   -58.1329  -999.2500
  650.5000     7.6537     8.1502   132.7282   -57.9664  -999.2500
  651.0000     7.6691     8.1864   132.1190   -57.8000  -999.2500
  651.5000     7.6995     8.2630   130.3396   -57.6838  -999.2500
  652.0000     7.7896     8.3396   129.5599   -57.5298  -999.2500
  652.5000     7.9096     8.4162   128.0306   -57.5262  -999.2500
  653.0000     8.0297     8.4177   126.5013   -57.5217  -999.2500
  653.5000     8.0451     8.4943   126.4712   -57.5172  -999.2500
  654.0000     8.0455     8.4958   126.4412   -57.5127  -999.2500
  654.5000     8.0460     8.4973   127.1607   -57.5082  -999.2500
  655.0000     8.0463     8.4985   127.8878   -57.6533  -999.2500
  655.5000     8.0318     8.5000   128.6074   -57.6488  -999.2500
  656.0000     8.0147     8.4135   132.3179   -57.7937  -999.2500
  656.5000     7.9681     8.2657   133.0450   -57.7892  -999.2500
  657.0000     7.8964     8.1291   133.0135   -57.9342  -999.2500
  657.5000     7.8054     8.1307   132.9835   -57.9297  -999.2500
  658.0000     7.6006     8.1321   132.9535   -57.9252  -999.2500
  658.5000     7.6640     8.2087   132.9236   -57.9206  -999.2500
  659.0000     7.8122     8.2102   133.6443   -57.6172  -999.2500
  659.5000     7.8261     8.2868   133.5062   -57.4632  -999.2500
  660.0000     7.8266     8.3633   132.0840   -57.4587  -999.2500
  660.5000     7.8876     8.3648   131.3044   -57.4542  -999.2500
  661.0000     7.9471     8.3664   131.1893   -57.4496  -999.2500
  661.5000     7.9318     8.2928   130.4947   -57.2956  -999.2500
  662.0000     7.8133     8.2943   130.4648   -57.2911  -999.2500
  662.5000     7.7840     8.2207   130.4348   -57.4372  -999.2500
  663.0000     7.7994     8.2222   130.4048   -57.4316  -999.2500
  663.5000     7.8148     8.1487   131.1715   -57.4271  -999.2500
  664.0000     7.8003     8.1502   132.5941   -57.2731  -999.2500
  664.5000     7.6961     8.0766   133.3137   -57.1191  -999.2500
  665.0000     7.5172     8.0030   134.7829   -57.1146  -999.2500
  665.5000     7.4878     7.9295   136.2520   -57.4101  -999.2500
  666.0000     7.4733     7.8559   136.9817   -56.6571  -999.2500
  666.5000     7.4438     7.8574   138.4408   -56.6526  -999.2500
  667.0000     7.4143     7.8589   139.1605   -56.7987  -999.2500
  667.5000     7.3669     7.7853   139.8800   -56.9437  -999.2500
  668.0000     7.3050     7.6367   141.3491   -57.8360  -999.2500
  668.5000     7.2188     7.5631   142.8183   -57.9810  -999.2500
  669.0000     7.1124     7.4896   143.5383   -57.9753  -999.2500
  669.5000     7.0086     7.4159   145.7567   -57.9708  -999.2500
  670.0000     6.9367     7.1923   149.4748   -57.8168  -999.2500
  670.5000     6.8925     6.9685   156.9409   -57.2144  -999.2500
  671.0000     6.7837     6.5947   165.9064   -56.6120  -999.2500
  671.5000     6.3123     6.2208   171.8733   -56.4591  -999.2500
  672.0000     6.1262     6.1469   179.3395   -56.6041  -999.2500
  672.5000     6.0142     6.0733   180.8087   -56.4501  -999.2500
  673.0000     5.9831     6.0752   180.7787   -56.4614  -999.2500
  673.5000     5.7604     6.1518   179.9990   -56.6024  -999.2500
  674.0000     5.7315     6.2283   178.4697   -57.4988  -999.2500
  674.5000     5.8835     6.3800   175.4411   -57.7773  -999.2500
  675.0000     6.3602     6.6067   169.2755   -57.6233  -999.2500
  675.5000     6.5999     6.6833   161.3936   -57.0209  -999.2500
  676.0000     6.6302     6.8350   154.3614   -56.8669  -999.2500
  676.5000     6.7054     6.9116   151.3329   -57.1614  -999.2500
  677.0000     6.7656     7.0632   149.0539   -57.3064  -999.2500
  677.5000     6.9903     7.2149   148.2742   -56.5544  -999.2500
  678.0000     6.9919     7.3665   147.4946   -56.4004  -999.2500
  678.5000     6.9613     7.3680   145.9652   -56.5456  -999.2500
  679.0000     6.8554     7.3695   144.4359   -56.5409  -999.2500
  679.5000     6.7829     7.3710   143.6562   -56.2374  -999.2500
  680.0000     6.7983     7.3725   145.1329   -56.0834  -999.2500
  680.5000     6.8436     7.2986   146.6021   -56.3778  -999.2500
  681.0000     6.8589     7.2250   148.0713   -56.5228  -999.2500
  681.5000     6.8443     7.0768   151.0323   -56.5183  -999.2500
  682.0000     6.7403     6.8530   154.0007   -56.5138  -999.2500
  682.5000     6.5078     6.7040   156.9691   -56.6599  -999.2500
  683.0000     6.3656     6.5558   159.9376   -56.6542  -999.2500
  683.5000     6.2750     6.3320   162.9060   -56.8003  -999.2500
  684.0000     6.1576     6.0332   171.8715   -56.3462  -999.2500
  684.5000     5.9592     5.7345   189.8324   -56.1923  -999.2500
  685.0000     5.7683     5.1354   202.5460   -56.4867  -999.2500
  685.5000     5.5443     4.6110   215.2596   -56.7823  -999.2500
  686.0000     5.2909     4.5374   235.4694   -57.0767  -999.2500
  686.5000     4.9344     4.5393   231.6912   -57.3711  -999.2500
  687.0000     4.7417     4.5408   230.9115   -57.5161  -999.2500
  687.5000     4.8020     4.6174   230.8814   -57.8105  -999.2500
  688.0000     4.7576     4.6939   230.1017   -58.1050  -999.2500
  688.5000     4.7880     4.8456   226.3236   -58.2499  -999.2500
  689.0000     4.9685     5.2225   219.5469   -57.7959  -999.2500
  689.5000     5.5662     5.8997   203.0251   -57.6419  -999.2500
