~VERSION INFORMATION
 VERS.                2.0:   CWLS LOG ASCII STANDARD - VERSION 2.0
 WRAP.                 NO:   ONE LINE PER DEPTH STEP
~WELL INFORMATION
#MNEM.UNIT      DATA TYPE    INFORMATION
#----------   ------------   ------------------------------
 STRT.F            0.0000:   START DEPTH
 STOP.F         3030.0000:   STOP DEPTH
 STEP.F            0.5000:   STEP LENGTH
 NULL.          -999.2500:   NO VALUE
 COMP. LAWRENCE/ALLISON INC:   COMPANY
 WELL. NAVAL PETROLEUM RESERVE 3 AX-3 #36  X 34-34:   WELL
 FLD .         N. P. R #3:   FIELD
 LOC .      S34 T39N R78W:   LOCATION
 CNTY.            NATRONA:   COUNTY
 STAT.            WYOMING:   STATE
 CTRY. UNITED STATES OF AMERICA:   COUNTRY
 SRVC.      Dresser Atlas:   SERVICE COMPANY
 DATE.        29-JUN-1985:   LOGDATE
 API .       490251103200:   API NUMBER
~CURVE INFORMATION
#MNEM.UNIT       API CODE    CURVE DESCRIPTION
#----------   ------------   ------------------------------
 DEPT.F                  :   
 RFOC.OHMM   07 220 01 00:   RESISTIVITY FOCUSED LOG
 RILM.OHMM   07 120 44 00:   RESITIVITY LONG MEDIUM
 SPR .MV     07 010 01 00:   SPONTANEOUS POTENTIAL
 RILD.OHMM   07 120 46 00:   INDUCTION LOG DEEP RESITIVITY
 GRR .GAPI   07 310 01 00:   GAMMA RAY
 DT  .US/F   60 520 00 00:   INTERVAL TRANSIT TIME
 CALD.IN     45 280 60 00:   CALIPER FROM DENSITY LOG
 CORR.G/C3   45 356 01 00:   DENSITY CORRECTION
 CNC .DEC    42 890 03 00:   NEUTRON POROSITY SANDSTONE
 DEN .G/C3   45 350 01 00:   COMPENSATED BULK DENSTIY
 PORD.DEC    45 890 12 00:   POROSITY DENSITY SANDSTONE
~PARAMETER INFORMATION
#MNEM.UNIT          VALUE    DESCRIPTION
#----------   ------------   ------------------------------
 PD  .                 GL:   PERMANENT DATUM
 EPD .F              5108:   ELEVATION PERMANENT DATUM
 LMF .                 KB:   LOG MEASURED FROM
 DAPD.F                12:   FEET ABOVE PERMANENT DATUM
 DMF .                 KB:   DRILLING MEASURED FROM
 EKB .F              5120:   KELLING BUSHING
 EGL .F              5108:   GROUND LEVEL
 DATE.       29-JUNE-1985:   RUN DATE
 RUN .                  1:   RUN NUMBER
 DD  .F              3033:   DEPTH DRILLER
 DL  .F              3033:   DEPTH LOGGER
 BLI .F              3030:   BOTTOM LOG INTERVAL
 CS  .IN            8.625:   CASING SIZE
 CBD .F               601:   CASING BOTTOM DRILLER
 CBL .F               601:   CASING BOTTOM LOGGER
 BS  .IN            7.875:   BIT SIZE
 BSD .F              3033:   BIT SIZE AT DEPTH
 DFT .   FOAM & KCL WATER:   DRILLING FLUID TYPE
 MSS .           FLOWLINE:   MUD SAMPLE SOURCE
 RMS .OHMM           0.44:   RESISTIVITY MUD SAMPLE
 MST .F                82:   MUD SAMPLE TEMPERATURE
 RMF .OHMM           0.44:   RESISTIVITY MUD FILTRATE SAMPLE
 MFST.F                82:   MUD FILTRATE SAMPLE TEMPERATURE
 MFSS.               MEAS:   MUD FILTRATE SAMPLE SOURCE
 RMB .OHMM           0.31:   RESISTIVITY MUD AT BHT
 BHT .F               116:   BOTTOM HOLE TEMPERATURE
 TCS .HRS               3:   TIME CURCULATED STOPPED
 MRT .F               116:   MAXIMUM RECORDED TEMPERATURE
 LUN .               6274:   LOGGING UNIT NUMBER
 LUL .               GLTE:   LOGGING UNIT LOCATION
 ENGI.             RAUTIO:   RECORDING ENGINEER
 WITN.       MR. JENNINGS:   WITNESSED BY
 CLNT.            A2DTECH:   CLIENT CODE
 ORIG.        2" 5" PRINT:   ORIGIN OF DATA
 UWI .       490251103200:   UNIQUE WELL ID
 DICO. A2D Technologies, Inc.:   DIGITIZING COMPANY
~OTHER INFORMATION
~A    DEPT    RFOC       RILM        SPR       RILD         GRR        DT       CALD       CORR        CNC        DEN       PORD   
# ...
 2592.5000    13.3978    11.1020    71.7503    11.1758    87.0465    81.1479     7.2199    -0.0313     0.2462     2.3128     0.1982
 2593.0000    13.3614    11.0305    70.9971    11.0330    88.5763    83.6307     7.2199    -0.0132     0.2418     2.3294     0.1888
 2593.5000    11.5074    11.0398    70.2415    11.0404    88.5909    86.2641     7.2048    -0.0087     0.2335     2.3557     0.1763
 2594.0000    10.5166    10.7418    68.9392    11.4394    88.3024    87.3166     7.2048    -0.0116     0.2216     2.3753     0.1601
 2594.5000     9.6772    10.7508    67.2235    12.0192    88.0140    85.8832     7.2048    -0.0131     0.2198     2.3813     0.1676
 2595.0000    11.9318    11.5671    67.2279    12.3672    88.0322    81.5364     7.2048    -0.0085     0.2229     2.3573     0.1788
 2595.5000    14.2067    12.5505    67.0796    12.7252    89.2590    75.9388     7.2048    -0.0069     0.2346     2.3369     0.1914
 2596.0000    18.5596    13.1866    66.7810    13.1035    91.0917    75.1084     7.2048    -0.0145     0.2436     2.3161     0.2026
 2596.5000    15.4608    13.9518    65.8773    13.9526    92.9245    78.4190     7.2048    -0.0203     0.2430     2.3138     0.2029
 2597.0000    13.3643    14.9685    64.7966    14.9693    92.8914    81.2783     7.2199    -0.0173     0.2366     2.3139     0.2007
 2597.5000    13.0926    15.6180    63.6145    15.6188    91.3687    82.0261     7.2349    -0.0037     0.2218     2.3275     0.1953
 2598.0000    14.8492    16.3017    62.5582    16.1834    89.9416    82.2530     7.2349     0.0145     0.2139     2.3605     0.1683
 2598.5000    18.5634    16.8874    61.9566    16.7683    88.1380    80.3678     7.2349     0.0010     0.2133     2.4056     0.1384
 2599.0000    19.9191    17.1358    60.9003    17.2538    85.7284    78.1067     7.2349    -0.0050     0.2130     2.4237     0.1360
 2599.5000    23.5457    17.0283    60.1470    17.3860    82.4097    75.9208     7.2349     0.0026     0.2155     2.3997     0.1429
 2600.0000    25.4315    16.0572    59.3939    16.2296    82.1212    73.6944     7.2349     0.0116     0.2265     2.3674     0.1659
 2600.5000    23.7324    14.8322    58.6179    14.9379    85.1434    73.7311     7.2349     0.0147     0.2440     2.3516     0.1816
 2601.0000    17.8478    13.6497    58.1917    13.8452    89.4268    76.1338     7.2349     0.0103     0.2461     2.3569     0.1794
 2601.5000    13.8977    12.8268    57.4385    12.3930    96.1080    79.4460     7.2349    -0.0032     0.2498     2.3773     0.1718
 2602.0000    12.0167    11.5615    56.5338    11.5668   100.0620    82.5297     7.2349    -0.0152     0.2530     2.3923     0.1571
 2602.5000    11.0390    10.8645    55.6290    10.7809   103.4099    83.3551     7.2349    -0.0226     0.2506     2.3901     0.1567
 2603.0000    10.8364    10.4251    55.3315    10.2189   105.8488    83.0494     7.2349    -0.0120     0.2427     2.3847     0.1619
 2603.5000    11.0722    10.1439    54.8904     9.9447   108.6590    82.8200     7.2349    -0.0015     0.2361     2.3804     0.1640
 2604.0000    10.8481    10.0087    54.7446     9.8823   112.5483    82.5904     7.2349     0.0061     0.2345     2.3782     0.1646
 2604.5000    10.4119     9.8766    54.2971     9.8890   112.8623    82.9625     7.2349     0.0077     0.2475     2.3789     0.1627
 2605.0000    10.2007     9.8816    54.1512     9.8267   108.0320    83.1105     7.2365     0.0002     0.2454     2.3829     0.1597
 2605.5000    10.2073     9.8878    54.0068     9.8335   101.3809    83.1060     7.2366    -0.0012     0.2390     2.3903     0.1564
 2606.0000    10.4295     9.7548    54.0124     9.8417    99.2703    82.7891     7.2368     0.0079     0.2330     2.3971     0.1539
 2606.5000    10.8045     9.5552    53.8666     9.7783   101.4092    81.4414     7.2369     0.0382     0.2332     2.4031     0.1518
 2607.0000    11.2713     9.3676    54.0252     9.6511   104.1542    80.3836     7.2370     0.0473     0.2372     2.4092     0.1486
 2607.5000    11.9343     9.2427    54.0308     9.5224   105.9865    80.0035     7.2372     0.0318     0.2426     2.4187     0.1409
 2608.0000    11.2844     9.1833    54.0365     9.3969   107.8188    80.0000     7.2374    -0.0322     0.2453     2.4089     0.1418
 2608.5000    10.2418     9.0622    54.0435     9.2747   109.0739    80.4473     7.2375     0.0039     0.2435     2.4030     0.1472
 2609.0000     9.4917     9.0028    53.7448     9.1525   107.8507    80.8203     7.2377     0.0145     0.2383     2.4067     0.1481
 2609.5000     9.3653     9.0086    53.1444     9.0950   105.4406    80.9682     7.2378     0.0086     0.2380     2.4143     0.1448
 2610.0000     9.9774     8.9507    52.5353     9.1026   104.5455    81.1145     7.2380     0.0056     0.2377     2.4278     0.1372
 2610.5000    10.0523     8.8932    51.7949     8.9812   109.7970    81.1930     7.2394     0.0072     0.2322     2.4323     0.1318
 2611.0000     9.7732     8.8990    51.3460     8.9248   114.2733    81.2578     7.2533     0.0088     0.2307     2.4196     0.1318
 2611.5000     9.6510     8.9659    50.8971     8.9948   114.8936    81.0275     7.2535     0.0149     0.2332     2.4082     0.1396
 2612.0000     9.7248     9.0976    50.5997     9.0638   110.9719    80.5721     7.2386     0.0330     0.2376     2.4023     0.1493
 2612.5000    10.2871     9.0379    50.1508     9.0069   106.1375    80.4179     7.2387     0.0571     0.2391     2.4249     0.1474
 2613.0000    11.0359     9.0438    49.8548     9.0129   105.5290    80.4135     7.2389     0.0572     0.2397     2.4452     0.1378
 2613.5000    11.4328     8.8614    49.5575     8.7836   105.2568    80.6367     7.2390     0.0422     0.2387     2.4647     0.1238
 2614.0000    10.8946     8.6234    49.2615     8.5461   104.6684    80.7837     7.2392    -0.0088     0.2300     2.4662     0.1117
 2614.5000    10.0280     8.4495    49.1142     8.4906   103.7735    80.7793     7.2393    -0.0493     0.2257     2.4617     0.1105
 2615.0000     9.5560     8.3951    48.8182     8.3770   104.4142    80.7003     7.2395    -0.0282     0.2245     2.4588     0.1114
 2615.5000     9.0430     8.3412    48.2193     8.3817   105.6235    80.5454     7.2396    -0.0010     0.2242     2.4663     0.1132
 2616.0000     8.9226     8.2311    47.6189     8.3283   106.8498    80.3159     7.2398     0.0277     0.2244     2.4678     0.1141
 2616.5000     9.3092     8.2354    47.3215     8.2742   102.6215    79.9358     7.2399     0.0382     0.2265     2.4678     0.1108
 2617.0000     9.4446     8.2398    47.3152     8.3359    96.8817    79.4773     7.2401     0.0277     0.2292     2.4648     0.1099
 2617.5000     9.5820     8.2451    47.1813     8.3397    98.1080    79.0995     7.2402     0.0248     0.2325     2.4581     0.1105
 2618.0000     9.7906     8.2494    47.0354     8.3445   101.1524    79.2465     7.2404     0.0279     0.2362     2.4536     0.1123
 2618.5000     9.8641     8.2537    46.7395     8.2245   101.4697    79.8454     7.2405     0.0280     0.2340     2.4498     0.1177
 2619.0000     9.5316     8.2006    46.2906     8.1784   100.8812    80.2936     7.2407     0.0235     0.2310     2.4491     0.1195
 2619.5000     9.2036     8.2059    45.8431     8.1832   100.8954    80.6657     7.2408     0.0124     0.2288     2.4514     0.1201
 2620.0000     9.0877     8.1522    45.5457     8.0744   103.9399    80.8889     7.2444    -0.0034     0.2275     2.4552     0.1195
 2620.5000     9.0293     8.1575    45.3999     8.0211   105.7757    80.8092     7.2562     0.0057     0.2271     2.4597     0.1182
 2621.0000     8.9102     8.1628    45.4069     8.0257   107.0020    80.5797     7.2413     0.0103     0.2279     2.4619     0.1161
 2621.5000     8.9160     8.1670    45.4126     8.0303   108.2283    80.3441     7.2414     0.0074     0.2288     2.4627     0.1143
 2622.0000     9.0457     8.1713    45.4183     8.0339   108.8485    80.0446     7.2416    -0.0016     0.2294     2.4627     0.1128
 2622.5000     9.2414     8.1766    45.5768     8.0376   104.3208    79.9657     7.2417    -0.0120     0.2278     2.4620     0.1124
