~VERSION INFORMATION
 VERS.                2.0:   CWLS LOG ASCII STANDARD - VERSION 2.0
 WRAP.                 NO:   ONE LINE PER DEPTH STEP
~WELL INFORMATION
#MNEM.UNIT      DATA TYPE    INFORMATION
#----------   ------------   ------------------------------
 STRT.F            0.0000:   START DEPTH
 STOP.F          860.0000:   STOP DEPTH
 STEP.F            0.5000:   STEP LENGTH
 NULL.          -999.2500:   NO VALUE
 COMP.          U.S. NAVY:   COMPANY
 WELL. NPR #3 TEAPOT DOME #28S-35:   WELL
 FLD .             TEAPOT:   FIELD
 LOC .      S35 T39N R78W:   LOCATION
 CNTY.            NATRONA:   COUNTY
 STAT.            WYOMING:   STATE
 CTRY. UNITED STATES OF AMERICA:   COUNTRY
 SRVC.       Schlumberger:   SERVICE COMPANY
 DATE.        10-NOV-1958:   LOGDATE
 API .       490250649800:   API NUMBER
~CURVE INFORMATION
#MNEM.UNIT       API CODE    CURVE DESCRIPTION
#----------   ------------   ------------------------------
 DEPT.F                  :   
 SPR .MV     01 010 01 00:   SPONTANEOUS POTENTIAL FROM RES.
 ASN .OHMM   01 041 16 00:   AMPLIFIED SHORT NORMAL 16"
 LT18.OHMM   01 070 18 00:   LATERAL 18'
 LN  .OHMM   01 060 64 00:   LONG NORMAL 64"
 GRN .CPS    35 310 30 00:   GAMMA RAY
 NEUT.CPS    35 330 30 00:   NEUTRON
 MCAL.IN     15 280 01 00:   CALIPER FROM MICRO LOG
~PARAMETER INFORMATION
#MNEM.UNIT          VALUE    DESCRIPTION
#----------   ------------   ------------------------------
 LMF .                 KB:   LOG MEASURED FROM
 DMF .                 KB:   DRILLING MEASURED FROM
 EKB .F              5113:   KELLING BUSHING
 EGL .F              5103:   GROUND LEVEL
 DATE.         11-10-1958:   RUN DATE
 RUN .                  1:   RUN NUMBER
 DD  .F               860:   DEPTH DRILLER
 DL  .F               861:   DEPTH LOGGER
 BLI .F               860:   BOTTOM LOG INTERVAL
 TLI .F                90:   TOP LOG INTERVAL
 CBD .F                34:   CASING BOTTOM DRILLER
 BS  .IN             6.75:   BIT SIZE
 BSD .F               860:   BIT SIZE AT DEPTH
 DFT .          OIL ADDED:   DRILLING FLUID TYPE
 DFD .                 10:   DRILLING FLUID DENSITY
 DFV .                 20:   DRILLING FLUID VISCOSITY
 DFPH.                7.5:   DRILLING FLUID PH
 DFL .                4.2:   DRILLING FLUID LOSS
 RMS .OHMM              2:   RESISTIVITY MUD SAMPLE
 MST .F                62:   MUD SAMPLE TEMPERATURE
 RMF .OHMM            1.4:   RESISTIVITY MUD FILTRATE SAMPLE
 MFST.F                72:   MUD FILTRATE SAMPLE TEMPERATURE
 RMC .OHMM            1.9:   RESISTIVITY MUD CAKE
 MCST.F                72:   MUD CAKE SAMPLE TEMPERATURE
 MFSS.                  M:   MUD FILTRATE SAMPLE SOURCE
 MCSS.                  M:   MUD CAKE SAMPLE SOURCE
 RMB .OHMM            1.7:   RESISTIVITY MUD AT BHT
 BHT .F                72:   BOTTOM HOLE TEMPERATURE
 TCS .HRS               1:   TIME CURCULATED STOPPED
 MRT .F                72:   MAXIMUM RECORDED TEMPERATURE
 LUN .               2754:   LOGGING UNIT NUMBER
 LUL .                 NC:   LOGGING UNIT LOCATION
 ENGI.             QUINBY:   RECORDING ENGINEER
 WITN.             MARTIN:   WITNESSED BY
 CLNT.            A2DTECH:   CLIENT CODE
 ORIG.     1", 2.5" PRINT:   ORIGIN OF DATA
 UWI .       490250649800:   UNIQUE WELL ID
 DICO. A2D Technologies, Inc.:   DIGITIZING COMPANY
~OTHER INFORMATION
~A    DEPT     SPR        ASN       LT18         LN          GRN     NEUT       MCAL   
# ...
  819.0000   -16.0982     8.3656    11.0157     7.6603  -999.2500  -999.2500     6.8306
  819.5000   -15.8206     8.0359    10.8859     7.3900  -999.2500  -999.2500     6.8306
  820.0000   -15.8515     7.5766    10.8648     7.3913  -999.2500  -999.2500     6.8306
  820.5000   -16.3536     7.1366    10.7616     7.5285  -999.2500  -999.2500     6.8306
  821.0000   -16.3098     6.5057    10.6063     7.5299  -999.2500  -999.2500     6.8306
  821.5000   -15.2554     5.8647    10.1555     7.5312  -999.2500  -999.2500     6.8306
  822.0000   -15.5221     5.3019     9.2414     7.6684  -999.2500  -999.2500     6.8306
  822.5000   -15.4756     5.0243     8.5473     7.5339  -999.2500  -999.2500     6.8306
  823.0000   -15.2391     5.1973     7.8784     7.5218  -999.2500  -999.2500     6.8033
  823.5000   -15.2337     5.5280     7.1455     7.3850  -999.2500  -999.2500     6.8033
  824.0000   -14.9566     7.0098     7.1514     7.2662  -999.2500  -999.2500     6.8033
  824.5000   -14.6794     8.1812     7.3149     7.2677  -999.2500  -999.2500     6.8033
  825.0000   -14.9461     8.7297     7.5901     7.1105  -999.2500  -999.2500     6.8033
  825.5000   -15.2581     8.9831     7.8653     6.9985  -999.2500  -999.2500     6.8033
  826.0000   -15.4787     9.0872     8.1405     7.1630  -999.2500  -999.2500     6.8306
  826.5000   -15.2011     9.1691     8.2594     7.5743  -999.2500  -999.2500     6.8306
  827.0000   -15.2445     9.2295     8.2442     7.8497  -999.2500  -999.2500     6.8306
  827.5000   -15.4625     9.3329     8.1347     8.1250  -999.2500  -999.2500     6.8306
  828.0000   -15.7790     9.4209     8.1405     8.3642  -999.2500  -999.2500     6.8306
  828.5000   -15.9946     9.5301     8.1460     8.5399  -999.2500  -999.2500     6.8306
  829.0000   -15.9891     9.6393     8.1514     8.7745  -999.2500  -999.2500     6.8306
  829.5000   -15.4075     9.7686     8.1568     8.8188  -999.2500  -999.2500     6.8306
  830.0000   -14.0580     9.8577     8.1622     9.0942  -999.2500  -999.2500     6.8579
  830.5000   -13.9648     9.9128     8.1676     9.1861  -999.2500  -999.2500     6.8579
  831.0000   -15.9892    10.0353     8.1729     9.3234  -999.2500  -999.2500     6.8579
  831.5000   -16.7771    10.3044     8.1783     9.3247  -999.2500  -999.2500     6.8579
  832.0000   -16.6233    10.4401     8.1838     9.3261  -999.2500  -999.2500     6.8306
  832.5000   -16.6441    10.5758     8.1892     9.4633  -999.2500  -999.2500     6.8306
  833.0000   -17.0326    10.8466     8.1946     9.6006  -999.2500  -999.2500     6.8306
  833.5000   -17.0272    10.9823     8.2000     9.7989  -999.2500  -999.2500     6.8306
  834.0000   -17.0217    11.1179     8.2054     9.8750  -999.2500  -999.2500     6.8304
  834.5000   -16.8632    11.2536     8.2108     9.8763  -999.2500  -999.2500     6.8033
  835.0000   -16.7392    11.3893     8.2162    10.0816  -999.2500  -999.2500     6.8306
  835.5000   -16.6168    11.5249     8.2217    10.4928  -999.2500  -999.2500     6.8306
  836.0000   -17.8952    11.5255     8.2271    10.6957  -999.2500  -999.2500     6.8306
  836.5000   -19.7951    11.5260     8.2324    10.6970  -999.2500  -999.2500     6.8306
  837.0000   -20.6792    11.5266     8.2378    10.6984  -999.2500  -999.2500     6.8306
  837.5000   -20.6295    11.6622     8.2320    10.6997  -999.2500  -999.2500     6.8306
  838.0000   -20.2391    11.6628     8.1133    10.7014  -999.2500  -999.2500     6.8306
  838.5000   -20.3940    11.7984     8.1189    10.7027  -999.2500  -999.2500     6.8306
  839.0000   -21.2047    11.9341     8.1243    10.7041  -999.2500  -999.2500     6.8306
  839.5000   -22.0155    11.9347     8.2649    10.7054  -999.2500  -999.2500     6.8306
  840.0000   -23.2054    11.9352     8.2703    10.7067  -999.2500  -999.2500     6.8306
  840.5000   -25.6457    11.8006     8.1404    10.7081  -999.2500  -999.2500     6.8306
  841.0000   -26.1837    11.8011     8.1460    10.7094  -999.2500  -999.2500     6.8306
  841.5000   -29.9826    11.5314     8.1512    10.7108  -999.2500  -999.2500     6.8306
  842.0000   -33.5098    11.3968     7.8792    10.7121  -999.2500  -999.2500     6.8306
  842.5000   -35.1348    11.3973     7.7566    10.5776  -999.2500  -999.2500     6.8579
  843.0000   -33.7707    11.5330     7.7685    10.5790  -999.2500  -999.2500     6.8579
  843.5000   -33.2218    11.5335     8.0378    10.5803  -999.2500  -999.2500     6.8579
  844.0000   -35.1186    11.6692     8.1838    10.4458  -999.2500  -999.2500     6.8579
  844.5000   -35.9283    11.8049     8.4591    10.1754  -999.2500  -999.2500     6.8579
  845.0000   -37.2816    11.5352     8.7342    10.0409  -999.2500  -999.2500     6.8579
  845.5000   -40.2653    11.4006     8.8743    10.1781  -999.2500  -999.2500     6.8579
  846.0000   -40.6304    10.9957     9.1460    10.3153  -999.2500  -999.2500     6.8579
  846.5000   -36.1784    10.7260     9.2897    10.0449  -999.2500  -999.2500     6.8579
  847.0000   -31.5534    10.5914     9.4271     9.9104  -999.2500  -999.2500     6.8579
  847.5000   -29.9175    10.3216     9.5675     9.9117  -999.2500  -999.2500     6.8579
  848.0000   -30.4556    10.1870     9.5729     9.7772  -999.2500  -999.2500     6.8579
  848.5000   -30.9936    10.1876     9.7135     9.6427  -999.2500  -999.2500     6.8579
  849.0000   -31.2599    10.1881     9.7189     9.6440  -999.2500  -999.2500     6.8579
  849.5000   -31.2545    10.0535     9.8596     9.6454  -999.2500  -999.2500     6.8579
  850.0000   -30.7056    10.0541     9.9054     9.6467  -999.2500  -999.2500     6.8579
  850.5000   -30.1567     9.9195     9.9513     9.5099  -999.2500  -999.2500     6.8579
  851.0000   -30.1513     9.9173     9.9971     9.3777  -999.2500  -999.2500     6.8579
  851.5000   -30.1459     9.7854    10.0162     9.3790  -999.2500  -999.2500     6.8579
  852.0000   -30.1404     9.6508     9.8856     9.3804  -999.2500  -999.2500     6.8579
  852.5000   -30.1350     9.6513     9.8491     9.2459  -999.2500  -999.2500     6.8579
  853.0000   -30.1296     9.7870     9.7198     9.2201  -999.2500  -999.2500     6.8579
  853.5000   -30.1242     9.7932     9.6316     8.9768  -999.2500  -999.2500     6.8579
  854.0000   -30.9340     9.9232     9.6378     8.8423  -999.2500  -999.2500     6.8579
  854.5000   -32.2872     9.9238     9.5073     8.8437  -999.2500  -999.2500     6.8579
  855.0000   -32.0101     9.9243     9.3776     8.7091  -999.2500  -999.2500     6.8579
  855.5000   -30.9177     9.9248     9.3437     8.7106  -999.2500  -999.2500     6.8579
  856.0000   -31.4557     9.9254     9.2533     8.5760  -999.2500  -999.2500     6.8579
  856.5000   -32.2655     9.9584     9.2595     8.4414  -999.2500  -999.2500     6.8642
  857.0000   -30.9014     9.9265     9.2649     8.3069  -999.2500  -999.2500     6.8852
  857.5000   -29.6371     9.9000     9.2320     8.3084  -999.2500  -999.2500     6.9126
  858.0000   -28.4457     9.8195     8.9675     8.1737  -999.2500  -999.2500     6.9193
  858.5000   -28.8180     9.7119     8.8749     8.0392  -999.2500  -999.2500     6.9672
  859.0000   -29.7945     9.4963     8.8810     8.0001  -999.2500  -999.2500     6.7808
  859.5000   -29.8958     9.3076     9.0216     7.9060  -999.2500  -999.2500     6.3863
  860.0000   -30.3245     9.3352     9.0290     8.0439  -999.2500  -999.2500     6.3661
