~VERSION INFORMATION
 VERS.                2.0:   CWLS LOG ASCII STANDARD - VERSION 2.0
 WRAP.                 NO:   ONE LINE PER DEPTH STEP
~WELL INFORMATION
#MNEM.UNIT      DATA TYPE    INFORMATION
#----------   ------------   ------------------------------
 STRT.F           30.0000:   START DEPTH
 STOP.F          507.0000:   STOP DEPTH
 STEP.F            0.5000:   STEP LENGTH
 NULL.          -999.2500:   NO VALUE
 COMP. FENIX & SCISSON INC:   COMPANY
 WELL.      NPR-3 #42S-10:   WELL
 FLD .             TEAPOT:   FIELD
 LOC .      S10 T38N R78W:   LOCATION
 CNTY.            NATRONA:   COUNTY
 STAT.            WYOMING:   STATE
 CTRY. UNITED STATES OF AMERICA:   COUNTRY
 SRVC.            Unknown:   SERVICE COMPANY
 DATE.        15-JUL-1978:   LOGDATE
 API .       490251065700:   API NUMBER
~CURVE INFORMATION
#MNEM.UNIT       API CODE    CURVE DESCRIPTION
#----------   ------------   ------------------------------
 DEPT.F                  :   
 SPR .MV     07 010 01 00:   SPONTANEOUS POTENTIAL
 ILD .OHMM   07 120 46 00:   INDUCTION LOG DEEP
 SN  .OHMM   07 040 16 00:   SHORT NORMAL
 CALD.IN     45 280 60 00:   CALIPER FROM DENSITY LOG
 GRD .GAPI   45 310 01 00:   GAMMA RAY FROM DENSITY LOG
 CORR.G/C3   45 356 01 00:   DENSITY CORRECTION
 RHOB.G/C3   45 350 01 00:   BULK DENSITY
 DPHI.DEC    45 890 12 00:   DENSITY POROSITY SANDSTONE
~PARAMETER INFORMATION
#MNEM.UNIT          VALUE    DESCRIPTION
#----------   ------------   ------------------------------
 PD  .                 GL:   PERMANENT DATUM
 EPD .F              5204:   ELEVATION PERMANENT DATUM
 LMF .                 KB:   LOG MEASURED FROM
 DAPD.F                 4:   FEET ABOVE PERMANENT DATUM
 DMF .                 KB:   DRILLING MEASURED FROM
 EKB .F              5208:   KELLING BUSHING
 EGL .F              5204:   GROUND LEVEL
 DATE.        15-JUL-1978:   RUN DATE
 RUN .                  1:   RUN NUMBER
 DD  .F               500:   DEPTH DRILLER
 DL  .F               511:   DEPTH LOGGER
 BLI .F               504:   BOTTOM LOG INTERVAL
 TLI .F                30:   TOP LOG INTERVAL
 CS  .IN            8.625:   CASING SIZE
 CBD .F                40:   CASING BOTTOM DRILLER
 CBL .F                40:   CASING BOTTOM LOGGER
 BS  .IN            7.875:   BIT SIZE
 BSD .F               500:   BIT SIZE AT DEPTH
 DFT .                KCL:   DRILLING FLUID TYPE
 DFD .                8.7:   DRILLING FLUID DENSITY
 DFV .                 32:   DRILLING FLUID VISCOSITY
 DFPH.                9.0:   DRILLING FLUID PH
 RMS .OHMM           0.18:   RESISTIVITY MUD SAMPLE
 MST .F                78:   MUD SAMPLE TEMPERATURE
 RMF .OHMM           0.16:   RESISTIVITY MUD FILTRATE SAMPLE
 MFST.F                88:   MUD FILTRATE SAMPLE TEMPERATURE
 RMC .OHMM           0.28:   RESISTIVITY MUD CAKE
 MCST.F                88:   MUD CAKE SAMPLE TEMPERATURE
 MFSS.               MEAS:   MUD FILTRATE SAMPLE SOURCE
 MCSS.               MEAS:   MUD CAKE SAMPLE SOURCE
 TCS .HRS               1:   TIME CURCULATED STOPPED
 LUN .               2958:   LOGGING UNIT NUMBER
 LUL .               CASP:   LOGGING UNIT LOCATION
 ENGI.              HONEA:   RECORDING ENGINEER
 WITN.           MCGINLEY:   WITNESSED BY
 CLNT.            A2DTECH:   CLIENT CODE
 ORIG.           5" PRINT:   ORIGIN OF DATA
 UWI .       490251065700:   UNIQUE WELL ID
 DICO. A2D Technologies, Inc.:   DIGITIZING COMPANY
~OTHER INFORMATION
~A   DEPT      SPR        ILD         SN       CALD        GRD       CORR       RHOB       DPHI   
# ...
  394.5000   -21.2922    21.9374    11.5842     8.9947    61.9044     0.0248     2.3422     0.2108
  395.0000   -21.2804    21.7946    11.5110     8.9971    62.0802     0.0234     2.3439     0.2111
  395.5000   -21.2686    22.4097    11.4383     9.0291    62.2605     0.0221     2.3432     0.2128
  396.0000   -21.4088    23.0422    11.3661     9.0768    62.1381     0.0238     2.3411     0.2113
  396.5000   -21.6921    23.0500    11.2944     9.1248    61.2728     0.0270     2.3420     0.1993
  397.0000   -21.8323    23.0580    11.1476     9.0663    59.3673     0.0317     2.3548     0.1969
  397.5000   -21.8175    23.0818    11.0758     8.9526    58.6440     0.0364     2.3654     0.1939
  398.0000   -21.8057    23.5784    11.0071     8.8926    58.6768     0.0410     2.3714     0.1898
  398.5000   -21.7940    20.3970    10.7884     8.9410    59.2973     0.0472     2.3775     0.1862
  399.0000   -21.9312    20.2625    10.6467     9.0887    60.8094     0.0578     2.3806     0.1887
  399.5000   -22.2175    19.5863    10.3635     9.4491    64.2531     0.0700     2.3778     0.1828
  400.0000   -22.5037    18.5368    10.1574     9.5695    65.5570     0.0836     2.3870     0.1529
  400.5000   -22.7908    17.1991    10.4457     9.5574    65.7904     0.1361     2.4118     0.1373
  401.0000   -23.0723    19.3407    10.3061     9.5456    67.8938     0.1512     2.4521     0.1624
  401.5000   -23.2081    19.3700    10.2396     9.2662    68.8380     0.0753     2.4081     0.1977
  402.0000   -23.4933    18.7232    10.1048     9.0009    60.0650     0.0545     2.3664     0.1776
  402.5000   -23.9268    18.2402     9.9025     9.0930    60.6835     0.0772     2.3949     0.1740
  403.0000   -24.2126    17.7169     9.6376     9.1252    61.1573     0.0953     2.4017     0.1644
  403.5000   -24.6455    15.8783     9.3156     9.1425    60.8833     0.0985     2.4096     0.1610
  404.0000   -24.7813    16.3275     9.1291     9.2340    57.4890     0.0940     2.4243     0.1683
  404.5000   -24.9171    16.9053     9.1328     9.4293    56.9120     0.0914     2.4080     0.1669
  405.0000   -25.0529    17.0288     9.1995     9.5356    58.7241     0.0917     2.4149     0.1646
  405.5000   -25.0364    16.9189     9.2033     9.4491    59.6388     0.0993     2.4165     0.1652
  406.0000   -24.8741    17.5193     9.2070     9.4688    59.8296     0.1160     2.4136     0.1553
  406.5000   -24.8609    16.9167     9.0780     9.5881    58.4965     0.1176     2.4316     0.1517
  407.0000   -25.0000    16.5798     8.9644     9.6048    58.6884     0.1148     2.4362     0.1645
  407.5000   -25.2849    16.6010     8.9066     9.4595    60.2278     0.1136     2.4221     0.1675
  408.0000   -25.4207    16.4937     8.7894     9.4027    61.3950     0.1168     2.4133     0.1606
  408.5000   -25.5565    16.3890     8.6728     9.4200    61.8640     0.1308     2.4174     0.1567
  409.0000   -25.5399    15.6255     8.6764     9.4521    61.8872     0.1590     2.4300     0.1531
  409.5000   -25.6791    14.7955     8.6195     9.5287    61.7560     0.1771     2.4346     0.1623
  410.0000   -25.6625    14.0096     8.5639     9.7241    61.7850     0.1773     2.4220     0.1735
  410.5000   -25.7988    13.1746     8.5683     9.7414    62.1054     0.1805     2.3922     0.1769
  411.0000   -26.2322    12.0534     8.5121     9.5510    61.2370     0.1912     2.3961     0.1941
  411.5000   -26.3681    11.4131     8.5164     9.6282    58.2885     0.1958     2.3812     0.2215
  412.0000   -26.6528    11.3384     8.5199     9.7494    56.9648     0.1722     2.3530     0.2490
  412.5000   -26.7887    11.5544     8.5234     9.3958    56.7004     0.1052     2.2694     0.2363
  413.0000   -26.7750    12.0734     8.4684     9.5169    57.4723     0.0845     2.2871     0.1956
  413.5000   -26.7589    12.2442     8.4718     9.8161    58.8328     0.1146     2.3889     0.1663
  414.0000   -26.7457    11.9170     8.4753     9.0619    60.6391     0.1327     2.4281     0.1478
  414.5000   -26.7324    12.3400     8.5373     8.9005    63.0397     0.0688     2.4469     0.1501
  415.0000   -26.8716    13.2234     8.5998     8.9036    67.3719     0.0570     2.4261     0.1621
  415.5000   -27.3054    13.5975     8.7232     8.7726    69.6239     0.0542     2.4307     0.1506
  416.0000   -27.5903    15.7153     8.8477     8.7453    70.2415     0.0664     2.4382     0.1283
  416.5000   -27.8751    16.9564     9.0358     8.8523    70.4133     0.0830     2.4742     0.1148
  417.0000   -28.0109    17.9222     9.2916     8.8547    70.8925     0.0608     2.4668     0.1276
  417.5000   -27.9944    17.6847     9.4892     8.6940    71.8227     0.0342     2.4558     0.1317
  418.0000   -28.1335    16.8517     9.7579     8.2514    72.7175     0.0268     2.4715     0.1335
  418.5000   -28.4183    16.0649     9.7619     8.1790    72.8835     0.0209     2.4642     0.1344
  419.0000   -28.5514    15.6296     9.8333     8.1666    71.1294     0.0154     2.4628     0.1350
  419.5000   -28.5376    15.2276     9.8373     8.1401    70.5524     0.0141     2.4577     0.1352
  420.0000   -28.5244    14.8222     9.8413     8.1276    71.1758     0.0144     2.4526     0.1358
  420.5000   -28.5111    14.5256     9.8453     8.1153    71.6447     0.0130     2.4609     0.1409
  421.0000   -28.4978    14.2349     9.8493     8.1178    71.6679     0.0133     2.4565     0.1432
  421.5000   -28.4844    13.9501     9.8533     8.1203    71.0966     0.0135     2.4477     0.1441
  422.0000   -28.9186    13.5773     9.8573     8.1233    72.9331     0.0107     2.4515     0.1432
  422.5000   -29.4982    13.2145     9.8613     8.1258    73.9921     0.0094     2.4532     0.1429
  423.0000   -29.7863    12.9500     9.8654     8.1134    73.5496     0.0096     2.4510     0.1366
  423.5000   -30.2169    12.7771     9.8695     8.1159    70.0066     0.0083     2.4586     0.1380
  424.0000   -30.5017    12.6948     9.8743     8.1183    69.7269     0.0086     2.4594     0.1422
  424.5000   -30.7865    12.6129     9.8783     8.1208    70.0530     0.0088     2.4536     0.1437
  425.0000   -30.9256    12.6194     9.8824     8.1232    69.6305     0.0105     2.4522     0.1401
  425.5000   -31.2105    12.6245     9.8864     8.0960    68.4650     0.0107     2.4576     0.1358
  426.0000   -31.3463    12.5430     9.8904     8.0837    67.5966     0.0124     2.4636     0.1351
  426.5000   -31.3298    12.5482     9.8944     8.0713    67.4710     0.0126     2.4645     0.1373
  427.0000   -31.1675    12.4673     9.8984     8.0744    68.5647     0.0143     2.4601     0.1379
  427.5000   -31.1543    12.4726     9.9025     8.0768    69.7722     0.0145     2.4587     0.1372
  428.0000   -30.9920    12.3920     9.9068     8.0793    69.6210     0.0162     2.4613     0.1339
  428.5000   -30.9788    12.3983     9.9105     8.0521    69.6500     0.0164     2.4679     0.1366
  429.0000   -30.9656    12.4889     9.9146     7.9952    69.6732     0.0151     2.4658     0.1384
  429.5000   -30.8033    12.5802     9.9186     7.9674    70.5880     0.0153     2.4607     0.1366
  430.0000   -30.7899    12.5853     9.9226     7.9704    72.3942     0.0155     2.4593     0.1389
  430.5000   -30.7765    12.5041     9.9267     7.9877    73.9033     0.0157     2.4579     0.1377
  431.0000   -30.7630    12.2539     9.9308     8.0199    75.1152     0.0160     2.4565     0.1308
  431.5000   -31.0452    12.0915     9.8666     8.0534    75.1432     0.0176     2.4589     0.1263
  432.0000   -31.0319    12.0136     9.8708     8.1144    74.4091     0.0179     2.4739     0.1302
  432.5000   -31.1711    12.0185     9.8070     8.1466    74.5914     0.0196     2.4658     0.1283
  433.0000   -31.3069    11.9398     9.7447     8.1787    75.2138     0.0242     2.4731     0.1225
  433.5000   -31.5917    11.8628     9.6809     8.1960    74.4940     0.0260     2.4840     0.1193
  434.0000   -31.7275    11.7874     9.5534     8.2133    72.5856     0.0262     2.4878     0.1238
  434.5000   -32.0090    11.7115     9.4908     8.2009    70.6771     0.0204     2.4782     0.1282
