~VERSION INFORMATION
 VERS.                2.0:   CWLS LOG ASCII STANDARD - VERSION 2.0
 WRAP.                 NO:   ONE LINE PER DEPTH STEP
~WELL INFORMATION
#MNEM.UNIT      DATA TYPE    INFORMATION
#----------   ------------   ------------------------------
 STRT.F           42.0000:   START DEPTH
 STOP.F          866.0000:   STOP DEPTH
 STEP.F            0.5000:   STEP LENGTH
 NULL.          -999.2500:   NO VALUE
 COMP. FENIX & SCISSON INC:   COMPANY
 WELL.      NPR-SX #47-11:   WELL
 FLD .             TEAPOT:   FIELD
 LOC .      S11 T38N R78W:   LOCATION
 CNTY.            NATRONA:   COUNTY
 STAT.            WYOMING:   STATE
 CTRY. UNITED STATES OF AMERICA:   COUNTRY
 SRVC.            Unknown:   SERVICE COMPANY
 DATE.        25-FEB-1978:   LOGDATE
 API .       490251058700:   API NUMBER
~CURVE INFORMATION
#MNEM.UNIT       API CODE    CURVE DESCRIPTION
#----------   ------------   ------------------------------
 DEPT.F                  :   
 SPR .MV     07 010 01 00:   SPONTANEOUS POTENTIAL
 SN  .OHMM   07 040 16 00:   SHORT NORMAL 16'
 ILD .OHMM   07 120 46 00:   INDUCTION LOG DEEP
 CORR.G/C3   45 356 01 00:   DENSITY CORRECTION
 RHOB.G/C3   45 350 01 00:   BULK DENSITY
 DPHI.DEC    45 890 12 00:   DENSITY POROSITY SANDSTONE
 CALD.IN     45 280 60 00:   CALIPER FROM DENSITY LOG
 GRD .GAPI   45 310 01 00:   GAMMA RAY FROM DENSITY LOG
~PARAMETER INFORMATION
#MNEM.UNIT          VALUE    DESCRIPTION
#----------   ------------   ------------------------------
 PD  .                 GL:   PERMANENT DATUM
 EPD .F              5202:   ELEVATION PERMANENT DATUM
 LMF .                 KB:   LOG MEASURED FROM
 DAPD.F                 4:   FEET ABOVE PERMANENT DATUM
 DMF .                 KB:   DRILLING MEASURED FROM
 EKB .F              5206:   KELLING BUSHING
 EGL .F              5202:   GROUND LEVEL
 DATE.            2-25-78:   RUN DATE
 RUN .                  1:   RUN NUMBER
 DD  .F               870:   DEPTH DRILLER
 DL  .F               870:   DEPTH LOGGER
 BLI .F               865:   BOTTOM LOG INTERVAL
 TLI .F                47:   TOP LOG INTERVAL
 CS  .IN            8.625:   CASING SIZE
 CBD .F                40:   CASING BOTTOM DRILLER
 CBL .F                47:   CASING BOTTOM LOGGER
 BS  .IN            7.875:   BIT SIZE
 BSD .F               870:   BIT SIZE AT DEPTH
 DFT .                KCL:   DRILLING FLUID TYPE
 DFD .                8.7:   DRILLING FLUID DENSITY
 DFV .                 35:   DRILLING FLUID VISCOSITY
 DFL .                4.8:   DRILLING FLUID LOSS
 MSS .         CIRCULATED:   MUD SAMPLE SOURCE
 RMS .OHMM            1.5:   RESISTIVITY MUD SAMPLE
 MST .F                70:   MUD SAMPLE TEMPERATURE
 RMF .OHMM            .75:   RESISTIVITY MUD FILTRATE SAMPLE
 MFST.F                74:   MUD FILTRATE SAMPLE TEMPERATURE
 RMC .OHMM            1.8:   RESISTIVITY MUD CAKE
 MCST.F                68:   MUD CAKE SAMPLE TEMPERATURE
 MFSS.              PRESS:   MUD FILTRATE SAMPLE SOURCE
 RMB .OHMM            1.5:   RESISTIVITY MUD AT BHT
 BHT .F                70:   BOTTOM HOLE TEMPERATURE
 TCS .HRS               2:   TIME CURCULATED STOPPED
 MRT .F                70:   MAXIMUM RECORDED TEMPERATURE
 LUN .               2958:   LOGGING UNIT NUMBER
 LUL .               CASP:   LOGGING UNIT LOCATION
 CLNT.            A2DTECH:   CLIENT CODE
 ORIG.        2" 5" PRINT:   ORIGIN OF DATA
 UWI .       490251058700:   UNIQUE WELL ID
 DICO. A2D Technologies, Inc.:   DIGITIZING COMPANY
~OTHER INFORMATION
~A   DEPT      SPR         SN        ILD       CORR       RHOB       DPHI         CALD      GRD   
# ...
  366.0000   -22.4014     7.7708     7.3983    -0.0057     2.4493     0.1314     8.6885    94.3646
  366.5000   -22.6153     7.8207     7.4172    -0.0063     2.4454     0.1184     8.6885    93.8820
  367.0000   -22.5574     7.8661     7.4339    -0.0019     2.4465     0.1182     8.6885    96.8222
  367.5000   -22.4848     7.9580     7.5404     0.0024     2.4558     0.1155     8.6886   100.0123
  368.0000   -22.3731     8.0428     7.6055     0.0025     2.4663     0.1184     8.6884   100.6233
  368.5000   -22.2113     8.1285     7.6709     0.0034     2.4635     0.1146     8.6722   103.1662
  369.0000   -22.1693     8.2150     7.7363     0.0054     2.4650     0.1159     8.6537    99.5788
  369.5000   -22.1376     8.3025     7.8019     0.0049     2.4696     0.1174     8.6344   101.1201
  370.0000   -22.1064     8.3910     7.8679     0.0046     2.4670     0.1132     8.6342   103.3984
  370.5000   -22.0745     8.4803     7.9336     0.0081     2.4652     0.1107     8.6416   101.8712
  371.0000   -22.0425     8.5480     7.9999     0.0103     2.4762     0.1103     8.6485   100.4244
  371.5000   -22.0106     8.5480     8.0921     0.0100     2.4758     0.1089     8.6437    99.4585
  372.0000   -21.9787     8.5480     8.0964     0.0138     2.4773     0.1097     8.6387   100.8132
  372.5000   -21.9467     8.5480     8.1156     0.0112     2.4804     0.1193     8.6338   101.8434
  373.0000   -21.9148     8.5480     8.1272     0.0037     2.4745     0.1198     8.6288    98.9374
  373.5000   -21.8829     8.6180     8.1389    -0.0016     2.4634     0.1199     8.6239    99.9851
  374.0000   -21.8509     8.7318     8.1506    -0.0026     2.4621     0.1121     8.6190    96.8502
  374.5000   -21.8186     8.8471     8.1622    -0.0003     2.4605     0.1094     8.6141   100.9111
  375.0000   -21.8128     8.9640     8.3085     0.0027     2.4641     0.1083     8.6091   102.5185
  375.5000   -21.8129     9.0822     8.4267     0.0055     2.4788     0.1093     8.6042   103.0829
  376.0000   -21.8125     9.2011     8.5466     0.0043     2.4835     0.1095     8.5993   100.3168
  376.5000   -21.8063     9.3237     8.6682     0.0029     2.4739     0.1113     8.5943    96.3512
  377.0000   -22.0172     9.4623     8.7915     0.0040     2.4657     0.1126     8.5893   101.0453
  377.5000   -22.2765     9.5692     8.9166     0.0062     2.4719     0.1142     8.5836    99.9955
  378.0000   -22.5409     9.7089     9.0434     0.0039     2.4779     0.1180     8.5778    97.1840
  378.5000   -22.7930     9.8507     9.2046    -0.0017     2.4699     0.1193     8.5720    93.0991
  379.0000   -22.4585    10.0016     9.2063    -0.0014     2.4616     0.1159     8.5662    96.8119
  379.5000   -22.2035    10.0016     9.2900     0.0000     2.4646     0.1178     8.5604    95.8790
  380.0000   -22.3597    10.0016     9.2828     0.0005     2.4677     0.1169     8.5546    95.3538
  380.5000   -22.5640    10.0016     9.2785     0.0004     2.4637     0.1194     8.5496    99.7617
  381.0000   -22.4881    10.0016     9.2712    -0.0041     2.4519     0.1240     8.5515   101.4021
  381.5000   -22.3301    10.0016     9.2655    -0.0087     2.4396     0.1285     8.5537   103.3000
  382.0000   -22.1712    10.0016     9.2599    -0.0102     2.4408     0.1341     8.5558   102.2370
  382.5000   -22.0201    10.0016     9.2542    -0.0086     2.4442     0.1317     8.5579   100.5161
  383.0000   -22.0287    10.0016     9.2486    -0.0105     2.4426     0.1296     8.5599    99.0037
  383.5000   -22.0535    10.0016     9.2429    -0.0091     2.4401     0.1323     8.5620    99.5504
  384.0000   -22.0790    10.0016     9.2372    -0.0053     2.4383     0.1272     8.5641    98.7084
  384.5000   -22.1037    10.0016     9.2316    -0.0015     2.4408     0.1200     8.5662    98.5503
  385.0000   -22.1285    10.0006     9.2259    -0.0009     2.4511     0.1257     8.5683    99.2444
  385.5000   -22.1532    10.0034     9.2203    -0.0034     2.4538     0.1227     8.5704   100.6568
  386.0000   -22.1779    10.0086     9.2145    -0.0012     2.4532     0.1171     8.5725    98.6293
  386.5000   -22.2036     9.7810     9.2091     0.0023     2.4596     0.1161     8.5746    97.9023
  387.0000   -22.2108     9.5791     9.2027     0.0008     2.4660     0.1216     8.5767   100.5358
  387.5000   -22.2114     9.7158     9.1688    -0.0003     2.4617     0.1196     8.5788   102.3479
  388.0000   -22.2120     9.6968     9.1357     0.0037     2.4592     0.1157     8.5809   107.2322
  388.5000   -22.2931     9.6779     9.1030     0.0076     2.4656     0.1118     8.5830   107.0670
  389.0000   -22.4803     9.6590     9.0702     0.0114     2.4717     0.1117     8.5851   108.2622
  389.5000   -22.6622     9.6402     9.0376     0.0135     2.4774     0.1126     8.5873   110.2212
  390.0000   -22.7377     9.6214     9.0051     0.0108     2.4745     0.1163     8.5890   110.0904
  390.5000   -22.3694     9.6026     8.9728     0.0056     2.4679     0.1229     8.5807   108.8045
  391.0000   -22.0410     9.5838     8.9405     0.0052     2.4614     0.1235     8.5722   108.2797
  391.5000   -21.8107     9.5651     8.9084     0.0049     2.4549     0.1191     8.5638   106.6504
  392.0000   -21.8160     9.5464     8.8764     0.0047     2.4553     0.1185     8.5553   107.6056
  392.5000   -21.8128     9.5278     8.8445     0.0047     2.4616     0.1185     8.5468   104.1754
  393.0000   -21.8125     9.5092     8.8127     0.0067     2.4618     0.1147     8.5383   105.8606
  393.5000   -21.8127     9.4907     8.7810     0.0127     2.4644     0.1128     8.5300   107.7138
  394.0000   -21.8127     9.4721     8.7494     0.0153     2.4715     0.1201     8.5297   109.5874
  394.5000   -21.8127     9.4537     8.7180     0.0124     2.4684     0.1272     8.5297   103.0339
  395.0000   -21.8127     9.4352     8.6866     0.0096     2.4529     0.1292     8.5298   104.6721
  395.5000   -21.8127     9.4169     8.6554     0.0106     2.4512     0.1304     8.5298   104.3830
  396.0000   -21.8127     9.3984     8.6243     0.0127     2.4563     0.1314     8.5298   103.5887
  396.5000   -21.8128     9.3801     8.5933     0.0199     2.4612     0.1292     8.5298   106.4287
  397.0000   -21.8130     9.3118     8.5624     0.0272     2.4594     0.1292     8.5298   111.0930
  397.5000   -21.8121     9.2267     8.4959     0.0310     2.4471     0.1352     8.5276   116.2767
  398.0000   -21.7669     9.1423     8.3988     0.0317     2.4445     0.1420     8.5112   113.8227
  398.5000   -21.7171     9.0588     8.3030     0.0323     2.4382     0.1355     8.4947   115.1211
  399.0000   -21.6660     8.9724     8.2081     0.0361     2.4313     0.1276     8.4783   113.5481
  399.5000   -21.6178     8.7762     8.0915     0.0561     2.4295     0.1318     8.4618   114.9698
  400.0000   -21.8673     8.5829     7.9545     0.0678     2.4381     0.1266     8.4507   116.6738
  400.5000   -22.1535     8.3942     7.8197     0.0663     2.4408     0.1226     8.4629   117.9002
  401.0000   -22.4095     8.2098     7.6873     0.0706     2.4415     0.1187     8.4746   115.7374
  401.5000   -22.6192     8.0295     7.5571     0.0793     2.4523     0.1220     8.4861   113.4681
  402.0000   -22.2675     7.8531     7.4290     0.0739     2.4697     0.1261     8.4976   116.5997
  402.5000   -21.8478     7.6806     7.3057     0.0627     2.4529     0.1179     8.5091   111.9579
  403.0000   -22.0231     7.5110     7.3057     0.0622     2.4593     0.1120     8.5206   112.6209
  403.5000   -22.4928     7.6137     7.3057     0.0636     2.4743     0.1083     8.5321   110.9254
  404.0000   -22.5946     7.7887     7.3057     0.0641     2.4786     0.1094     8.5436   111.2851
  404.5000   -22.1657     7.9678     7.3735     0.0649     2.4827     0.1057     8.5551   103.9705
  405.0000   -21.7041     8.1509     7.5110     0.0669     2.4806     0.0992     8.5666   104.0614
  405.5000   -21.2349     8.3916     7.6972     0.0683     2.4900     0.1016     8.5782   101.3900
  406.0000   -21.2932     8.3355     7.9056     0.0570     2.5021     0.1079     8.5897    98.6499
