~VERSION INFORMATION
 VERS.                2.0:   CWLS LOG ASCII STANDARD - VERSION 2.0
 WRAP.                 NO:   ONE LINE PER DEPTH STEP
~WELL INFORMATION
#MNEM.UNIT      DATA TYPE    INFORMATION
#----------   ------------   ------------------------------
 STRT.F           28.0000:   START DEPTH
 STOP.F          630.0000:   STOP DEPTH
 STEP.F            0.5000:   STEP LENGTH
 NULL.          -999.2500:   NO VALUE
 COMP. FENIX & SCISSON INC:   COMPANY
 WELL. NAVAL PETROLEUM RESERVE 3 SX-1 #81-15:   WELL
 FLD .             TEAPOT:   FIELD
 LOC .      S15 T38N R78W:   LOCATION
 CNTY.            NATRONA:   COUNTY
 STAT.            WYOMING:   STATE
 CTRY. UNITED STATES OF AMERICA:   COUNTRY
 SRVC.           BIRDWELL:   SERVICE COMPANY
 DATE.        03-JUN-1978:   LOGDATE
 API .       490251063900:   API NUMBER
~CURVE INFORMATION
#MNEM.UNIT       API CODE    CURVE DESCRIPTION
#----------   ------------   ------------------------------
 DEPT.F                  :   
 SPR .MV     05 010 01 00:   SPONTANEOUS POTENTIAL FROM RES.
 SN  .OHMM   05 040 16 00:   SHORT NORMAL 16"
 ILD .OHMM   05 120 46 00:   INDUCTION LOG DEEP
 CALD.IN     45 280 60 00:   CALIPER FROM DENSITY LOG
 GRD .GAPI   45 310 01 00:   GAMMA RAY FROM DENSITY LOG
 CORR.G/C3   45 356 01 00:   DENSITY CORRECTION
 DPHI.DEC    45 890 12 00:   DENSITY POROSITY SANDSTONE
 DEN .G/C3   45 350 01 00:   COMPENSATED BULK DENSITY
~PARAMETER INFORMATION
#MNEM.UNIT          VALUE    DESCRIPTION
#----------   ------------   ------------------------------
 PD  .                 GL:   PERMANENT DATUM
 EPD .F              5263:   ELEVATION PERMANENT DATUM
 LMF .                 KB:   LOG MEASURED FROM
 DAPD.F                 4:   FEET ABOVE PERMANENT DATUM
 DMF .                 KB:   DRILLING MEASURED FROM
 EKB .F              5267:   KELLING BUSHING
 EGL .F              5263:   GROUND LEVEL
 DATE.        03-JUN-1978:   RUN DATE
 RUN .                  1:   RUN NUMBER
 DD  .F               632:   DEPTH DRILLER
 DL  .F               636:   DEPTH LOGGER
 BLI .F               630:   BOTTOM LOG INTERVAL
 TLI .F                40:   TOP LOG INTERVAL
 CS  .IN            8.625:   CASING SIZE
 CBD .F                40:   CASING BOTTOM DRILLER
 CBL .F                40:   CASING BOTTOM LOGGER
 BS  .IN            7.875:   BIT SIZE
 BSD .F               632:   BIT SIZE AT DEPTH
 DFT .                KCL:   DRILLING FLUID TYPE
 DFD .                8.7:   DRILLING FLUID DENSITY
 DFV .                 31:   DRILLING FLUID VISCOSITY
 DFPH.                 10:   DRILLING FLUID PH
 DFL .                9.2:   DRILLING FLUID LOSS
 MSS .           FLOWLINE:   MUD SAMPLE SOURCE
 RMS .OHMM            .26:   RESISTIVITY MUD SAMPLE
 MST .F                66:   MUD SAMPLE TEMPERATURE
 RMF .OHMM            .24:   RESISTIVITY MUD FILTRATE SAMPLE
 MFST.F                74:   MUD FILTRATE SAMPLE TEMPERATURE
 RMC .OHMM            .34:   RESISTIVITY MUD CAKE
 MCST.F                75:   MUD CAKE SAMPLE TEMPERATURE
 MFSS.               MEAS:   MUD FILTRATE SAMPLE SOURCE
 MCSS.               MEAS:   MUD CAKE SAMPLE SOURCE
 RMB .OHMM            .23:   RESISTIVITY MUD AT BHT
 BHT .F                74:   BOTTOM HOLE TEMPERATURE
 TCS .HRS            0100:   TIME CURCULATED STOPPED
 MRT .F                74:   MAXIMUM RECORDED TEMPERATURE
 LUN .               2958:   LOGGING UNIT NUMBER
 LUL .               CASP:   LOGGING UNIT LOCATION
 ENGI.             MILLER:   RECORDING ENGINEER
 WITN.           MCGINLEY:   WITNESSED BY
 CLNT.            A2DTECH:   CLIENT CODE
 ORIG.           5" PRINT:   ORIGIN OF DATA
 UWI .       490251063900:   UNIQUE WELL ID
 DICO. A2D Technologies, Inc.:   DIGITIZING COMPANY
~OTHER INFORMATION
~A   DEPT      SPR         SN        ILD       CALD         GRD      CORR       DPHI        DEN   
# ...
  473.5000   -16.7992    12.7195    17.3700     8.5945    53.4799     0.0362     0.1848     2.3668
  474.0000   -16.8049    12.4538    17.2445     8.5939    54.0754     0.0375     0.1849     2.3691
  474.5000   -16.8108    12.2785    17.1198     8.5924    54.9763     0.0374     0.1849     2.3720
  475.0000   -16.9679    12.1897    16.9960     8.5908    55.3700     0.0372     0.1864     2.3682
  475.5000   -16.9736    12.1005    17.1085     8.6045    55.2527     0.0385     0.1873     2.3680
  476.0000   -16.9794    12.1816    17.1014     8.6030    55.2375     0.0414     0.1829     2.3749
  476.5000   -16.9851    12.1766    17.0958     8.6167    55.3751     0.0412     0.1761     2.3809
  477.0000   -17.1411    12.1725    17.0901     8.6303    57.1920     0.0425     0.1759     2.3792
  477.5000   -17.2983    12.0845    17.0845     8.6439    58.8563     0.0423     0.1826     2.3714
  478.0000   -17.3040    12.0804    17.0788     8.6424    58.3831     0.0421     0.1872     2.3644
  478.5000   -17.4598    12.0755    17.0718     8.6258    57.7554     0.0419     0.1891     2.3616
  479.0000   -17.4656    12.0721    17.0661     8.6242    58.4274     0.0418     0.1879     2.3623
  479.5000   -17.3211    12.0675    16.9427     8.6076    60.5496     0.0416     0.1855     2.3645
  480.0000   -17.3283    12.0632    16.8203     8.5909    59.0841     0.0414     0.1867     2.3682
  480.5000   -17.3340    11.9763    16.5834     8.5880    55.8629     0.0412     0.1901     2.3613
  481.0000   -17.3397    11.9722    16.4505     8.5727    51.7237     0.0410     0.1850     2.3650
  481.5000   -17.4956    11.9680    16.2304     8.5712    50.9452     0.0424     0.1747     2.3771
  482.0000   -17.6517    11.9634    16.1130     8.5698    51.3881     0.0422     0.1780     2.3816
  482.5000   -17.8088    11.8769    15.9965     8.5682    53.3577     0.0420     0.1796     2.3831
  483.0000   -17.9646    11.7910    15.8809     8.5512    54.5639     0.0418     0.1744     2.3861
  483.5000   -18.1205    11.7871    15.6572     8.5497    55.0068     0.0401     0.1720     2.3890
  484.0000   -18.1262    11.7009    15.4355     8.5331    54.9917     0.0400     0.1709     2.3890
  484.5000   -18.2823    11.6163    15.2182     8.5012    55.5873     0.0413     0.1733     2.3866
  485.0000   -18.2892    11.5324    15.0039     8.4846    59.8470     0.0411     0.1785     2.3827
  485.5000   -18.4451    11.5285    14.8955     8.4679    60.4425     0.0409     0.1770     2.3850
  486.0000   -18.4508    11.4452    14.6857     8.4513    58.7480     0.0438     0.1670     2.3948
  486.5000   -18.6067    11.3623    14.5783     8.4498    55.2214     0.0436     0.1640     2.4031
  487.0000   -18.6126    11.3577    14.5735     8.4483    55.0536     0.0434     0.1594     2.4098
  487.5000   -18.6196    11.2756    14.4682     8.4316    55.6492     0.0448     0.1547     2.4181
  488.0000   -18.6253    11.2719    14.4634     8.4452    55.6340     0.0431     0.1529     2.4219
  488.5000   -18.6310    11.2681    14.3588     8.4454    55.4662     0.0383     0.1575     2.4149
  489.0000   -18.6367    11.2644    14.3539     8.4462    54.8404     0.0366     0.1599     2.4088
  489.5000   -18.6426    11.2597    14.3482     8.4470    54.2146     0.0364     0.1627     2.4049
  490.0000   -18.6496    11.2560    14.3434     8.4479    52.6728     0.0363     0.1628     2.4056
  490.5000   -18.6553    11.2523    14.2397     8.4487    50.5202     0.0361     0.1615     2.4063
  491.0000   -18.6610    11.2485    14.1368     8.4495    51.4211     0.0359     0.1603     2.4094
  491.5000   -18.6668    11.2448    14.1320     8.4502    52.3220     0.0372     0.1579     2.4123
  492.0000   -18.6730    11.2410    14.0288     8.4332    53.3737     0.0371     0.1613     2.4092
  492.5000   -18.6796    11.2364    13.9274     8.4165    54.2746     0.0387     0.1539     2.4209
  493.0000   -18.6854    11.3117    13.8267     8.3999    54.8702     0.0413     0.1446     2.4331
  493.5000   -18.6911    11.3070    13.8221     8.3832    54.8550     0.0410     0.1444     2.4371
  494.0000   -18.8469    11.3033    13.7221     8.3666    52.9315     0.0424     0.1447     2.4362
  494.5000   -18.8529    11.3781    13.6218     8.3499    49.9374     0.0422     0.1451     2.4346
  495.0000   -18.8598    11.3734    13.6173     8.3484    49.9223     0.0420     0.1460     2.4330
  495.5000   -18.8655    11.3696    13.6128     8.3469    51.7392     0.0433     0.1473     2.4307
  496.0000   -18.8713    11.4457    13.6083     8.3454    53.7088     0.0447     0.1476     2.4322
  496.5000   -18.7267    11.4410    13.6984     8.3591    55.9838     0.0399     0.1425     2.4366
  497.0000   -18.7327    11.4372    13.6927     8.3575    58.1060     0.0337     0.1404     2.4442
  497.5000   -18.7397    11.4333    13.6882     8.3560    59.0069     0.0351     0.1459     2.4388
  498.0000   -18.7454    11.4287    13.6837     8.3848    57.1598     0.0394     0.1435     2.4357
  498.5000   -18.7511    11.5053    13.5847     8.4136    57.4500     0.0408     0.1389     2.4478
  499.0000   -18.7569    11.5005    13.5803     8.4273    58.3509     0.0406     0.1460     2.4416
  499.5000   -18.7628    11.4967    13.5756     8.4409    59.4044     0.0404     0.1487     2.4355
  500.0000   -18.7047    11.4929    13.5813     8.4545    59.3893     0.0423     0.1477     2.4354
  500.5000   -18.4772    11.4873    13.7068     8.4458    58.6196     0.0454     0.1466     2.4315
  501.0000   -18.3340    11.4817    13.8438     8.4358    57.8505     0.0486     0.1427     2.4307
  501.5000   -18.3410    11.4756    13.9346     8.4498    57.0811     0.0517     0.1428     2.4381
  502.0000   -18.1978    11.3912    14.0260     8.4633    56.0063     0.0514     0.1437     2.4342
  502.5000   -18.2065    11.3859    14.0192     8.4768    53.7102     0.0512     0.1438     2.4341
  503.0000   -18.2135    11.3797    13.9171     8.4903    51.8721     0.0464     0.1380     2.4454
  503.5000   -18.0703    11.3745    13.8156     8.5038    51.7134     0.0431     0.1377     2.4477
  504.0000   -18.0790    11.3694    13.6191     8.5170    52.3180     0.0384     0.1441     2.4384
  504.5000   -18.2362    11.3630    13.4266     8.5153    53.8387     0.0349     0.1475     2.4292
  505.0000   -18.2432    11.3578    13.3287     8.4985    56.1227     0.0318     0.1512     2.4245
  505.5000   -18.2518    11.3527    13.2304     8.4968    57.1083     0.0331     0.1541     2.4206
  506.0000   -18.2588    11.4265    13.1340     8.4800    56.7206     0.0374     0.1567     2.4152
  506.5000   -18.2658    11.4200    13.1290     8.4783    56.5619     0.0478     0.1540     2.4190
  507.0000   -18.2745    11.4955    13.1226     8.4919    56.6321     0.0567     0.1428     2.4296
  507.5000   -18.1296    11.5688    13.1176     8.5054    57.4650     0.0550     0.1370     2.4499
  508.0000   -17.9880    11.6439    13.1125     8.5488    57.9170     0.0532     0.1395     2.4376
  508.5000   -17.8467    11.7196    13.2902     8.5775    57.4529     0.0530     0.1471     2.4307
  509.0000   -17.7018    11.8763    13.5627     8.5914    57.2942     0.0528     0.1502     2.4275
  509.5000   -17.5586    12.1188    14.2308     8.5893    58.0515     0.0526     0.1556     2.4153
  510.0000   -17.2472    12.3676    15.4795     8.5877    61.8625     0.0539     0.1624     2.4030
  510.5000   -16.5250    12.8865    17.3809     8.6016    62.1618     0.0536     0.1745     2.3961
  511.0000   -15.9314    13.5315    19.5448     8.5996    61.5452     0.0532     0.1885     2.3633
  511.5000   -15.1797    14.3818    22.1309     8.5979    60.7757     0.0532     0.2077     2.3298
  512.0000   -14.4456    15.1942    25.2309     8.5963    59.8529     0.0530     0.2187     2.3077
  512.5000   -14.3006    15.8317    27.4066     8.5946    59.0835     0.0527     0.2187     2.3073
  513.0000   -14.1592    16.4940    27.9711     8.5930    58.4667     0.0525     0.2178     2.3082
  513.5000   -14.0160    16.9496    27.7647     8.5913    57.8500     0.0538     0.2175     2.3081
