~VERSION INFORMATION
 VERS.                2.0:   CWLS LOG ASCII STANDARD - VERSION 2.0
 WRAP.                 NO:   ONE LINE PER DEPTH STEP
~WELL INFORMATION
#MNEM.UNIT      DATA TYPE    INFORMATION
#----------   ------------   ------------------------------
 STRT.F           36.0000:   START DEPTH
 STOP.F          686.0000:   STOP DEPTH
 STEP.F            0.5000:   STEP LENGTH
 NULL.          -999.2500:   NO VALUE
 COMP.    FENIX & SCISSON:   COMPANY
 WELL.        NPR #15-S-2:   WELL
 FLD .             TEAPOT:   FIELD
 LOC .       S2 T38N R78W:   LOCATION
 CNTY.            NATRONA:   COUNTY
 STAT.            WYOMING:   STATE
 CTRY. UNITED STATES OF AMERICA:   COUNTRY
 SRVC.       Schlumberger:   SERVICE COMPANY
 DATE.        16-MAR-1977:   LOGDATE
 API .       490251029900:   API NUMBER
~CURVE INFORMATION
#MNEM.UNIT       API CODE    CURVE DESCRIPTION
#----------   ------------   ------------------------------
 DEPT.F                  :   
 SPR .MV     07 010 01 00:   SPONTANEOUS POTENTIAL FROM RES.
 ILD .OHMM   07 120 46 00:   INDUCTION LOG DEEP
 ILM .OHMM   07 120 44 00:   INDUCTION LOG MEDIUM
 LL8 .OHMM   07 220 08 00:   LATEROLOG-8 RES.
 GRD .GAPI   45 310 01 00:   GAMMA RAY FROM DENSITY LOG
 CALD.IN     45 280 60 00:   CALIPER FROM DENSITY LOG
 CORR.G/C3   45 356 01 00:   DENSITY CORRECTION
 RHOB.G/C3   45 350 01 00:   BULK DENSITY
 DPHI.DEC    45 890 12 00:   DENSITY POROSITY SANDSTONE
~PARAMETER INFORMATION
#MNEM.UNIT          VALUE    DESCRIPTION
#----------   ------------   ------------------------------
 PD  .                 GL:   PERMANENT DATUM
 EPD .F              5129:   ELEVATION PERMANENT DATUM
 LMF .                 KB:   LOG MEASURED FROM
 DAPD.F                 4:   FEET ABOVE PERMANENT DATUM
 DMF .                 KB:   DRILLING MEASURED FROM
 EKB .F              5133:   KELLING BUSHING
 EGL .F              5129:   GROUND LEVEL
 DATE.        15-MAR-1977:   RUN DATE
 RUN .                  1:   RUN NUMBER
 DD  .F               680:   DEPTH DRILLER
 DL  .F               680:   DEPTH LOGGER
 BLI .F               683:   BOTTOM LOG INTERVAL
 TLI .F                48:   TOP LOG INTERVAL
 CS  .IN            8.625:   CASING SIZE
 CBD .F                40:   CASING BOTTOM DRILLER
 CBL .F                49:   CASING BOTTOM LOGGER
 BS  .IN            7.875:   BIT SIZE
 BSD .F               680:   BIT SIZE AT DEPTH
 DFT .            KCL MUD:   DRILLING FLUID TYPE
 DFD .                8.8:   DRILLING FLUID DENSITY
 DFV .                 33:   DRILLING FLUID VISCOSITY
 DFPH.                9.6:   DRILLING FLUID PH
 DFL .                9.0:   DRILLING FLUID LOSS
 MSS .                PIT:   MUD SAMPLE SOURCE
 RMS .OHMM           0.22:   RESISTIVITY MUD SAMPLE
 MST .F                50:   MUD SAMPLE TEMPERATURE
 RMF .OHMM           0.21:   RESISTIVITY MUD FILTRATE SAMPLE
 MFST.F                50:   MUD FILTRATE SAMPLE TEMPERATURE
 MFSS.               MEAS:   MUD FILTRATE SAMPLE SOURCE
 TCS .HRS            1800:   TIME CURCULATED STOPPED
 TLAB.HRS            2130:   TIME LOGGER AT BOTTOM
 LUN .               7711:   LOGGING UNIT NUMBER
 LUL .               CSPR:   LOGGING UNIT LOCATION
 ENGI.             TAYLER:   RECORDING ENGINEER
 CLNT.            A2DTECH:   CLIENT CODE
 ORIG.           5" PRINT:   ORIGIN OF DATA
 UWI .       490251029900:   UNIQUE WELL ID
 DICO. A2D Technologies, Inc.:   DIGITIZING COMPANY
~OTHER INFORMATION
~A   DEPT      SPR        ILD        ILM        LL8         GRD      CALD       CORR       RHOB       DPHI   
# ...
  218.5000   -65.6605     9.4751     9.8083    10.5242   120.8476     8.3507     0.0186     2.4965     0.0935
  219.0000   -65.6441     9.4148     9.6876    10.3860   122.0601     8.3525     0.0179     2.5003     0.0905
  219.5000   -65.6278     9.4202     9.6271    10.2494   123.5651     8.3394     0.0195     2.5034     0.0880
  220.0000   -65.6114     9.4919     9.6340    10.1854   123.7327     8.3416     0.0203     2.5147     0.0840
  220.5000   -65.5950     9.5631     9.6407    10.1219   121.9688     8.3434     0.0151     2.5163     0.0802
  221.0000   -65.8776     9.7016     9.7148    10.1291   119.0161     8.3303     0.0114     2.5118     0.0816
  221.5000   -66.0105     9.7743     9.7215    10.1362   116.9549     8.3320     0.0063     2.5027     0.0876
  222.0000   -66.1433     9.9158     9.7283    10.2141   116.0825     8.3190     0.0033     2.4990     0.0897
  222.5000   -66.2761     9.9902     9.5994    10.2925   115.7996     8.3207     0.0064     2.4933     0.0920
  223.0000   -66.4089    10.1349     9.5399    10.3716   118.6466     8.3225     0.0103     2.4903     0.0956
  223.5000   -66.3924    10.2108     9.4163    10.4513   121.6375     8.3242     0.0165     2.4972     0.0947
  224.0000   -66.3760    10.2873     9.3559    10.6051   124.3311     8.3107     0.0187     2.5055     0.0859
  224.5000   -66.3596    10.2930     9.4294    10.9881   126.1333     8.3129     0.0120     2.5093     0.0835
  225.0000   -66.3433    10.2987     9.4359    11.3849   126.0006     8.3291     0.0030     2.5139     0.0865
  225.5000   -66.3268    10.2319     9.2475    11.5525   124.2414     8.3160     0.0084     2.5155     0.0816
  226.0000   -66.3105    10.2390     8.9999    11.2433   121.1401     8.3182     0.0115     2.5125     0.0804
  226.5000   -66.2940    10.1726     8.7590    11.2511   120.5648     8.3200     0.0093     2.5036     0.0843
  227.0000   -66.1284    10.0385     8.5246    11.4964   120.5839     8.3217     0.0048     2.4976     0.0899
  227.5000   -65.9627     9.9074     8.4112    11.5187   118.9685     8.3235     0.0124     2.5007     0.0905
  228.0000   -65.7850     9.7754     8.3587    11.2742   117.5017     8.3252     0.0132     2.4978     0.0887
  228.5000   -65.3328     9.5813     8.4244    11.1262   117.6694     8.3270     0.0096     2.4888     0.0972
  229.0000   -65.3164     9.4536     8.6681    10.9805   119.7687     8.3288     0.0066     2.4949     0.0956
  229.5000   -65.4497     9.2659     8.9189    10.9116   120.8279     8.3305     0.0044     2.4950     0.0934
  230.0000   -65.5826     9.1437     9.1133    10.4732   120.6984     8.3323     0.0030     2.4920     0.0961
  230.5000   -65.7155     9.1487     9.1833    10.2622   120.1231     8.3341     0.0039     2.4945     0.0936
  231.0000   -65.8484     9.1538     9.1244    10.2712   122.8913     8.3359     0.0070     2.4968     0.0927
  231.5000   -65.9813     9.1588     9.0690    10.3501   126.4918     8.3377     0.0130     2.4998     0.0912
  232.0000   -66.1413     9.0995     8.9499    10.3573   129.5462     8.3394     0.0169     2.5028     0.0884
  232.5000   -66.2471     9.0418     8.8925    10.1504   132.0912     8.3412     0.0094     2.4984     0.0893
  233.0000   -66.3800     8.9237     8.7773     9.8788   133.2990     8.3430     0.0065     2.4902     0.0956
  233.5000   -66.5088     8.8671     8.6620     9.6144   133.6153     8.3449     0.0058     2.4887     0.0973
  234.0000   -66.4924     8.8720     8.6680     9.5544   130.0682     8.3466     0.0066     2.4926     0.0952
  234.5000   -66.4761     8.9385     8.6124     9.4289   125.1839     8.3487     0.0105     2.4972     0.0943
  235.0000   -66.3104     8.9434     8.6801     9.3684   124.6039     8.3505     0.0128     2.4980     0.0939
  235.5000   -66.1448     9.0730     8.8693     9.5080   125.2221     8.3522     0.0129     2.4980     0.0927
  236.0000   -65.8299     9.2044     8.9998     9.5810   125.9841     8.3540     0.0160     2.4981     0.0912
  236.5000   -65.8136     9.2734     9.1323     9.6546   124.9630     8.3558     0.0130     2.4989     0.0923
  237.0000   -65.6480     9.3429     9.2024    10.0731   122.0104     8.3575     0.0078     2.4997     0.0926
  237.5000   -65.7849     9.4782     9.2088    10.6570   118.4633     8.3593     0.0102     2.5066     0.0858
  238.0000   -65.9178     9.5492     9.2152    10.6644   118.7796     8.3610     0.0079     2.4976     0.0832
  238.5000   -66.0507     9.6875     9.2216    10.6719   119.2444     8.3475     0.0127     2.4992     0.0931
  239.0000   -66.3288     9.8961     9.2280    10.7538   119.4121     8.3497     0.0051     2.4862     0.0940
  239.5000   -66.4658    10.1091     9.2344    10.8364   119.4312     8.3515     0.0007     2.4819     0.1005
  240.0000   -67.0423    10.2555     9.2409    10.8440   119.8960     8.3380     0.0015     2.4813     0.1011
  240.5000   -67.0260    10.4040     9.2473    10.8515   119.6032     8.3253     0.0016     2.4784     0.1023
  241.0000   -66.7111    10.4098     9.2537    10.9349   117.9734     8.3271    -0.0006     2.4755     0.1040
  241.5000   -66.5455    10.4155     9.2602    11.0958   116.6628     8.3139    -0.0035     2.4680     0.1088
  242.0000   -66.2306    10.3480     9.2024    11.4169   116.5548     8.3158     0.0048     2.4756     0.1064
  242.5000   -66.2142    10.2129     9.0815    11.4248   117.0244     8.3175     0.0124     2.4862     0.0997
  243.0000   -66.1979    10.1481     8.9623    11.3515   116.8949     8.3193     0.0140     2.4900     0.0967
  243.5000   -66.3349    10.0836     8.7818    11.6010   116.1710     8.3210     0.0156     2.4909     0.0949
  244.0000   -66.4637     9.9506     8.5467    11.5286   116.1901     8.3228     0.0172     2.4917     0.0948
  244.5000   -66.4473     9.8195     8.4934    11.1403   116.6549     8.3246     0.0097     2.4879     0.0948
  245.0000   -66.4309     9.6900     8.3818    10.8441   117.1198     8.3115     0.0098     2.4858     0.0987
  245.5000   -66.4146     9.5622     8.3295    10.6256   118.3276     8.3137     0.0136     2.4889     0.0969
  246.0000   -66.3982     9.4360     8.3949    10.8592   119.5353     8.3303     0.0091     2.4829     0.0990
  246.5000   -66.3818     9.3761     8.5185    11.1733   118.0685     8.3469     0.0078     2.4762     0.1052
  247.0000   -66.5188     9.3166     8.7649    10.9502   117.3399     8.3635     0.0078     2.4823     0.1000
  247.5000   -66.4984     9.2575     9.0185    10.4370   118.5525     8.3801     0.0064     2.4854     0.0973
  248.0000   -66.3327     9.2627     9.2151    10.3701   120.9490     8.3967     0.0118     2.4885     0.0976
  248.5000   -65.8686     9.3321     9.4160    10.3791   122.6025     8.3984     0.0133     2.4938     0.0957
  249.0000   -65.7030     9.4021     9.3556    10.3863   123.2159     8.3849     0.0104     2.4923     0.0948
  249.5000   -65.3881     9.4725     9.3637    10.3936   121.8977     8.3871     0.0097     2.4992     0.0897
  250.0000   -65.1981     9.6097     9.6341    10.6937   117.3105     8.3405     0.0114     2.5067     0.0855
  250.5000   -65.0269    10.3016     9.9162    11.0051   116.3834     8.3201     0.0120     2.5108     0.0833
  251.0000   -64.8556    10.5941    10.4948    11.3299   115.7206     8.3030     0.0198     2.5129     0.0812
  251.5000   -64.6844    10.8949    11.1070    11.6490   116.4860     8.3200     0.0123     2.5062     0.0872
  252.0000   -64.5131    11.1271    11.4195    11.9029   117.2513     8.3065     0.0117     2.4950     0.0946
  252.5000   -64.4015    11.1309    11.2625    12.0893   117.5756     8.2935     0.0102     2.4921     0.0940
  253.0000   -64.0882    11.1347    11.2005    12.3413   115.0671     8.2957     0.0058     2.4891     0.0967
  253.5000   -63.7750    11.1385    11.2876    12.5392   113.3064     8.3123     0.0051     2.4854     0.0988
  254.0000   -63.6110    11.2206    11.2962    12.7090   112.4371     8.3141     0.0067     2.4848     0.0991
  254.5000   -63.5962    11.4633    11.3838    12.7177   111.1222     8.3159     0.0068     2.4901     0.0966
