~VERSION INFORMATION
 VERS.                2.0:   CWLS LOG ASCII STANDARD - VERSION 2.0
 WRAP.                 NO:   ONE LINE PER DEPTH STEP
~WELL INFORMATION
#MNEM.UNIT      DATA TYPE    INFORMATION
#----------   ------------   ------------------------------
 STRT.F           32.5000:   START DEPTH
 STOP.F          654.0000:   STOP DEPTH
 STEP.F            0.5000:   STEP LENGTH
 NULL.          -999.2500:   NO VALUE
 COMP. FENIX & SCISSON INC:   COMPANY
 WELL.          NPR #13-2:   WELL
 FLD .             TEAPOT:   FIELD
 LOC .       S2 T38N R78W:   LOCATION
 CNTY.            NATRONA:   COUNTY
 STAT.            WYOMING:   STATE
 CTRY. UNITED STATES OF AMERICA:   COUNTRY
 SRVC.           BIRDWELL:   SERVICE COMPANY
 DATE.        16-JAN-1978:   LOGDATE
 API .       490251055100:   API NUMBER
~CURVE INFORMATION
#MNEM.UNIT       API CODE    CURVE DESCRIPTION
#----------   ------------   ------------------------------
 DEPT.F                  :   
 ILD .OHMM   05 120 46 00:   INDUCTION LOG DEEP
 SN  .OHMM   05 040 16 00:   SHORT NORMAL 16"
 SPR .MV     05 010 01 00:   SPONTANEOUS POTENTIAL FROM RES.
 CALD.IN     45 280 60 00:   CALIPER FROM DENSITY LOG
 CORR.G/C3   45 356 01 00:   DENSITY CORRECTION
 DPHI.DEC    45 890 12 00:   DENSITY POROSITY SANDSTONE
 GRD .GAPI   45 310 01 00:   GAMMA RAY FROM DENSITY LOG
 RHOB.G/C3   45 350 01 00:   BULK DENSITY
~PARAMETER INFORMATION
#MNEM.UNIT          VALUE    DESCRIPTION
#----------   ------------   ------------------------------
 PD  .                 GL:   PERMANENT DATUM
 EPD .F              5091:   ELEVATION PERMANENT DATUM
 LMF .                 KB:   LOG MEASURED FROM
 DAPD.F                 4:   FEET ABOVE PERMANENT DATUM
 DMF .                 KB:   DRILLING MEASURED FROM
 EKB .F              5095:   KELLING BUSHING
 EGL .F              5091:   GROUND LEVEL
 DATE.        16-JAN-1978:   RUN DATE
 RUN .                  1:   RUN NUMBER
 DD  .F               652:   DEPTH DRILLER
 DL  .F               654:   DEPTH LOGGER
 BLI .F               649:   BOTTOM LOG INTERVAL
 TLI .F                30:   TOP LOG INTERVAL
 CS  .IN            8.625:   CASING SIZE
 CBD .F                20:   CASING BOTTOM DRILLER
 CBL .F                34:   CASING BOTTOM LOGGER
 BS  .IN            7.875:   BIT SIZE
 BSD .F               652:   BIT SIZE AT DEPTH
 DFT .                KCL:   DRILLING FLUID TYPE
 DFD .                8.7:   DRILLING FLUID DENSITY
 DFV .                 34:   DRILLING FLUID VISCOSITY
 DFPH.                 10:   DRILLING FLUID PH
 MSS .           FLOWLINE:   MUD SAMPLE SOURCE
 RMS .OHMM            0.3:   RESISTIVITY MUD SAMPLE
 MST .F                62:   MUD SAMPLE TEMPERATURE
 RMF .OHMM           0.26:   RESISTIVITY MUD FILTRATE SAMPLE
 MFST.F                66:   MUD FILTRATE SAMPLE TEMPERATURE
 RMC .OHMM           0.48:   RESISTIVITY MUD CAKE
 MCST.F                66:   MUD CAKE SAMPLE TEMPERATURE
 MFSS.               MEAS:   MUD FILTRATE SAMPLE SOURCE
 MCSS.               MEAS:   MUD CAKE SAMPLE SOURCE
 RMB .OHMM           0.26:   RESISTIVITY MUD AT BHT
 BHT .F                72:   BOTTOM HOLE TEMPERATURE
 TCS .HRS               3:   TIME CURCULATED STOPPED
 MRT .F                72:   MAXIMUM RECORDED TEMPERATURE
 LUN .               3027:   LOGGING UNIT NUMBER
 LUL .                GJT:   LOGGING UNIT LOCATION
 ENGI.           MARTINEZ:   RECORDING ENGINEER
 WITN.         HARRINGTON:   WITNESSED BY
 CLNT.            A2DTECH:   CLIENT CODE
 ORIG.           5" PRINT:   ORIGIN OF DATA
 UWI .       490251055100:   UNIQUE WELL ID
 DICO. A2D Technologies, Inc.:   DIGITIZING COMPANY
~OTHER INFORMATION
~A   DEPT      ILD         SN        SPR       CALD       CORR       DPHI         GRD      RHOB   
# ...
  397.0000     7.8095     9.1928   -32.0082     8.7099     0.1126     0.1327   104.0804     2.4384
  397.5000     7.8095     9.1295   -31.5534     8.7104     0.1141     0.1288   107.5951     2.4399
  398.0000     7.8095     9.1295   -31.3988     8.7109     0.1186     0.1219   106.9962     2.4489
  398.5000     7.8637     9.1295   -31.6948     8.7113     0.1216     0.1147   105.7940     2.4627
  399.0000     8.0285     9.2625   -32.1409     8.7117     0.1246     0.1105   105.1940     2.4735
  399.5000     8.4266     9.5819   -32.1365     8.7271     0.1306     0.1069   105.5012     2.4835
  400.0000     9.2194     9.9360   -31.9815     8.7125     0.1336     0.1039   105.8073     2.4882
  400.5000     9.6113    10.1981   -31.9786     8.7157     0.1426     0.1003    99.4773     2.4910
  401.0000     9.7464    10.2702   -31.6753     8.7185     0.1394     0.1021    97.3701     2.4895
  401.5000     9.6802    10.2009   -31.6724     8.7212     0.1366     0.1051    97.5253     2.4865
  402.0000     9.3529    10.1320   -31.9698     8.7240     0.1336     0.1051    98.2839     2.4835
  402.5000     8.8507    10.0636   -32.2679     8.7267     0.1321     0.1060    99.3441     2.4835
  403.0000     8.3755     9.9271   -32.7146     8.7295     0.1216     0.1109   100.2535     2.4764
  403.5000     7.9803     9.7248   -32.8619     8.7317     0.1096     0.1282    99.8055     2.4620
  404.0000     7.7107     9.4610   -32.7087     8.7166     0.1021     0.1381    95.8242     2.4445
  404.5000     7.5534     9.1409   -32.5295     8.7030     0.0976     0.1447    92.1866     2.4310
  405.0000     7.5024     8.8317   -32.1016     8.7037     0.1021     0.1506    91.3723     2.4190
  405.5000     7.5037     8.6517   -31.4980     8.7043     0.1006     0.1479    93.7911     2.4130
  406.0000     7.5567     8.7129   -30.8945     8.7049     0.1186     0.0997    96.5105     2.4340
  406.5000     7.6102     9.0210   -30.5913     8.7055     0.1306     0.0868    99.8331     2.4791
  407.0000     7.8247     9.4836   -30.4382     8.6761     0.1306     0.0838   102.5525     2.5151
  407.5000     8.3860    10.0778   -30.5861     8.6767     0.1291     0.0823   104.3669     2.5204
  408.0000     9.1128    10.6520   -30.4323     8.6472     0.1156     0.0811   105.2752     2.5219
  408.5000     9.6324    11.1814   -30.4294     8.6479     0.1036     0.0808   100.0017     2.5220
  409.0000     9.9726    11.4963   -30.2743     8.6186     0.0901     0.0820    96.9895     2.5219
  409.5000    10.1248    11.6578   -30.1231     8.6192     0.0796     0.0853    95.6234     2.5211
  410.0000    10.1847    11.7402   -29.9694     8.6198     0.0706     0.0900    93.7505     2.5165
  410.5000    10.1861    11.8232   -29.8170     8.6205     0.0586     0.0956    91.4232     2.5077
  411.0000    10.1169    11.8248   -29.9642     8.6211     0.0435     0.0991    89.9193     2.5039
  411.5000    10.1186    11.8264   -29.9606     8.6216     0.0315     0.1002    89.7718     2.5062
  412.0000    10.1902    11.8280   -30.1085     8.6222     0.0240     0.1020    90.2287     2.4979
  412.5000    10.1210    11.8300   -30.1049     8.6228     0.0164     0.1050    86.7641     2.4897
  413.0000    10.1227    11.8316   -30.1019     8.6234     0.0103     0.1086    87.8254     2.4822
  413.5000    10.1241    11.8332   -29.9488     8.6240     0.0045     0.1116    87.8298     2.4762
  414.0000    10.1255    11.7529   -29.9459     8.6246     0.0045     0.1134    88.1359     2.4739
  414.5000    10.1173    11.7549   -30.0931     8.6252     0.0045     0.1134    90.2520     2.4747
  415.0000    10.0584    11.7564   -30.0901     8.6407     0.0045     0.1128    92.0765     2.4747
  415.5000    10.1299    11.7580   -30.2374     8.6563     0.0045     0.1119    92.2216     2.4747
  416.0000    10.1312    11.8411   -30.3846     8.6570     0.0075     0.1122    91.7735     2.4732
  416.5000    10.1326    11.8491   -30.5318     8.6576     0.0090     0.1122    91.9299     2.4717
  417.0000    10.2043    11.9269   -30.5282     8.6731     0.0105     0.1109    93.2918     2.4726
  417.5000    10.2057    12.0112   -30.5252     8.6737     0.0120     0.1080    94.2012     2.4747
  418.0000    10.4210    12.0128   -30.5223     8.6893     0.0120     0.1047    91.6415     2.4808
  418.5000    10.4947    12.0977   -30.3692     8.6899     0.0135     0.1017    89.5332     2.4868
  419.0000    10.6423    12.0993   -30.3663     8.6905     0.0135     0.1038    90.8962     2.4853
  419.5000    10.7176    12.1849   -30.2132     8.6910     0.0120     0.1083    90.5988     2.4853
  420.0000    10.6455    12.1865   -30.3604     8.7216     0.0105     0.1152    90.3017     2.4785
  420.5000    10.2143    12.1881   -30.3574     8.7222     0.0075     0.1251    90.1518     2.4665
  421.0000     9.5993    12.1053   -30.2037     8.7228     0.0045     0.1383    90.0089     2.4538
  421.5000     8.8975    11.6787   -30.0506     8.7235     0.0045     0.1589    90.3161     2.4343
  422.0000     8.4198    10.7675   -30.0476     8.6940     0.0045     0.1565    91.0747     2.3952
  422.5000     8.4793     9.8438   -29.8946     8.6947     0.0075     0.1473    92.1349     2.3799
  423.0000     8.4805     9.9134   -29.8916     8.6953     0.0240     0.1321    96.3626     2.4076
  423.5000     8.3651    10.1224   -29.7385     8.6959     0.0556     0.1020   103.9984     2.4522
  424.0000     8.4243    10.4796   -29.4353     8.6965     0.0796     0.0948   103.4075     2.4936
  424.5000     8.7303    10.9247   -29.2822     8.6970     0.0721     0.0927    97.7331     2.5004
  425.0000     9.4343    11.7078   -28.6787     8.6976     0.0643     0.0990    89.8443     2.4981
  425.5000    10.2994    12.3748   -27.7748     8.6982     0.0568     0.1145    84.6207     2.4861
  426.0000    11.2696    12.7233   -27.6210     8.6988     0.0465     0.1199    83.1158     2.4749
  426.5000    12.5030    12.5504   -27.7690     8.6994     0.0405     0.1190    84.6296     2.4651
  427.0000    13.3999    12.4657   -27.6152     8.7301     0.0420     0.1175    85.2373     2.4644
  427.5000    13.8732    12.2966   -27.6122     8.7306     0.0495     0.1154    85.6942     2.4674
  428.0000    14.0683    12.2136   -27.3090     8.7462     0.0616     0.1139    90.9777     2.4689
  428.5000    14.2661    12.3000   -26.5553     8.7618     0.0721     0.1130    92.9429     2.4704
  429.0000    14.2680    12.3869   -26.2521     8.7923     0.0811     0.1137    91.7407     2.4689
  429.5000    14.4687    12.6481   -25.7987     8.7929     0.0901     0.1163    89.7843     2.4704
  430.0000    14.7740    13.0944   -25.3453     8.8084     0.1066     0.1205    88.4213     2.4719
  430.5000    15.1908    13.9364   -24.8839     8.8090     0.1261     0.1268    88.6340     2.4629
  431.0000    15.7273    14.8478   -23.9700     8.7946     0.1367     0.1343    87.6871     2.4539
  431.5000    16.7395    15.9350   -23.0835     8.7952     0.1381     0.1445    83.7700     2.4352
  432.0000    17.9403    17.5132   -21.8794     8.7659     0.1306     0.1601    74.2721     2.4171
  432.5000    19.2273    18.7686   -20.6752     8.7666     0.1261     0.1856    71.4108     2.3969
  433.0000    21.9583    19.9755   -19.9216     8.7971     0.1246     0.1979    61.1592     2.3714
  433.5000    24.1860    20.9682   -19.3180     8.7977     0.1216     0.2059    53.4713     2.3413
  434.0000    24.8436    21.7082   -18.8646     8.7682     0.1216     0.2179    52.1171     2.3188
  434.5000    24.5049    22.4743   -18.5614     8.7090     0.1216     0.2249    54.0835     2.2993
  435.0000    23.8405    23.1072   -18.2582     8.6797     0.1261     0.2280    53.7862     2.2881
  435.5000    23.8437    23.7579   -18.1051     8.6803     0.1547     0.2341    49.4166     2.2828
  436.0000    24.1790    24.1097   -17.8018     8.6508     0.1832     0.2368    47.1586     2.2791
  436.5000    24.5190    24.7711   -17.6486     8.6515     0.2087     0.2332    47.1483     2.2768
  437.0000    25.0363    25.4687   -17.6451     8.6222     0.2165     0.2101    50.0332     2.2770
