~VERSION INFORMATION
 VERS.                2.0:   CWLS LOG ASCII STANDARD - VERSION 2.0
 WRAP.                 NO:   ONE LINE PER DEPTH STEP
~WELL INFORMATION
#MNEM.UNIT      DATA TYPE    INFORMATION
#----------   ------------   ------------------------------
 STRT.F           28.0000:   START DEPTH
 STOP.F          551.0000:   STOP DEPTH
 STEP.F            0.5000:   STEP LENGTH
 NULL.          -999.2500:   NO VALUE
 COMP. FENIX & SCISSON, INC.:   COMPANY
 WELL.        NPR #85-S-3:   WELL
 FLD .             TEAPOT:   FIELD
 LOC .       S3 T38N R78W:   LOCATION
 CNTY.            NATRONA:   COUNTY
 STAT.            WYOMING:   STATE
 CTRY. UNITED STATES OF AMERICA:   COUNTRY
 SRVC.            Unknown:   SERVICE COMPANY
 DATE.        22-JAN-1977:   LOGDATE
 API .       490251055800:   API NUMBER
~CURVE INFORMATION
#MNEM.UNIT       API CODE    CURVE DESCRIPTION
#----------   ------------   ------------------------------
 DEPT.F                  :   
 ILD .OHMM   05 120 46 00:   INDUCTION LOG DEEP
 SN  .OHMM   05 040 16 00:   SHORT NORMAL 16"
 SPR .MV     05 010 01 00:   SPONTANEOUS POTENTIAL FROM RES.
 CALD.IN     45 280 60 00:   CALIPER FROM DENSITY LOG
 CORR.G/C3   45 356 01 00:   DENSITY CORRECTION
 DPHI.DEC    45 890 12 00:   DENSITY POROSITY SANDSTONE
 GRD .GAPI   45 310 01 00:   GAMMA RAY FROM DENSITY LOG
 RHOB.G/C3   45 350 01 00:   BULK DENSITY
~PARAMETER INFORMATION
#MNEM.UNIT          VALUE    DESCRIPTION
#----------   ------------   ------------------------------
 PD  .                 GL:   PERMANENT DATUM
 EPD .F              5132:   ELEVATION PERMANENT DATUM
 LMF .                 KB:   LOG MEASURED FROM
 DAPD.F                 4:   FEET ABOVE PERMANENT DATUM
 DMF .                 KB:   DRILLING MEASURED FROM
 EKB .F              5136:   KELLING BUSHING
 EGL .F              5132:   GROUND LEVEL
 DATE.          1-22-1977:   RUN DATE
 RUN .                  1:   RUN NUMBER
 DD  .F               550:   DEPTH DRILLER
 DL  .F               550:   DEPTH LOGGER
 BLI .F               545:   BOTTOM LOG INTERVAL
 TLI .F                50:   TOP LOG INTERVAL
 CS  .IN            8.625:   CASING SIZE
 CBD .F                40:   CASING BOTTOM DRILLER
 CBL .F                40:   CASING BOTTOM LOGGER
 BS  .IN            7.875:   BIT SIZE
 BSD .F               550:   BIT SIZE AT DEPTH
 DFT .                KCL:   DRILLING FLUID TYPE
 DFD .                8.6:   DRILLING FLUID DENSITY
 DFV .                 36:   DRILLING FLUID VISCOSITY
 DFPH.                 10:   DRILLING FLUID PH
 DFL .                7.2:   DRILLING FLUID LOSS
 MSS .           FLOWLINE:   MUD SAMPLE SOURCE
 RMS .OHMM             .3:   RESISTIVITY MUD SAMPLE
 MST .F                56:   MUD SAMPLE TEMPERATURE
 RMF .OHMM             .3:   RESISTIVITY MUD FILTRATE SAMPLE
 MFST.F                58:   MUD FILTRATE SAMPLE TEMPERATURE
 RMC .OHMM             .3:   RESISTIVITY MUD CAKE
 MCST.F                58:   MUD CAKE SAMPLE TEMPERATURE
 MFSS.           MEASURED:   MUD FILTRATE SAMPLE SOURCE
 MCSS.           MEASURED:   MUD CAKE SAMPLE SOURCE
 RMB .OHMM            .25:   RESISTIVITY MUD AT BHT
 BHT .F                68:   BOTTOM HOLE TEMPERATURE
 TCS .HRS               3:   TIME CURCULATED STOPPED
 MRT .F                68:   MAXIMUM RECORDED TEMPERATURE
 LUN .               2958:   LOGGING UNIT NUMBER
 LUL .             CASPER:   LOGGING UNIT LOCATION
 ENGI.           REYNOLDS:   RECORDING ENGINEER
 WITN.             GINLEY:   WITNESSED BY
 CLNT.            A2DTECH:   CLIENT CODE
 ORIG.           5" PRINT:   ORIGIN OF DATA
 UWI .       490251055800:   UNIQUE WELL ID
 DICO. A2D Technologies, Inc.:   DIGITIZING COMPANY
~OTHER INFORMATION
~A   DEPT      ILD         SN        SPR       CALD       CORR       DPHI         GRD      RHOB   
# ...
  392.5000    23.6284    16.1439   -30.7537     7.8356     0.2214     0.1849    79.3816     2.3416
  393.0000    23.6382    16.0358   -30.8958     7.8361     0.2109     0.1930    78.5512     2.3387
  393.5000    23.4826    15.9293   -31.0379     7.8365     0.2079     0.1981    81.8354     2.3289
  394.0000    23.4947    15.9326   -31.0305     7.8369     0.2124     0.1969    83.6282     2.3312
  394.5000    23.3400    15.8252   -31.3221     7.8374     0.2125     0.1924    85.5700     2.3358
  395.0000    23.3506    15.7193   -31.6155     7.8081     0.2079     0.1887    83.3390     2.3396
  395.5000    23.1983    15.6141   -32.0546     7.7936     0.2020     0.1867    82.8952     2.3434
  396.0000    23.0479    15.5096   -32.3462     7.7792     0.1972     0.1920    83.7949     2.3448
  396.5000    22.7431    15.4058   -32.4901     7.7796     0.1960     0.1986    84.5444     2.3299
  397.0000    22.4376    15.3027   -32.5629     7.7652     0.1991     0.1995    83.0585     2.3254
  397.5000    22.1386    15.3067   -32.6431     7.7656     0.2036     0.1938    81.2746     2.3314
  398.0000    21.8436    15.2041   -32.7233     7.7661     0.2082     0.1740    81.4280     2.3510
  398.5000    21.4061    15.2074   -32.8035     7.7665     0.2127     0.1686    81.2834     2.3638
  399.0000    21.2652    15.2105   -32.8985     7.7670     0.2007     0.1713    80.0955     2.3698
  399.5000    21.1274    15.2136   -33.0405     7.7525     0.1917     0.1764    79.4858     2.3608
  400.0000    20.8479    15.1118   -33.1845     7.7530     0.1932     0.1779    80.8495     2.3571
  400.5000    20.7107    14.9034   -33.4742     7.7385     0.1933     0.1785    82.2131     2.3556
  401.0000    20.4368    14.6979   -33.7657     7.7390     0.1933     0.1794    81.8479     2.3549
  401.5000    20.1623    14.6069   -33.9097     7.7395     0.1933     0.1805    80.2400     2.3534
  402.0000    20.0316    14.6249   -34.2012     7.7399     0.1919     0.1811    79.9729     2.3527
  402.5000    19.9018    14.7145   -34.4928     7.7404     0.1919     0.1823    80.1263     2.3520
  403.0000    20.1893    14.6167   -34.7843     7.7408     0.1919     0.1889    77.4493     2.3497
  403.5000    20.4789    14.6191   -35.0759     7.7413     0.1904     0.1892    75.0687     2.3420
  404.0000    20.7726    14.6222   -35.2180     7.7566     0.1902     0.1883    77.1595     2.3378
  404.5000    20.9254    14.6252   -35.2087     7.7570     0.1890     0.1874    77.3130     2.3371
  405.0000    20.9093    14.6282   -35.0518     7.7723     0.1905     0.1874    78.0626     2.3371
  405.5000    20.8928    14.6313   -35.0444     7.7728     0.1921     0.1982    79.8703     2.3357
  406.0000    20.8764    14.6227   -35.0370     7.7881     0.1966     0.1970    80.0089     2.3279
  406.5000    20.8599    14.5932   -34.8801     7.7885     0.1996     0.1928    78.2101     2.3324
  407.0000    20.8434    14.5637   -31.1622     7.7890     0.2012     0.1877    77.6332     2.3384
  407.5000    20.8269    14.4421   -31.2777     7.7894     0.2012     0.1898    77.3396     2.3422
  408.0000    20.6761    14.4452   -31.5693     7.7900     0.2027     0.1910    78.3884     2.3400
  408.5000    20.1189    14.3484   -31.8608     7.7904     0.2073     0.1892    79.8831     2.3385
  409.0000    19.7109    14.1541   -32.4513     7.7908     0.2118     0.1880    80.9308     2.3407
  409.5000    19.3145    14.0601   -32.7428     7.7892     0.2182     0.1859    81.6804     2.3497
  410.0000    19.0558    14.0630   -32.8849     7.7872     0.2197     0.1841    78.1080     2.3527
  410.5000    19.0623    13.7769   -32.8774     7.7852     0.2213     0.1808    78.7086     2.3550
  411.0000    18.9358    13.6847   -32.9023     7.7841     0.2243     0.1760    79.7563     2.3565
  411.5000    18.9439    13.5924   -32.9374     7.7851     0.2259     0.1700    80.5058     2.3685
  412.0000    18.9504    13.4091   -32.9725     7.8156     0.2289     0.1496    79.7651     2.3910
  412.5000    18.8246    13.4118   -33.0076     7.8312     0.2229     0.1436    77.9812     2.4120
  413.0000    18.7013    13.3214   -33.0426     7.8319     0.1643     0.1595    77.8355     2.4266
  413.5000    18.7093    13.3248   -33.0777     7.8327     0.1554     0.1616    79.1823     2.3858
  414.0000    18.3314    13.1443   -33.1128     7.8333     0.1464     0.1658    79.9319     2.3836
  414.5000    17.7146    13.0557   -33.1166     7.8342     0.1419     0.1664    79.9363     2.3813
  415.0000    17.1184    12.8796   -33.2586     7.8349     0.1374     0.1628    78.3014     2.3813
  415.5000    16.7716    12.7927   -33.2511     7.8356     0.1345     0.1594    76.8155     2.3905
  416.0000    16.3207    12.7077   -33.4031     7.8364     0.1285     0.1561    77.7142     2.4061
  416.5000    16.2138    12.7104   -33.6995     7.8371     0.1271     0.1592    79.9541     2.3884
  417.0000    16.1076    12.6253   -33.9763     7.8379     0.1406     0.1616    78.7662     2.3851
  417.5000    16.1134    12.6279   -34.1184     7.8386     0.1527     0.1651    78.3234     2.3835
  418.0000    16.0076    12.5864   -34.1252     7.8393     0.1603     0.1604    79.8183     2.3881
  418.5000    16.0144    12.5460   -34.1666     7.8400     0.1603     0.1559    80.1506     2.3986
  419.0000    15.9081    12.5486   -34.2080     7.8408     0.1589     0.1658    78.6349     2.4001
  419.5000    15.8039    12.4646   -34.2494     7.8416     0.1679     0.1642    77.7452     2.3881
  420.0000    15.5935    12.4678   -34.2908     7.8423     0.1755     0.1615    77.6006     2.3987
  420.5000    15.3846    12.3843   -34.3322     7.8430     0.1755     0.1591    78.0571     2.4144
  421.0000    15.1785    12.3869   -34.3661     7.8438     0.1756     0.1609    79.8848     2.4054
  421.5000    14.9752    12.3894   -34.5081     7.8445     0.1801     0.1624    81.9806     2.3889
  422.0000    14.8758    12.3059   -34.4993     7.8453     0.1832     0.1594    83.1724     2.3897
  422.5000    14.6778    12.2241   -34.4918     7.8393     0.1832     0.1564    83.2859     2.3942
  423.0000    14.5816    12.1417   -34.4841     7.8317     0.1816     0.1540    82.0981     2.3987
  423.5000    14.4848    12.0605   -34.4768     7.8177     0.1771     0.1549    82.9979     2.4017
  424.0000    14.2908    12.0600   -34.4694     7.8185     0.1743     0.1582    78.5314     2.4010
  424.5000    14.2969    12.0541   -34.4619     7.8192     0.1759     0.1591    81.2184     2.3980
  425.0000    14.2030    12.0481   -34.4544     7.8199     0.1759     0.1600    83.0112     2.3957
  425.5000    14.2081    12.0422   -34.4469     7.8058     0.1775     0.1603    83.6117     2.3950
  426.0000    14.2130    12.0362   -34.4395     7.8065     0.1775     0.1591    83.6162     2.3965
  426.5000    14.2178    12.0303   -34.4320     7.8073     0.1776     0.1570    83.4705     2.3980
  427.0000    14.2227    12.0243   -34.4245     7.8080     0.1776     0.1528    83.3259     2.4033
  427.5000    14.2276    12.0184   -34.4170     7.8088     0.1717     0.1480    83.7785     2.4123
  428.0000    14.2325    12.0124   -34.4096     7.8095     0.1657     0.1486    85.1242     2.4145
  428.5000    14.2375    12.0065   -34.4021     7.7954     0.1657     0.1489    87.8112     2.4153
  429.0000    14.2424    12.0005   -34.3946     7.7961     0.1643     0.1483    89.3060     2.4160
  429.5000    14.2483    11.9946   -34.3906     7.7820     0.1643     0.1477    90.0555     2.4168
  430.0000    14.2522    11.9886   -34.3939     7.7909     0.1644     0.1480    88.5697     2.4176
  430.5000    14.2572    11.9827   -34.3972     7.7985     0.1644     0.1489    86.9348     2.4168
  431.0000    14.3618    11.9768   -34.4005     7.8141     0.1645     0.1495    86.6400     2.4145
  431.5000    14.3668    11.9708   -34.4038     7.8147     0.1660     0.1482    89.7752     2.4116
  432.0000    14.3717    11.9649   -34.4071     7.8155     0.1661     0.1373    86.6500     2.4218
  432.5000    14.3766    11.9589   -34.4104     7.8162     0.1616     0.1354    88.2938     2.4313
