~VERSION INFORMATION
 VERS.                2.0:   CWLS LOG ASCII STANDARD - VERSION 2.0
 WRAP.                 NO:   ONE LINE PER DEPTH STEP
~WELL INFORMATION
#MNEM.UNIT      DATA TYPE    INFORMATION
#----------   ------------   ------------------------------
 STRT.F           70.0000:   START DEPTH
 STOP.F         1072.0000:   STOP DEPTH
 STEP.F            0.5000:   STEP LENGTH
 NULL.          -999.2500:   NO VALUE
 COMP. LAWRENCE/ALLISON INC:   COMPANY
 WELL.    67-66 SX #11-11:   WELL
 FLD .             TEAPOT:   FIELD
 LOC .      S11 T38N R78W:   LOCATION
 CNTY.            NATRONA:   COUNTY
 STAT.            WYOMING:   STATE
 CTRY. UNITED STATES OF AMERICA:   COUNTRY
 SRVC.      Dresser Atlas:   SERVICE COMPANY
 DATE.        03-FEB-1986:   LOGDATE
 API .       490251105700:   API NUMBER
~CURVE INFORMATION
#MNEM.UNIT       API CODE    CURVE DESCRIPTION
#----------   ------------   ------------------------------
 DEPT.F                  :   
 RILD.OHMM   07 120 46 00:   RESISTIVITY INDUCTION LOG DEEP
 RILM.OHMM   07 120 44 00:   RESISTIVITY INDUCTION LOG MEDIUM
 GRD .GAPI   45 310 01 00:   GAMMA RAY FROM DENSITY LOG
 CALD.IN     45 280 60 00:   CALIPER FROM DENSITY LOG
 CORR.G/C3   45 356 01 00:   DENSITY CORRECTION
 PORD.DEC    45 890 12 00:   POROSITY DENSITY SANDSTONE
 DEN .G/C3   45 350 01 00:   COMPENSATED BULK DENSTIY
~PARAMETER INFORMATION
#MNEM.UNIT          VALUE    DESCRIPTION
#----------   ------------   ------------------------------
 PD  .                 GL:   PERMANENT DATUM
 EPD .F              5245:   ELEVATION PERMANENT DATUM
 LMF .                 GL:   LOG MEASURED FROM
 DMF .                 GL:   DRILLING MEASURED FROM
 EGL .F              5245:   GROUND LEVEL
 DATE.        03-FEB-1986:   RUN DATE
 RUN .                  1:   RUN NUMBER
 DD  .F              1120:   DEPTH DRILLER
 DL  .F              1074:   DEPTH LOGGER
 BLI .F              1068:   BOTTOM LOG INTERVAL
 TLI .F                86:   TOP LOG INTERVAL
 CS  .IN            8.625:   CASING SIZE
 CBD .F                86:   CASING BOTTOM DRILLER
 CBL .F                86:   CASING BOTTOM LOGGER
 BS  .IN             6.25:   BIT SIZE
 BSD .F              1120:   BIT SIZE AT DEPTH
 DFT .                AIR:   DRILLING FLUID TYPE
 TCS .HRS               2:   TIME CURCULATED STOPPED
 LUN .               6274:   LOGGING UNIT NUMBER
 LUL .           GILLETTE:   LOGGING UNIT LOCATION
 ENGI.             MILLER:   RECORDING ENGINEER
 WITN.           JENNINGS:   WITNESSED BY
 CLNT.            A2DTECH:   CLIENT CODE
 ORIG.           5" PRINT:   ORIGIN OF DATA
 UWI .       490251105700:   UNIQUE WELL ID
 DICO. A2D Technologies, Inc.:   DIGITIZING COMPANY
~OTHER INFORMATION
~A   DEPT     RILD       RILM        GRD       CALD       CORR       PORD        DEN   
# ...
  980.0000    12.0356    12.1683   112.1692     8.3256     0.1163     0.1660     2.4014
  980.5000    11.9712    12.1831   112.5045     8.3276     0.0969     0.1647     2.4037
  981.0000    11.8212    12.0285   114.6336     8.3293     0.0715     0.1593     2.4129
  981.5000    11.7506    11.6356   117.6595     8.3310     0.0460     0.1508     2.4249
  982.0000    11.6070    11.4900   122.4791     8.3476     0.0583     0.1562     2.4295
  982.5000    11.4592    11.4246   118.6291     8.3493     0.0720     0.1673     2.4070
  983.0000    11.3180    11.2814   114.7790     8.3659     0.0842     0.1775     2.3807
  983.5000    11.1761    11.2147   113.0217     8.3825     0.0724     0.1856     2.3650
  984.0000    11.1902    11.1514   113.3570     8.3842     0.0485     0.1904     2.3598
  984.5000    11.2044    11.0153   114.2902     8.3555     0.0517     0.1916     2.3584
  985.0000    11.1375    10.8774   115.5224     8.3572     0.0596     0.1906     2.3645
  985.5000    11.0744    10.8912   115.5587     8.3589     0.0670     0.1891     2.3668
  986.0000    11.0118    10.9049   115.2407     8.3605     0.0519     0.1876     2.3667
  986.5000    10.9495    10.9187   115.3244     8.3622     0.0312     0.1882     2.3609
  987.0000    10.9634    10.9325   115.9740     8.3489     0.0134     0.1884     2.3640
  987.5000    10.9771    10.8673   116.2930     8.3506     0.0241     0.1866     2.3678
  988.0000    10.9910    10.8845   116.0299     8.3219     0.0378     0.1836     2.3732
  988.5000    11.0048    10.8196   117.2626     8.3390     0.0275     0.1811     2.3736
  989.0000    11.0187    10.8339   117.0000     8.3705     0.0261     0.1856     2.3666
  989.5000    11.0326    10.8470   115.2426     8.3722     0.0339     0.1928     2.3554
  990.0000    11.0465    10.7857   115.5779     8.3589     0.0235     0.2006     2.3441
  990.5000    10.9081    10.7994   117.7069     8.3606     0.0026     0.2030     2.3382
  991.0000    10.7680    10.7382   120.1349     8.3623     0.0194     0.1972     2.3473
  991.5000    10.6364    10.6774   121.3671     8.3639     0.0180     0.1948     2.3526
  992.0000    10.5032    10.5435   121.7024     8.3656     0.0212     0.1941     2.3505
  992.5000    10.5164    10.5574   120.8419     8.3519     0.0380     0.1926     2.3528
  993.0000    10.5297    10.6442   118.4866     8.3537     0.0517     0.1872     2.3612
  993.5000    10.6902    10.8064   118.8220     8.3553     0.0639     0.1817     2.3715
  994.0000    10.8532    10.8954   120.9510     8.3570     0.0461     0.1772     2.3803
  994.5000    10.9426    11.0614   122.4821     8.3586     0.0161     0.1729     2.3893
  995.0000    11.0326    11.1524   121.8535     8.3603     0.0148     0.1690     2.3968
  995.5000    11.1234    11.1665   119.7251     8.3470     0.0264     0.1653     2.4014
  996.0000    11.2150    11.1807   116.2770     8.3337     0.0592     0.1605     2.4128
  996.5000    11.2291    11.1948   117.8475     8.3354     0.0726     0.1505     2.4249
  997.0000    11.1621    11.1280   118.4695     8.3217     0.0772     0.1429     2.4378
  997.5000    11.0077    10.9129   118.2063     8.3238     0.0774     0.1396     2.4462
  998.0000    10.8726    10.7052   119.1401     8.3254     0.0595     0.1438     2.4387
  998.5000    10.6734    10.6301   120.6712     8.3271     0.0381     0.1480     2.4290
  999.0000    10.3945    10.4356   120.7076     8.3288     0.0478     0.1467     2.4336
  999.5000    10.1906    10.3766   118.6513     8.3454     0.0540     0.1473     2.4382
 1000.0000    10.1356    10.3898   115.9960     8.3466     0.0457     0.1500     2.4307
 1000.5000    10.0916    10.1520   116.3191     8.3385     0.0309     0.1535     2.4203
 1001.0000    10.0476     9.9142   118.4360     8.3354     0.0259     0.1563     2.4174
 1001.5000    10.0036     9.7921   120.2539     8.3373     0.0487     0.1528     2.4235
 1002.0000     9.9596     9.7345   119.0822     8.3391     0.0594     0.1520     2.4266
 1002.5000     9.9108     9.6773   116.7147     8.3409     0.0611     0.1547     2.4250
 1003.0000     9.8500     9.7550   114.9452     8.3427     0.0552     0.1582     2.4169
 1003.5000     9.7922     9.6978   114.9693     8.3445     0.0479     0.1627     2.4096
 1004.0000     9.7347     9.7079   114.6885     8.3464     0.0465     0.1637     2.4029
 1004.5000     9.6800     9.6509   114.1208     8.3482     0.0557     0.1590     2.4128
 1005.0000     9.5567     9.6610   112.6502     8.3500     0.0589     0.1563     2.4182
 1005.5000     9.4981     9.6711   111.7775     8.3518     0.0561     0.1559     2.4184
 1006.0000     9.5105     9.6143   112.4504     8.3387     0.0547     0.1589     2.4153
 1006.5000     9.5205     9.5554   114.6429     8.3101     0.0549     0.1613     2.4094
 1007.0000     9.4621     9.4993   117.2257     8.2970     0.0550     0.1594     2.4125
 1007.5000     9.4090     9.5117   117.2496     8.2993     0.0567     0.1522     2.4202
 1008.0000     9.4188     9.5217   117.8715     8.3011     0.0600     0.1482     2.4293
 1008.5000     9.3610     9.5979   118.4934     8.2875     0.0599     0.1467     2.4361
 1009.0000     9.3733     9.6747   118.5175     8.2744     0.0496     0.1560     2.4220
 1009.5000     9.3831     9.6848   120.0364     8.2463     0.0393     0.1601     2.4108
 1010.0000     9.4583     9.6950   122.1533     8.2481     0.0274     0.1617     2.4063
 1010.5000     9.5341     9.7726   125.1670     8.2499     0.0167     0.1584     2.4155
 1011.0000     9.6105     9.7828   126.6859     8.2517     0.0308     0.1530     2.4254
 1011.5000     9.6205     9.7930   126.1121     8.2535     0.0460     0.1495     2.4315
 1012.0000     9.6410     9.8032   124.0436     8.2404     0.0582     0.1485     2.4323
 1012.5000     9.7056     9.8135   121.9751     8.2422     0.0704     0.1503     2.4299
 1013.0000     9.7157     9.8237   121.6943     8.2440     0.0480     0.1533     2.4256
 1013.5000     9.6583     9.8340   122.6213     8.2459     0.0256     0.1569     2.4205
 1014.0000     9.6687     9.7087   122.3465     8.2477     0.0182     0.1595     2.4138
 1014.5000     9.6061     9.5851   119.6801     8.2495     0.0425     0.1568     2.4155
 1015.0000     9.4236     9.5264   116.7147     8.2663     0.0472     0.1567     2.4171
 1015.5000     9.4334     9.4075   114.9452     8.2681     0.0473     0.1579     2.4172
 1016.0000     9.3132     9.2235   113.7735     8.2549     0.0459     0.1606     2.4128
 1016.5000     9.1945     9.1061   113.4927     8.2567     0.0477     0.1654     2.4016
 1017.0000     9.2041     9.1156   114.7187     8.2432     0.0538     0.1632     2.4077
 1017.5000     9.1500     9.0621   116.5366     8.2454     0.0615     0.1578     2.4161
 1018.0000     9.0962     9.0066   121.0450     8.2622     0.0753     0.1526     2.4245
 1018.5000     9.1059     8.9560   126.3696     8.2790     0.0694     0.1490     2.4313
 1019.0000     9.1154     8.9654   128.6058     8.2658     0.0500     0.1463     2.4367
 1019.5000     9.1249     9.0372   128.8842     8.2522     0.0366     0.1409     2.4451
 1020.0000     9.1980     9.0466   124.9626     8.2541     0.0367     0.1361     2.4572
 1020.5000     9.2077     9.0561   124.1493     8.2409     0.0404     0.1313     2.4641
 1021.0000     9.2815     9.0655   125.6682     8.2428     0.0495     0.1304     2.4627
 1021.5000     9.2912     9.1381   125.0945     8.2445     0.0616     0.1313     2.4598
 1022.0000     9.3009     9.2112   123.0260     8.2464     0.0706     0.1315     2.4599
 1022.5000     9.4407     9.3496   116.4723     8.2482     0.0737     0.1318     2.4607
 1023.0000     9.5825     9.4900   116.7963     8.2500     0.0739     0.1327     2.4592
 1023.5000     9.6593     9.6994   118.6141     8.2518     0.0635     0.1344     2.4555
 1024.0000     9.8727     9.7887   120.7310     8.2536     0.0441     0.1374     2.4519
 1024.5000    10.0211    10.0603   122.2499     8.2554     0.0409     0.1422     2.4459
 1025.0000    10.1717    10.2942   122.8720     8.2573     0.0565     0.1452     2.4356
