~VERSION INFORMATION
 VERS.                2.0:   CWLS LOG ASCII STANDARD - VERSION 2.0
 WRAP.                 NO:   ONE LINE PER DEPTH STEP
~WELL INFORMATION
#MNEM.UNIT      DATA TYPE    INFORMATION
#----------   ------------   ------------------------------
 STRT.F           40.0000:   START DEPTH
 STOP.F          462.0000:   STOP DEPTH
 STEP.F            0.5000:   STEP LENGTH
 NULL.          -999.2500:   NO VALUE
 COMP.    FENIX & SCISSON:   COMPANY
 WELL.        NPR #68-S-3:   WELL
 FLD .             TEAPOT:   FIELD
 LOC .       S3 T38N R78W:   LOCATION
 CNTY.            NATRONA:   COUNTY
 STAT.            WYOMING:   STATE
 CTRY. UNITED STATES OF AMERICA:   COUNTRY
 SRVC.      Dresser Atlas:   SERVICE COMPANY
 DATE.        28-MAR-1977:   LOGDATE
 API .       490251031900:   API NUMBER
~CURVE INFORMATION
#MNEM.UNIT       API CODE    CURVE DESCRIPTION
#----------   ------------   ------------------------------
 DEPT.F                  :   
 SPR .MV     07 010 01 00:   SPONTANEOUS POTENTIAL
 ILD .OHMM   07 120 46 00:   INDUCTION LOG DEEP
 ILM .OHMM   07 120 44 00:   INDUCTION LOG MEDIUM
 SFL .OHMM   07 220 01 00:   SHALLOW FOCUSED LOG RESISTIVITY
 CALD.IN     45 280 60 00:   CALIPER FROM DENSITY LOG
 GRD .GAPI   45 310 01 00:   GAMMA RAY FROM DENSITY LOG
 CORR.G/C3   45 356 01 00:   DENSITY CORRECTION
 RHOB.G/C3   45 350 01 00:   BULK DENSITY
 DPHI.DEC    45 890 12 00:   DENSITY POROSITY SANDSTONE
~PARAMETER INFORMATION
#MNEM.UNIT          VALUE    DESCRIPTION
#----------   ------------   ------------------------------
 PD  .                 GL:   PERMANENT DATUM
 EPD .F              5162:   ELEVATION PERMANENT DATUM
 LMF .                 KB:   LOG MEASURED FROM
 DAPD.F                 5:   FEET ABOVE PERMANENT DATUM
 DMF .                 KB:   DRILLING MEASURED FROM
 EKB .F              5167:   KELLING BUSHING
 EGL .F              5162:   GROUND LEVEL
 DATE.        28-MAR-1977:   RUN DATE
 RUN .                  1:   RUN NUMBER
 DD  .F               452:   DEPTH DRILLER
 DL  .F               464:   DEPTH LOGGER
 BLI .F               462:   BOTTOM LOG INTERVAL
 TLI .F                40:   TOP LOG INTERVAL
 CS  .IN               10:   CASING SIZE
 CBD .F                40:   CASING BOTTOM DRILLER
 CBL .F                40:   CASING BOTTOM LOGGER
 BS  .IN            7.875:   BIT SIZE
 BSD .F               452:   BIT SIZE AT DEPTH
 DFT .           CHEM GEL:   DRILLING FLUID TYPE
 DFD .                8.9:   DRILLING FLUID DENSITY
 DFV .                 34:   DRILLING FLUID VISCOSITY
 DFPH.                8.0:   DRILLING FLUID PH
 DFL .                8.2:   DRILLING FLUID LOSS
 MSS .         CIRCULATED:   MUD SAMPLE SOURCE
 RMS .OHMM           .223:   RESISTIVITY MUD SAMPLE
 MST .F                51:   MUD SAMPLE TEMPERATURE
 RMF .OHMM           .161:   RESISTIVITY MUD FILTRATE SAMPLE
 MFST.F                51:   MUD FILTRATE SAMPLE TEMPERATURE
 RMC .OHMM           .285:   RESISTIVITY MUD CAKE
 MCST.F                51:   MUD CAKE SAMPLE TEMPERATURE
 MFSS.               MEAS:   MUD FILTRATE SAMPLE SOURCE
 MCSS.               MEAS:   MUD CAKE SAMPLE SOURCE
 RMB .OHMM           .186:   RESISTIVITY MUD AT BHT
 BHT .F                61:   BOTTOM HOLE TEMPERATURE
 TCS .HRS            0500:   TIME CURCULATED STOPPED
 MRT .F                61:   MAXIMUM RECORDED TEMPERATURE
 LUN .               6145:   LOGGING UNIT NUMBER
 LUL .              GLTTE:   LOGGING UNIT LOCATION
 ENGI.              GOULD:   RECORDING ENGINEER
 WITN.               LYON:   WITNESSED BY
 CLNT.            A2DTECH:   CLIENT CODE
 ORIG.           5" PRINT:   ORIGIN OF DATA
 UWI .       490251031900:   UNIQUE WELL ID
 DICO. A2D Technologies, Inc.:   DIGITIZING COMPANY
~OTHER INFORMATION
~A   DEPT      SPR        ILD        ILM        SFL       CALD        GRD       CORR       RHOB       DPHI   
# ...
  149.5000   -26.3501     4.6908     5.2273     5.2506     7.9719   109.7431     0.0171     2.3951     0.1442
  150.0000   -25.8919     4.8245     5.4703     6.8102     7.9731   111.7301     0.0158     2.4022     0.1386
  150.5000   -25.7822     5.0770     5.7084     7.0241     7.9682   114.1075     0.0220     2.4415     0.1281
  151.0000   -25.5685     5.2886     5.9689     6.8833     7.9626   113.3846     0.0357     2.4808     0.1129
  151.5000   -25.2396     5.5564     6.1388     6.8874     7.9647   112.6616     0.0404     2.5074     0.0900
  152.0000   -25.0714     5.7920     6.2700     6.8907     7.9668   112.8328     0.0420     2.5127     0.0857
  152.5000   -24.9337     5.9588     6.4041     6.9418     7.9689   114.0473     0.0437     2.5173     0.0824
  153.0000   -25.0692     6.1225     6.4959     6.9451     7.9555   115.7089     0.0469     2.5234     0.0781
  153.5000   -25.0527     6.2109     6.5891     7.0451     7.9730   112.8995     0.0516     2.5288     0.0754
  154.0000   -25.0394     6.3442     6.6836     7.0974     7.9751   111.5804     0.0472     2.5303     0.0784
  154.5000   -25.0262     6.3913     6.7327     7.1500     7.9617   111.1272     0.0443     2.5162     0.0841
  155.0000   -24.8641     6.5285     6.8293     7.2530     7.9488   113.1151     0.0385     2.5050     0.0885
  155.5000   -24.8508     6.5770     6.8321     7.3123     7.9359   112.5412     0.0356     2.5005     0.0933
  156.0000   -24.8376     6.6259     6.8349     7.4711     7.9385   112.5634     0.0358     2.5014     0.0915
  156.5000   -24.6755     6.7214     6.8377     7.5710     7.9406   111.2443     0.0375     2.5067     0.0866
  157.0000   -24.5134     6.7713     6.8405     7.6279     7.9427   115.6188     0.0422     2.5151     0.0824
  157.5000   -24.5002     6.7746     6.8433     7.6316     7.9597   116.2068     0.0454     2.5272     0.0791
  158.0000   -24.6390     6.8249     6.8556     7.6352     7.9618   112.4341     0.0500     2.5317     0.0778
  158.5000   -24.6046     6.8282     6.8783     7.6389     7.9638   110.7370     0.0487     2.5236     0.0784
  159.0000   -24.6880     6.8789     6.9010     7.6955     7.9659   113.4247     0.0489     2.5229     0.0802
  159.5000   -24.7713     6.8822     6.9237     7.7440     7.9530   112.5391     0.0490     2.5177     0.0835
  160.0000   -24.8159     6.9333     6.9464     7.8013     7.9552   105.8912     0.0476     2.5126     0.0864
  160.5000   -24.9628     6.9367     6.9691     7.8586     7.9588   106.2114     0.0448     2.5104     0.0854
  161.0000   -25.0450     6.9882     6.9918     7.9159     7.9743   108.7672     0.0450     2.5180     0.0817
  161.5000   -25.1273     6.9915     7.0144     7.9769     7.9613   112.6642     0.0452     2.5263     0.0785
  162.0000   -25.2095     6.9949     7.0371     7.9817     7.9639   115.6670     0.0438     2.5234     0.0797
  162.5000   -25.2918     6.9983     7.0598     7.9866     7.9660   117.3230     0.0425     2.5205     0.0808
  163.0000   -25.3740     6.9532     7.0825     7.9914     7.9681   109.8992     0.0396     2.5191     0.0814
  163.5000   -25.4563     6.8611     7.1052     7.9408     7.9702   104.8544     0.0383     2.5199     0.0808
  164.0000   -25.5385     6.8170     7.1279     7.8909     7.9568   103.6788     0.0400     2.5305     0.0771
  164.5000   -25.7103     6.7733     7.1528     7.7870     7.9594   104.8988     0.0477     2.5426     0.0714
  165.0000   -25.8431     6.6834     7.1582     7.6316     7.9460   104.1703     0.0554     2.5494     0.0653
  165.5000   -25.9758     6.6390     7.1631     7.4792     7.9486   109.4141     0.0570     2.5428     0.0662
  166.0000   -26.1086     6.5494     7.1680     7.3807     7.9506   114.0563     0.0572     2.5391     0.0680
  166.5000   -26.3908     6.4208     7.1235     7.3852     7.9527   113.0353     0.0558     2.5437     0.0673
  167.0000   -26.5235     6.2919     7.0304     7.3897     7.9548   110.0769     0.0575     2.5490     0.0613
  167.5000   -26.9511     6.2014     6.9385     7.3410     7.9569   109.5030     0.0577     2.5566     0.0588
  168.0000   -27.0880     6.0009     6.7995     7.1435     7.9435   108.3329     0.0593     2.5642     0.0558
  168.5000   -27.5197     5.8399     6.5739     6.9514     7.9460   108.4986     0.0610     2.5590     0.0579
  169.0000   -28.0967     5.6051     6.1386     6.7177     7.9481   107.4831     0.0597     2.5531     0.0639
  169.5000   -28.6779     5.3797     5.7719     6.4919     7.9352   107.2017     0.0599     2.5449     0.0725
  170.0000   -29.1096     5.0924     5.4486     6.2737     7.9523   107.2295     0.0585     2.5270     0.0785
  170.5000   -29.6907     4.8205     5.0219     6.0130     7.9543   107.5498     0.0571     2.5195     0.0818
  171.0000   -30.2719     4.4385     4.5952     5.7081     7.9564   108.6096     0.0574     2.5166     0.0836
  171.5000   -31.0026     3.8667     4.1685     5.4038     7.9585   106.5510     0.0590     2.5129     0.0853
  172.0000   -31.5838     3.3686     3.7419     5.1094     7.9606   105.5300     0.0622     2.5077     0.0889
  172.5000   -32.1649     2.9961     3.3152     4.7536     7.9626   105.5522     0.0624     2.5010     0.0958
  173.0000   -32.7461     2.6649     2.8958     4.3978     7.9647   106.0215     0.0610     2.4698     0.1051
  173.5000   -33.1778     2.4033     2.6486     3.9119     7.9668   102.9140     0.0567     2.4342     0.1174
  174.0000   -33.3109     2.2593     2.4914     3.4317     7.9689    96.3788     0.0493     2.4055     0.1384
  174.5000   -33.2938     2.2137     2.4469     3.0524     7.9560    97.5933     0.0450     2.3626     0.1495
  175.0000   -33.2771     2.2150     2.5178     2.9093     7.9581    98.5097     0.0376     2.3241     0.1780
  175.5000   -32.9614     2.2470     2.6814     2.9932     7.9756    99.5911     0.0318     2.3025     0.2060
  176.0000   -32.7952     2.3433     2.8755     3.5366     7.9622   102.4688     0.0289     2.2898     0.2204
  176.5000   -32.6289     2.5299     3.1050     4.4166     7.9648   105.1698     0.0276     2.2937     0.2167
  177.0000   -32.4626     2.8471     3.3762     4.7683     7.9669   106.9766     0.0262     2.3080     0.2101
  177.5000   -32.4365     3.1819     3.7222     4.3310     7.9689   108.0304     0.0249     2.3299     0.2010
  178.0000   -32.4290     3.7327     4.0473     3.9599     7.9710   108.0328     0.0281     2.3953     0.1709
  178.5000   -32.4122     4.1144     4.4313     5.1916     7.9731   107.6070     0.0312     2.4082     0.1489
  179.0000   -32.3954     4.4728     4.8183     6.8052     7.9752   112.1057     0.0254     2.4158     0.1387
  179.5000   -32.2291     4.8288     5.1670     6.8589     7.9772   118.3872     0.0286     2.4459     0.1245
  180.0000   -32.0628     5.1416     5.4649     6.4462     7.9793   121.6881     0.0317     2.5053     0.0899
  180.5000   -31.8965     5.4006     5.7799     6.2728     7.9814   117.2394     0.0349     2.5084     0.0875
  181.0000   -31.2785     5.5948     5.9462     6.1465     7.9835   115.6167     0.0381     2.5130     0.0856
  181.5000   -29.7670     5.7162     5.9916     6.0227     7.9701   115.6445     0.0413     2.5176     0.0826
  182.0000   -27.6576     5.8348     5.9133     5.9878     7.9572   116.5609     0.0444     2.5245     0.0795
  182.5000   -24.5018     5.7177     5.7958     6.0331     7.9443   116.4340     0.0461     2.5275     0.0771
  183.0000   -24.0408     5.4506     5.5639     6.1635     7.9314   115.2640     0.0448     2.5254     0.0777
  183.5000   -24.4684     5.1954     5.2679     6.3044     7.9340   116.3294     0.0419     2.5112     0.0837
  184.0000   -24.7548     4.9521     5.0571     6.4336     7.9511   118.4381     0.0421     2.5075     0.0872
  184.5000   -25.1865     4.7202     4.8548     6.3489     7.9531   120.5467     0.0407     2.5061     0.0884
  185.0000   -25.3150     4.5304     4.7247     5.9277     7.9552   117.8863     0.0379     2.5032     0.0934
  185.5000   -25.2983     4.3482     4.5997     5.2361     7.9722   120.8892     0.0351     2.4882     0.1068
