~VERSION INFORMATION
 VERS.                2.0:   CWLS LOG ASCII STANDARD - VERSION 2.0
 WRAP.                 NO:   ONE LINE PER DEPTH STEP
~WELL INFORMATION
#MNEM.UNIT      DATA TYPE    INFORMATION
#----------   ------------   ------------------------------
 STRT.F           30.0000:   START DEPTH
 STOP.F          480.0000:   STOP DEPTH
 STEP.F            0.5000:   STEP LENGTH
 NULL.          -999.2500:   NO VALUE
 COMP. FENIX & SCISSON INC:   COMPANY
 WELL.   51-SX-10 #NPR-10:   WELL
 FLD .             TEAPOT:   FIELD
 LOC .      S10 T38N R78W:   LOCATION
 CNTY.            NATRONA:   COUNTY
 STAT.            WYOMING:   STATE
 CTRY. UNITED STATES OF AMERICA:   COUNTRY
 SRVC.              Welex:   SERVICE COMPANY
 DATE.        13-MAR-1977:   LOGDATE
 API .       490251031000:   API NUMBER
~CURVE INFORMATION
#MNEM.UNIT       API CODE    CURVE DESCRIPTION
#----------   ------------   ------------------------------
 DEPT.F                  :   
 SGRD.OHMM   07 220 05 00:   SHALLOW GUARD RESISTIVITY
 ILD .OHMM   07 120 46 00:   INDUCTION LOG DEEP
 ILM .OHMM   07 120 44 00:   INDUCTION LOG MEDIUM
 SPR .MV     07 010 01 00:   SPONTANEOUS POTENTIAL
 RHOB.G/C3   45 350 01 00:   BULK DENSITY
 DPOR.DEC    45 890 12 00:   DENSITY POROSITY SANDSTONE
 CORR.G/C3   45 356 01 00:   DENSITY CORRECTION
 GRD .GAPI   45 310 01 00:   GAMMA RAY FROM DENSITY LOG
 CALD.IN     45 280 60 00:   CALIPER FROM DENSITY LOG
~PARAMETER INFORMATION
#MNEM.UNIT          VALUE    DESCRIPTION
#----------   ------------   ------------------------------
 PD  .                 GL:   PERMANENT DATUM
 EPD .F              5216:   ELEVATION PERMANENT DATUM
 LMF .                 GL:   LOG MEASURED FROM
 DMF .                 GL:   DRILLING MEASURED FROM
 EGL .F              5216:   GROUND LEVEL
 DATE.            3-13-77:   RUN DATE
 RUN .                  1:   RUN NUMBER
 DD  .F               490:   DEPTH DRILLER
 DL  .F               485:   DEPTH LOGGER
 BLI .F               483:   BOTTOM LOG INTERVAL
 TLI .F                35:   TOP LOG INTERVAL
 CS  .IN            8.625:   CASING SIZE
 CBD .F                40:   CASING BOTTOM DRILLER
 CBL .F                36:   CASING BOTTOM LOGGER
 BS  .IN            7.875:   BIT SIZE
 BSD .F               490:   BIT SIZE AT DEPTH
 DFT .            KCL MUD:   DRILLING FLUID TYPE
 DFD .                8.9:   DRILLING FLUID DENSITY
 DFV .                 34:   DRILLING FLUID VISCOSITY
 MSS .            MUD PIT:   MUD SAMPLE SOURCE
 RMS .OHMM            .43:   RESISTIVITY MUD SAMPLE
 MST .F                60:   MUD SAMPLE TEMPERATURE
 RMF .OHMM            .37:   RESISTIVITY MUD FILTRATE SAMPLE
 MFST.F                60:   MUD FILTRATE SAMPLE TEMPERATURE
 RMC .OHMM            .47:   RESISTIVITY MUD CAKE
 MCST.F                60:   MUD CAKE SAMPLE TEMPERATURE
 MFSS.           FANN KIT:   MUD FILTRATE SAMPLE SOURCE
 MCSS.           FANN KIT:   MUD CAKE SAMPLE SOURCE
 RMB .OHMM            .40:   RESISTIVITY MUD AT BHT
 BHT .F                63:   BOTTOM HOLE TEMPERATURE
 TCS .HRS             1.5:   TIME CURCULATED STOPPED
 MRT .F                63:   MAXIMUM RECORDED TEMPERATURE
 LUN .               8611:   LOGGING UNIT NUMBER
 LUL .             CASPER:   LOGGING UNIT LOCATION
 ENGI.               DOAK:   RECORDING ENGINEER
 WITN.         STUEBINGER:   WITNESSED BY
 CLNT.            A2DTECH:   CLIENT CODE
 ORIG.       2", 5" PRINT:   ORIGIN OF DATA
 UWI .       490251031000:   UNIQUE WELL ID
 DICO. A2D Technologies, Inc.:   DIGITIZING COMPANY
~OTHER INFORMATION
~A   DEPT     SGRD        ILD        ILM        SPR       RHOB       DPOR        CORR       GRD       CALD   
# ...
  139.5000    11.8111     7.7506     8.9193   -35.3373     2.4527     0.1147     0.0844   117.4267     7.9300
  140.0000    12.5455     7.7854     8.9193   -35.2817     2.4477     0.1176     0.0838   116.4308     7.9300
  140.5000    12.0679     7.8204     8.9193   -35.2261     2.4433     0.1204     0.0830   122.8440     7.9300
  141.0000    11.7342     7.8555     8.9193   -35.1706     2.4504     0.1175     0.0846   125.6402     7.9300
  141.5000    11.4083     7.8908     8.9193   -35.1150     2.4607     0.1116     0.0864   125.4954     7.9300
  142.0000    11.2354     7.9263     8.9193   -35.0594     2.4709     0.1057     0.0882   124.6642     7.9300
  142.5000    11.6485     7.9619     8.9193   -35.0039     2.4786     0.1002     0.0900   123.8649     7.9300
  143.0000    11.9405     7.9977     8.9192   -34.9483     2.4781     0.1009     0.0919   123.2607     7.9300
  143.5000    12.0946     8.0336     8.9192   -34.8928     2.4777     0.1015     0.0937   123.4734     7.9300
  144.0000    11.9252     8.0697     8.9199   -34.8372     2.4780     0.0993     0.0955   125.7919     7.9300
  144.5000    11.8095     8.1060     8.9183   -34.7816     2.4888     0.0940     0.0973   127.4981     7.9300
  145.0000    11.6563     8.1330     9.0120   -34.7259     2.4981     0.0898     0.0990   126.4168     7.9300
  145.5000    11.7235     8.1730     9.0766   -34.6708     2.4926     0.0910     0.0990   125.3971     7.9300
  146.0000    11.8258     8.2109     9.2075   -34.6367     2.4870     0.0945     0.0990   124.3852     7.9300
  146.5000    11.9289     8.2491     9.3508   -34.6663     2.4815     0.0979     0.0990   124.0836     7.9300
  147.0000    12.2228     8.2874     9.4963   -34.6941     2.4774     0.1010     0.0990   124.7946     7.9300
  147.5000    12.7438     8.3258     9.6444   -34.7219     2.4787     0.1018     0.0990   126.2674     7.9300
  148.0000    13.0207     8.3645     9.7947   -34.7496     2.4813     0.0996     0.0990   127.9090     7.9300
  148.5000    12.7832     8.4034     9.8727   -34.7774     2.4825     0.0978     0.0991   129.6181     7.9300
  149.0000    12.9018     8.4388     9.8723   -34.8051     2.4822     0.1011     0.0956   129.7021     7.9300
  149.5000    12.7909     8.4122     9.8245   -34.8329     2.4764     0.1041     0.0909   128.4190     7.9300
  150.0000    12.5217     8.3879     9.7561   -34.8606     2.4706     0.1071     0.0862   124.5574     7.9300
  150.5000    12.2362     8.3653     9.6882   -34.8884     2.4650     0.1100     0.0814   122.6580     7.9300
  151.0000    11.9572     8.2807     9.6207   -34.9161     2.4593     0.1129     0.0782   120.4693     7.9300
  151.5000    11.8229     8.2828     9.5536   -34.9439     2.4536     0.1158     0.0764   118.9585     7.9300
  152.0000    11.7482     8.2845     9.4866   -34.9717     2.4480     0.1187     0.0746   118.3338     7.9300
  152.5000    11.6574     8.2845     9.4275   -34.9992     2.4423     0.1216     0.0729   117.7490     7.9300
  153.0000    12.0620     8.2845     9.5056   -35.0255     2.4383     0.1233     0.0711   117.1004     7.9300
  153.5000    12.6888     8.2845     9.5795   -35.1296     2.4357     0.1242     0.0694   114.1509     7.9300
  154.0000    13.1421     8.2845     9.6533   -35.2403     2.4332     0.1252     0.0676   110.9125     7.9300
  154.5000    12.9149     8.2845     9.7277   -35.3515     2.4307     0.1261     0.0659   111.2584     7.9300
  155.0000    12.5826     8.2842     9.8027   -35.4624     2.4286     0.1259     0.0658   114.9753     7.9300
  155.5000    12.2068     8.2852     9.8723   -35.5733     2.4310     0.1244     0.0672   117.6714     7.9300
  156.0000    12.1732     8.2442     9.2617   -35.6842     2.4332     0.1227     0.0687   120.4654     7.9300
  156.5000    12.1420     8.2075     9.0854   -35.7951     2.4398     0.1205     0.0702   120.8188     7.9300
  157.0000    12.1110     8.1707     9.0854   -35.9060     2.4468     0.1183     0.0716   120.3104     7.9300
  157.5000    12.0489     8.1341     9.0854   -36.0169     2.4539     0.1161     0.0731   119.7811     7.9300
  158.0000    11.8812     8.0976     9.0854   -36.1277     2.4629     0.1105     0.0746   119.2529     7.9300
  158.5000    11.7158     8.0613     9.0854   -36.2382     2.4721     0.1035     0.0760   118.7241     7.9300
  159.0000    11.5527     8.0252     9.0854   -36.3488     2.4810     0.0997     0.0775   118.6961     7.9300
  159.5000    11.3391     7.9892     9.0862   -36.4824     2.4860     0.0971     0.0790   118.6991     7.9300
  160.0000    11.4521     7.8324     9.0675   -36.7012     2.4868     0.0967     0.0804   118.7000     7.9300
  160.5000    11.6326     7.6598     9.0301   -36.9128     2.4834     0.0985     0.0819   118.7012     7.9300
  161.0000    11.7676     7.4910     8.9923   -37.1238     2.4808     0.0998     0.0834   118.7066     7.9300
  161.5000    11.4122     7.3259     8.9547   -37.3349     2.4891     0.0947     0.0849   118.6797     7.9300
  162.0000    11.0884     7.1645     8.9193   -37.5461     2.4975     0.0900     0.0852   117.5200     7.9300
  162.5000    10.7273     7.0066     8.6768   -37.7572     2.4990     0.0886     0.0853   116.2656     7.9300
  163.0000    11.8910     6.8522     8.4005   -37.9683     2.4933     0.0939     0.0855   114.9734     7.9300
  163.5000    14.2803     6.7012     8.1330   -38.1797     2.4845     0.0997     0.0857   115.1944     7.9300
  164.0000    12.4260     6.5535     7.8740   -38.3936     2.4723     0.1055     0.0858   116.9644     7.9300
  164.5000    10.5415     6.4090     7.6233   -38.6102     2.4603     0.1113     0.0860   118.7618     7.9300
  165.0000     9.0020     6.2676     7.3805   -38.5256     2.4492     0.1166     0.0862   120.5366     7.9300
  165.5000     8.6605     6.1282     7.1455   -38.4185     2.4494     0.1166     0.0864   121.5409     7.9300
  166.0000     8.2702     6.0539     7.0152   -38.2955     2.4495     0.1155     0.0865   121.0160     7.9300
  166.5000     7.9000     6.2298     7.2122   -38.1794     2.4508     0.1133     0.0867   120.5167     7.9300
  167.0000     9.2264     6.3566     7.3748   -38.0634     2.4560     0.1111     0.0869   120.1531     7.9300
  167.5000    10.6287     6.4857     7.5412   -37.9474     2.4610     0.1089     0.0869   119.8865     7.9300
  168.0000    10.5365     6.6172     7.7111   -37.8313     2.4660     0.1067     0.0860   119.6204     7.9300
  168.5000    10.4343     6.7514     7.8849   -37.7151     2.4709     0.1045     0.0850   119.3351     7.9300
  169.0000    10.5205     6.8882     8.0582   -37.5996     2.4729     0.1051     0.0840   120.0244     7.9300
  169.5000    10.6599     7.0279     8.0861   -37.4840     2.4661     0.1086     0.0830   120.9637     7.9297
  170.0000    10.8011     7.1069     8.1200   -37.4715     2.4624     0.1118     0.0839   121.8271     7.9289
  170.5000    10.9441     7.1480     8.1541   -37.5614     2.4665     0.1090     0.0850   120.3969     7.9280
  171.0000    11.0891     7.1892     8.1883   -37.6510     2.4706     0.1050     0.0861   118.8239     7.9272
  171.5000    11.2339     7.2135     8.2084   -37.7433     2.4718     0.1070     0.0869   119.6169     7.9264
  172.0000    11.0351     7.1952     8.1238   -37.9209     2.4624     0.1100     0.0852   121.1552     7.9255
  172.5000    10.8425     7.1802     8.0548   -38.2124     2.4520     0.1129     0.0835   122.7025     7.9247
  173.0000    10.6532     7.1651     7.9864   -38.4255     2.4533     0.1140     0.0818   124.2776     7.9239
  173.5000    10.4673     7.1501     7.9186   -38.6363     2.4555     0.1142     0.0802   124.6517     7.9230
  174.0000    10.2846     7.0159     7.8513   -38.8473     2.4501     0.1158     0.0785   124.2532     7.9222
  174.5000    10.1051     6.8562     7.7087   -39.0584     2.4440     0.1172     0.0768   124.7082     7.9214
  175.0000     9.9638     6.5971     7.5506   -39.2695     2.4383     0.1186     0.0750   125.6989     7.9205
  175.5000    10.1304     6.3241     7.3958   -39.4807     2.4389     0.1202     0.0763   126.7176     7.9197
