~VERSION INFORMATION
 VERS.                2.0:   CWLS LOG ASCII STANDARD - VERSION 2.0
 WRAP.                 NO:   ONE LINE PER DEPTH STEP
~WELL INFORMATION
#MNEM.UNIT      DATA TYPE    INFORMATION
#----------   ------------   ------------------------------
 STRT.F            0.0000:   START DEPTH
 STOP.F          883.0000:   STOP DEPTH
 STEP.F            0.5000:   STEP LENGTH
 NULL.          -999.2500:   NO VALUE
 COMP.       F D SERV INC:   COMPANY
 WELL. N P R 3 SX-35 #26-1-35:   WELL
 FLD .             TEAPOT:   FIELD
 LOC .      S35 T39N R78W:   LOCATION
 CNTY.            NATRONA:   COUNTY
 STAT.            WYOMING:   STATE
 CTRY. UNITED STATES OF AMERICA:   COUNTRY
 SRVC.     Atlas Wireline:   SERVICE COMPANY
 DATE.        21-NOV-1991:   LOGDATE
 API .       490252247800:   API NUMBER
~CURVE INFORMATION
#MNEM.UNIT       API CODE    CURVE DESCRIPTION
#----------   ------------   ------------------------------
 DEPT.F                  :   
 GRR .GAPI   07 310 01 00:   GAMMA RAY
 RILD.OHMM   07 120 46 00:   INDUCTION LOG DEEP RESISTIVITY
 RILM.OHMM   07 120 44 00:   INDUCTION LOG MEDIUM RESISTIVITY
 SPR .MV     07 010 01 00:   SPONTANEOUS POTENTIAL
 RFOC.OHMM   07 270 04 00:   RESISTIVITY FOCUSED LOG
~PARAMETER INFORMATION
#MNEM.UNIT          VALUE    DESCRIPTION
#----------   ------------   ------------------------------
 PD  .                 GL:   PERMANENT DATUM
 EPD .F              5098:   ELEVATION PERMANENT DATUM
 LMF .                 KB:   LOG MEASURED FROM
 DAPD.F                10:   FEET ABOVE PERMANENT DATUM
 DMF .                 KB:   DRILLING MEASURED FROM
 EKB .F              5108:   KELLING BUSHING
 EGL .F              5098:   GROUND LEVEL
 DATE.        21-NOV-1991:   RUN DATE
 RUN .                  1:   RUN NUMBER
 DD  .F               939:   DEPTH DRILLER
 DL  .F               887:   DEPTH LOGGER
 BLI .F               884:   BOTTOM LOG INTERVAL
 CS  .IN            9.625:   CASING SIZE
 CBD .F                40:   CASING BOTTOM DRILLER
 CBL .F                47:   CASING BOTTOM LOGGER
 BS  .IN             8.75:   BIT SIZE
 BSD .F               939:   BIT SIZE AT DEPTH
 DFT .               LSND:   DRILLING FLUID TYPE
 MSS .            MUDTANK:   MUD SAMPLE SOURCE
 RMS .OHMM           0.32:   RESISTIVITY MUD SAMPLE
 MST .F                90:   MUD SAMPLE TEMPERATURE
 RMB .OHMM           0.27:   RESISTIVITY MUD AT BHT
 BHT .F               103:   BOTTOM HOLE TEMPERATURE
 TCS .HRS               2:   TIME CURCULATED STOPPED
 MRT .F               103:   MAXIMUM RECORDED TEMPERATURE
 LUN .            HL 6307:   LOGGING UNIT NUMBER
 LUL .             CASPER:   LOGGING UNIT LOCATION
 ENGI.            WADDELL:   RECORDING ENGINEER
 WITN.             STRONG:   WITNESSED BY
 CLNT.            A2DTECH:   CLIENT CODE
 ORIG.           5" PRINT:   ORIGIN OF DATA
 UWI .       490252247800:   UNIQUE WELL ID
 DICO. A2D Technologies, Inc.:   DIGITIZING COMPANY
~OTHER INFORMATION
~A    DEPT      GRR      RILD       RILM        SPR       RFOC   
# ...
  122.0000   110.3945     4.1486     4.8185   -41.3417     4.2461
  122.5000   110.6563     4.2058     4.8515   -40.8876     4.3653
  123.0000   107.2079     4.2638     4.8845   -40.2824     4.6150
  123.5000    98.4833     4.2626     4.9177   -39.6769     4.7779
  124.0000    97.1927     4.3214     4.9165   -39.3745     4.8438
  124.5000    98.7860     4.3810     4.9155   -39.2246     4.8075
  125.0000    99.6965     4.3795     4.8126   -39.0744     4.7739
  125.5000   101.2898     4.3479     4.7405   -39.0759     4.7391
  126.0000   103.7936     4.2864     4.6779   -39.2696     4.6721
  126.5000   103.3384     4.2258     4.6444   -39.6861     4.6060
  127.0000   101.5129     4.1953     4.6760   -40.1428     4.6047
  127.5000   101.0622     4.1941     4.7408   -40.2960     4.7340
  128.0000   101.0622     4.2221     4.8067   -40.6010     4.7993
  128.5000   101.9727     4.2505     4.9073   -40.9059     4.8997
  129.0000   104.0212     4.2794     5.0101   -41.3627     4.7630
  129.5000   106.9803     4.3484     5.1507   -41.5162     4.6956
  130.0000   106.2974     4.3983     5.3327   -41.5177     4.7938
  130.5000   102.2003     4.4586     5.4066   -41.3674     4.9629
  131.0000    97.8483     4.4887     5.3679   -41.2168     5.1380
  131.5000    97.1927     4.4871     5.2923   -40.9148     5.3193
  132.0000    97.4203     4.5490     5.2179   -40.7648     5.2075
  132.5000    99.4689     4.5478     5.1445   -40.4628     5.0232
  133.0000   102.4279     4.6105     5.2158   -40.3126     4.9214
  133.5000   102.8832     4.6092     5.3621   -39.8591     4.9545
  134.0000   101.0622     4.5759     5.3611   -39.8606     5.0581
  134.5000    99.9173     4.5429     5.2856   -39.8621     5.1283
  135.0000   103.4294     4.4786     5.2113   -39.7114     5.0908
  135.5000   104.9317     4.4150     5.1380   -39.7133     5.0540
  136.0000    98.3308     4.3526     5.0304   -39.7147     4.9125
  136.5000    96.7375     4.2316     4.9228   -39.7162     4.7714
  137.0000    98.3308     4.1427     4.7219   -39.7180     4.6111
  137.5000   101.0622     4.0842     4.5909   -39.8713     4.4827
  138.0000   100.6070     4.0547     4.5899   -40.1762     4.3580
  138.5000    99.6942     3.9974     4.6535   -40.3294     4.3265
  139.0000    98.2989     3.9962     4.7511   -40.7861     4.4169
  139.5000    96.9651     4.0795     4.8170   -41.2428     4.5409
  140.0000    96.0546     4.1647     4.9179   -41.8513     4.6705
  140.5000    94.2337     4.2815     5.0562   -42.4598     4.8327
  141.0000    91.9575     4.4016     5.1619   -42.1581     4.9338
  141.5000    91.7299     4.4626     5.2337   -42.0078     5.0022
  142.0000    94.4613     4.5239     5.3060   -41.7054     5.0356
  142.5000    97.8870     4.5862     5.3423   -41.4038     5.0699
  143.0000    97.4203     4.6171     5.3410   -40.9500     5.0329
  143.5000    99.6965     4.6156     5.3399   -40.4962     5.0315
  144.0000    99.9241     4.6143     5.3363   -40.3359     5.0301
  144.5000    97.4203     4.5810     5.1904   -39.8926     5.0640
  145.0000    99.4689     4.5798     5.1894   -39.5905     5.0274
  145.5000   101.9727     4.5653     5.1522   -39.2885     5.0613
  146.0000   102.2094     4.5454     5.1154   -39.5935     5.0597
  146.5000   102.4894     4.5097     5.1504   -39.7467     5.0582
  147.0000   106.2974     4.4485     5.1491   -40.3551     5.0568
  147.5000   107.8907     4.4473     5.1481   -40.8118     5.0555
  148.0000   106.0698     4.3844     5.1064   -41.5923     5.0189
  148.5000   103.3384     4.3224     5.0744   -42.4843     4.9823
  149.0000   101.7451     4.3515     5.0380   -42.9410     4.9118
  149.5000   100.1517     4.3504     5.0370   -43.3977     4.8423
  150.0000    98.1032     4.3797     5.0715   -43.7027     4.7738
  150.5000    95.3422     4.4131     5.1415   -43.8559     4.8397
  151.0000    96.2822     4.4388     5.1765   -43.8574     4.9409
  151.5000   102.2003     4.4065     5.2483   -44.0106     5.0091
  152.0000   105.1593     4.4364     5.2469   -43.7089     5.0778
  152.5000   102.4279     4.4663     5.2459   -43.4066     5.1123
  153.0000    99.9241     4.4624     5.2083   -42.9532     5.1107
  153.5000    98.5584     4.4478     5.2073   -42.1959     5.1093
  154.0000    98.1032     4.4363     5.2062   -41.7421     5.0371
  154.5000    99.1297     4.5302     5.2812   -41.5918     5.0007
  155.0000   101.9727     4.6291     5.4646   -41.4416     4.8921
  155.5000   102.6555     4.7550     5.7774   -41.5948     4.8598
  156.0000   100.6070     4.8890     6.1081   -41.5966     4.9962
  156.5000   101.5174     5.0621     6.4577   -41.6282     5.4699
  157.0000   105.1593     5.2412     6.5931   -41.9031     6.0304
  157.5000   105.1707     5.3891     6.5458   -42.2080     6.4206
  158.0000   103.5114     5.4642     6.4537   -42.5130     6.3737
  158.5000   101.7451     5.4632     6.3183   -42.9697     6.3720
  159.0000   105.1593     5.4230     6.1003   -43.4264     6.1946
  159.5000   106.2974     5.3802     6.0145   -44.0352     5.8936
  160.0000   105.3869     5.2735     5.9299   -44.3402     5.5359
  160.5000   104.7041     5.1275     5.7653   -44.5436     5.2702
  161.0000   104.2489     5.0205     5.6842   -44.5282     5.1595
  161.5000   102.4279     4.9158     5.6042   -44.0759     5.2674
  162.0000   100.5524     4.8132     5.6031   -43.7754     5.4532
  162.5000    99.0137     4.7128     5.5630   -43.5382     5.5284
  163.0000    98.5584     4.6794     5.6005   -43.1743     5.5269
  163.5000   100.4840     4.6787     5.5604   -42.8738     5.4108
  164.0000   104.1699     4.7439     5.5985   -42.5740     5.2235
  164.5000   112.2504     4.8100     5.6758   -42.1217     5.2953
  165.0000   117.0868     4.9454     5.8354   -42.1246     5.4439
  165.5000   113.2118     5.0142     5.9995   -41.8240     5.5577
  166.0000   112.5245     5.1197     6.0827   -41.6753     5.7137
  166.5000   114.5686     5.3009     6.2536   -41.5265     5.9568
  167.0000   115.0206     5.4503     6.5232   -41.3777     6.2537
  167.5000   113.6493     5.6039     6.7971   -41.5331     6.1223
  168.0000   112.2792     5.8461     6.9886   -41.6878     5.9936
  168.5000   112.0227     6.0494     7.1347   -41.8425     6.0399
  169.0000   107.7169     6.0912     7.0343   -41.9972     6.5596
  169.5000   105.2087     6.0478     6.9353   -42.1519     6.8386
  170.0000   106.3424     5.8804     6.7902   -42.4584     6.7419
  170.5000   108.8417     5.6779     6.6018   -42.7648     6.6002
  171.0000   108.1545     5.5594     6.3740   -42.9196     6.4165
  171.5000   106.0622     5.2935     6.0660   -43.2267     6.2500
  172.0000   107.0075     5.0756     5.7710   -43.5331     6.0644
  172.5000   108.1715     5.0396     5.4247   -43.8396     5.8138
  173.0000   110.6395     5.0389     5.2010   -44.1460     5.4154
  173.5000   112.4560     5.0382     5.1278   -43.9965     5.2323
  174.0000   112.9079     5.0374     5.1630   -43.6959     5.1942
  174.5000   111.0814     5.0016     5.3079   -43.2444     5.1207
  175.0000   108.8008     5.0010     5.5726   -42.7921     5.5283
  175.5000   108.5688     5.0355     5.7695   -42.3398     6.0103
  176.0000   107.8815     5.0699     5.8494   -42.3435     6.3545
  176.5000   106.4932     5.1405     5.8415   -42.4982     6.1773
  177.0000   103.6753     5.1398     5.7656   -42.8047     5.7992
  177.5000   102.1767     5.0677     5.6450   -43.1111     5.5189
  178.0000   102.8998     4.9967     5.5268   -43.5693     5.4426
  178.5000   103.7612     4.8925     5.5257   -44.0275     5.4030
  179.0000   104.4396     4.7904     5.5636   -44.3339     5.4775
  179.5000   106.2562     4.7233     5.5621   -44.6404     5.4379
  180.0000   113.5355     4.6572     5.4457   -44.6434     5.3236
  180.5000   113.5402     4.6241     5.2930   -44.9505     5.1394
  181.0000   108.4219     4.5913     5.1477   -45.1052     5.0667
  181.5000   105.5545     4.5907     5.1108   -45.1081     5.0301
  182.0000   108.5091     4.5899     5.1454   -45.1111     5.1009
  182.5000   111.6914     4.5893     5.2535   -44.8098     5.3248
