~VERSION INFORMATION
 VERS.                2.0:   CWLS LOG ASCII STANDARD - VERSION 2.0
 WRAP.                 NO:   ONE LINE PER DEPTH STEP
~WELL INFORMATION
#MNEM.UNIT      DATA TYPE    INFORMATION
#----------   ------------   ------------------------------
 STRT.F           61.0000:   START DEPTH
 STOP.F          527.0000:   STOP DEPTH
 STEP.F            0.5000:   STEP LENGTH
 NULL.          -999.2500:   NO VALUE
 COMP.       F D SERV INC:   COMPANY
 WELL.  82-5 SX 10 #82-10:   WELL
 FLD .             TEAPOT:   FIELD
 LOC .      S10 T38N R78W:   LOCATION
 CNTY.            NATRONA:   COUNTY
 STAT.            WYOMING:   STATE
 CTRY. UNITED STATES OF AMERICA:   COUNTRY
 SRVC.     Atlas Wireline:   SERVICE COMPANY
 DATE.        08-FEB-1993:   LOGDATE
 API .       490252258800:   API NUMBER
~CURVE INFORMATION
#MNEM.UNIT       API CODE    CURVE DESCRIPTION
#----------   ------------   ------------------------------
 DEPT.F                  :   
 C13 .IN     45 280 13 00:   CALIPER
 GRD .GAPI   45 310 01 00:   GAMMA RAY FROM DENSITY LOG
 NPHI.DEC    42 890 03 00:   NEUTRON POROSITY SANDSTONE
 PORZ.DEC    45 890 12 00:   DENSITY POROSITY SANDSTONE
 ZCOR.G/C3   45 356 01 00:   DENSITY CORRECTION
 ZDEN.G/C3   45 350 01 00:   BULK DENSITY
 RILD.OHMM   07 120 46 00:   INDUCTION LOG DEEP RESISTIVITY
 RILM.OHMM   07 120 44 00:   RESITIVITY LONG MEDIUM
~PARAMETER INFORMATION
#MNEM.UNIT          VALUE    DESCRIPTION
#----------   ------------   ------------------------------
 PD  .                 GL:   PERMANENT DATUM
 EPD .F              5166:   ELEVATION PERMANENT DATUM
 LMF .                 KB:   LOG MEASURED FROM
 DAPD.F                10:   FEET ABOVE PERMANENT DATUM
 DMF .                 KB:   DRILLING MEASURED FROM
 EKB .F              5176:   KELLING BUSHING
 EDF .F              5175:   DRILLING FLOOR
 EGL .F              5166:   GROUND LEVEL
 DATE.        08-FEB-1993:   RUN DATE
 RUN .                  1:   RUN NUMBER
 DD  .F               530:   DEPTH DRILLER
 DL  .F               532:   DEPTH LOGGER
 BLI .F               529:   BOTTOM LOG INTERVAL
 TLI .F                96:   TOP LOG INTERVAL
 CS  .IN            8.625:   CASING SIZE
 CBD .F                90:   CASING BOTTOM DRILLER
 CBL .F                96:   CASING BOTTOM LOGGER
 BS  .IN            7.875:   BIT SIZE
 BSD .F               530:   BIT SIZE AT DEPTH
 DFT .                AIR:   DRILLING FLUID TYPE
 MRT .F                60:   MAXIMUM RECORDED TEMPERATURE
 LUN .            HL 6274:   LOGGING UNIT NUMBER
 LUL .             CASPER:   LOGGING UNIT LOCATION
 ENGI.          V. RAUTIO:   RECORDING ENGINEER
 WITN.          G. STRONG:   WITNESSED BY
 CLNT.            A2DTECH:   CLIENT CODE
 ORIG.           5" PRINT:   ORIGIN OF DATA
 UWI .       490252258800:   UNIQUE WELL ID
 DICO. A2D Technologies, Inc.:   DIGITIZING COMPANY
~OTHER INFORMATION
~A   DEPT      C13        GRD       NPHI       PORZ       ZCOR       ZDEN       RILD       RILM   
# ...
  223.0000     8.1203   156.6265     0.3075     0.0941    -0.0047     2.4950     8.8258     8.9491
  223.5000     8.1203   154.5181     0.3069     0.0947    -0.0016     2.4981     8.8879     8.7655
  224.0000     8.1203   153.6145     0.3048     0.0938     0.0074     2.4966     8.8270     8.7055
  224.5000     8.1203   155.4217     0.3018     0.0929     0.0119     2.4921     8.8277     8.5863
  225.0000     8.1203   159.0361     0.2997     0.0932     0.0165     2.4929     8.8283     8.5870
  225.5000     8.1203   160.2410     0.3018     0.0944     0.0210     2.4959     8.7073     8.5875
  226.0000     8.1203   157.8313     0.3036     0.0947     0.0211     2.5012     8.6477     8.5289
  226.5000     8.1203   153.6145     0.3051     0.0932     0.0181     2.5042     8.6484     8.4704
  227.0000     8.1053   152.6707     0.3048     0.0896     0.0107     2.5020     8.5893     8.2966
  227.5000     8.1053   156.0241     0.3036     0.0884     0.0003     2.5020     8.5900     8.2381
  228.0000     8.1053   158.4337     0.3030     0.0884     0.0004     2.5020     8.5312     8.1271
  228.5000     8.1053   159.0361     0.3042     0.0890     0.0034     2.4990     8.3562     8.0159
  229.0000     8.1053   159.9598     0.3048     0.0896     0.0095     2.4923     8.1284     7.9059
  229.5000     8.1203   162.9518     0.3042     0.0905     0.0065     2.4841     7.7978     7.6306
  230.0000     8.1203   164.1566     0.3039     0.0938     0.0036     2.4802     7.4807     7.2260
  230.5000     8.1353   164.1566     0.3050     0.0980     0.0022     2.4721     7.1263     6.7895
  231.0000     8.1353   163.2530     0.3081     0.1035     0.0037     2.4639     6.6044     6.2481
  231.5000     8.1203   162.0482     0.3138     0.1082     0.0128     2.4534     5.8707     5.6317
  232.0000     8.1353   165.0602     0.3189     0.1124     0.0203     2.4376     5.2186     5.0760
  232.5000     8.1353   167.7711     0.3234     0.1170     0.0114     2.4219     4.4042     4.4500
  233.0000     8.1353   165.9639     0.3294     0.1275     0.0040     2.4076     3.6909     3.8168
  233.5000     8.1353   164.4578     0.3336     0.1341     0.0040     2.3694     3.2809     3.2357
  234.0000     8.1353   164.4578     0.3471     0.1434    -0.0004     2.3454     2.9367     2.8171
  234.5000     8.1353   163.8554     0.3583     0.1623    -0.0003     2.2974     2.7594     2.6470
  235.0000     8.1353   160.5422     0.3691     0.1960     0.0042     2.2376     2.6841     2.6107
  235.5000     8.1203   155.1205     0.3751     0.2213     0.0162     2.2051     2.6657     2.6473
  236.0000     8.1203   149.0964     0.3796     0.2604     0.0343     2.1983     2.7034     2.7224
  236.5000     8.1203   150.3012     0.3631     0.2736     0.0343     2.2510     2.8377     3.0838
  237.0000     8.1203   153.9157     0.3387     0.2517     0.0284     2.3275     3.0415     3.4937
  237.5000     8.1203   161.4458     0.3348     0.2035     0.0180     2.3801     3.3285     3.8500
  238.0000     8.1053   165.9639     0.3390     0.1626     0.0225     2.4229     3.7562     4.3782
  238.5000     8.1053   166.8675     0.3384     0.1310     0.0256     2.4544     4.3320     5.1515
  239.0000     8.1053   166.2651     0.3293     0.1190     0.0197     2.4732     4.8403     5.6375
  239.5000     8.1203   167.4699     0.3275     0.1040     0.0122     2.4808     5.3709     6.0007
  240.0000     8.1353   170.4819     0.3281     0.1013     0.0018     2.4845     5.8777     6.2560
  240.5000     8.1353   173.1928     0.3318     0.0998    -0.0086     2.4868     6.2564     6.4322
  241.0000     8.1353   173.1928     0.3365     0.0992    -0.0056     2.4868     6.4774     6.6135
  241.5000     8.1353   171.9879     0.3401     0.0985    -0.0025     2.4876     6.5682     6.6599
  242.0000     8.1504   170.4819     0.3407     0.0979     0.0007     2.4884     6.5233     6.6144
  242.5000     8.1504   172.8916     0.3395     0.0976     0.0051     2.4899     6.3455     6.5238
  243.0000     8.1353   175.3012     0.3386     0.0973     0.0081     2.4907     6.1724     6.3020
  243.5000     8.1353   175.3012     0.3377     0.0980     0.0097     2.4892     5.9121     6.0363
  244.0000     8.1353   174.0964     0.3413     0.1051     0.0068     2.4825     5.5638     5.7202
  244.5000     8.1203   174.6988     0.3458     0.1154    -0.0036     2.4675     5.2640     5.4496
  245.0000     8.1203   178.0121     0.3572     0.1276    -0.0066     2.4435     5.1204     5.2280
  245.5000     8.1203   181.0241     0.3690     0.1409    -0.0005     2.4195     5.0503     5.1209
  246.0000     8.1353   182.5301     0.3723     0.1478     0.0070     2.4075     5.0507     5.0157
  246.5000     8.1353   178.6145     0.3613     0.1426     0.0101     2.4098     5.0861     4.9128
  247.0000     8.1504   172.8916     0.3545     0.1346     0.0086     2.4188     5.1943     4.9827
  247.5000     8.1353   168.6747     0.3521     0.1289     0.0057     2.4301     5.3029     5.0869
  248.0000     8.1353   170.4819     0.3481     0.1213     0.0208     2.4432     5.4146     5.2302
  248.5000     8.1353   172.8916     0.3413     0.1105     0.0238     2.4571     5.6059     5.4526
  249.0000     8.1504   174.4377     0.3424     0.1051     0.0149     2.4737     5.9358     5.7735
  249.5000     8.1654   176.5060     0.3446     0.1048     0.0074     2.4782     6.4403     6.1780
  250.0000     8.1638   177.7108     0.3392     0.1072     0.0043     2.4760     6.7972     6.5261
  250.5000     8.1424   171.6914     0.3290     0.1016     0.0031     2.4837     7.0308     6.8089
  251.0000     8.1200   166.8613     0.3208     0.0928     0.0091     2.4933     7.2643     7.1979
  251.5000     8.1650   165.9528     0.3190     0.0864     0.0077     2.5068     7.4979     7.3503
  252.0000     8.1949   169.2645     0.3180     0.0810     0.0032     2.5159     7.7146     7.4024
  252.5000     8.1947   170.4672     0.3171     0.0816    -0.0027     2.5069     7.9319     7.7177
  253.0000     8.1946   166.8492     0.3165     0.0891    -0.0026     2.5017     7.9876     7.9359
  253.5000     8.1944   165.0391     0.3159     0.0903     0.0004     2.5010     8.1560     8.1600
  254.0000     8.1642   164.1325     0.3141     0.0912     0.0035     2.4987     7.9887     8.0487
  254.5000     8.1490   165.0326     0.3123     0.0918     0.0035     2.4965     7.8792     7.7222
  255.0000     8.1489   167.7406     0.3141     0.0954     0.0036     2.4920     7.7713     7.6696
  255.5000     8.1337   174.9667     0.3171     0.0972     0.0037     2.4906     7.6648     7.6178
  256.0000     8.1185   177.6747     0.3195     0.0957     0.0067     2.4936     7.5598     7.5043
  256.5000     8.1183   176.4663     0.3208     0.0957     0.0128     2.4921     7.3537     7.2090
  257.0000     8.1182   174.6562     0.3216     0.0960     0.0188     2.4922     7.2530     7.1105
  257.5000     8.1030   173.1473     0.3219     0.0942     0.0129     2.4959     7.0552     6.9172
  258.0000     8.1029   174.0481     0.3228     0.0912     0.0070     2.4997     6.7671     6.6365
  258.5000     8.1027   176.5212     0.3245     0.0900     0.0025     2.4998     6.4038     6.3231
  259.0000     8.1176   180.3670     0.3279     0.0903     0.0026     2.4983     6.1434     5.9415
  259.5000     8.1174   182.1713     0.3321     0.0918     0.0057     2.4961     5.8935     5.5446
  260.0000     8.1173   181.8673     0.3358     0.0954     0.0072     2.4923     5.4994     5.3194
  260.5000     8.1171   182.1656     0.3430     0.1017     0.0042     2.4721     5.2757     5.1034
  261.0000     8.1320   182.1621     0.3550     0.1218     0.0013     2.4503     5.0612     4.8964
  261.5000     8.1319   181.8580     0.3628     0.1323     0.0134     2.4294     5.0616     4.9654
  262.0000     8.1317   180.9515     0.3499     0.1357     0.0302     2.4279     5.1682     5.1768
  262.5000     8.1316   179.7439     0.3360     0.1290     0.0359     2.4422     5.3139     5.7848
  263.0000     8.1164   177.9016     0.3231     0.1074     0.0255     2.4730     5.6172     6.2008
