~VERSION INFORMATION
 VERS.                2.0:   CWLS LOG ASCII STANDARD - VERSION 2.0
 WRAP.                 NO:   ONE LINE PER DEPTH STEP
~WELL INFORMATION
#MNEM.UNIT      DATA TYPE    INFORMATION
#----------   ------------   ------------------------------
 STRT.F            3.0000:   START DEPTH
 STOP.F          600.0000:   STOP DEPTH
 STEP.F            0.5000:   STEP LENGTH
 NULL.          -999.2500:   NO VALUE
 COMP. FENIX & SCISSON INC:   COMPANY
 WELL.     NPR-3 #83SX4-4:   WELL
 FLD .             TEAPOT:   FIELD
 LOC .       S4 T38N R78W:   LOCATION
 CNTY.            NATRONA:   COUNTY
 STAT.            WYOMING:   STATE
 CTRY. UNITED STATES OF AMERICA:   COUNTRY
 SRVC.           BIRDWELL:   SERVICE COMPANY
 DATE.        02-AUG-1978:   LOGDATE
 API .       490251067700:   API NUMBER
~CURVE INFORMATION
#MNEM.UNIT       API CODE    CURVE DESCRIPTION
#----------   ------------   ------------------------------
 DEPT.F                  :   
 GRD .GAPI   45 310 01 00:   GAMMA RAY FROM DENSITY LOG
 CORR.G/C3   45 356 01 00:   DENSITY CORRECTION
 RHOB.G/C3   45 350 01 00:   BULK DENSITY
 DPHI.DEC    45 890 12 00:   DENSITY POROSITY SANDSTONE
 SPR .MV     05 010 01 00:   SPONTANEOUS POTENTIAL
 ILD .OHMM   05 120 46 00:   INDUCTION LOG DEEP
 SN  .OHMM   05 040 00 00:   SHORT NORMAL
~PARAMETER INFORMATION
#MNEM.UNIT          VALUE    DESCRIPTION
#----------   ------------   ------------------------------
 PD  .                 GL:   PERMANENT DATUM
 EPD .F              5204:   ELEVATION PERMANENT DATUM
 LMF .                 KB:   LOG MEASURED FROM
 DAPD.F                 4:   FEET ABOVE PERMANENT DATUM
 DMF .                 KB:   DRILLING MEASURED FROM
 EKB .F              5204:   KELLING BUSHING
 EGL .F              5200:   GROUND LEVEL
 DATE.        02-AUG-1978:   RUN DATE
 RUN .                  1:   RUN NUMBER
 DD  .F               590:   DEPTH DRILLER
 DL  .F               606:   DEPTH LOGGER
 BLI .F               590:   BOTTOM LOG INTERVAL
 TLI .F                30:   TOP LOG INTERVAL
 CS  .IN            8.625:   CASING SIZE
 CBD .F                40:   CASING BOTTOM DRILLER
 BS  .IN            7.875:   BIT SIZE
 BSD .F               590:   BIT SIZE AT DEPTH
 DFT .                KCL:   DRILLING FLUID TYPE
 DFD .                8.7:   DRILLING FLUID DENSITY
 DFV .                 32:   DRILLING FLUID VISCOSITY
 DFPH.                  9:   DRILLING FLUID PH
 DFL .                 12:   DRILLING FLUID LOSS
 MSS .           FLOWLINE:   MUD SAMPLE SOURCE
 RMS .OHMM             .4:   RESISTIVITY MUD SAMPLE
 MST .F                61:   MUD SAMPLE TEMPERATURE
 RMF .OHMM             .5:   RESISTIVITY MUD FILTRATE SAMPLE
 MFST.F                50:   MUD FILTRATE SAMPLE TEMPERATURE
 RMC .OHMM            .65:   RESISTIVITY MUD CAKE
 MCST.F                66:   MUD CAKE SAMPLE TEMPERATURE
 MFSS.               MEAS:   MUD FILTRATE SAMPLE SOURCE
 BHT .F                78:   BOTTOM HOLE TEMPERATURE
 TCS .HRS            0300:   TIME CURCULATED STOPPED
 MRT .F                78:   MAXIMUM RECORDED TEMPERATURE
 LUN .               3006:   LOGGING UNIT NUMBER
 LUL .               CASP:   LOGGING UNIT LOCATION
 ENGI.             MILLER:   RECORDING ENGINEER
 WITN.              AMEND:   WITNESSED BY
 CLNT.            A2DTECH:   CLIENT CODE
 ORIG.           5" PRINT:   ORIGIN OF DATA
 UWI .       490251067700:   UNIQUE WELL ID
 DICO. A2D Technologies, Inc.:   DIGITIZING COMPANY
~OTHER INFORMATION
~A    DEPT     GRD       CORR       RHOB       DPHI        SPR        ILD         SN   
# ...
  458.0000    42.7846     0.0651     2.4098     0.1672   -16.9254    17.6606    15.6784
  458.5000    40.2239     0.0666     2.4029     0.1689   -16.6118    17.6714    15.5750
  459.0000    39.4677     0.0680     2.4083     0.1659   -16.4478    17.6822    15.5803
  459.5000    39.9146     0.0694     2.4150     0.1638   -16.4328    17.5714    15.5845
  460.0000    41.1122     0.0649     2.4157     0.1611   -16.7135    17.5826    15.5887
  460.5000    42.6117     0.0603     2.4149     0.1614   -17.1466    17.4720    15.5930
  461.0000    43.3592     0.0558     2.4142     0.1626   -17.2849    17.3626    15.5972
  461.5000    42.8983     0.0512     2.4127     0.1632   -17.4158    17.3758    15.3890
  462.0000    42.7491     0.0467     2.4126     0.1629   -17.4012    17.2644    15.1817
  462.5000    43.1959     0.0541     2.4156     0.1602   -17.5394    17.0411    14.9781
  463.0000    42.1379     0.0585     2.4231     0.1572   -17.5211    16.8156    14.7783
  463.5000    40.0284     0.0600     2.4275     0.1569   -17.5065    16.3710    14.7823
  464.0000    38.8210     0.0599     2.4260     0.1566   -17.6448    16.1569    14.7863
  464.5000    39.7179     0.0584     2.4260     0.1557   -17.7761    15.9452    14.6878
  465.0000    40.9166     0.0583     2.4282     0.1539   -17.9104    15.6288    14.6928
  465.5000    40.3108     0.0552     2.4319     0.1503   -17.8955    15.4244    14.6967
  466.0000    38.6524     0.0522     2.4334     0.1530   -18.0303    15.2226    14.7007
  466.5000    39.2496     0.0491     2.4267     0.1551   -18.0120    15.1273    14.7047
  467.0000    42.3288     0.0491     2.4266     0.1542   -18.1503    15.1388    14.6077
  467.5000    44.9542     0.0490     2.4250     0.1539   -18.1320    15.0440    14.6127
  468.0000    43.5965     0.0505     2.4183     0.1611   -18.2702    15.0531    14.6166
  468.5000    39.5320     0.0519     2.4296     0.1581   -18.4048    15.0623    14.6205
  469.0000    35.1668     0.0503     2.4333     0.1527   -18.3865    15.0715    14.6245
  469.5000    33.1614     0.0473     2.4333     0.1479   -18.5248    15.0806    14.5271
  470.0000    30.7973     0.0457     2.4340     0.1518   -18.5065    15.0898    14.4313
  470.5000    32.2957     0.0427     2.4287     0.1563   -18.4918    14.9931    14.4362
  471.0000    32.7436     0.0411     2.4062     0.1662   -18.6269    15.0045    14.4401
  471.5000    32.5878     0.0396     2.3980     0.1722   -18.7612    14.9104    14.4440
  472.0000    31.9820     0.0380     2.3905     0.1781   -18.9015    14.9197    14.4479
  472.5000    32.4277     0.0379     2.3867     0.1790   -19.0303    14.9289    14.4519
  473.0000    34.3783     0.0394     2.3867     0.1781   -18.8627    14.9400    14.5557
  473.5000    36.7800     0.0438     2.3877     0.1743   -18.5496    14.8465    14.5604
  474.0000    38.7306     0.0527     2.4076     0.1659   -18.3857    14.9582    14.6650
  474.5000    39.0376     0.0497     2.4278     0.1539   -18.8188    14.9673    14.7703
  475.0000    36.6156     0.0466     2.4293     0.1503   -19.4012    15.0800    14.8763
  475.5000    35.5587     0.0481     2.4300     0.1491   -20.1328    15.2985    14.8803
  476.0000    34.3514     0.0510     2.4352     0.1443   -21.0137    15.6274    15.2998
  476.5000    32.6930     0.0524     2.4484     0.1344   -21.4468    15.8539    15.6233
  477.0000    32.2375     0.0539     2.4733     0.1201   -22.1784    16.1948    15.8442
  477.5000    32.7368     0.0508     2.5369     0.0985   -22.4627    16.3166    16.1791
  478.0000    35.8368     0.0461     2.5474     0.0841   -22.4476    16.5531    16.2953
  478.5000    38.3889     0.0447     2.5399     0.0844   -22.2781    16.4494    16.2998
  479.0000    40.3395     0.0462     2.5399     0.0871   -21.9532    16.2342    16.1922
  479.5000    41.9893     0.0476     2.5206     0.0964   -21.8030    15.8050    15.8666
  480.0000    40.8520     0.0520     2.4829     0.1132   -21.4899    15.3825    15.3339
  480.5000    37.9195     0.0535     2.4732     0.1251   -21.1767    14.8730    14.4167
  481.0000    33.7047     0.0534     2.4687     0.1309   -21.1621    14.1814    13.7422
  481.5000    32.6477     0.0533     2.4642     0.1362   -20.5504    13.8044    13.3725
  482.0000    34.2976     0.0533     2.4574     0.1416   -19.9387    13.5302    13.2835
  482.5000    36.2608     0.0532     2.4404     0.1455   -20.5211    13.4435    13.1959
  483.0000    39.5510     0.0532     2.4349     0.1476   -21.1071    13.4537    13.1097
  483.5000    40.9012     0.0561     2.4349     0.1494   -20.4918    13.4619    13.0233
  484.0000    36.2341     0.0590     2.4334     0.1503   -20.6264    13.4701    13.0269
  484.5000    33.5241     0.0620     2.4333     0.1512   -21.2088    13.4783    13.0305
  485.0000    34.4210     0.0694     2.4333     0.1515   -21.1940    13.4875    13.0341
  485.5000    36.3389     0.0798     2.4358     0.1491   -21.3288    13.4999    13.0383
  486.0000    39.8249     0.0872     2.4460     0.1413   -21.3105    13.5122    13.0419
  486.5000    40.7239     0.0931     2.4535     0.1380   -21.2958    13.5245    13.0454
  487.0000    39.9666     0.1021     2.4534     0.1349   -21.4341    13.5369    12.9585
  487.5000    38.4586     0.1253     2.4639     0.1257   -21.5687    13.5492    12.9629
  488.0000    36.4672     0.1618     2.4788     0.1060   -22.1474    13.5615    12.9664
  488.5000    35.7421     0.1572     2.5095     0.1156   -22.1328    13.5739    12.9699
  489.0000    35.8892     0.1228     2.5072     0.1174   -22.1181    13.5862    12.9734
  489.5000    35.1320     0.0913     2.4818     0.1180   -22.1035    13.5985    12.9769
  490.0000    33.0224     0.0763     2.4840     0.1180   -22.0888    13.6109    13.0700
  490.5000    31.3469     0.0716     2.4862     0.1174   -22.3731    13.6232    13.0736
  491.0000    30.4563     0.0672     2.4877     0.1171   -22.5075    13.6355    13.0772
  491.5000    30.6035     0.0686     2.4854     0.1240   -22.6419    13.6479    13.0815
  492.0000    31.1996     0.0715     2.4712     0.1311   -22.6269    13.6602    13.0850
  492.5000    32.6991     0.0775     2.4681     0.1302   -22.6119    13.6725    13.0886
  493.0000    34.3519     0.0864     2.4704     0.1231   -22.4451    13.6849    13.0921
  493.5000    35.9976     0.0773     2.4861     0.1171   -22.4304    13.6972    13.0956
  494.0000    36.8956     0.0649     2.4741     0.1359   -22.2665    13.7095    13.0991
  494.5000    37.0427     0.0578     2.4553     0.1416   -22.1026    13.7219    13.1027
  495.0000    37.1877     0.0562     2.4501     0.1395   -21.9387    13.7342    13.1062
  495.5000    37.1834     0.0592     2.4620     0.1305   -21.9241    13.7465    13.1098
  496.0000    37.8245     0.0621     2.4695     0.1302   -21.9094    13.7589    13.0233
  496.5000    40.7827     0.0620     2.4691     0.1260   -21.8948    13.7712    12.9375
  497.0000    44.6882     0.0635     2.4777     0.1254   -21.8801    13.7850    12.9263
  497.5000    48.2929     0.0634     2.4791     0.1222   -21.8655    13.7934    12.8557
  498.0000    50.3939     0.0648     2.4776     0.1228   -22.0001    13.8018    12.8600
  498.5000    50.5400     0.0648     2.4739     0.1272   -22.1497    13.7154    12.8635
  499.0000    50.5346     0.0662     2.4731     0.1249   -22.4186    13.3507    12.8669
  499.5000    49.1769     0.0841     2.4768     0.1189   -22.4003    13.1741    12.8704
  500.0000    46.7669     0.0930     2.5060     0.1048   -22.3882    13.2287    12.9709
  500.5000    44.4995     0.0840     2.5090     0.1060   -22.3746    13.4643    12.9873
  501.0000    41.1812     0.0720     2.4955     0.1162   -21.7074    13.6699    13.0801
  501.5000    35.7576     0.0749     2.4813     0.1186   -21.1511    14.0452    13.2731
  502.0000    31.9759     0.0734     2.4828     0.1204   -21.1378    14.2458    13.5597
  502.5000    31.6772     0.0674     2.4783     0.1294   -21.1246    14.7510    13.9481
  503.0000    33.4692     0.0643     2.4513     0.1423   -21.1114    15.4861    14.3475
