~VERSION INFORMATION
 VERS.                2.0:   CWLS LOG ASCII STANDARD - VERSION 2.0
 WRAP.                 NO:   ONE LINE PER DEPTH STEP
~WELL INFORMATION
#MNEM.UNIT      DATA TYPE    INFORMATION
#----------   ------------   ------------------------------
 STRT.F            0.0000:   START DEPTH
 STOP.F          469.0000:   STOP DEPTH
 STEP.F            0.5000:   STEP LENGTH
 NULL.          -999.2500:   NO VALUE
 COMP. BROWN JOHN E&C INC:   COMPANY
 WELL. NPR 3 SX-10 4 #54-10:   WELL
 FLD .             TEAPOT:   FIELD
 LOC .      S10 T38N R78W:   LOCATION
 CNTY.            NATRONA:   COUNTY
 STAT.            WYOMING:   STATE
 CTRY. UNITED STATES OF AMERICA:   COUNTRY
 SRVC.     Atlas Wireline:   SERVICE COMPANY
 DATE.        25-APR-1991:   LOGDATE
 API .       490251133500:   API NUMBER
~CURVE INFORMATION
#MNEM.UNIT       API CODE    CURVE DESCRIPTION
#----------   ------------   ------------------------------
 DEPT.F                  :   
 RILD.OHMM   07 120 46 00:   INDUCTION LOG DEEP RESISTIVITY
 RILM.OHMM   07 120 44 00:   INDUCTION LOG MEDIUM RESISTIVITY
 GRD .GAPI   45 310 01 00:   GAMMA RAY FROM DENSITY LOG
 CALD.IN     45 280 60 00:   CALIPER FROM DENSITY LOG
 CORR.G/C3   45 356 01 00:   DENSITY CORRECTION
 PORD.DEC    45 890 12 00:   POROSITY DENSITY SANDSTONE
 DEN .G/C3   45 350 01 00:   COMPENSATED BULK DENSTIY
~PARAMETER INFORMATION
#MNEM.UNIT          VALUE    DESCRIPTION
#----------   ------------   ------------------------------
 PD  .                 GL:   PERMANENT DATUM
 EPD .F              5182:   ELEVATION PERMANENT DATUM
 LMF .                 KB:   LOG MEASURED FROM
 DAPD.F                10:   FEET ABOVE PERMANENT DATUM
 DMF .                 KB:   DRILLING MEASURED FROM
 EKB .F              5172:   KELLING BUSHING
 EGL .F              5182:   GROUND LEVEL
 DATE.        25-APR-1991:   RUN DATE
 RUN .                  1:   RUN NUMBER
 DD  .F               471:   DEPTH DRILLER
 DL  .F               471:   DEPTH LOGGER
 BLI .F               469:   BOTTOM LOG INTERVAL
 CS  .IN            8.625:   CASING SIZE
 CBD .F                44:   CASING BOTTOM DRILLER
 CBL .F                44:   CASING BOTTOM LOGGER
 BS  .IN            7.875:   BIT SIZE
 BSD .F               471:   BIT SIZE AT DEPTH
 DFT .                AIR:   DRILLING FLUID TYPE
 LUN .           HL- 6307:   LOGGING UNIT NUMBER
 LUL .             CASPER:   LOGGING UNIT LOCATION
 ENGI.    KINNETT/ ZIEGER:   RECORDING ENGINEER
 WITN.             STRONG:   WITNESSED BY
 CLNT.            A2DTECH:   CLIENT CODE
 ORIG.        2" 5" PRINT:   ORIGIN OF DATA
 UWI .       490251133500:   UNIQUE WELL ID
 DICO. A2D Technologies, Inc.:   DIGITIZING COMPANY
~OTHER INFORMATION
~A    DEPT    RILD       RILM         GRD      CALD       CORR       PORD        DEN   
# ...
   45.5000     2.9542     6.2206   138.9307     8.5853     0.0180     0.1492     2.4027
   46.0000     6.3291     8.6113   141.1898     8.5849     0.0196     0.1459     2.4110
   46.5000    17.1622    13.5034   142.0934     8.5697     0.0121     0.1434     2.4141
   47.0000  7605.5137    15.9703   140.2861     8.5693     0.0076     0.1410     2.4163
   47.5000 10074.4053    18.0110   135.5422     8.5691     0.0047     0.1386     2.4216
   48.0000    10.3348    19.6109   133.0572     8.5687     0.0038     0.1277     2.4389
   48.5000     8.7476    10.8820   135.9940     8.5684     0.0002     0.1268     2.4382
   49.0000     8.2153    10.4363   137.5753     8.5682    -0.0058     0.1268     2.4390
   49.5000     8.5016    10.6525   137.5753     8.5678    -0.0057     0.1274     2.4397
   50.0000     8.9826    15.5865   133.5084     8.5676    -0.0056     0.1274     2.4405
   50.5000     9.5768    17.5291   133.9561     8.5672    -0.0071     0.1271     2.4398
   51.0000    10.2374    16.1270   135.9841     8.5670    -0.0056     0.1253     2.4413
   51.5000    10.9676    13.4660   137.1106     8.5666     0.0050     0.1192     2.4503
   52.0000    11.9139    11.3905   135.5232     8.5814     0.0111     0.1159     2.4571
   52.5000    12.2450    10.9213   132.5824     8.5810     0.0126     0.1135     2.4632
   53.0000    11.2622    11.1598   128.2740     8.6109     0.0052     0.1117     2.4632
   53.5000    10.2167    11.3917   124.4407     8.6255     0.0007     0.1108     2.4662
   54.0000     9.7966    11.6277   124.4367     8.6252     0.0007     0.1120     2.4692
   54.5000    10.2084    11.7054   123.5280     8.6249     0.0008     0.1156     2.4625
   55.0000    10.6375    11.9471   123.2990     8.6246     0.0008     0.1177     2.4512
   55.5000    11.1693    11.8614   130.5218     8.6243     0.0009     0.1198     2.4452
   56.0000    11.4696    11.7764   131.6483     8.6090     0.0009     0.1228     2.4445
   56.5000    11.4650    11.8550   127.1241     8.6087     0.0010     0.1240     2.4452
   57.0000    11.3812    11.9341   125.9916     8.5933     0.0010     0.1255     2.4422
   57.5000    11.2980    11.8348   125.5272     8.5630     0.0056     0.1264     2.4415
   58.0000    11.2154    11.6817   125.3037     8.5777     0.0011     0.1261     2.4415
   58.5000    11.1335    11.4384   125.9773     8.6225    -0.0004     0.1254     2.4415
   59.0000    11.1289    11.2780   126.1992     8.6222    -0.0018     0.1251     2.4423
   59.5000    11.1244    11.1199   126.8728     8.5618    -0.0003     0.1251     2.4393
   60.0000    10.8911    11.0402   129.3517     8.5165    -0.0002     0.1308     2.4348
   60.5000    10.8114    11.0372   131.3807     8.5012    -0.0002     0.1314     2.4333
   61.0000    10.7314    10.9580   131.6026     8.5009     0.0014     0.1299     2.4378
   61.5000    10.6530    10.9551   130.0162     8.5306     0.0120     0.1266     2.4416
   62.0000    10.7227    10.8765   126.7770     8.5454     0.0135     0.1263     2.4394
   62.5000    10.7929    10.8735   122.3263     8.5601     0.0181     0.1296     2.4341
   63.0000    10.7885    10.7949   120.5150     8.5597     0.0181     0.1302     2.4334
   63.5000    10.8602    10.7920   124.5762     8.5745     0.0076     0.1302     2.4364
   64.0000    10.7798    10.7891   126.1545     8.6042     0.0016     0.1311     2.4334
   64.5000    10.7010    10.7117   124.1152     8.5889     0.0017     0.1335     2.4297
   65.0000    10.5494    10.4163   121.6262     8.5735     0.0017     0.1344     2.4274
   65.5000    10.3209    10.3416   123.2025     8.5582     0.0003     0.1322     2.4304
   66.0000    10.1808    10.2674   128.6201     8.5429     0.0003     0.1319     2.4327
   66.5000    10.0366    10.1938   130.6492     8.5426     0.0019     0.1322     2.4312
   67.0000     9.9632    10.1207   131.3218     8.5574     0.0019     0.1325     2.4305
   67.5000     9.8904    10.1179   135.1581     8.5570     0.0020     0.1322     2.4297
   68.0000     9.7503    10.1146   135.8317     8.5580     0.0020     0.1304     2.4335
   68.5000     9.6122    10.1119   133.5676     8.5715     0.0021     0.1298     2.4343
   69.0000     9.5419    10.1801   130.6258     8.5562     0.0067     0.1313     2.4328
   69.5000     9.5381    10.1766   127.0073     8.5408     0.0127     0.1322     2.4298
   70.0000     9.5342    10.1739   122.4841     8.5405     0.0142     0.1334     2.4283
   70.5000     9.5302    10.1009   122.4801     8.4951     0.0143     0.1349     2.4253
   71.0000     9.4597     9.9593   124.2832     8.4949     0.0083     0.1373     2.4238
   71.5000     9.3906     9.8197   126.7631     8.4945     0.0008     0.1382     2.4216
   72.0000     9.2576     9.8170   130.3735     8.4943    -0.0022     0.1381     2.4239
   72.5000     9.0634     9.8143   128.7871     8.4940     0.0024     0.1348     2.4277
   73.0000     9.0597     9.7433   126.5240     8.5087     0.0040     0.1333     2.4299
   73.5000     9.0560     9.7407   124.2599     8.5384     0.0070     0.1336     2.4277
   74.0000     9.1162     9.7381   127.6443     8.5532     0.0041     0.1384     2.4186
   74.5000     9.3030     9.6015   132.3832     8.5679     0.0041     0.1441     2.4149
   75.0000     9.3639     9.5989   133.2838     8.5675     0.0041     0.1444     2.4119
   75.5000     9.5634     9.8659   129.6633     8.5522     0.0042     0.1417     2.4127
   76.0000     9.8214    10.2107   129.6592     8.5519     0.0163     0.1369     2.4225
   76.5000     9.8847    10.3503   129.6523     8.5516     0.0193     0.1236     2.4421
   77.0000     9.8807    10.4918   125.8097     8.5513     0.0149     0.1140     2.4760
   77.5000     9.8085    10.4045   118.1249     8.5510     0.0074     0.1031     2.4993
   78.0000     9.8045    10.2699   114.0536     8.5508     0.0014     0.1100     2.4819
   78.5000     9.5989    10.1962   114.2764     8.5504     0.0030     0.1204     2.4444
   79.0000     9.5287    10.1231   119.0143     8.5501     0.0076     0.1371     2.4195
   79.5000     9.3289     9.8439   124.2060     8.5498     0.0106     0.1416     2.4135
   80.0000     9.1967     9.5063   123.9750     8.5495     0.0151     0.1428     2.4151
   80.5000     8.9293     9.1170   119.4529     8.5192     0.0137     0.1395     2.4196
   81.0000     8.5731     8.7435   119.2229     8.5039     0.0062     0.1380     2.4211
   81.5000     8.3354     8.5024   126.8986     8.5035     0.0002     0.1371     2.4219
   82.0000     8.1042     8.3214   128.7017     8.5184    -0.0013     0.1374     2.4219
   82.5000     7.8250     8.2560   131.1816     8.5481     0.0108     0.1380     2.4219
   83.0000     7.6609     8.2058   134.7920     8.5627     0.0109     0.1407     2.4189
   83.5000     7.6049     8.2036   136.8210     8.6075     0.0094     0.1452     2.4106
   84.0000     7.5493     8.2014   131.1684     8.5771     0.0095     0.1452     2.4099
   84.5000     7.4941     8.1992   126.8711     8.5468     0.0064     0.1415     2.4129
   85.0000     7.5956     8.1969   127.0940     8.5315     0.0020     0.1370     2.4182
   85.5000     7.6453     8.1947   125.9489     8.5312     0.0021     0.1331     2.4250
   86.0000     7.7489     8.2495   124.1471     8.5309     0.0036     0.1331     2.4303
   86.5000     7.8539     8.3045   125.7243     8.5306     0.0022     0.1340     2.4281
   87.0000     8.0156     8.4219   127.5265     8.5303     0.0082     0.1337     2.4281
   87.5000     8.0116     8.5332   130.2333     8.5300     0.0131     0.1322     2.4311
   88.0000     8.0083     8.6498   134.0685     8.5297     0.0159     0.1321     2.4319
   88.5000     8.0051     8.6469   136.0976     8.5445     0.0114     0.1330     2.4311
   89.0000     8.0018     8.6446   134.0594     8.5291     0.0038     0.1339     2.4289
   89.5000     8.1102     8.6422   134.9590     8.5439    -0.0021     0.1305     2.4334
   90.0000     8.2201     8.6399   135.8735     8.5435     0.0070     0.1273     2.4364
   90.5000     8.3893     8.6976   136.0803     8.5432     0.0146     0.1255     2.4402
