~VERSION INFORMATION
 VERS.                2.0:   CWLS LOG ASCII STANDARD - VERSION 2.0
 WRAP.                 NO:   ONE LINE PER DEPTH STEP
~WELL INFORMATION
#MNEM.UNIT      DATA TYPE    INFORMATION
#----------   ------------   ------------------------------
 STRT.F         2000.0000:   START DEPTH
 STOP.F         2706.0000:   STOP DEPTH
 STEP.F            0.5000:   STEP LENGTH
 NULL.          -999.2500:   NO VALUE
 COMP. INTEX OIL CO INCORP:   COMPANY
 WELL.    N/A "A" #409-20:   WELL
 FLD .        TEAPOT DOME:   FIELD
 LOC .      S20 T39N R78W:   LOCATION
 CNTY.            NATRONA:   COUNTY
 STAT.            WYOMING:   STATE
 CTRY. UNITED STATES OF AMERICA:   COUNTRY
 SRVC.      NL McCullough:   SERVICE COMPANY
 DATE.        12-SEP-1965:   LOGDATE
 API .       490251021400:   API NUMBER
~CURVE INFORMATION
#MNEM.UNIT       API CODE    CURVE DESCRIPTION
#----------   ------------   ------------------------------
 DEPT.F                  :   
 CALI.IN     70 280 01 00:   CALIPER
 GR  .GAPI   30 310 01 00:   GAMMA RAY
~PARAMETER INFORMATION
#MNEM.UNIT          VALUE    DESCRIPTION
#----------   ------------   ------------------------------
 PD  .                 GL:   PERMANENT DATUM
 LMF .                 GL:   LOG MEASURED FROM
 DATE.            9-12-65:   RUN DATE
 RUN .                  1:   RUN NUMBER
 DL  .F              2708:   DEPTH LOGGER
 BLI .F              2706:   BOTTOM LOG INTERVAL
 TLI .F              2000:   TOP LOG INTERVAL
 CS  .IN            8.625:   CASING SIZE
 CBD .F              2525:   CASING BOTTOM DRILLER
 DFT .                DRY:   DRILLING FLUID TYPE
 TCS .HRS               1:   TIME CURCULATED STOPPED
 ENGI.            JACKSON:   RECORDING ENGINEER
 WITN.          JORGENSEN:   WITNESSED BY
 CLNT.            A2DTECH:   CLIENT CODE
 ORIG.           5" PRINT:   ORIGIN OF DATA
 UWI .       490251021400:   UNIQUE WELL ID
 DICO. A2D Technologies, Inc.:   DIGITIZING COMPANY
~OTHER INFORMATION
~A  DEPT      CALI          GR  
# ...
 2486.0000  -999.2500    88.3668
 2486.5000  -999.2500    85.7810
 2487.0000  -999.2500    87.3348
 2487.5000  -999.2500    91.8286
 2488.0000  -999.2500    93.2686
 2488.5000  -999.2500    94.5138
 2489.0000  -999.2500   103.4290
 2489.5000  -999.2500   107.6156
 2490.0000  -999.2500   118.8073
 2490.5000  -999.2500   125.6888
 2491.0000  -999.2500   132.0069
 2491.5000  -999.2500   124.4565
 2492.0000  -999.2500   121.5309
 2492.5000  -999.2500   118.7707
 2493.0000  -999.2500   128.9850
 2493.5000  -999.2500   133.3867
 2494.0000  -999.2500   132.9491
 2494.5000  -999.2500   130.3682
 2495.0000  -999.2500   140.9852
 2495.5000  -999.2500   157.3723
 2496.0000  -999.2500   156.6450
 2496.5000  -999.2500   158.9373
 2497.0000  -999.2500   161.4222
 2497.5000  -999.2500   161.1958
 2498.0000  -999.2500   163.6702
 2498.5000  -999.2500   169.4809
 2499.0000  -999.2500   173.0534
 2499.5000  -999.2500   168.4479
 2500.0000  -999.2500   155.7908
 2500.5000  -999.2500   132.2975
 2501.0000  -999.2500   110.7517
 2501.5000  -999.2500    92.7339
 2502.0000  -999.2500    85.0198
 2502.5000  -999.2500    87.4309
 2503.0000  -999.2500    84.6263
 2503.5000  -999.2500    85.5298
 2504.0000  -999.2500    87.8509
 2504.5000  -999.2500    87.7903
 2505.0000  -999.2500    86.6233
 2505.5000  -999.2500    83.9324
 2506.0000  -999.2500    82.2061
 2506.5000  -999.2500    85.7568
 2507.0000  -999.2500    80.9316
 2507.5000  -999.2500    78.8662
 2508.0000  -999.2500    81.3876
 2508.5000  -999.2500    81.8859
 2509.0000  -999.2500    86.2004
 2509.5000  -999.2500    88.9511
 2510.0000  -999.2500    91.2346
 2510.5000  -999.2500    90.4679
 2511.0000  -999.2500    96.2977
 2511.5000  -999.2500    93.8396
 2512.0000  -999.2500    98.5801
 2512.5000  -999.2500   103.6535
 2513.0000  -999.2500   109.8992
 2513.5000  -999.2500   111.2189
 2514.0000  -999.2500   107.4171
 2514.5000  -999.2500   111.2223
 2515.0000  -999.2500   110.1792
 2515.5000  -999.2500   115.1276
 2516.0000  -999.2500   108.8148
 2516.5000  -999.2500   100.6595
 2517.0000  -999.2500    99.5019
 2517.5000  -999.2500    97.4182
 2518.0000  -999.2500   106.5125
 2518.5000  -999.2500   114.7237
 2519.0000  -999.2500   112.9834
 2519.5000  -999.2500   111.1983
 2520.0000  -999.2500   118.7276
 2520.5000  -999.2500   111.7890
 2521.0000  -999.2500   107.0715
 2521.5000  -999.2500   109.9109
 2522.0000  -999.2500   111.5543
 2522.5000  -999.2500   117.7595
 2523.0000  -999.2500   114.3075
 2523.5000  -999.2500   128.7695
 2524.0000  -999.2500   139.3233
 2524.5000  -999.2500   130.2458
 2525.0000     9.5550   136.4861
 2525.5000     9.6250   167.9978
 2526.0000    10.0250   167.0089
 2526.5000     9.2932   161.2499
 2527.0000     9.4649   161.7449
 2527.5000     9.2450   167.2318
 2528.0000     9.1389   162.1975
 2528.5000     8.8551   172.2300
 2529.0000     8.6084   176.2912
 2529.5000     8.9326   173.4332
 2530.0000     9.0824   174.3876
 2530.5000     8.8893   169.7806
 2531.0000     8.7346   176.8655
 2531.5000     8.8175   170.4950
 2532.0000     8.7632   167.6026
 2532.5000     9.1310   168.0816
 2533.0000     9.3704   176.0087
 2533.5000     9.3187   178.4462
 2534.0000    10.6410   173.0097
 2534.5000     9.1276   175.8479
 2535.0000     9.2746   175.0541
 2535.5000     9.2120   182.0449
 2536.0000     9.5905   174.3383
 2536.5000     9.3220   172.3942
 2537.0000     9.1977   165.5981
 2537.5000     9.2784   161.7067
 2538.0000     9.2546   172.5603
 2538.5000    10.6004   177.4083
 2539.0000     9.6850   174.2586
 2539.5000     9.6646   172.0110
 2540.0000     9.4434   177.8557
 2540.5000     9.6001   173.7532
 2541.0000     9.2615   177.8308
 2541.5000     9.1654   172.6730
 2542.0000     9.3439   170.7171
 2542.5000     9.8511   169.4895
 2543.0000     9.6762   176.3466
 2543.5000     9.6493   186.0819
 2544.0000     9.5854   192.3079
 2544.5000    10.4229   196.8938
 2545.0000    10.6153   191.8581
 2545.5000    10.2173   194.5869
 2546.0000    10.0254   192.0373
 2546.5000    10.2617   201.4299
 2547.0000    10.5567   197.2061
 2547.5000    10.6995   193.0872
 2548.0000    10.9341   194.5846
 2548.5000    10.6686   197.1015
 2549.0000    10.7706   201.3178
 2549.5000    10.6134   197.1490
 2550.0000    10.6024   192.1398
 2550.5000    10.1127   195.0368
 2551.0000     9.8166   197.8862
 2551.5000     9.9598   190.3140
 2552.0000    10.6543   190.4512
 2552.5000    10.1222   190.5555
 2553.0000    10.6900   191.1629
 2553.5000     9.9388   196.7514
 2554.0000     9.6018   201.6835
 2554.5000     9.8091   194.0296
 2555.0000     9.4623   191.0812
 2555.5000     9.5237   198.3510
 2556.0000     9.9002   199.7203
 2556.5000     9.7305   197.7399
 2557.0000     9.7117   198.9014
 2557.5000    10.4916   200.1346
 2558.0000    10.3701   194.9586
 2558.5000    10.0269   188.0508
 2559.0000     9.4321   181.3289
 2559.5000     9.7790   174.4714
 2560.0000     9.4421   179.9270
 2560.5000    10.2392   180.6817
 2561.0000    10.1258   190.7851
 2561.5000     9.8317   189.5726
 2562.0000    10.6055   192.5311
 2562.5000    10.7203   197.6021
 2563.0000     9.8570   203.4614
 2563.5000    10.0234   206.7518
 2564.0000    10.2138   203.1187
 2564.5000    10.2480   200.1517
 2565.0000     9.9825   209.8917
 2565.5000     9.6815   198.3387
 2566.0000    10.1346   192.7592
 2566.5000     9.9523   196.8829
 2567.0000     9.9241   194.0199
 2567.5000    10.0439   198.5986
 2568.0000     9.9865   203.5998
 2568.5000     9.9491   210.7124
 2569.0000    10.0483   205.5688
 2569.5000     9.9659   199.2682
 2570.0000    10.0201   199.8045
 2570.5000    10.0192   194.6373
 2571.0000    10.4363   208.5446
 2571.5000    10.2641   211.9187
 2572.0000    10.1367   208.8519
 2572.5000    10.0907   205.6366
 2573.0000     9.8827   200.9253
 2573.5000     9.8801   206.2708
 2574.0000     9.8969   209.7421
 2574.5000     9.7604   212.6985
 2575.0000    10.0489   218.4931
 2575.5000     9.7873   224.2348
 2576.0000    10.3341   213.7735
 2576.5000    10.6935   206.8752
 2577.0000    10.5151   203.1523
 2577.5000    10.2948   197.7207
 2578.0000    10.1774   193.6869
 2578.5000    10.1650   198.5377
 2579.0000     9.7778   203.3213
 2579.5000     9.6081   208.8002
 2580.0000     9.6436   203.9115
 2580.5000     9.6959   196.2260
 2581.0000     9.8407   187.8320
 2581.5000     9.6950   187.9219
 2582.0000     9.6148   197.3169
 2582.5000     9.7553   193.2298
 2583.0000     9.6239   185.9380
 2583.5000     9.4124   184.2730
 2584.0000     9.3934   183.4031
 2584.5000     9.2460   186.3173
 2585.0000     9.2251   182.7513
 2585.5000     9.3361   185.5606
 2586.0000     9.1432   189.7535
 2586.5000     9.1500   194.3380
 2587.0000     9.9534   194.4978
 2587.5000    10.4242   192.0389
 2588.0000    10.3223   189.5564
 2588.5000    10.1227   194.3207
 2589.0000     9.9948   197.7635
 2589.5000     9.9391   195.2719
 2590.0000     9.7032   194.1142
 2590.5000     9.6558   198.1577
 2591.0000    10.0737   197.0427
 2591.5000     9.4581   194.9652
 2592.0000     9.8130   195.6257
 2592.5000     9.6293   196.3402
 2593.0000     9.5122   182.3700
 2593.5000     9.5182   181.1535
 2594.0000     9.2314   185.1141
 2594.5000     9.2452   193.3180
 2595.0000     9.5305   192.5978
 2595.5000     9.5553   198.6194
 2596.0000     9.3830   199.9031
 2596.5000     9.2677   201.2980
 2597.0000     9.3356   201.9175
 2597.5000     9.1981   209.8390
 2598.0000     9.0320   205.9678
 2598.5000     9.0490   210.7800
 2599.0000     9.1435   210.6071
 2599.5000     9.1938   208.9171
 2600.0000     9.0094   203.2982
 2600.5000     8.8782   192.4202
 2601.0000     9.1635   188.5830
 2601.5000     9.3206   181.0503
 2602.0000     9.2678   180.2173
 2602.5000     9.4006   175.9686
 2603.0000     9.4978   174.9048
 2603.5000     9.3374   170.5809
 2604.0000     9.2551   164.1470
 2604.5000     9.1432   167.2515
 2605.0000     9.0831   172.4289
 2605.5000     9.3461   175.4661
 2606.0000     9.1118   179.2176
 2606.5000     9.2838   184.6990
 2607.0000     9.3759   184.7915
