~VERSION INFORMATION
 VERS.                2.0:   CWLS LOG ASCII STANDARD - VERSION 2.0
 WRAP.                 NO:   ONE LINE PER DEPTH STEP
~WELL INFORMATION
#MNEM.UNIT      DATA TYPE    INFORMATION
#----------   ------------   ------------------------------
 STRT.F           28.5000:   START DEPTH
 STOP.F          625.0000:   STOP DEPTH
 STEP.F            0.5000:   STEP LENGTH
 NULL.          -999.2500:   NO VALUE
 COMP. FENIX & SCISSON INC:   COMPANY
 WELL.    NPR ##3 13-SX-3:   WELL
 FLD .             TEAPOT:   FIELD
 LOC .       S3 T38N R78W:   LOCATION
 CNTY.            NATRONA:   COUNTY
 STAT.            WYOMING:   STATE
 CTRY. UNITED STATES OF AMERICA:   COUNTRY
 SRVC.       Schlumberger:   SERVICE COMPANY
 DATE.        25-FEB-1977:   LOGDATE
 API .       490251028400:   API NUMBER
~CURVE INFORMATION
#MNEM.UNIT       API CODE    CURVE DESCRIPTION
#----------   ------------   ------------------------------
 DEPT.F                  :   
 SPR .MV     07 010 01 00:   SPONTANEOUS POTENTIAL
 ILD .OHMM   07 120 46 00:   INDUCTION LOG DEEP
 LL8 .OHMM   07 220 08 00:   LATEROLOG-8 RES.
 ILM .OHMM   07 120 44 00:   INDUCTION LOG MEDIUM
 GRD .GAPI   45 310 01 00:   GAMMA RAY FROM DENSITY LOG
 CALD.IN     45 280 60 00:   CALIPER
 RHOB.G/C3   45 350 01 00:   BULK DENSITY
 CORR.G/C3   45 356 01 00:   DENSITY CORRECTION
 DPOR.DEC    45 890 12 00:   DENSITY POROSITY SANDSTONE
~PARAMETER INFORMATION
#MNEM.UNIT          VALUE    DESCRIPTION
#----------   ------------   ------------------------------
 PD  .                 GL:   PERMANENT DATUM
 EPD .F              5227:   ELEVATION PERMANENT DATUM
 LMF .                 GL:   LOG MEASURED FROM
 DMF .                 GL:   DRILLING MEASURED FROM
 EKB .F              5232:   KELLING BUSHING
 EGL .F              5227:   GROUND LEVEL
 DATE.          2-25-1977:   RUN DATE
 RUN .                  1:   RUN NUMBER
 DD  .F               629:   DEPTH DRILLER
 DL  .F               626:   DEPTH LOGGER
 BLI .F               620:   BOTTOM LOG INTERVAL
 TLI .F                40:   TOP LOG INTERVAL
 CS  .IN            8.625:   CASING SIZE
 CBD .F                40:   CASING BOTTOM DRILLER
 CBL .F                40:   CASING BOTTOM LOGGER
 BS  .IN            7.875:   BIT SIZE
 BSD .F               629:   BIT SIZE AT DEPTH
 DFT .                KCL:   DRILLING FLUID TYPE
 DFD .                8.8:   DRILLING FLUID DENSITY
 DFV .                 45:   DRILLING FLUID VISCOSITY
 DFPH.                  8:   DRILLING FLUID PH
 DFL .                8.2:   DRILLING FLUID LOSS
 MSS .                PIT:   MUD SAMPLE SOURCE
 RMS .OHMM           .508:   RESISTIVITY MUD SAMPLE
 MST .F                60:   MUD SAMPLE TEMPERATURE
 RMF .OHMM           .419:   RESISTIVITY MUD FILTRATE SAMPLE
 MFST.F                58:   MUD FILTRATE SAMPLE TEMPERATURE
 MFSS.                  M:   MUD FILTRATE SAMPLE SOURCE
 RMB .OHMM            .41:   RESISTIVITY MUD AT BHT
 BHT .F                75:   BOTTOM HOLE TEMPERATURE
 TCS .HRS            1700:   TIME CURCULATED STOPPED
 TLAB.HRS            2130:   TIME LOGGER AT BOTTOM
 MRT .F                75:   MAXIMUM RECORDED TEMPERATURE
 LUN .               5642:   LOGGING UNIT NUMBER
 LUL .               CSPR:   LOGGING UNIT LOCATION
 ENGI.             MARTIN:   RECORDING ENGINEER
 CLNT.            A2DTECH:   CLIENT CODE
 ORIG.       2", 5" PRINT:   ORIGIN OF DATA
 UWI .       490251028400:   UNIQUE WELL ID
 DICO. A2D Technologies, Inc.:   DIGITIZING COMPANY
~OTHER INFORMATION
~A   DEPT      SPR        ILD        LL8        ILM         GRD      CALD         RHOB     CORR       DPOR   
# ...
  174.5000   -93.0977    10.7139    10.1516    10.3324   108.1416     8.1543     2.4652    -0.0019     0.1178
  175.0000   -92.7109    10.6046     9.9872    10.2534   110.3400     8.1485     2.4706    -0.0003     0.1160
  175.5000   -92.0647    10.4989     9.8421    10.1750   113.5302     8.1009     2.4758     0.0035     0.1142
  176.0000   -91.5068    10.3944     9.6938    10.0972   114.8873     8.0458     2.4603     0.0069     0.1151
  176.5000   -90.9694    10.2908     9.5461    10.0200   115.7968     7.9897     2.4515     0.0052     0.1164
  177.0000   -90.2510    10.1883     9.4128     9.9434   115.3087     8.0082     2.4504     0.0035     0.1178
  177.5000   -90.3782    10.1355     9.3937     9.8674   113.7634     8.0782     2.4500     0.0019     0.1174
  178.0000   -90.7649    10.1354     9.3721     9.8184   112.2169     8.1500     2.4530     0.0033     0.1123
  178.5000   -91.1628    10.1355     9.3505     9.7733   112.0231     8.1689     2.4631     0.0080     0.1074
  179.0000   -91.5630    10.1356     9.3291     9.7414   112.1243     8.1738     2.4726     0.0125     0.1064
  179.5000   -91.6926    10.1356     9.2360     9.7116   111.5771     8.1782     2.4674     0.0019     0.1069
  180.0000   -91.8422    10.1356     9.2197     9.6818   110.2040     8.1826     2.4656     0.0055     0.1039
  180.5000   -92.5220    10.1354     9.2034     9.6521   108.8301     8.1832     2.4780     0.0115     0.1009
  181.0000   -92.7977    10.1365     9.1872     9.6226   109.0933     8.1747     2.4848     0.0137     0.0982
  181.5000   -92.5896    10.1330     9.1719     9.5888   110.2217     8.1656     2.4744     0.0045     0.0996
  182.0000   -92.3867    10.2584     9.1460     9.6318   111.0833     8.1351     2.4817     0.0015     0.1002
  182.5000   -92.1821    10.4202     9.6276     9.6831   110.3681     8.1019     2.4921     0.0069     0.0967
  183.0000   -91.9779    10.3709    10.7139     9.7347   110.8251     8.0696     2.5028     0.0122     0.0922
  183.5000   -91.7738    10.2906    10.0688     9.7866   113.5853     8.0642     2.5073     0.0168     0.0882
  184.0000   -91.5687    10.2115     9.1553     9.8583   115.6116     8.1360     2.4781     0.0030     0.1020
  184.5000   -91.4315    10.1370     9.2036     9.7744   116.2188     8.1869     2.4643    -0.0032     0.1102
  185.0000   -91.3307    10.0083     9.2403     9.6419   116.6110     8.1856     2.4738     0.0041     0.1087
  185.5000   -91.2334     9.8559     9.0527     9.5112   116.9868     8.1856     2.4681     0.0039     0.1074
  186.0000   -91.1638     9.7057     8.9040     9.3823   117.3644     8.1856     2.4696    -0.0016     0.1087
  186.5000   -91.4613     9.5713     8.9228     9.2552   118.1209     8.1856     2.4754     0.0075     0.1098
  187.0000   -91.6300     9.4890     8.9462     9.1531   119.3218     8.1856     2.4813     0.0148     0.1052
  187.5000   -91.7432     9.4074     8.9691     9.1426   120.5190     8.1856     2.4862     0.0108     0.1011
  188.0000   -91.8693     9.3267     8.9875     9.1321   121.7173     8.1856     2.4798     0.0046     0.0997
  188.5000   -91.8955     9.4036     8.9108     9.1216   122.9264     8.1856     2.4855     0.0051     0.1010
  189.0000   -91.7349     9.4998     8.8472     9.1111   123.4222     8.1856     2.4980     0.0080     0.0932
  189.5000   -91.5364     9.4377     8.7840     9.1006   123.5778     8.1856     2.4925     0.0109     0.0902
  190.0000   -91.3331     9.3593     8.7213     9.0900   124.4392     8.1856     2.4808     0.0119     0.0988
  190.5000   -91.2944     9.2809     8.6591     9.0795   125.3103     8.1856     2.4688     0.0043     0.1053
  191.0000   -91.2939     9.2064     8.5973     9.0732   126.2032     8.1856     2.4634    -0.0019     0.1126
  191.5000   -91.2948     9.0710     8.5359     8.9273   126.1195     8.1856     2.4602     0.0016     0.1126
  192.0000   -91.2920     9.1410     8.4750     8.7821   122.9606     8.1856     2.4572     0.0058     0.1118
  192.5000   -91.1915     9.2014     8.4242     8.6619   119.2665     8.1856     2.4586     0.0067     0.1121
  193.0000   -91.0839     9.2621     8.5479     8.8040   116.1426     8.1856     2.4636     0.0022     0.1134
  193.5000   -90.9765     9.3262     8.6558     8.9290   114.0971     8.1856     2.4610     0.0010     0.1138
  194.0000   -90.8693     9.4733     8.7653     9.0558   112.5492     8.1856     2.4713     0.0082     0.1072
  194.5000   -90.7625     9.6304     8.8761     9.1844   114.0560     8.1856     2.4869     0.0029     0.0978
  195.0000   -90.6548     9.7901     8.9883     9.3148   115.8669     8.1856     2.4808    -0.0019     0.1025
  195.5000   -90.5496     9.9525     9.1019     9.4470   118.4302     8.1856     2.4727     0.0020     0.1081
  196.0000   -90.0735    10.1175     9.2169     9.5811   120.4310     8.1856     2.4733     0.0058     0.1054
  196.5000   -89.2801    10.2298     9.3334     9.7172   116.4496     8.1856     2.4784     0.0060     0.1022
  197.0000   -88.4902    10.1994     9.4182     9.8551   115.3735     8.1856     2.4837     0.0072     0.1018
  197.5000   -87.6918    10.1726     9.4617     9.9499   115.2860     8.1856     2.4891     0.0120     0.0957
  198.0000   -87.6708    10.1459     9.5011     9.8168   116.1873     8.1856     2.4889     0.0168     0.0918
  198.5000   -88.3416    10.1192     9.5010     9.7173   117.1077     8.1856     2.4857     0.0146     0.0987
  199.0000   -89.0199    10.0926     9.3719     9.6188   117.1161     8.1856     2.4816     0.0111     0.1034
  199.5000   -89.7289    10.0661     9.2750     9.5213   116.2676     8.1856     2.4743     0.0077     0.1015
  200.0000   -90.0136    10.0423     9.1793     9.4248   115.4162     8.1856     2.4672     0.0042     0.1028
  200.5000   -90.2473     9.9195     9.0846     9.3293   114.5767     8.1856     2.4650     0.0006     0.1093
  201.0000   -90.4766     9.7848     8.9908     9.2347   114.2508     8.1856     2.4686    -0.0030     0.1109
  201.5000   -90.3226     9.6519     8.8980     9.1411   115.3663     8.1856     2.4623    -0.0017     0.1133
  202.0000   -90.0775     9.5209     8.8062     9.0484   116.4348     8.1856     2.4614     0.0027     0.1110
  202.5000   -89.8285     9.3916     8.7164     8.9567   116.5658     8.1856     2.4597     0.0039     0.1108
  203.0000   -89.5789     9.2641     8.6265     8.8659   115.7991     8.1856     2.4543     0.0015     0.1141
  203.5000   -89.3280     9.1383     8.5391     8.7760   114.9942     8.1856     2.4513     0.0052     0.1166
  204.0000   -89.1229     9.0142     8.4516     8.6871   114.0512     8.1856     2.4576     0.0131     0.1086
  204.5000   -89.4592     8.8918     8.3186     8.5990   113.0590     8.1856     2.4640     0.0130     0.1106
  205.0000   -89.7944     8.7710     8.1665     8.5117   112.0619     8.1856     2.4589     0.0096     0.1145
  205.5000   -90.1291     8.6612     8.0171     8.4256   111.9360     8.1856     2.4513     0.0089     0.1170
  206.0000   -90.2836     8.5714     7.9695     8.3466   112.5943     8.1856     2.4580     0.0114     0.1132
  206.5000   -89.9063     8.5024     8.0360     8.4231   113.0251     8.1856     2.4667     0.0139     0.1078
  207.0000   -89.1877     8.6085     8.0814     8.4948   111.9393     8.1856     2.4690     0.0148     0.1106
  207.5000   -88.5484     8.7083     8.1270     8.5671   111.3982     8.1856     2.4715     0.0139     0.1038
  208.0000   -87.9059     8.8094     8.1728     8.6400   112.2376     8.1857     2.4735     0.0103     0.1003
  208.5000   -87.2630     8.9116     8.2190     8.7136   112.7561     8.1854     2.4696     0.0065     0.1060
  209.0000   -86.8960     9.0150     8.2653     8.7877   112.6320     8.1713     2.4656     0.0026     0.1106
  209.5000   -86.5468     9.1196     8.3120     8.8625   113.3027     8.1559     2.4616     0.0041     0.1123
  210.0000   -86.1945     9.2253     8.4242     8.9380   114.6290     8.1405     2.4638     0.0095     0.1106
  210.5000   -85.8426     9.3330     8.6328     9.0140   115.8808     8.1251     2.4648     0.0150     0.1116
