~VERSION INFORMATION
 VERS.                2.0:   CWLS LOG ASCII STANDARD - VERSION 2.0
 WRAP.                 NO:   ONE LINE PER DEPTH STEP
~WELL INFORMATION
#MNEM.UNIT      DATA TYPE    INFORMATION
#----------   ------------   ------------------------------
 STRT.F           34.0000:   START DEPTH
 STOP.F          517.0000:   STOP DEPTH
 STEP.F            0.5000:   STEP LENGTH
 NULL.          -999.2500:   NO VALUE
 COMP.    FENIX & SCISSON:   COMPANY
 WELL.       NPR #77-S-10:   WELL
 FLD .             TEAPOT:   FIELD
 LOC .      S10 T38N R78W:   LOCATION
 CNTY.            NATRONA:   COUNTY
 STAT.            WYOMING:   STATE
 CTRY. UNITED STATES OF AMERICA:   COUNTRY
 SRVC.              Welex:   SERVICE COMPANY
 DATE.        16-APR-1977:   LOGDATE
 API .       490251033600:   API NUMBER
~CURVE INFORMATION
#MNEM.UNIT       API CODE    CURVE DESCRIPTION
#----------   ------------   ------------------------------
 DEPT.F                  :   
 SPR .MV     07 010 01 00:   SPONTANEOUS POTENTIAL
 ILD .OHMM   07 120 46 00:   INDUCTION LOG DEEP
 ILM .OHMM   07 120 44 00:   INDUCTION LOG MEDIUM
 SGRD.OHMM   07 221 05 00:   SHALLOW SHORT GUARD RESISTIVITY
 CALD.IN     45 280 60 00:   CALIPER FROM DENSITY LOG
 GRD .GAPI   45 310 01 00:   GAMMA RAY FROM DENSITY LOG
 CORR.G/C3   45 356 01 00:   DENSITY CORRECTION
 RHOB.G/C3   45 350 01 00:   BULK DENSITY
 DPHI.DEC    45 890 12 00:   DENSITY POROSITY SANDSTONE
~PARAMETER INFORMATION
#MNEM.UNIT          VALUE    DESCRIPTION
#----------   ------------   ------------------------------
 PD  .                 GL:   PERMANENT DATUM
 EPD .F              5210:   ELEVATION PERMANENT DATUM
 LMF .                 GL:   LOG MEASURED FROM
 DMF .                 GL:   DRILLING MEASURED FROM
 EGL .F              5210:   GROUND LEVEL
 DATE.        16-APR-1977:   RUN DATE
 RUN .                  1:   RUN NUMBER
 DD  .F               525:   DEPTH DRILLER
 DL  .F               519:   DEPTH LOGGER
 BLI .F               517:   BOTTOM LOG INTERVAL
 TLI .F                30:   TOP LOG INTERVAL
 CS  .IN            8.625:   CASING SIZE
 BS  .IN            7.875:   BIT SIZE
 BSD .F               525:   BIT SIZE AT DEPTH
 DFT .            KCL MUD:   DRILLING FLUID TYPE
 DFD .                8.9:   DRILLING FLUID DENSITY
 BHT .F                61:   BOTTOM HOLE TEMPERATURE
 TCS .HRS            0300:   TIME CURCULATED STOPPED
 MRT .F                61:   MAXIMUM RECORDED TEMPERATURE
 ENGI.               DOAK:   RECORDING ENGINEER
 WITN.      B. HARRINGTON:   WITNESSED BY
 CLNT.            A2DTECH:   CLIENT CODE
 ORIG.           5" PRINT:   ORIGIN OF DATA
 UWI .       490251033600:   UNIQUE WELL ID
 DICO. A2D Technologies, Inc.:   DIGITIZING COMPANY
~OTHER INFORMATION
~A   DEPT      SPR        ILD        ILM       SGRD       CALD        GRD       CORR       RHOB       DPHI   
# ...
  107.0000   -44.8810     8.0163     8.2224    17.4079     7.7633   118.4305     0.0322     2.5150     0.0773
  107.5000   -44.8661     7.8019     8.1709    16.7136     7.7635   118.4629     0.0337     2.5179     0.0770
  108.0000   -44.9979     7.7518     8.2897    17.7997     7.7636   119.3530     0.0230     2.5096     0.0863
  108.5000   -44.9843     7.7557     8.4147    16.7397     7.7638   120.8565     0.0158     2.4939     0.0971
  109.0000   -44.9694     7.9766     8.7110    16.2925     7.7639   119.6695     0.0128     2.4773     0.1043
  109.5000   -45.1071     8.3177     8.8415    16.6477     7.7640   117.4361     0.0114     2.4661     0.1112
  110.0000   -45.0885     8.5546     8.9044    15.8710     7.7642   117.1437     0.0099     2.4586     0.1142
  110.5000   -45.2232     8.5587     8.8444    16.5561     7.7643   118.7989     0.0084     2.4548     0.1130
  111.0000   -45.2076     8.5628     8.6725    16.3406     7.7496   119.1044     0.0130     2.4593     0.1103
  111.5000   -45.1928     8.4494     8.6182    15.4738     7.7497   117.4711     0.0161     2.4677     0.1076
  112.0000   -45.1779     8.3378     8.5642    15.2697     7.7349   116.7324     0.0206     2.4735     0.1043
  112.5000   -45.1631     8.1709     8.5697    15.8194     7.7201   117.5137     0.0237     2.4773     0.1019
  113.0000   -45.1482     8.0073     8.7047    15.3994     7.7203   118.7474     0.0252     2.4795     0.1005
  113.5000   -45.2827     7.7931     9.1304    14.5826     7.7205   119.5988     0.0267     2.4818     0.0999
  114.0000   -45.2673     7.5847     9.2631    14.6937     7.7206   118.7129     0.0264     2.4833     0.0993
  114.5000   -45.2525     7.4329     9.2687    14.9082     7.7357   118.2732     0.0243     2.4840     0.0990
  115.0000   -45.3864     7.3346     9.0783    14.3136     7.7358   118.5809     0.0224     2.4840     0.0990
  115.5000   -45.3703     7.2376     8.8424    13.8379     7.7340   119.3371     0.0224     2.4840     0.0987
  116.0000   -45.3567     7.1418     8.7266    13.7499     7.7361   120.3922     0.0225     2.4841     0.0978
  116.5000   -45.3418     7.0961     9.2350    13.6648     7.7363   120.1020     0.0225     2.4847     0.0972
  117.0000   -45.4762     7.0023     9.2336    13.5802     7.7364   120.2602     0.0241     2.4862     0.0960
  117.5000   -45.4609     7.0057     8.9876    13.3136     7.7515   121.1734     0.0241     2.4877     0.0948
  118.0000   -45.4461     7.0091     8.7483    13.1402     7.7367   121.1311     0.0272     2.4892     0.0936
  118.5000   -45.4312     7.0124     8.6862    13.1493     7.7369   119.5413     0.0272     2.4817     0.0978
  119.0000   -45.4164     7.0158     8.6390    13.1585     7.7221   118.2047     0.0272     2.4697     0.1050
  119.5000   -45.4003     7.0706     8.6523    13.2587     7.7073   116.4198     0.0273     2.4629     0.1101
  120.0000   -45.3867     7.1235     8.7179    13.2679     7.6925   117.4749     0.0273     2.4592     0.1116
  120.5000   -45.3706     7.1767     9.0385    13.4616     7.6927   119.5763     0.0289     2.4577     0.1119
  121.0000   -45.3557     7.2761     9.5489    13.6581     7.6928   120.0335     0.0304     2.4585     0.1113
  121.5000   -45.1933     7.2796     9.6783    13.8574     7.6930   119.4443     0.0305     2.4636     0.1092
  122.0000   -45.1772     7.3390     9.5513    13.6747     7.6932   118.9925     0.0305     2.4681     0.1069
  122.5000   -45.1636     7.8391     9.4914    14.3637     7.6933   119.0134     0.0306     2.4711     0.1045
  123.0000   -45.1475     9.0445     9.4320    14.9811     7.6636   117.9422     0.0276     2.4749     0.1036
  123.5000   -45.1339     9.3034     9.5035    14.2847     7.6040   116.0436     0.0246     2.4756     0.1027
  124.0000   -45.1178     9.7026     9.9448    14.3936     7.5892   114.2586     0.0202     2.4756     0.1012
  124.5000   -45.1041    10.0970    10.4088    14.9091     7.6342   113.2210     0.0172     2.4786     0.0973
  125.0000   -45.0880    10.1018    10.4875    14.9194     7.6791   112.7814     0.0190     2.4876     0.0925
  125.5000   -45.0744    10.1067    10.4215    15.3475     7.7091   112.9396     0.0233     2.4984     0.0856
  126.0000   -45.2084     9.7988    10.3441    15.5661     7.7391   112.9484     0.0279     2.5086     0.0812
  126.5000   -45.1935     9.1481    10.1502    14.3442     7.7393   112.0603     0.0309     2.5154     0.0776
  127.0000   -45.1786     8.4602    10.1695    13.9610     7.7394   112.6669     0.0325     2.5214     0.0758
  127.5000   -45.3126     8.1772    10.4477    14.0699     7.7396   113.7220     0.0340     2.5229     0.0767
  128.0000   -45.2976     8.2378    10.7469    14.8760     7.7397   115.8475     0.0326     2.5161     0.0809
  128.5000   -45.2827     8.8916    10.9175    14.3815     7.7399   116.2806     0.0310     2.5086     0.0833
  129.0000   -45.2679     9.2719    10.9855    13.9998     7.7400   115.6937     0.0266     2.5041     0.0848
  129.5000   -45.2530     9.3405    10.8269    13.8175     7.7402   115.1045     0.0252     2.5011     0.0857
  130.0000   -45.2381     9.2170    10.4094    14.6117     7.7403   114.5154     0.0267     2.5012     0.0863
  130.5000   -45.2232     8.8475     9.9932    14.3223     7.7404   113.9262     0.0283     2.5057     0.0854
  131.0000   -45.2083     8.3764     9.7270    13.4694     7.7406   113.4844     0.0313     2.5100     0.0829
  131.5000   -45.1935     7.5046     9.5981    13.5720     7.7258   114.0932     0.0344     2.5145     0.0803
  132.0000   -45.1786     6.5405     9.6721    14.6522     7.7409   115.1483     0.0344     2.5153     0.0791
  132.5000   -45.1637     6.4089     9.8127    15.4944     7.7261   115.6129     0.0315     2.5100     0.0812
  133.0000   -45.1488     6.7766     9.7512    15.6125     7.7114   114.5541     0.0285     2.5063     0.0839
  133.5000   -45.1339     7.3651     9.6220    14.9898     7.6965   113.1674     0.0270     2.5025     0.0857
  134.0000   -44.9702     8.0600     9.4974    15.3139     7.6967   111.4486     0.0286     2.4995     0.0872
  134.5000   -44.9554     8.6399     9.5033    15.7533     7.7118   110.8573     0.0301     2.4987     0.0881
  135.0000   -44.9405     9.1978     9.5092    15.5482     7.7119   110.5671     0.0317     2.5012     0.0866
  135.5000   -44.9256     9.7244     9.6474    15.4520     7.7270   110.7275     0.0347     2.5085     0.0821
  136.0000   -44.9107    10.1403     9.9924    15.6775     7.7122   110.7362     0.0378     2.5160     0.0771
  136.5000   -44.8958    10.5013    10.4938    16.4646     7.7124   110.7450     0.0408     2.5235     0.0726
  137.0000   -44.8571    10.4328    11.1734    18.1468     7.6976   110.7538     0.0439     2.5325     0.0687
  137.5000   -44.7166    10.3661    11.8972    17.9105     7.6978   110.9120     0.0469     2.5437     0.0654
  138.0000   -44.7024    10.4441    12.6678    16.8439     7.6979   111.2197     0.0455     2.5490     0.0624
  138.5000   -44.6869    10.5944    13.9620    16.8556     7.6981   111.7265     0.0395     2.5355     0.0615
  139.0000   -44.6726    10.8960    14.2631    17.1016     7.7281   113.4816     0.0335     2.5219     0.0708
  139.5000   -44.6577    11.2063    14.3708    17.9602     7.7431   114.0882     0.0291     2.5097     0.0777
  140.0000   -44.4911    11.3675    14.6807    18.2224     7.7582   112.1538     0.0260     2.4979     0.0840
  140.5000   -44.4762    11.3730    15.2058    17.9851     7.7584   101.6992     0.0217     2.4889     0.0891
  141.0000   -44.4614    11.2989    14.8008    17.9976     7.7585    97.3731     0.0202     2.4821     0.0948
  141.5000   -44.4465    11.1507    14.7058    18.0101     7.7437    95.8871     0.0173     2.4769     0.1002
  142.0000   -44.4317    11.0781    15.0252    17.8972     7.7439    96.3443     0.0173     2.4738     0.1029
  142.5000   -44.4168    11.0072    14.4245    17.6641     7.7441    98.4457     0.0173     2.4738     0.1044
  143.0000   -44.4019    11.0138    14.8376    18.2338     7.7442    99.7998     0.0174     2.4738     0.1047
