~VERSION INFORMATION
 VERS.                2.0:   CWLS LOG ASCII STANDARD - VERSION 2.0
 WRAP.                 NO:   ONE LINE PER DEPTH STEP
~WELL INFORMATION
#MNEM.UNIT      DATA TYPE    INFORMATION
#----------   ------------   ------------------------------
 STRT.F           97.0000:   START DEPTH
 STOP.F          756.0000:   STOP DEPTH
 STEP.F            0.5000:   STEP LENGTH
 NULL.          -999.2500:   NO VALUE
 COMP.   FLUOR DANIEL INC:   COMPANY
 WELL. NAVAL PETROLEUM RESERVE 3 61-1 #1-34:   WELL
 FLD .             TEAPOT:   FIELD
 LOC .      S34 T39N R78W:   LOCATION
 CNTY.            NATRONA:   COUNTY
 STAT.            WYOMING:   STATE
 CTRY. UNITED STATES OF AMERICA:   COUNTRY
 SRVC.            Unknown:   SERVICE COMPANY
 DATE.        25-OCT-1994:   LOGDATE
 API .       490252266500:   API NUMBER
~CURVE INFORMATION
#MNEM.UNIT       API CODE    CURVE DESCRIPTION
#----------   ------------   ------------------------------
 DEPT.F                  :   
 GR  .GAPI   35 310 01 00:   GAMMA RAY
 NEUT.NAPI   35 330 01 00:   NEUTRON
~PARAMETER INFORMATION
#MNEM.UNIT          VALUE    DESCRIPTION
#----------   ------------   ------------------------------
 PD  .                 GL:   PERMANENT DATUM
 EPD .F              5031:   ELEVATION PERMANENT DATUM
 LMF .                 KB:   LOG MEASURED FROM
 DAPD.F                10:   FEET ABOVE PERMANENT DATUM
 DMF .                 KB:   DRILLING MEASURED FROM
 EKB .F              5041:   KELLING BUSHING
 EGL .F              5031:   GROUND LEVEL
 DATE.           10-25-94:   RUN DATE
 RUN .                  1:   RUN NUMBER
 DD  .F              2440:   DEPTH DRILLER
 DL  .F               764:   DEPTH LOGGER
 BLI .F               756:   BOTTOM LOG INTERVAL
 DFT .              WATER:   DRILLING FLUID TYPE
 TCS .HRS            1000:   TIME CURCULATED STOPPED
 TLAB.HRS            1030:   TIME LOGGER AT BOTTOM
 LUN .                509:   LOGGING UNIT NUMBER
 LUL .           GILLETTE:   LOGGING UNIT LOCATION
 ENGI.            T. FINK:   RECORDING ENGINEER
 WITN.           S. HARDY:   WITNESSED BY
 CLNT.            A2DTECH:   CLIENT CODE
 ORIG.           5" PRINT:   ORIGIN OF DATA
 UWI .       490252266500:   UNIQUE WELL ID
 DICO. A2D Technologies, Inc.:   DIGITIZING COMPANY
~OTHER INFORMATION
~A   DEPT        GR       NEUT  
# ...
  218.5000   133.0233   216.7861
  219.0000   129.8319   215.7175
  219.5000   126.6362   214.5236
  220.0000   124.3745   211.5644
  220.5000   130.7743   208.5230
  221.0000   136.8245   208.0675
  221.5000   136.6674   214.7268
  222.0000   132.6547   215.9499
  222.5000   132.8905   218.4065
  223.0000   135.0628   220.8104
  223.5000   134.3274   220.8033
  224.0000   131.2149   224.3727
  224.5000   128.1474   226.2602
  225.0000   127.8980   227.8677
  225.5000   128.2958   225.5811
  226.0000   127.6618   222.5885
  226.5000   124.5231   221.5330
  227.0000   125.2821   220.5998
  227.5000   131.5700   221.7040
  228.0000   131.4219   224.2609
  228.5000   131.6914   224.7013
  229.0000   132.1379   225.6045
  229.5000   130.3095   228.2133
  230.0000   130.2831   230.7481
  230.5000   131.6825   233.1535
  231.0000   129.0924   230.7906
  231.5000   126.6417   224.8068
  232.0000   125.5852   223.1694
  232.5000   124.5337   219.7105
  233.0000   127.0412   216.1385
  233.5000   131.4876   221.3207
  234.0000   132.3494   220.9928
  234.5000   131.1963   225.6644
  235.0000   130.0478   230.3803
  235.5000   129.0668   233.4162
  236.0000   130.0723   235.0681
  236.5000   129.9065   236.6879
  237.0000   129.5627   238.2976
  237.5000   128.8745   239.7485
  238.0000   127.8100   240.0401
  238.5000   126.7495   239.1683
  239.0000   125.6431   237.4385
  239.5000   125.4178   239.0451
  240.0000   126.5841   245.6089
  240.5000   127.8595   244.3905
  241.0000   130.9802   240.4217
  241.5000   134.6252   236.3826
  242.0000   136.5560   234.6081
  242.5000   135.1456   233.2467
  243.0000   135.9792   236.1090
  243.5000   136.5448   239.8263
  244.0000   131.4718   244.1479
  244.5000   130.5578   250.6347
  245.0000   130.2837   249.7352
  245.5000   128.7027   248.4349
  246.0000   130.6728   247.2510
  246.5000   130.3681   247.3446
  247.0000   129.2184   247.6132
  247.5000   133.6133   248.9533
  248.0000   138.3008   251.9983
  248.5000   134.2958   254.9864
  249.0000   134.5341   253.8739
  249.5000   136.3751   252.2919
  250.0000   139.2562   249.4581
  250.5000   137.9820   245.0894
  251.0000   135.0928   238.5973
  251.5000   132.0366   239.5117
  252.0000   134.0454   239.6141
  252.5000   134.4117   243.6193
  253.0000   133.5247   247.7883
  253.5000   136.7509   248.9193
  254.0000   135.0458   249.2220
  254.5000   129.8430   248.7099
  255.0000   135.1275   244.9238
  255.5000   132.0526   240.8643
  256.0000   129.0726   237.7852
  256.5000   126.0342   238.5247
  257.0000   125.8274   239.7314
  257.5000   128.6937   233.6728
  258.0000   130.0014   233.2381
  258.5000   131.0943   234.4482
  259.0000   136.1684   230.0961
  259.5000   129.7776   226.7543
  260.0000   126.3653   226.0459
  260.5000   128.0741   226.2624
  261.0000   129.2029   228.2449
  261.5000   127.8276   227.1562
  262.0000   126.9133   227.8953
  262.5000   126.7064   228.0897
  263.0000   125.9357   225.2342
  263.5000   124.4963   222.7424
  264.0000   128.4207   226.7933
  264.5000   133.9827   231.0788
  265.0000   139.2395   235.3481
  265.5000   138.4666   236.8661
  266.0000   135.5768   235.7265
  266.5000   133.3470   234.7855
  267.0000   133.4029   238.0983
  267.5000   132.5758   240.0185
  268.0000   131.4633   242.8904
  268.5000   132.3802   248.3012
  269.0000   133.3477   253.0827
  269.5000   134.3123   250.3608
  270.0000   134.8920   246.5292
  270.5000   132.2651   238.8595
  271.0000   129.7894   231.4081
  271.5000   134.1854   223.8277
  272.0000   140.7533   223.8391
  272.5000   140.6195   227.1030
  273.0000   135.7960   230.4543
  273.5000   136.9943   233.8129
  274.0000   139.7793   237.1699
  274.5000   141.8750   240.0712
  275.0000   142.0058   238.4647
  275.5000   142.1762   237.8855
  276.0000   142.1724   238.7619
  276.5000   138.3331   240.7598
  277.0000   136.8647   241.3653
  277.5000   143.8446   238.5656
  278.0000   137.8220   237.3030
  278.5000   130.4349   239.6735
  279.0000   125.1124   239.0237
  279.5000   129.0611   238.5204
  280.0000   129.1745   242.0716
  280.5000   129.3497   237.7036
  281.0000   130.0880   232.4583
  281.5000   130.9851   233.8404
  282.0000   131.9512   236.1198
  282.5000   137.7651   236.8932
  283.0000   136.5713   234.5869
  283.5000   133.5352   234.0493
  284.0000   134.0575   234.1043
  284.5000   138.3892   230.7174
  285.0000   142.7106   228.9739
  285.5000   146.7655   230.1684
  286.0000   143.8179   231.5568
  286.5000   141.1448   234.1214
  287.0000   143.8011   236.5094
  287.5000   143.0349   235.2698
  288.0000   141.1687   235.0409
  288.5000   139.2787   240.2285
  289.0000   137.8083   243.1590
  289.5000   139.1840   238.5012
  290.0000   140.5815   234.0539
  290.5000   141.9903   231.6132
  291.0000   141.7033   230.4473
  291.5000   141.0852   230.2515
  292.0000   142.0912   233.7535
  292.5000   140.1389   237.2268
  293.0000   138.6134   234.7490
  293.5000   136.7742   231.2866
  294.0000   133.9327   227.7893
  294.5000   135.8694   224.6792
  295.0000   136.6179   226.3624
  295.5000   135.7676   228.1200
  296.0000   135.0520   228.5173
  296.5000   135.8793   228.1566
  297.0000   136.7579   230.4644
  297.5000   135.7133   228.4681
  298.0000   133.9357   229.0049
  298.5000   133.7176   232.4879
  299.0000   138.5386   230.6104
  299.5000   141.7458   229.9464
  300.0000   139.3716   229.3579
  300.5000   139.0692   228.7157
  301.0000   140.7140   230.3534
  301.5000   135.2254   230.8849
  302.0000   141.9939   229.4470
  302.5000   131.9856   228.0528
  303.0000   138.2771   230.1955
  303.5000   138.0743   235.5789
  304.0000   135.6479   233.6765
  304.5000   133.1523   233.6600
  305.0000   130.8789   235.0519
  305.5000   138.0320   232.6728
  306.0000   130.8615   230.3231
  306.5000   134.1565   233.6713
  307.0000   135.4465   226.0488
  307.5000   129.3590   219.1589
  308.0000   136.3396   220.1461
  308.5000   136.1332   220.9442
  309.0000   135.1180   220.5787
  309.5000   135.9436   221.3366
  310.0000   136.9970   223.1450
  310.5000   139.9526   222.8003
  311.0000   143.7162   222.0231
  311.5000   145.3946   222.9203
  312.0000   142.6622   227.1813
  312.5000   140.2526   227.3939
  313.0000   140.1454   227.9278
  313.5000   142.8241   237.1720
  314.0000   146.7743   239.2531
  314.5000   150.7161   232.1668
  315.0000   152.1744   227.3018
  315.5000   146.9814   224.2119
  316.0000   145.4386   223.5156
  316.5000   147.1370   222.7800
  317.0000   147.8201   222.8588
  317.5000   152.1973   223.3390
  318.0000   154.9153   224.6791
  318.5000   149.3089   226.4445
  319.0000   148.6268   228.1092
  319.5000   146.5399   235.4570
  320.0000   143.4046   243.8385
  320.5000   141.1968   238.7698
  321.0000   138.9964   231.2328
  321.5000   139.6055   231.4774
  322.0000   141.8647   233.4754
  322.5000   140.1944   231.3026
  323.0000   137.8071   228.8111
  323.5000   140.7075   236.2054
  324.0000   144.4096   243.7927
  324.5000   144.9358   241.5415
  325.0000   137.5757   239.3206
  325.5000   135.8069   237.2225
  326.0000   136.6570   237.3944
  326.5000   138.8398   237.5933
  327.0000   139.9842   236.0567
  327.5000   136.1574   234.4422
  328.0000   134.3268   234.4013
  328.5000   135.7494   239.2379
  329.0000   135.1664   240.8030
  329.5000   137.0056   240.2550
  330.0000   139.1793   239.6555
  330.5000   131.6940   240.7525
  331.0000   135.6160   244.1131
  331.5000   130.4983   247.4757
  332.0000   128.5090   248.0529
  332.5000   130.2699   244.8889
  333.0000   132.8029   246.3113
  333.5000   136.7038   246.2365
  334.0000   140.5638   236.4165
  334.5000   143.9000   230.1078
  335.0000   142.3383   234.9532
  335.5000   144.0755   239.9657
  336.0000   144.8365   240.5852
  336.5000   141.2161   240.9613
  337.0000   140.8921   241.3487
  337.5000   134.9832   241.3952
  338.0000   135.4132   239.3697
  338.5000   137.0692   237.9563
  339.0000   136.9831   240.5180
  339.5000   135.6768   243.0837
