~VERSION INFORMATION
 VERS.                2.0:   CWLS LOG ASCII STANDARD - VERSION 2.0
 WRAP.                 NO:   ONE LINE PER DEPTH STEP
~WELL INFORMATION
#MNEM.UNIT      DATA TYPE    INFORMATION
#----------   ------------   ------------------------------
 STRT.F           31.0000:   START DEPTH
 STOP.F          590.0000:   STOP DEPTH
 STEP.F            0.1000:   STEP LENGTH
 NULL.          -999.2500:   NO VALUE
 COMP. LAWRENCE/ALLISON INC:   COMPANY
 WELL. NPR 3 73-61 SX #3-3:   WELL
 FLD .             TEAPOT:   FIELD
 LOC .       S3 T38N R78W:   LOCATION
 CNTY.            NATRONA:   COUNTY
 STAT.            WYOMING:   STATE
 CTRY. UNITED STATES OF AMERICA:   COUNTRY
 SRVC.           Gearhart:   SERVICE COMPANY
 DATE.        14-AUG-1988:   LOGDATE
 API .       490251124200:   API NUMBER
~CURVE INFORMATION
#MNEM.UNIT       API CODE    CURVE DESCRIPTION
#----------   ------------   ------------------------------
 DEPT.F                  :   
 GRR .GAPI   07 310 01 00:   GAMMA RAY
 RILD.OHMM   07 120 46 00:   INDUCTION LOG DEEP RESISTIVITY
 RILM.OHMM   07 120 44 00:   INDUCTION LOG MEDIUM RESISTIVITY
~PARAMETER INFORMATION
#MNEM.UNIT          VALUE    DESCRIPTION
#----------   ------------   ------------------------------
 PD  .                 GL:   PERMANENT DATUM
 EPD .F              5136:   ELEVATION PERMANENT DATUM
 LMF .                 KB:   LOG MEASURED FROM
 DAPD.F                10:   FEET ABOVE PERMANENT DATUM
 DMF .                 KB:   DRILLING MEASURED FROM
 EKB .F              5146:   KELLING BUSHING
 EDF .F              5144:   DRILLING FLOOR
 EGL .F              5136:   GROUND LEVEL
 DATE.        14-AUG-1988:   RUN DATE
 RUN .                  1:   RUN NUMBER
 DD  .F               597:   DEPTH DRILLER
 DL  .F               598:   DEPTH LOGGER
 BLI .F               590:   BOTTOM LOG INTERVAL
 TLI .F                50:   TOP LOG INTERVAL
 CS  .IN            9.625:   CASING SIZE
 CBD .F                50:   CASING BOTTOM DRILLER
 CBL .F                50:   CASING BOTTOM LOGGER
 BS  .IN             8.75:   BIT SIZE
 BSD .F               597:   BIT SIZE AT DEPTH
 DFT .                AIR:   DRILLING FLUID TYPE
 TCS .HRS            1930:   TIME CURCULATED STOPPED
 TLAB.HRS            2030:   TIME LOGGER AT BOTTOM
 MRT .F                70:   MAXIMUM RECORDED TEMPERATURE
 LUN .               7597:   LOGGING UNIT NUMBER
 LUL .           GILLETTE:   LOGGING UNIT LOCATION
 ENGI.         WEATHERMON:   RECORDING ENGINEER
 WITN.             STRONG:   WITNESSED BY
 CLNT.            A2DTECH:   CLIENT CODE
 ORIG.           5" PRINT:   ORIGIN OF DATA
 UWI .       490251124200:   UNIQUE WELL ID
 DICO. A2D Technologies, Inc.:   DIGITIZING COMPANY
~OTHER INFORMATION
~A   DEPT       GRR      RILD       RILM   
# ...
  304.0000   115.7423     9.0459     8.9114
  304.1000   115.9998     9.0453     8.9105
  304.2000   116.1390     9.0446     8.9097
  304.3000   116.0004     9.0440     8.8997
  304.4000   115.4706     9.0434     8.8464
  304.5000   114.6377     9.0427     8.8455
  304.6000   114.1798     8.9983     8.8446
  304.7000   113.6735     8.9790     8.8438
  304.8000   113.0319     8.9784     8.8429
  304.9000   112.4470     8.9777     8.8303
  305.0000   112.1954     8.9772     8.7801
  305.1000   111.9366     8.9765     8.7791
  305.2000   111.4448     8.9759     8.7784
  305.3000   111.1386     8.9753     8.7775
  305.4000   110.8871     8.9747     8.7767
  305.5000   110.6355     8.9571     8.7759
  305.6000   110.3838     8.9114     8.7703
  305.7000   110.1419     8.9107     8.7134
  305.8000   110.1455     8.9101     8.7126
  305.9000   110.3648     8.9096     8.7118
  306.0000   110.7915     8.8794     8.7110
  306.1000   111.1821     8.8467     8.6932
  306.2000   111.5878     8.8461     8.6491
  306.3000   112.3278     8.8452     8.6482
  306.4000   112.8824     8.7837     8.5994
  306.5000   113.3525     8.7832     8.5868
  306.6000   113.8646     8.7825     8.5860
  306.7000   114.3766     8.7595     8.5659
  306.8000   114.7979     8.7207     8.5249
  306.9000   115.0121     8.7201     8.5241
  307.0000   115.0152     8.7193     8.5232
  307.1000   115.2688     8.6745     8.4820
  307.2000   115.5264     8.6580     8.4628
  307.3000   115.7839     8.6324     8.4404
  307.4000   115.9335     8.5969     8.4026
  307.5000   115.9969     8.5904     8.3989
  307.6000   116.2417     8.5363     8.3428
  307.7000   116.2451     8.5358     8.3421
  307.8000   116.2477     8.4983     8.3084
  307.9000   116.2508     8.4756     8.2829
  308.0000   116.2538     8.4570     8.2676
  308.1000   116.2568     8.4072     8.2240
  308.2000   116.2599     8.3571     8.2232
  308.3000   116.2631     8.3565     8.1784
  308.4000   116.2658     8.3171     8.1648
  308.5000   116.0795     8.2681     8.1382
  308.6000   115.9698     8.2195     8.1068
  308.7000   115.9728     8.1601     8.0983
  308.8000   115.9290     8.0668     8.0492
  308.9000   115.6767     8.0125     8.0028
  309.0000   115.3782     7.9721     7.9556
  309.1000   115.3807     7.9252     7.9086
  309.2000   115.2250     7.8567     7.8804
  309.3000   114.9733     7.7780     7.8697
  309.4000   114.7855     7.7322     7.8232
  309.5000   114.7725     7.6827     7.7695
  309.6000   114.4898     7.6010     7.7311
  309.7000   114.4925     7.5440     7.6854
  309.8000   114.4955     7.4763     7.6399
  309.9000   114.3705     7.4039     7.5947
  310.0000   114.1994     7.3536     7.5499
  310.1000   114.2024     7.2651     7.5003
  310.2000   114.2056     7.1829     7.4608
  310.3000   114.2085     7.0991     7.4168
  310.4000   114.2115     7.0163     7.3512
  310.5000   114.2145     6.9344     7.2788
  310.6000   114.1201     6.8450     7.2357
  310.7000   113.9178     6.7266     7.1905
  310.8000   113.9214     6.6354     7.1114
  310.9000   113.9250     6.5069     7.0283
  311.0000   113.7180     6.3804     6.9461
  311.1000   113.6284     6.2526     6.8649
  311.2000   113.6315     6.1078     6.7775
  311.3000   113.5676     5.9662     6.6585
  311.4000   113.3160     5.8138     6.5206
  311.5000   113.0366     5.6936     6.4293
  311.6000   113.0393     5.5620     6.2949
  311.7000   112.8635     5.4495     6.1491
  311.8000   112.7432     5.3444     6.0066
  311.9000   112.7462     5.2249     5.8688
  312.0000   112.7492     5.1294     5.7520
  312.1000   112.7524     5.0166     5.6381
  312.2000   112.7553     4.9223     5.5077
  312.3000   112.7583     4.8048     5.3802
  312.4000   112.7614     4.6765     5.2555
  312.5000   112.7644     4.5630     5.1337
  312.6000   112.7673     4.4313     5.0041
  312.7000   112.7704     4.3107     4.8733
  312.8000   112.7739     4.2090     4.7330
  312.9000   112.7764     4.0877     4.5689
  313.0000   112.6143     3.9800     4.3855
  313.1000   112.4804     3.8766     4.2057
  313.2000   112.4834     3.7426     4.0058
  313.3000   112.4411     3.5980     3.8520
  313.4000   111.8855     3.5072     3.7143
  313.5000   111.4290     3.3927     3.5863
  313.6000   111.1050     3.2851     3.4625
  313.7000   110.7189     3.1961     3.3469
  313.8000   110.2997     3.1220     3.2502
  313.9000   110.0086     3.0450     3.1403
  314.0000   109.4865     2.9472     3.0513
  314.1000   109.2430     2.8828     2.9677
  314.2000   108.9914     2.8235     2.8916
  314.3000   108.5883     2.7581     2.8082
  314.4000   108.2900     2.6970     2.7270
  314.5000   108.2368     2.6495     2.6389
  314.6000   107.9851     2.5948     2.5723
  314.7000   107.6953     2.5705     2.4983
  314.8000   107.6979     2.5314     2.4262
  314.9000   107.5325     2.4996     2.3603
  315.0000   107.2809     2.4815     2.3056
  315.1000   107.0294     2.4532     2.2485
  315.2000   106.8033     2.4367     2.2240
  315.3000   106.8069     2.4244     2.1981
  315.4000   106.5768     2.4196     2.1724
  315.5000   106.3252     2.4194     2.1470
  315.6000   106.0738     2.4193     2.1240
  315.7000   105.7321     2.4191     2.1112
  315.8000   105.2257     2.4189     2.0990
  315.9000   104.7100     2.4317     2.0865
  316.0000   104.2136     2.4354     2.0742
  316.1000   103.7072     2.4429     2.0620
  316.2000   103.2010     2.4571     2.0551
  316.3000   102.8022     2.4712     2.0678
  316.4000   102.4910     2.4859     2.1061
  316.5000   102.0089     2.4999     2.1444
  316.6000   102.0125     2.5144     2.1827
  316.7000   102.0151     2.5378     2.2209
  316.8000   102.1897     2.5674     2.2592
  316.9000   102.4473     2.5974     2.2975
  317.0000   102.8582     2.6277     2.3358
  317.1000   103.7119     2.6631     2.3741
  317.2000   105.3537     2.6894     2.4124
  317.3000   107.2442     2.7312     2.4506
  317.4000   108.7189     2.7716     2.4889
  317.5000   109.7131     2.8085     2.5464
  317.6000   110.5731     2.8594     2.6159
  317.7000   111.5942     2.9335     2.6773
  317.8000   112.6224     2.9800     2.7422
  317.9000   113.5323     3.0324     2.8855
  318.0000   113.9455     3.0953     3.0048
  318.1000   114.6158     3.1682     3.1158
  318.2000   115.3828     3.2426     3.2269
  318.3000   116.0865     3.3222     3.3379
  318.4000   116.5985     3.3972     3.4490
  318.5000   117.1756     3.5090     3.5600
  318.6000   117.4007     3.6213     3.6711
  318.7000   117.6582     3.7282     3.7821
  318.8000   117.9158     3.8381     3.8932
  318.9000   118.0937     3.9511     4.0042
  319.0000   118.1290     4.0885     4.1153
  319.1000   118.4020     4.2090     4.2394
  319.2000   118.4049     4.3282     4.2830
  319.3000   118.4079     4.4322     4.3592
  319.4000   118.4109     4.5362     4.4472
  319.5000   118.4139     4.6402     4.5353
  319.6000   118.3677     4.7442     4.6234
  319.7000   118.1178     4.8482     4.7115
  319.8000   118.1214     4.9522     4.7996
  319.9000   118.1239     5.0562     4.8877
  320.0000   118.1269     5.1602     4.9758
  320.1000   118.1299     5.2642     5.0638
  320.2000   118.1329     5.3682     5.1519
  320.3000   118.1359     5.4723     5.2400
  320.4000   118.1393     5.5763     5.3281
  320.5000   118.3675     5.6803     5.4162
  320.6000   118.4471     5.7843     5.5043
  320.7000   118.5807     5.8883     5.5924
  320.8000   118.7553     5.9923     5.6804
  320.9000   118.7937     6.0963     5.7685
  321.0000   119.0636     6.2003     5.8566
  321.1000   119.3090     6.3043     5.9447
  321.2000   119.5666     6.3793     6.0328
  321.3000   119.8243     6.4253     6.1209
  321.4000   120.0819     6.4982     6.2090
  321.5000   120.3919     6.5409     6.2970
  321.6000   120.9039     6.5736     6.3492
  321.7000   121.5020     6.6379     6.3669
  321.8000   121.7165     6.6961     6.3781
  321.9000   122.1385     6.7230     6.4100
  322.0000   122.5337     6.7269     6.4093
  322.1000   122.8605     6.7689     6.4439
