~VERSION INFORMATION
 VERS.                2.0:   CWLS LOG ASCII STANDARD - VERSION 2.0
 WRAP.                 NO:   ONE LINE PER DEPTH STEP
~WELL INFORMATION
#MNEM.UNIT      DATA TYPE    INFORMATION
#----------   ------------   ------------------------------
 STRT.F           17.0000:   START DEPTH
 STOP.F         1345.0000:   STOP DEPTH
 STEP.F            0.5000:   STEP LENGTH
 NULL.          -999.2500:   NO VALUE
 COMP. DEPARTMENT OF ENERGY:   COMPANY
 WELL. RES 3 TEAPOT DOME ##86S-11:   WELL
 FLD .             TEAPOT:   FIELD
 LOC .      S11 T38N R78W:   LOCATION
 CNTY.            NATRONA:   COUNTY
 STAT.            WYOMING:   STATE
 CTRY. UNITED STATES OF AMERICA:   COUNTRY
 SRVC.       Schlumberger:   SERVICE COMPANY
 DATE.        13-AUG-1959:   LOGDATE
 API .       490250633200:   API NUMBER
~CURVE INFORMATION
#MNEM.UNIT       API CODE    CURVE DESCRIPTION
#----------   ------------   ------------------------------
 DEPT.F                  :   
 SPR .MV     05 010 01 00:   SPONTANEOUS POTENTIAL FROM RES.
 CILD.MMHO   05 110 46 00:   CONDUCTIVITY INDUCTION LOG DEEP
 ILD .OHMM   05 120 46 00:   INDUCTION LOG DEEP
 ASN .OHMM   05 041 16 00:   AMPLIFIED SHORT NORMAL 16"
~PARAMETER INFORMATION
#MNEM.UNIT          VALUE    DESCRIPTION
#----------   ------------   ------------------------------
 PD  .                 GL:   PERMANENT DATUM
 EPD .F              5295:   ELEVATION PERMANENT DATUM
 LMF .                 KB:   LOG MEASURED FROM
 DAPD.F                 4:   FEET ABOVE PERMANENT DATUM
 DMF .                 KB:   DRILLING MEASURED FROM
 EKB .F              5299:   KELLING BUSHING
 EGL .F              5295:   GROUND LEVEL
 DATE.            8-13-59:   RUN DATE
 RUN .                  1:   RUN NUMBER
 DD  .F              1350:   DEPTH DRILLER
 DL  .F              1350:   DEPTH LOGGER
 BLI .F              1345:   BOTTOM LOG INTERVAL
 TLI .F                17:   TOP LOG INTERVAL
 CBD .F                17:   CASING BOTTOM DRILLER
 CBL .F                17:   CASING BOTTOM LOGGER
 BS  .IN             6.75:   BIT SIZE
 BSD .F              1350:   BIT SIZE AT DEPTH
 DFT .                GEL:   DRILLING FLUID TYPE
 DFD .                9.8:   DRILLING FLUID DENSITY
 DFV .                 65:   DRILLING FLUID VISCOSITY
 DFPH.                9.5:   DRILLING FLUID PH
 DFL .                5.4:   DRILLING FLUID LOSS
 RMS .OHMM           2.84:   RESISTIVITY MUD SAMPLE
 MST .F                69:   MUD SAMPLE TEMPERATURE
 RMF .OHMM            2.5:   RESISTIVITY MUD FILTRATE SAMPLE
 MFST.F                69:   MUD FILTRATE SAMPLE TEMPERATURE
 RMC .OHMM           2.46:   RESISTIVITY MUD CAKE
 MCST.F                69:   MUD CAKE SAMPLE TEMPERATURE
 MFSS.                  M:   MUD FILTRATE SAMPLE SOURCE
 MCSS.                  M:   MUD CAKE SAMPLE SOURCE
 TCS .HRS               1:   TIME CURCULATED STOPPED
 LUN .               2523:   LOGGING UNIT NUMBER
 LUL .               CSPR:   LOGGING UNIT LOCATION
 ENGI.             KNOBEL:   RECORDING ENGINEER
 WITN.             MARTIN:   WITNESSED BY
 CLNT.            A2DTECH:   CLIENT CODE
 ORIG.         2"5" PRINT:   ORIGIN OF DATA
 UWI .       490250633200:   UNIQUE WELL ID
 DICO. A2D Technologies, Inc.:   DIGITIZING COMPANY
~OTHER INFORMATION
~A   DEPT      SPR        CILD         ILD      ASN   
# ...
  455.0000   -21.0878   159.7056     6.8692     7.5369
  455.5000   -21.2372   156.1059     7.0128     7.7599
  456.0000   -21.3793   152.5062     7.1569     7.9674
  456.5000   -21.5176   148.9065     7.3032     8.0241
  457.0000   -21.6590   145.1804     7.4360     7.9888
  457.5000   -21.7967   142.1412     7.4215     7.9163
  458.0000   -21.9403   138.8651     7.3860     7.8393
  458.5000   -22.0737   138.9241     7.3528     7.8038
  459.0000   -22.2309   139.0527     7.3227     7.8510
  459.5000   -22.3341   139.1812     7.2828     7.8976
  460.0000   -22.3128   139.3098     7.2949     7.9463
  460.5000   -22.3371   139.4384     7.3558     7.9945
  461.0000   -22.1915   139.5669     7.4229     8.0419
  461.5000   -21.9617   139.6955     7.4210     8.0935
  462.0000   -21.7702   140.4730     7.3320     8.1094
  462.5000   -21.5609   142.0729     7.2563     8.0153
  463.0000   -21.3647   143.6728     7.1739     7.8419
  463.5000   -21.1563   145.2727     7.0944     7.6724
  464.0000   -20.9643   146.9848     7.0147     7.4973
  464.5000   -20.7238   150.6666     6.9324     7.3365
  465.0000   -20.7463   154.6263     6.8562     7.2689
  465.5000   -21.0758   158.5860     6.7667     7.1412
  466.0000   -21.4021   162.5457     6.7372     7.0712
  466.5000   -21.6370   165.0491     6.7805     7.2213
  467.0000   -21.4160   162.9117     6.8128     7.3729
  467.5000   -21.0718   158.6371     6.8510     7.3146
  468.0000   -20.8554   154.3624     6.8858     7.1798
  468.5000   -21.0697   149.6914     6.9226     7.2191
  469.0000   -21.3864   152.9573     6.9577     7.3565
  469.5000   -21.6421   156.9088     7.0020     7.4932
  470.0000   -21.9628   155.0143     7.1225     7.6923
  470.5000   -22.1648   150.2896     7.2656     7.9057
  471.0000   -22.1072   145.5650     7.4046     8.1278
  471.5000   -21.8846   140.8404     7.5458     8.3331
  472.0000   -21.6751   136.3992     7.6857     8.5765
  472.5000   -21.4599   132.3995     7.8264     8.6419
  473.0000   -21.2650   128.3998     7.9664     8.4302
  473.5000   -21.0191   124.4001     8.1079     8.3574
  474.0000   -20.8182   119.9193     8.2452     8.6294
  474.5000   -20.3547   120.1174     8.2078     8.9629
  475.0000   -19.7497   123.0249     8.1331     8.8886
  475.5000   -19.2316   125.9323     8.0670     8.7442
  476.0000   -18.6887   128.8398     7.9967     8.6176
  476.5000   -18.0862   131.7473     7.9286     8.4816
  477.0000   -18.0794   134.6547     7.8594     8.3526
  477.5000   -18.2486   137.9630     7.7905     8.2112
  478.0000   -18.3568   138.8497     7.7221     8.1763
  478.5000   -18.4950   139.8782     7.6524     8.1468
  479.0000   -18.6147   140.9067     7.5843     8.1242
  479.5000   -18.7492   142.4739     7.4689     8.1148
  480.0000   -18.8666   141.8424     7.4440     8.0924
  480.5000   -19.0157   140.0425     7.4644     8.1012
  481.0000   -19.0991   137.9630     7.5001     8.1279
  481.5000   -19.0996   138.7231     7.5391     8.1539
  482.0000   -19.0120   139.6230     7.5767     8.1805
  482.5000   -18.8577   140.6695     7.6150     8.2067
  483.0000   -18.7344   139.8477     7.6530     8.2344
  483.5000   -18.5972   138.8660     7.6911     8.2369
  484.0000   -18.4674   137.8842     7.7293     8.2262
  484.5000   -18.3331   136.9025     7.7673     8.2090
  485.0000   -18.2024   135.9207     7.8051     8.1889
  485.5000   -18.0678   136.1708     7.7666     8.1134
  486.0000   -17.9350   138.9992     7.7056     7.9794
  486.5000   -17.7384   141.8275     7.6494     7.8018
  487.0000   -17.6525   145.1804     7.5908     7.8678
  487.5000   -17.6566   144.9925     7.5336     7.9602
  488.0000   -17.7104   144.3925     7.4754     7.8821
  488.5000   -17.8104   143.7926     7.4180     7.8356
  489.0000   -17.8883   143.3761     7.3595     7.7661
  489.5000   -17.9773   146.0307     7.3030     7.7173
  490.0000   -18.0585   149.3305     7.2431     7.7603
  490.5000   -18.1475   153.3001     7.1894     7.8223
  491.0000   -18.2253   153.1818     7.1219     7.8836
  491.5000   -18.3255   152.7818     7.0994     7.8476
  492.0000   -18.3790   152.3819     7.1528     7.7779
  492.5000   -18.3837   151.9819     7.1983     7.7207
  493.0000   -18.2912   151.4957     7.2485     7.6399
  493.5000   -18.1327   150.9421     7.2960     7.6062
  494.0000   -18.0047   148.8732     7.3450     7.7199
  494.5000   -17.8630   146.8005     7.3932     7.8801
  495.0000   -17.7291   144.7276     7.4418     8.0212
  495.5000   -17.5898   142.6543     7.4902     8.1979
  496.0000   -17.4557   140.5820     7.5386     8.2751
  496.5000   -17.3146   138.5172     7.5870     8.1665
  497.0000   -17.1856   137.0116     7.6354     8.0879
  497.5000   -17.0292   137.6504     7.6838     7.9693
  498.0000   -16.9331   138.4218     7.7322     8.0414
  498.5000   -16.9454   139.1932     7.7806     8.3104
  499.0000   -16.9395   139.2542     7.8290     8.6200
  499.5000   -16.9431   137.2469     7.8774     8.7095
  500.0000   -16.9414   135.2395     7.9258     8.6325
  500.5000   -16.9430   133.2322     7.9742     8.5140
  501.0000   -16.9418   130.7455     8.0226     8.4642
  501.5000   -16.9441   130.5730     8.0709     8.5019
  502.0000   -16.9409   130.3463     8.1196     8.6163
  502.5000   -16.9480   130.1196     8.1678     8.7446
  503.0000   -16.8970   129.8433     8.2169     8.9438
  503.5000   -16.7325   128.7102     8.2642     9.1031
  504.0000   -16.5679   127.2595     8.3149     9.1241
  504.5000   -16.4009   126.1754     8.3592     9.0171
  505.0000   -16.2354   125.9454     8.4176     8.8035
  505.5000   -16.0692   125.7546     8.4226     8.7467
  506.0000   -15.9028   125.5624     8.3387     8.9342
  506.5000   -15.7372   125.3275     8.2622     8.8920
  507.0000   -15.5698   126.5117     8.1810     8.8229
  507.5000   -15.4062   127.9615     8.1024     8.7617
  508.0000   -15.2356   129.4123     8.0224     8.6908
  508.5000   -15.0780   130.8653     7.9431     8.6306
  509.0000   -14.8905   132.3189     7.8635     8.5316
  509.5000   -14.7809   133.7696     7.7841     8.3996
  510.0000   -14.8184   135.2203     7.7045     8.2746
  510.5000   -14.8440   136.8449     7.6252     8.1463
  511.0000   -14.8787   138.7878     7.5453     8.0198
  511.5000   -14.9084   140.7307     7.4668     7.8925
  512.0000   -14.9407   142.6736     7.3856     7.7649
  512.5000   -14.9717   144.6166     7.3093     7.6385
  513.0000   -15.0036   146.5595     7.2224     7.6514
  513.5000   -15.0346   148.5024     7.1703     7.6922
  514.0000   -15.0669   149.6914     7.1640     7.7276
  514.5000   -15.0968   149.6914     7.1494     7.7636
  515.0000   -15.1319   149.6914     7.1388     7.7708
  515.5000   -15.1523   149.6914     7.1263     7.7481
  516.0000   -15.1499   149.6914     7.1143     7.6956
  516.5000   -15.1442   149.6914     7.1033     7.6441
  517.0000   -15.0046   149.6914     7.0828     7.5901
  517.5000   -14.8189   153.5858     6.9686     7.4885
  518.0000   -14.6413   157.8170     6.8317     7.3275
  518.5000   -14.4597   162.3219     6.6989     7.1790
  519.0000   -14.2804   166.4411     6.5646     7.0082
  519.5000   -14.0998   170.8450     6.4301     6.9407
  520.0000   -13.9194   175.2489     6.2977     6.7363
  520.5000   -13.7338   178.8532     6.1603     6.2874
  521.0000   -13.7163   181.4909     6.0328     6.0479
  521.5000   -13.8483   184.1286     5.8850     6.1465
  522.0000   -14.0107   186.7662     5.8433     6.3500
  522.5000   -14.1697   189.4039     5.9164     6.5679
  523.0000   -14.3309   192.0940     5.9709     6.6788
  523.5000   -14.4896   192.9962     6.0351     6.6251
  524.0000   -14.6525   188.9364     6.0939     6.5263
  524.5000   -14.8081   184.8150     6.1558     6.4972
  525.0000   -14.9770   180.6937     6.2158     6.6659
  525.5000   -15.1223   176.5724     6.2772     6.8520
  526.0000   -15.1970   172.4510     6.3368     6.9976
  526.5000   -15.3446   170.8133     6.3997     6.9459
  527.0000   -15.2854   171.5387     6.4470     6.8568
  527.5000   -15.1820   172.2640     6.3890     6.7804
