~VERSION INFORMATION
 VERS.                2.0:   CWLS LOG ASCII STANDARD - VERSION 2.0
 WRAP.                 NO:   ONE LINE PER DEPTH STEP
~WELL INFORMATION
#MNEM.UNIT      DATA TYPE    INFORMATION
#----------   ------------   ------------------------------
 STRT.F           25.0000:   START DEPTH
 STOP.F          528.0000:   STOP DEPTH
 STEP.F            0.5000:   STEP LENGTH
 NULL.          -999.2500:   NO VALUE
 COMP. FENIX & SCISSON INC:   COMPANY
 WELL.       NPR #3 #11-3:   WELL
 FLD .             NPR #3:   FIELD
 LOC .       S3 T38N R78W:   LOCATION
 CNTY.            NATRONA:   COUNTY
 STAT.            WYOMING:   STATE
 CTRY. UNITED STATES OF AMERICA:   COUNTRY
 SRVC.       Schlumberger:   SERVICE COMPANY
 DATE.        01-MAR-1977:   LOGDATE
 API .       490251028300:   API NUMBER
~CURVE INFORMATION
#MNEM.UNIT       API CODE    CURVE DESCRIPTION
#----------   ------------   ------------------------------
 DEPT.F                  :   
 SPR .MV     07 010 01 00:   SPONTANEOUS POTENTIAL
 LL8 .OHMM   07 220 08 00:   LATEROLOG-8 RES.
 ILM .OHMM   07 120 44 00:   INDUCTION LOG MEDIUM
 ILD .OHMM   07 120 46 00:   INDUCTION LOG DEEP
 GRD .GAPI   45 310 01 00:   GAMMA RAY FROM DENSITY LOG
 CALD.IN     45 280 60 00:   CALIPER
 RHOB.G/C3   45 350 01 00:   BULK DENSITY
 CORR.G/C3   45 356 01 00:   DENSITY CORRECTION
 DPHI.DEC    45 890 12 00:   DENSITY POROSITY SANDSTONE
~PARAMETER INFORMATION
#MNEM.UNIT          VALUE    DESCRIPTION
#----------   ------------   ------------------------------
 PD  .                 GL:   PERMANENT DATUM
 EPD .F              5178:   ELEVATION PERMANENT DATUM
 LMF .                 GL:   LOG MEASURED FROM
 DMF .                 GL:   DRILLING MEASURED FROM
 EKB .F              5183:   KELLING BUSHING
 EGL .F              5178:   GROUND LEVEL
 DATE.           3-1-1977:   RUN DATE
 RUN .                  1:   RUN NUMBER
 DD  .F               535:   DEPTH DRILLER
 DL  .F               526:   DEPTH LOGGER
 BLI .F               520:   BOTTOM LOG INTERVAL
 TLI .F                30:   TOP LOG INTERVAL
 CS  .IN            8.625:   CASING SIZE
 CBD .F                40:   CASING BOTTOM DRILLER
 CBL .F                30:   CASING BOTTOM LOGGER
 BS  .IN            7.875:   BIT SIZE
 BSD .F               535:   BIT SIZE AT DEPTH
 DFT .                KCL:   DRILLING FLUID TYPE
 DFD .                8.7:   DRILLING FLUID DENSITY
 DFV .                 37:   DRILLING FLUID VISCOSITY
 DFPH.                  8:   DRILLING FLUID PH
 DFL .                7.2:   DRILLING FLUID LOSS
 MSS .                PIT:   MUD SAMPLE SOURCE
 RMS .OHMM           .495:   RESISTIVITY MUD SAMPLE
 MST .F                62:   MUD SAMPLE TEMPERATURE
 RMF .OHMM           .406:   RESISTIVITY MUD FILTRATE SAMPLE
 MFST.F                65:   MUD FILTRATE SAMPLE TEMPERATURE
 MFSS.                  M:   MUD FILTRATE SAMPLE SOURCE
 RMB .OHMM           .438:   RESISTIVITY MUD AT BHT
 BHT .F                70:   BOTTOM HOLE TEMPERATURE
 TCS .HRS            0800:   TIME CURCULATED STOPPED
 TLAB.HRS            1130:   TIME LOGGER AT BOTTOM
 MRT .F                70:   MAXIMUM RECORDED TEMPERATURE
 LUN .               5642:   LOGGING UNIT NUMBER
 LUL .               CSPR:   LOGGING UNIT LOCATION
 ENGI.             MARTIN:   RECORDING ENGINEER
 CLNT.            A2DTECH:   CLIENT CODE
 ORIG.       2", 5" PRINT:   ORIGIN OF DATA
 UWI .       490251028300:   UNIQUE WELL ID
 DICO. A2D Technologies, Inc.:   DIGITIZING COMPANY
~OTHER INFORMATION
~A   DEPT      SPR        LL8        ILM        ILD         GRD      CALD       RHOB       CORR       DPHI   
# ...
  499.5000   -51.8807     4.5758     6.9343     6.0356    92.5772     7.9343     2.4799     0.0075     0.1000
  500.0000   -51.8281     5.1837     6.7441     6.0919    95.9890     7.9334     2.4665    -0.0017     0.1055
  500.5000   -51.7595     6.6357     7.1136     6.3948    99.6388     7.9325     2.4523    -0.0077     0.1111
  501.0000   -51.6878     8.4242     7.4877     6.7583   103.2904     7.9316     2.4496    -0.0020     0.1158
  501.5000   -51.5271     9.0473     7.8834     7.1425   106.0423     7.9306     2.4594     0.0037     0.1137
  502.0000   -51.3569     9.4958     8.3000     7.5486   107.6173     7.9297     2.4667     0.0095     0.1097
  502.5000   -50.9988     9.9665     8.7386     7.9778   109.1863     7.9288     2.4730     0.0159     0.1058
  503.0000   -50.6375    10.4606     9.2004     8.4313   110.7547     7.9278     2.4614     0.0211     0.1147
  503.5000   -50.2786    11.0152     9.6866     8.9108   112.5583     7.9269     2.4490     0.0154     0.1235
  504.0000   -49.9230    11.1176    10.1985     9.4186   108.9382     7.9260     2.4379     0.0095     0.1307
  504.5000   -50.1626    11.0521    10.7374     9.8583   103.9071     7.9251     2.4464     0.0161     0.1126
  505.0000   -50.9768    11.0033    11.2209    10.0423    99.1466     7.9241     2.4883     0.0307     0.0944
  505.5000   -51.7312    10.9548    11.4312    10.2130    96.1814     7.9232     2.5287     0.0439     0.0713
  506.0000   -52.4823    10.9138    11.6275    10.3967    93.6216     7.9223     2.5346     0.0402     0.0732
  506.5000   -53.2422    11.0527    11.8273    10.5836    92.1154     7.9214     2.5246     0.0443     0.0762
  507.0000   -54.0725    11.2922    12.0304    10.7739    91.0251     7.9204     2.5327     0.0485     0.0684
  507.5000   -54.6810    11.5369    12.2371    10.9677    92.2422     7.9195     2.5415     0.0343     0.0625
  508.0000   -55.5719    11.7869    12.4472    11.1649    93.4698     7.9186     2.5204     0.0201     0.0834
  508.5000   -56.4103    12.0423    12.6610    11.3657    95.0150     7.9177     2.5041     0.0108     0.0889
  509.0000   -57.2245    12.3032    12.8785    11.5700    96.5614     7.9167     2.4988     0.0054     0.0909
  509.5000   -57.8080    12.5698    13.0997    11.7781    98.1074     7.9158     2.5000     0.0030     0.0918
  510.0000   -57.8625    12.8422    13.3247    11.9899    99.6996     7.9149     2.5050     0.0071     0.0892
  510.5000   -56.3909    13.0102    13.5536    12.2055    97.8058     7.9139     2.5043     0.0114     0.0878
  511.0000   -54.9763    13.1310    13.7864    12.4250    94.3938     7.9130     2.4967     0.0087     0.0893
  511.5000   -53.9421    13.2436    14.0232    12.6484    83.0642     7.9121     2.4988     0.0054     0.0911
  512.0000   -53.5267    13.3723    14.2640    12.8759    70.1852     7.9112     2.5009     0.0020     0.0929
  512.5000   -53.0914    14.2485    14.5091    13.1074    57.3799     7.9102     2.4912     0.0038     0.0946
  513.0000   -52.8881    15.1688    14.7586    13.3431  -999.2500     7.9093     2.4988     0.0129     0.0914
  513.5000   -52.6911    16.1488    15.0127    13.6258  -999.2500     7.9084     2.5061     0.0218     0.0866
  514.0000   -53.2709    17.1921    15.3682    13.5634  -999.2500     7.9075     2.5133     0.0221     0.0817
  514.5000   -53.9413    17.8168    15.3081    13.4881  -999.2500     7.9065     2.5185     0.0144     0.0786
  515.0000   -54.6324    17.9823    15.0578    13.4131  -999.2500     7.9056     2.5059     0.0030     0.0874
  515.5000   -54.5644    17.0859    14.8117    13.3385  -999.2500     7.9047     2.4965     0.0075     0.0918
  516.0000   -54.4422    16.2631    14.5696    13.2644  -999.2500     7.9037     2.5164     0.0161     0.0860
  516.5000   -54.3232    15.4801    14.3314    13.1614  -999.2500     7.9028     2.5323     0.0248     0.0736
  517.0000   -54.1003    14.6721    14.0972    13.0540  -999.2500     7.9019     2.5308     0.0282     0.0672
  517.5000   -53.7745    14.4503    13.8802    12.8910  -999.2500     7.9009     2.5257     0.0301     0.0733
  518.0000   -53.4530    14.2471    13.9294    12.9094  -999.2500     7.9000     2.5453     0.0401     0.0659
  518.5000   -52.8801    14.0452    14.0042    12.9491  -999.2500     7.8991     2.5561     0.0496     0.0545
  519.0000   -51.4317    13.8461    14.0794    12.9890  -999.2500     7.9015     2.5445     0.0346     0.0634
  519.5000   -48.6906    13.6496    14.1551    13.0293  -999.2500     7.9075     2.5274     0.0146     0.0737
  520.0000   -42.8482    13.6258    14.2310    13.0696  -999.2500     7.9136     2.5299     0.0196     0.0697
  520.5000  -999.2500  -999.2500  -999.2500  -999.2500  -999.2500     7.9197     2.5343     0.0258     0.0763
  521.0000  -999.2500  -999.2500  -999.2500  -999.2500  -999.2500     7.9257     2.5146     0.0249     0.0892
  521.5000  -999.2500  -999.2500  -999.2500  -999.2500  -999.2500     7.9318     2.4975     0.0167     0.0960
  522.0000  -999.2500  -999.2500  -999.2500  -999.2500  -999.2500     7.9379     2.4848     0.0114     0.0989
  522.5000  -999.2500  -999.2500  -999.2500  -999.2500  -999.2500     7.9440     2.4920     0.0188     0.1018
  523.0000  -999.2500  -999.2500  -999.2500  -999.2500  -999.2500     7.9500     2.4973     0.0263     0.0866
  523.5000  -999.2500  -999.2500  -999.2500  -999.2500  -999.2500     7.9561     2.4883     0.0197     0.0938
  524.0000  -999.2500  -999.2500  -999.2500  -999.2500  -999.2500     7.9622     2.4808     0.0113     0.1025
  524.5000  -999.2500  -999.2500  -999.2500  -999.2500  -999.2500     7.9683     2.4852     0.0127     0.1003
  525.0000  -999.2500  -999.2500  -999.2500  -999.2500  -999.2500     7.9743     2.4833     0.0150     0.1021
  525.5000  -999.2500  -999.2500  -999.2500  -999.2500  -999.2500     7.9804     2.4734     0.0163     0.1054
  526.0000  -999.2500  -999.2500  -999.2500  -999.2500  -999.2500     7.9865     2.4708     0.0123     0.1070
  526.5000  -999.2500  -999.2500  -999.2500  -999.2500  -999.2500     7.9926     2.4797     0.0071     0.1021
  527.0000  -999.2500  -999.2500  -999.2500  -999.2500  -999.2500     7.9987     2.4859     0.0021     0.0982
  527.5000  -999.2500  -999.2500  -999.2500  -999.2500  -999.2500     8.0047     2.4896     0.0057     0.0998
  528.0000  -999.2500  -999.2500  -999.2500  -999.2500  -999.2500     8.0107     2.4622     0.0182     0.1141
