~VERSION INFORMATION
 VERS.                2.0:   CWLS LOG ASCII STANDARD - VERSION 2.0
 WRAP.                 NO:   ONE LINE PER DEPTH STEP
~WELL INFORMATION
#MNEM.UNIT      DATA TYPE    INFORMATION
#----------   ------------   ------------------------------
 STRT.F           70.0000:   START DEPTH
 STOP.F         1072.0000:   STOP DEPTH
 STEP.F            0.5000:   STEP LENGTH
 NULL.          -999.2500:   NO VALUE
 COMP. LAWRENCE/ALLISON INC:   COMPANY
 WELL.    67-66 SX #11-11:   WELL
 FLD .             TEAPOT:   FIELD
 LOC .      S11 T38N R78W:   LOCATION
 CNTY.            NATRONA:   COUNTY
 STAT.            WYOMING:   STATE
 CTRY. UNITED STATES OF AMERICA:   COUNTRY
 SRVC.      Dresser Atlas:   SERVICE COMPANY
 DATE.        03-FEB-1986:   LOGDATE
 API .       490251105700:   API NUMBER
~CURVE INFORMATION
#MNEM.UNIT       API CODE    CURVE DESCRIPTION
#----------   ------------   ------------------------------
 DEPT.F                  :   
 RILD.OHMM   07 120 46 00:   RESISTIVITY INDUCTION LOG DEEP
 RILM.OHMM   07 120 44 00:   RESISTIVITY INDUCTION LOG MEDIUM
 GRD .GAPI   45 310 01 00:   GAMMA RAY FROM DENSITY LOG
 CALD.IN     45 280 60 00:   CALIPER FROM DENSITY LOG
 CORR.G/C3   45 356 01 00:   DENSITY CORRECTION
 PORD.DEC    45 890 12 00:   POROSITY DENSITY SANDSTONE
 DEN .G/C3   45 350 01 00:   COMPENSATED BULK DENSTIY
~PARAMETER INFORMATION
#MNEM.UNIT          VALUE    DESCRIPTION
#----------   ------------   ------------------------------
 PD  .                 GL:   PERMANENT DATUM
 EPD .F              5245:   ELEVATION PERMANENT DATUM
 LMF .                 GL:   LOG MEASURED FROM
 DMF .                 GL:   DRILLING MEASURED FROM
 EGL .F              5245:   GROUND LEVEL
 DATE.        03-FEB-1986:   RUN DATE
 RUN .                  1:   RUN NUMBER
 DD  .F              1120:   DEPTH DRILLER
 DL  .F              1074:   DEPTH LOGGER
 BLI .F              1068:   BOTTOM LOG INTERVAL
 TLI .F                86:   TOP LOG INTERVAL
 CS  .IN            8.625:   CASING SIZE
 CBD .F                86:   CASING BOTTOM DRILLER
 CBL .F                86:   CASING BOTTOM LOGGER
 BS  .IN             6.25:   BIT SIZE
 BSD .F              1120:   BIT SIZE AT DEPTH
 DFT .                AIR:   DRILLING FLUID TYPE
 TCS .HRS               2:   TIME CURCULATED STOPPED
 LUN .               6274:   LOGGING UNIT NUMBER
 LUL .           GILLETTE:   LOGGING UNIT LOCATION
 ENGI.             MILLER:   RECORDING ENGINEER
 WITN.           JENNINGS:   WITNESSED BY
 CLNT.            A2DTECH:   CLIENT CODE
 ORIG.           5" PRINT:   ORIGIN OF DATA
 UWI .       490251105700:   UNIQUE WELL ID
 DICO. A2D Technologies, Inc.:   DIGITIZING COMPANY
~OTHER INFORMATION
~A   DEPT     RILD       RILM        GRD       CALD       CORR       PORD        DEN   
# ...
  525.0000     5.4655     4.3536   126.3128     7.9881     0.0550     0.1527     2.4296
  525.5000     5.1876     4.4497   132.6302     7.9899     0.0491     0.1580     2.4192
  526.0000     5.0819     4.6525   141.9371     7.9918     0.0569     0.1604     2.4141
  526.5000     5.0558     5.1907   154.2336     7.9936     0.0421     0.1670     2.4074
  527.0000     5.0608     5.9370   157.2625     7.9954     0.0499     0.1956     2.3518
  527.5000     5.1027     6.1890   154.0134     8.0121     0.0908     0.2352     2.2714
  528.0000     5.4007     6.4177   146.6305     8.0140     0.1046     0.2467     2.2708
  528.5000     6.3797     7.0470   135.1751     8.0004     0.0867     0.2252     2.3198
  529.0000     7.4873     8.0821   123.1812     7.9872     0.0444     0.1791     2.3643
  529.5000     8.2576     8.6633   119.4678     7.9746     0.0450     0.1716     2.3907
  530.0000     8.8584     9.1599   117.7280     7.9764     0.0484     0.1761     2.3938
  530.5000     9.1160     9.3647   121.9527     7.9782     0.0468     0.1793     2.3804
  531.0000     9.3812     9.6997   125.2805     7.9800     0.0410     0.1784     2.3828
  531.5000     9.6541     9.8443   126.2167     7.9815     0.0353     0.1768     2.3851
  532.0000     9.9350    10.0585   124.7613     7.9833     0.0431     0.1783     2.3837
  532.5000    10.1534    10.1399   124.4919     7.9851     0.0584     0.1822     2.3771
  533.0000    10.3051    10.2911   127.2316     7.9868     0.0679     0.1857     2.3689
  533.5000    10.4590    10.3728   129.9616     7.9886     0.0407     0.1881     2.3630
  534.0000    10.4692    10.3120   128.5062     7.9905     0.0048     0.1884     2.3661
  534.5000    10.4794    10.2516   125.5560     7.9773     0.0156     0.1871     2.3647
  535.0000    10.5625    10.1915   124.0907     7.9791     0.0399     0.1880     2.3618
  535.5000    10.5729    10.2022   129.2222     7.9656     0.0522     0.1904     2.3596
  536.0000    10.5832    10.4269   132.2510     7.9678     0.0600     0.1936     2.3567
  536.5000    10.6671    10.7304   130.1977     7.9846     0.0662     0.1972     2.3531
  537.0000    10.7517    10.8161   126.3507     7.9864     0.0800     0.1998     2.3452
  537.5000    10.9123    10.9781   125.7823     7.9882     0.0877     0.2045     2.3386
  538.0000    10.9229    11.0658   130.9060     7.9751     0.0714     0.2058     2.3368
  538.5000    11.0861    11.0773   134.9656     7.9615     0.0475     0.2032     2.3463
  539.0000    11.2517    11.2433   136.6637     7.9638     0.0387     0.1960     2.3537
  539.5000    11.2626    11.4117   135.4618     7.9805     0.0329     0.1913     2.3575
  540.0000    11.5903    11.5028   131.9581     7.9973     0.0196     0.1897     2.3621
  540.5000    11.8451    11.6751   129.3069     7.9991     0.0077     0.1858     2.3750
  541.0000    12.0221    11.8500   127.5526     7.9860     0.0231     0.1788     2.3901
  541.5000    12.2016    12.0276   125.4992     7.9874     0.0323     0.1706     2.3940
  542.0000    12.2135    12.1236   121.6522     7.9742     0.0085     0.1727     2.3821
  542.5000    12.3104    12.1362   122.8874     7.9761    -0.0033     0.1940     2.3573
  543.0000    12.4080    12.1489   125.3183     7.9779     0.0004     0.2021     2.3432
  543.5000    12.6809    12.5026   126.2447     7.9946     0.0145     0.2039     2.3417
  544.0000    13.0498    12.9558   125.0981     7.9815     0.0384     0.2011     2.3501
  544.5000    13.4294    13.4255   124.2308     7.9833     0.0581     0.1942     2.3563
  545.0000    13.9161    13.9123   128.0912     7.9701     0.0595     0.1914     2.3571
  545.5000    14.3209    14.4167   132.0888     7.9720     0.0522     0.1938     2.3542
  546.0000    14.6711    14.8364   134.8188     7.9738     0.0464     0.1962     2.3528
  546.5000    15.0756    15.2684   135.7451     7.9906     0.0572     0.1964     2.3529
  547.0000    15.4965    15.4971   132.2069     7.9924     0.0724     0.1910     2.3553
  547.5000    15.8500    15.7292   126.8651     7.9942     0.0862     0.1792     2.3667
  548.0000    15.9627    16.0756   124.8118     7.9960     0.0761     0.1704     2.3811
  548.5000    16.0970    16.2040   127.5417     7.9978     0.0432     0.1541     2.4211
  549.0000    16.2167    16.2209   130.5706     7.9997     0.0283     0.1457     2.4370
  549.5000    16.2324    16.2378   130.9089     8.0015     0.0465     0.1435     2.4393
  550.0000    16.1360    16.0940   132.1365     8.0028     0.0738     0.1451     2.4375
  550.5000    16.0516    15.8282   134.8584     7.9745     0.0860     0.1546     2.4124
  551.0000    15.9671    15.6273   132.7960     7.9614     0.0757     0.1792     2.3757
  551.5000    15.8827    15.4297   129.2389     7.9330     0.0608     0.1930     2.3607
  552.0000    15.7982    15.1304   127.7668     7.9342     0.0414     0.1949     2.3548
  552.5000    15.6661    15.0388   136.4744     7.9207     0.0416     0.1960     2.3519
  553.0000    15.3601    14.9561   137.7005     7.9223     0.0433     0.1976     2.3490
  553.5000    15.2701    14.9728   136.5350     7.9238     0.0434     0.2060     2.3288
  554.0000    15.0758    14.7837   131.7820     7.9253     0.0404     0.2167     2.3161
  554.5000    14.9875    14.6942   125.8332     7.9267     0.0363     0.2190     2.3139
  555.0000    14.5971    14.5086   124.6601     7.9133     0.0364     0.2187     2.3148
  555.5000    14.5116    14.3254   126.1928     7.8700     0.0366     0.2177     2.3164
  556.0000    14.6278    14.3454   126.5145     7.8864     0.0338     0.2165     2.3187
  556.5000    14.6400    14.4612   124.7586     7.8879     0.0295     0.2144     2.3204
  557.0000    14.6552    14.4773   122.9952     7.8894     0.0311     0.2125     2.3235
  557.5000    14.7724    14.5941   121.7040     7.8759     0.0358     0.2104     2.3265
  558.0000    14.7878    14.6105   121.2545     7.8775     0.0466     0.2064     2.3319
  558.5000    14.8030    14.5220   127.3484     7.8637     0.0633     0.1971     2.3493
  559.0000    14.5126    14.4381   130.9058     7.8656     0.0876     0.1847     2.3705
  559.5000    13.8415    14.0169   132.4067     7.8671     0.0895     0.1864     2.3707
  560.0000    12.4028    12.7540   130.0453     7.8686     0.0804     0.2012     2.3488
  560.5000    10.5877    10.9030   124.0966     7.8850     0.0610     0.2050     2.3346
  561.0000     9.6863     9.5780   120.5394     7.8865     0.0642     0.2041     2.3370
  561.5000     8.6196     8.5844   119.0674     7.8727     0.0689     0.2007     2.3439
  562.0000     7.7236     7.3813   120.0021     7.8298     0.0736     0.1941     2.3568
  562.5000     6.8730     6.7077   133.7843     7.7864     0.0693     0.1853     2.3712
  563.0000     6.6002     6.3101   145.7727     7.7431     0.0604     0.1714     2.3855
  563.5000     6.2945     6.1448   150.8852     7.7143     0.0425     0.1542     2.4293
  564.0000     6.0029     6.0237   153.3072     7.7162     0.0367     0.1398     2.4557
  564.5000     5.9662     5.9889   150.9458     7.7177     0.0550     0.1318     2.4603
  565.0000     5.9740     6.0389   147.3887     7.7192     0.0642     0.1316     2.4612
  565.5000     6.1058     6.0457   144.4295     7.7207     0.0553     0.1322     2.4590
  566.0000     6.1547     6.1367   143.8543     7.7222     0.0540     0.1339     2.4546
  566.5000     6.2040     6.2292   145.6859     7.7238     0.0512     0.1363     2.4502
  567.0000     6.2105     6.1932   147.2605     7.7250     0.0483     0.1384     2.4494
  567.5000     6.1725     6.0728   148.4305     7.7265     0.0500     0.1389     2.4489
  568.0000     6.0956     6.0360   147.8147     7.7280     0.0517     0.1386     2.4498
  568.5000     6.1020     6.0864   146.0907     7.7444     0.0564     0.1376     2.4514
  569.0000     6.1084     6.0932   145.2317     7.7309     0.0626     0.1361     2.4529
  569.5000     6.1148     6.0987   143.4685     7.7025     0.0688     0.1346     2.4538
  570.0000     6.1624     6.1478   142.2621     7.7190     0.0735     0.1321     2.4554
