~VERSION INFORMATION
 VERS.                2.0:   CWLS LOG ASCII STANDARD - VERSION 2.0
 WRAP.                 NO:   ONE LINE PER DEPTH STEP
~WELL INFORMATION
#MNEM.UNIT      DATA TYPE    INFORMATION
#----------   ------------   ------------------------------
 STRT.F            0.0000:   START DEPTH
 STOP.F         3315.0000:   STOP DEPTH
 STEP.F            0.5000:   STEP LENGTH
 NULL.          -999.2500:   NO VALUE
 COMP. LAWRENCE/ALLISON INC     84-AX-:   COMPANY
 WELL.          SHX3 #1-3:   WELL
 FLD .            WILDCAT:   FIELD
 LOC .       S3 T38N R78W:   LOCATION
 CNTY.            NATRONA:   COUNTY
 STAT.            WYOMING:   STATE
 CTRY. UNITED STATES OF AMERICA:   COUNTRY
 SRVC.      Dresser Atlas:   SERVICE COMPANY
 DATE.        20-JAN-1986:   LOGDATE
 API .       490251104200:   API NUMBER
~CURVE INFORMATION
#MNEM.UNIT       API CODE    CURVE DESCRIPTION
#----------   ------------   ------------------------------
 DEPT.F                  :   
 SPR .MV     07 010 01 00:   SPONTANEOUS POTENTIAL
 RILD.OHMM   07 120 46 00:   INDUCTION LOG DEEP RESISTIVITY
 RILM.OHMM   07 120 44 00:   INDUCTION LOG MEDIUM RESISTIVITY
 RFOC.OHMM   07 220 04 00:   RESISTIVITY FOCUSED LOG
 AC  .US/F   60 520 00 00:   ACCOUSTIC
 CALD.IN     45 280 60 00:   CALIPER FROM DENSITY
 CORR.G/C3   45 356 01 00:   DENSITY CORRECTION
 DEN .G/C3   45 350 01 00:   COMPENSATED BULK DENSTIY
 PORD.DEC    45 890 12 00:   POROSITY DENSITY SANDSTONE
 CNC .DEC    42 890 03 00:   NEUTRON POROSITY SANDSTONE
 GRR .GAPI   07 310 01 00:   GAMMA RAY
~PARAMETER INFORMATION
#MNEM.UNIT          VALUE    DESCRIPTION
#----------   ------------   ------------------------------
 PD  .                 GL:   PERMANENT DATUM
 EPD .F              5136:   ELEVATION PERMANENT DATUM
 LMF .                 KB:   LOG MEASURED FROM
 DAPD.F                11:   FEET ABOVE PERMANENT DATUM
 DMF .                 KB:   DRILLING MEASURED FROM
 EKB .F              5147:   KELLING BUSHING
 EGL .F              5136:   GROUND LEVEL
 DATE.        26-JAN-1986:   RUN DATE
 RUN .                  1:   RUN NUMBER
 DD  .F              3320:   DEPTH DRILLER
 DL  .F              3317:   DEPTH LOGGER
 BLI .F              3315:   BOTTOM LOG INTERVAL
 CS  .IN            8.625:   CASING SIZE
 CBD .F               550:   CASING BOTTOM DRILLER
 CBL .F               592:   CASING BOTTOM LOGGER
 BS  .IN            7.875:   BIT SIZE
 BSD .F              3320:   BIT SIZE AT DEPTH
 DFT .        POLYMER KCL:   DRILLING FLUID TYPE
 DFD .                9.1:   DRILLING FLUID DENSITY
 DFV .                 38:   DRILLING FLUID VISCOSITY
 DFPH.                 10:   DRILLING FLUID PH
 DFL .                8.5:   DRILLING FLUID LOSS
 MSS .           FLOWLINE:   MUD SAMPLE SOURCE
 RMS .OHMM           .435:   RESISTIVITY MUD SAMPLE
 MST .F                72:   MUD SAMPLE TEMPERATURE
 RMF .OHMM           .352:   RESISTIVITY MUD FILTRATE SAMPLE
 MFST.F                72:   MUD FILTRATE SAMPLE TEMPERATURE
 RMC .OHMM            .54:   RESISTIVITY MUD CAKE
 MCST.F                72:   MUD CAKE SAMPLE TEMPERATURE
 MFSS.               MEAS:   MUD FILTRATE SAMPLE SOURCE
 MCSS.               MEAS:   MUD CAKE SAMPLE SOURCE
 RMB .OHMM            .29:   RESISTIVITY MUD AT BHT
 BHT .F               108:   BOTTOM HOLE TEMPERATURE
 TCS .HRS               3:   TIME CURCULATED STOPPED
 MRT .F               108:   MAXIMUM RECORDED TEMPERATURE
 LUN .               6274:   LOGGING UNIT NUMBER
 LUL .               GLTE:   LOGGING UNIT LOCATION
 ENGI.             RAUTIO:   RECORDING ENGINEER
 WITN.             STRONG:   WITNESSED BY
 CLNT.            A2DTECH:   CLIENT CODE
 ORIG.       2", 5" PRINT:   ORIGIN OF DATA
 UWI .       490251104200:   UNIQUE WELL ID
 DICO. A2D Technologies, Inc.:   DIGITIZING COMPANY
~OTHER INFORMATION
~A    DEPT     SPR       RILD       RILM       RFOC         AC       CALD       CORR        DEN       PORD        CNC        GRR   
# ...
 3019.5000   -41.3601    14.3440    17.6645    25.6414    65.4234     8.1824     0.0727     2.5250     0.0604     0.1470    31.7370
 3020.0000   -40.9077    14.4432    17.5411    26.1765    64.9782     8.1814     0.0922     2.5235     0.0709     0.1512    33.2528
 3020.5000   -40.6016    13.1959    14.8486    24.7572    65.8113     8.1652     0.1012     2.5317     0.0752     0.1684    33.8610
 3021.0000   -40.2955    11.3265    12.0566    26.1643    67.1707     8.1641     0.1071     2.5347     0.0700     0.1922    35.8307
 3021.5000   -40.1558     9.9264    10.7886    29.0268    68.3045     8.1631     0.1116     2.5143     0.0720     0.2160    41.4313
 3022.0000   -40.1573     8.7600     9.4550    26.3355    70.9420     8.1620     0.1085     2.4864     0.0832     0.2276    51.2679
 3022.5000   -40.3354     7.5714     7.7845    10.2521    74.7074     8.1610     0.0858     2.4585     0.1102     0.2256    58.8352
 3023.0000   -40.6145     6.9176     7.1124     6.7608    78.7736     8.1600     0.0542     2.4426     0.1235     0.2199    58.3843
 3023.5000   -40.9186     6.5435     6.7278     6.3507    81.9374     8.1589     0.0437     2.4305     0.1323     0.2185    56.5719
 3024.0000   -40.7688     6.6346     6.8214     8.2636    82.3945     8.1730     0.0579     2.4167     0.1377     0.2234    53.7005
 3024.5000   -40.1652     7.1604     7.5169     8.6130    81.1975     8.1720     0.0739     2.4114     0.1438     0.2225    45.9879
 3025.0000   -39.4102     7.6215     7.9456     8.5517    79.3990     8.1558     0.0672     2.4060     0.1474     0.2167    40.2421
 3025.5000   -38.6553     8.0003     8.5184     8.7296    78.8787     8.1547     0.0586     2.3926     0.1498     0.2164    36.4474
 3026.0000   -38.0517     8.4566     9.0693     9.4197    78.3583     8.1688     0.0706     2.3722     0.1516     0.2168    34.6344
 3026.5000   -37.4480     9.0010     9.5231     9.8863    77.6876     8.1829     0.0615     2.3436     0.1613     0.2146    33.5707
 3027.0000   -36.8444     9.3182     9.9244    10.2330    77.0169     8.1818     0.0434     2.2984     0.1846     0.2156    30.3080
 3027.5000   -36.0894     9.5799    10.0569    11.5913    76.7207     8.1808     0.0359     2.2765     0.2081     0.2231    26.2378
 3028.0000   -35.3345     9.6460     9.9175    12.5946    77.5552     8.1797     0.0343     2.2696     0.2302     0.2340    24.1515
 3028.5000   -34.5796     9.5095     9.7031    11.4269    80.4183     8.1785     0.0418     2.2801     0.2278     0.2424    23.1678
 3029.0000   -33.5221     9.2466     9.4906     9.4030    82.3792     8.1623     0.0493     2.2914     0.2223     0.2470    23.3228
 3029.5000   -32.7672     8.9908     9.1866     8.9604    83.9641     8.1310     0.0522     2.2988     0.2163     0.2442    24.0823
 3030.0000   -32.1635     8.7503     8.9343     9.0209    83.7446     8.1299     0.0326     2.2943     0.2130     0.2394    24.3878
 3030.5000   -31.5599     8.6291     8.8719     9.0190    83.6752     8.1440     0.0206     2.2874     0.2139     0.2442    23.3318
 3031.0000   -30.9562     8.6285     8.8713     8.9548    83.6060     8.1584     0.0175     2.2844     0.2184     0.2515    22.2759
 3031.5000   -30.3526     8.6278     8.8093     8.8296    83.6873     8.1725     0.0190     2.2813     0.2215     0.2506    21.5224
 3032.0000   -30.0515     8.6272     8.8087     8.7061    84.1444     8.1712     0.0234     2.2760     0.2227     0.2452    21.3734
 3032.5000   -30.0530     8.6266     8.6867     8.6331    84.3008     8.1701     0.0249     2.2699     0.2260     0.2422    21.9823
 3033.0000   -30.0545     8.6260     8.6260     8.5230    83.3293     8.1691     0.0309     2.2691     0.2300     0.2407    22.4392
 3033.5000   -30.3586     8.5065     8.5065     8.4623    82.6586     8.1680     0.0458     2.2721     0.2303     0.2410    22.4422
 3034.0000   -30.6627     8.3887     8.3887     8.3440    82.5894     8.1670     0.0608     2.2766     0.2270     0.2503    21.9906
 3034.5000   -31.2693     8.2152     8.3881     8.2274    82.9033     8.1659     0.0623     2.2787     0.2245     0.2518    21.6910
 3035.0000   -32.0272     8.1579     8.3875     8.1124    83.4336     8.1649     0.0517     2.2757     0.2249     0.2503    21.9973
 3035.5000   -32.7902     8.1010     8.4455     8.1671    83.7418     8.1638     0.0442     2.2741     0.2252     0.2356    23.8158
 3036.0000   -33.2507     8.2137     8.5628     8.3371    83.9829     8.1628     0.0381     2.2793     0.2285     0.2277    24.7265
 3036.5000   -33.6959     8.3278     8.6819     8.5699    84.2833     8.1617     0.0366     2.2853     0.2226     0.2347    24.5782
 3037.0000   -34.0000     8.4436     8.8026     8.7482    84.4411     8.1453     0.0395     2.2928     0.2180     0.2410    23.9761
 3037.5000   -34.3041     8.5610     8.8633     8.6259    84.4358     8.1443     0.0440     2.2972     0.2152     0.2413    23.3739
 3038.0000   -34.6085     8.6803     8.8627     8.3302    84.2915     8.1586     0.0454     2.2957     0.2134     0.2413    23.2249
 3038.5000   -34.7613     8.8621     8.9861     8.1006    83.9982     8.1573     0.0439     2.2964     0.2144     0.2435    23.9851
 3039.0000   -34.9140     8.9854     9.1111     7.9874    83.6282     8.1563     0.0454     2.2986     0.2138     0.2441    24.5932
 3039.5000   -35.2181     9.0475     9.1740     8.1540    83.1831     8.1552     0.0469     2.3016     0.2114     0.2435    24.8988
 3040.0000   -35.3709     9.1733     9.1732     8.4396    82.9620     8.1542     0.0467     2.3038     0.2099     0.2438    25.3557
 3040.5000   -35.5237     9.3008     9.3655     8.6152    82.8928     8.1531     0.0343     2.3045     0.2084     0.2466    25.8125
 3041.0000   -35.8278     9.3651     9.4958     8.5539    83.0507     8.1521     0.0192     2.3022     0.2081     0.2508    25.5130
 3041.5000   -36.2831     9.2995     9.5614     8.3182    83.1318     8.1664     0.0135     2.2961     0.2093     0.2522    25.0620
 3042.0000   -36.8898     9.1707     9.1706     8.2019    83.2882     8.1651     0.0234     2.2885     0.2144     0.2501    25.6703
 3042.5000   -37.4964     9.0436     8.9189     8.3726    83.4446     8.1641     0.0465     2.2824     0.2202     0.2429    28.0938
 3043.0000   -38.2543     8.9183     8.6741     8.6063    83.6761     8.1782     0.0615     2.2778     0.2262     0.2402    31.7277
 3043.5000   -38.7097     8.7339     8.5539     8.7252    84.8851     8.1771     0.0750     2.2740     0.2277     0.2414    34.0000
 3044.0000   -39.1651     8.6729     8.5533     8.3096    86.0189     8.1761     0.0825     2.2779     0.2277     0.2447    34.4569
 3044.5000   -39.6204     8.6723     8.6723     8.1934    86.4760     8.1750     0.0509     2.2909     0.2210     0.2420    34.1387
 3045.0000   -39.7732     8.8542     8.7929     8.4808    85.8805     8.1891     0.0192     2.3063     0.2112     0.2363    32.4569
 3045.5000   -39.9260     8.9813     8.9152     8.6573    84.2323     8.1880     0.0057     2.3197     0.2021     0.2336    29.7201
 3046.0000   -39.7758     9.1022     9.0392     8.8375    83.2609     8.2022    -0.0019     2.3265     0.1952     0.2336    27.4736
 3046.5000   -39.7777     9.1650     9.0386     8.8356    82.8894     8.2163     0.0131     2.3219     0.1964     0.2384    27.0589
 3047.0000   -39.7792     9.1643     8.9755     8.7727    82.8202     8.2150     0.0356     2.3000     0.2012     0.2496    27.0882
 3047.5000   -39.6293     9.1003     8.9748     8.6501    82.9029     8.2139     0.0521     2.2834     0.2194     0.2517    26.9144
 3048.0000   -39.6309     8.9120     8.9121     8.4117    83.2848     8.2283     0.0641     2.2788     0.2263     0.2426    26.4628
 3048.5000   -39.6324     8.8498     8.9115     8.0672    84.0427     8.2269     0.0610     2.2773     0.2254     0.2382    26.4665
 3049.0000   -39.7852     8.7880     8.9109     7.8448    84.5750     8.2259     0.0505     2.2757     0.2254     0.2415    26.0157
 3049.5000   -40.0893     8.8486     8.9103     8.0638    84.8065     8.2402     0.0399     2.2779     0.2266     0.2412    25.1110
