~VERSION INFORMATION
 VERS.                2.0:   CWLS LOG ASCII STANDARD - VERSION 2.0
 WRAP.                 NO:   ONE LINE PER DEPTH STEP
~WELL INFORMATION
#MNEM.UNIT      DATA TYPE    INFORMATION
#----------   ------------   ------------------------------
 STRT.F           38.0000:   START DEPTH
 STOP.F         1202.0000:   STOP DEPTH
 STEP.F            0.5000:   STEP LENGTH
 NULL.          -999.2500:   NO VALUE
 COMP.       INTEX OIL CO:   COMPANY
 WELL.     72 S 14 #72-14:   WELL
 FLD .            WILDCAT:   FIELD
 LOC .      S14 T38N R78W:   LOCATION
 CNTY.            NATRONA:   COUNTY
 STAT.            WYOMING:   STATE
 CTRY. UNITED STATES OF AMERICA:   COUNTRY
 SRVC.       Schlumberger:   SERVICE COMPANY
 DATE.        26-AUG-1966:   LOGDATE
 API .       490250970800:   API NUMBER
~CURVE INFORMATION
#MNEM.UNIT       API CODE    CURVE DESCRIPTION
#----------   ------------   ------------------------------
 DEPT.F                  :   
 SPR .MV     05 010 01 00:   SPONTANEOUS POTENTIAL FROM RES.
 ASN .OHMM   05 041 16 00:   AMPLIFIED SHORT NORMAL 16"
 ILD .OHMM   05 120 46 00:   INDUCTION LOG DEEP
 CILD.MMHO   05 110 46 00:   CONDUCTIVITY INDUCTION LOG DEEP
 CORR.G/C3   45 356 01 00:   DENSITY CORRECTION
 GRD .GAPI   45 310 01 00:   GAMMA RAY FROM DENSITY LOG
 CALD.IN     45 280 60 00:   CALIPER FROM DENSITY LOG
 DPHI.DEC    45 890 12 00:   DENSITY POROSITY SANDSTONE
 RHOB.G/C3   45 350 01 00:   BULK DENSITY
~PARAMETER INFORMATION
#MNEM.UNIT          VALUE    DESCRIPTION
#----------   ------------   ------------------------------
 PD  .                 GL:   PERMANENT DATUM
 EPD .F              5265:   ELEVATION PERMANENT DATUM
 LMF .                 KB:   LOG MEASURED FROM
 DAPD.F                 5:   FEET ABOVE PERMANENT DATUM
 DMF .                 KB:   DRILLING MEASURED FROM
 EKB .F              5270:   KELLING BUSHING
 DATE.        26-AUG-1966:   RUN DATE
 RUN .                  1:   RUN NUMBER
 DD  .F              1201:   DEPTH DRILLER
 DL  .F              1203:   DEPTH LOGGER
 BLI .F              1202:   BOTTOM LOG INTERVAL
 TLI .F                46:   TOP LOG INTERVAL
 CS  .IN            8.625:   CASING SIZE
 BS  .IN             6.75:   BIT SIZE
 BSD .F              1201:   BIT SIZE AT DEPTH
 DFT .     CHEM- GEL- OIL:   DRILLING FLUID TYPE
 DFD .                9.4:   DRILLING FLUID DENSITY
 MRT .F                94:   MAXIMUM RECORDED TEMPERATURE
 LUN .               3527:   LOGGING UNIT NUMBER
 LUL .             CASPER:   LOGGING UNIT LOCATION
 ENGI.             KNOBEL:   RECORDING ENGINEER
 WITN.                MAY:   WITNESSED BY
 CLNT.            A2DTECH:   CLIENT CODE
 ORIG.       2", 5" PRINT:   ORIGIN OF DATA
 UWI .       490250970800:   UNIQUE WELL ID
 DICO. A2D Technologies, Inc.:   DIGITIZING COMPANY
~OTHER INFORMATION
~A   DEPT      SPR        ASN        ILD       CILD       CORR        GRD       CALD       DPHI       RHOB   
# ...
  950.5000   -19.8813     6.0453     5.4031   209.0668     0.0238   120.4719     7.0440     0.0900     2.5071
  951.0000   -20.0333     6.3057     5.8854   198.0569     0.0169   117.7899     7.0447     0.0944     2.5027
  951.5000   -20.1854     6.6658     6.2266   183.1832     0.0087   114.2503     7.0304     0.0956     2.5020
  952.0000   -20.1868     7.0472     6.3753   174.1742     0.0072   115.8418     7.0313     0.0872     2.5132
  952.5000   -20.1882     7.3108     6.5240   168.1682     0.0114   114.0645     7.0321     0.0845     2.5158
  953.0000   -20.1900     7.4606     6.8225   163.6637     0.0195   113.8521     7.0328     0.0857     2.5066
  953.5000   -20.1915     7.5805     6.9713   159.9099     0.0319   119.7853     7.0185     0.0944     2.5036
  954.0000   -20.1929     7.6703     6.9698   156.9069     0.0432   119.9101     7.0194     0.0887     2.5336
  954.5000   -20.3449     7.7000     7.1189   156.1562     0.0265   115.4530     7.0202     0.0716     2.5321
  955.0000   -20.3463     7.6696     7.1171   157.6577     0.0222   114.1228     7.0209     0.0862     2.5187
  955.5000   -20.4987     7.5943     7.1153   160.6607     0.0267   112.5691     7.0216     0.0862     2.5180
  956.0000   -20.5002     7.5039     6.9637   164.4144     0.0379   111.6833     7.0075     0.0802     2.5315
  956.5000   -20.5016     7.3985     6.8872   167.5199     0.0395   122.8745     7.0082     0.0778     2.5255
  957.0000   -20.5030     7.2619     6.7357   171.1712     0.0387   124.0034     7.0090     0.0811     2.5257
  957.5000   -20.5045     7.1126     6.5841   175.6757     0.0329   121.5555     6.9948     0.0793     2.5214
  958.0000   -20.5063     6.9771     6.3571   180.1802     0.0214   119.7754     6.9955     0.0833     2.4995
  958.5000   -20.5077     6.8117     6.1304   186.1862     0.0140   121.8012     6.9963     0.1002     2.5018
  959.0000   -20.3582     6.6462     5.9038   194.6404     0.0152   126.5068     6.9970     0.0918     2.5093
  959.5000   -20.3599     6.4505     5.6020   208.7087     0.0193   126.9650     6.9978     0.0906     2.5018
  960.0000   -20.2108     6.1201     5.3003   224.4745     0.0196   123.3994     6.9985     0.1001     2.4899
  960.5000   -20.2126     5.6843     4.9982   245.4955     0.0157   122.9606     6.9993     0.1058     2.4877
  961.0000   -20.0630     5.4138     4.6965   258.2583     0.0118   120.5155     7.0000     0.1061     2.4862
  961.5000   -20.0648     5.1582     4.5449   265.0703     0.0100   117.3970     7.0007     0.1076     2.4810
  962.0000   -19.9156     4.9327     4.3933   268.7688     0.0103   118.9729     7.0015     0.1130     2.4721
  962.5000   -19.6162     4.7822     4.3168   265.0150     0.0140   121.8901     7.0022     0.1189     2.4452
  963.0000   -19.6177     4.9171     4.3150   260.5105     0.0243   122.5719     7.0030     0.1315     2.4281
  963.5000   -19.6191     5.0369     4.4637   254.5045     0.0275   120.5711     7.0037     0.1392     2.4258
  964.0000   -19.7711     5.1117     4.6875   244.7448     0.0195   116.3348     7.0045     0.1287     2.4364
  964.5000   -20.0874     5.6219     4.9113   226.7267     0.0201   119.6991     7.0052     0.1081     2.4775
  965.0000   -20.3768     6.2143     5.2102   210.2102     0.0268   120.6044     7.0060     0.0970     2.5142
  965.5000   -20.5288     6.7324     5.5087   192.1922     0.0328   117.2623     7.0067     0.0808     2.5255
  966.0000   -20.6808     6.9423     5.8076   178.6787     0.0321   115.4851     7.0076     0.0841     2.5083
  966.5000   -20.8329     7.1072     6.0314   168.1682     0.0217   115.7197     7.0083     0.0925     2.5128
  967.0000   -20.8343     7.2420     6.2552   165.0703     0.0149   119.3076     7.0091     0.0835     2.5196
  967.5000   -20.8361     7.3499     6.3288   163.6637     0.0160   124.0132     7.0098     0.0868     2.5077
  968.0000   -20.8375     7.4666     6.4025   163.6637     0.0243   124.5066     7.0106     0.0927     2.5197
  968.5000   -20.8389     7.5564     6.4761   164.4144     0.0336   124.1973     7.0113     0.0784     2.5207
  969.0000   -20.6898     7.6162     6.4743   165.1652     0.0306   125.1643     7.0121     0.0828     2.5145
  969.5000   -20.6916     7.6760     6.4729   164.3565     0.0277   124.2812     7.0128     0.0855     2.5138
  970.0000   -20.6930     7.7518     6.4715   162.1622     0.0330   119.1507     7.0135     0.0798     2.5206
  970.5000   -20.8450     7.8105     6.4697   161.4114     0.0344   123.6328     7.0143     0.0735     2.5319
  971.0000   -20.8465     7.8553     6.4683   160.6607     0.0352   125.6558     7.0150     0.0711     2.5424
  971.5000   -20.8479     7.9000     6.4668   160.6607     0.0307   124.5484     7.0158     0.0684     2.5407
  972.0000   -20.8497     7.8847     6.4654   160.6607     0.0254   127.2550     7.0164     0.0735     2.5332
  972.5000   -20.8511     7.8544     6.4640   160.6607     0.0247   127.4775     7.0172     0.0794     2.5267
  973.0000   -21.0031     7.8090     6.4622   161.4114     0.0273   126.3384     7.0180     0.0784     2.5388
  973.5000   -21.0046     7.7636     6.4607   162.1622     0.0360   122.8568     7.0036     0.0679     2.5530
  974.0000   -20.8554     7.7483     6.4593   162.1622     0.0434   124.6047     7.0046     0.0593     2.5560
  974.5000   -21.0078     7.7330     6.4579   162.1622     0.0443   123.4023     7.0053     0.0650     2.5441
  975.0000   -21.0092     7.7027     6.4565   162.1622     0.0311   121.9444     7.0061     0.0731     2.5299
  975.5000   -21.0106     7.7174     6.4547   162.9129     0.0110   120.6142     7.0068     0.0937     2.5180
  976.0000   -20.8615     7.7322     6.4532   162.9129     0.0060   130.6877     7.0075     0.1030     2.4829
  976.5000   -20.8630     7.7619     6.4518   162.9129     0.0091   129.5811     7.0083     0.1101     2.4762
  977.0000   -20.8647     7.7766     6.4504   162.9129     0.0150   124.6742     6.9939     0.1065     2.4874
  977.5000   -20.8661     7.7913     6.3739   162.9129     0.0254   122.8941     7.0098     0.0987     2.5024
  978.0000   -20.7166     7.7436     6.2970   165.1652     0.0293   123.5787     7.0105     0.0888     2.5107
  978.5000   -20.7184     7.6405     6.2205   168.1682     0.0202   127.1665     7.0112     0.0892     2.5055
  979.0000   -20.5692     7.5201     6.1440   172.6727     0.0171   130.0838     7.0120     0.0937     2.5003
  979.5000   -20.2694     7.3697     6.0675   177.1772     0.0173   130.9891     7.0127     0.0972     2.5033
  980.0000   -20.2712     7.1592     5.9159   183.2838     0.0305   129.4353     7.0135     0.0848     2.5236
  980.5000   -20.4233     6.9580     5.7640   189.1892     0.0368   126.5404     7.0142     0.0785     2.5243
  981.0000   -20.4218     6.7381     5.6875   191.4414     0.0272   124.9866     7.0150     0.0950     2.5124
  981.5000   -20.1253     6.5877     5.6860   193.6937     0.0123   126.1155     7.0157     0.1022     2.4855
  982.0000   -19.9757     6.4222     5.6846   198.1982     0.0099   126.7945     7.0164     0.1070     2.4766
  982.5000   -19.8266     6.2868     5.4580   206.4945     0.0141   123.9022     7.0172     0.1070     2.4834
  983.0000   -19.8284     6.3494     5.0808   220.7207     0.0282   122.5721     7.0179     0.0971     2.5066
  983.5000   -19.9910     6.4213     4.7791   232.7327     0.0380   124.1480     7.0187     0.0803     2.5276
  984.0000   -20.2834     6.1657     4.5524   243.2432     0.0351   125.9475     7.0194     0.0776     2.5277
  984.5000   -20.1342     5.6699     4.4008   252.2523     0.0234   124.8409     7.0202     0.0997     2.4947
  985.0000   -19.8344     5.3543     4.3243   257.5075     0.0237   123.0636     7.0209     0.1027     2.5045
  985.5000   -19.5347     5.1429     4.3225   259.0090     0.0273   121.2864     7.0216     0.1003     2.4999
  986.0000   -19.2349     5.2636     4.3211   256.0060     0.0669   115.2617     7.0224     0.1098     2.4738
  986.5000   -19.3873     5.3385     4.4702   253.7538     0.0700   114.8257     7.0231     0.1096     2.4799
