~VERSION INFORMATION
 VERS.                2.0:   CWLS LOG ASCII STANDARD - VERSION 2.0
 WRAP.                 NO:   ONE LINE PER DEPTH STEP
~WELL INFORMATION
#MNEM.UNIT      DATA TYPE    INFORMATION
#----------   ------------   ------------------------------
 STRT.F           12.0000:   START DEPTH
 STOP.F          448.0000:   STOP DEPTH
 STEP.F            0.5000:   STEP LENGTH
 NULL.          -999.2500:   NO VALUE
 COMP. LAWRENCE/ALLISON INC:   COMPANY
 WELL. LI2 -52-61 SX10 #10-10:   WELL
 FLD .             TEAPOT:   FIELD
 LOC .      S10 T38N R78W:   LOCATION
 CNTY.            NATRONA:   COUNTY
 STAT.            WYOMING:   STATE
 CTRY. UNITED STATES OF AMERICA:   COUNTRY
 SRVC.      Dresser Atlas:   SERVICE COMPANY
 DATE.        13-JAN-1985:   LOGDATE
 API .       490251100400:   API NUMBER
~CURVE INFORMATION
#MNEM.UNIT       API CODE    CURVE DESCRIPTION
#----------   ------------   ------------------------------
 DEPT.F                  :   
 AC  .US/F   60 520 00 00:   ACCOUSTIC
 SPR .MV     11 010 01 00:   SPONTANEOUS POTENTIAL FROM RES.
 RD  .OHMM   11 220 10 00:   RESISTIVITY DEEP
 RS  .OHMM   11 220 09 00:   RESISTIVITY SHALLOW
 RMLL.OHMM   11 270 04 00:   MICRO LATEROLOG
 GRD .GAPI   45 310 01 00:   GAMMA RAY FROM DENSITY LOG
 CALD.IN     45 280 60 00:   CALIPER FROM DENSITY LOG
 CORR.G/C3   45 356 01 00:   DENSITY CORRECTION
 DEN .G/C3   45 350 01 00:   COMPENSATED BULK DENSTIY
 PORD.DEC    45 890 12 00:   POROSITY DENSITY SANDSTONE
 CNC .DEC    42 890 03 00:   NEUTRON POROSITY SANDSTONE
~PARAMETER INFORMATION
#MNEM.UNIT          VALUE    DESCRIPTION
#----------   ------------   ------------------------------
 PD  .                 GL:   PERMANENT DATUM
 EPD .F              5156:   ELEVATION PERMANENT DATUM
 LMF .                 GL:   LOG MEASURED FROM
 DMF .                 GL:   DRILLING MEASURED FROM
 EGL .F              5156:   GROUND LEVEL
 DATE.        13-JAN-1985:   RUN DATE
 RUN .                  1:   RUN NUMBER
 DD  .F               450:   DEPTH DRILLER
 DL  .F               450:   DEPTH LOGGER
 BLI .F               448:   BOTTOM LOG INTERVAL
 TLI .F                20:   TOP LOG INTERVAL
 CS  .IN            8.625:   CASING SIZE
 CBD .F                20:   CASING BOTTOM DRILLER
 CBL .F                20:   CASING BOTTOM LOGGER
 BS  .IN            7.875:   BIT SIZE
 BSD .F               450:   BIT SIZE AT DEPTH
 DFT .            KCL-H2O:   DRILLING FLUID TYPE
 MSS .               TANK:   MUD SAMPLE SOURCE
 RMS .OHMM           0.16:   RESISTIVITY MUD SAMPLE
 MST .F                20:   MUD SAMPLE TEMPERATURE
 RMF .OHMM           0.12:   RESISTIVITY MUD FILTRATE SAMPLE
 MFST.F                20:   MUD FILTRATE SAMPLE TEMPERATURE
 RMC .OHMM            0.2:   RESISTIVITY MUD CAKE
 MCST.F                20:   MUD CAKE SAMPLE TEMPERATURE
 MFSS.               CALC:   MUD FILTRATE SAMPLE SOURCE
 MCSS.               CALC:   MUD CAKE SAMPLE SOURCE
 BHT .F               100:   BOTTOM HOLE TEMPERATURE
 TCS .HRS               2:   TIME CURCULATED STOPPED
 MRT .F               100:   MAXIMUM RECORDED TEMPERATURE
 LUN .               6270:   LOGGING UNIT NUMBER
 LUL .                 FM:   LOGGING UNIT LOCATION
 ENGI.          E. GOVETT:   RECORDING ENGINEER
 WITN.             GROOMS:   WITNESSED BY
 CLNT.            A2DTECH:   CLIENT CODE
 ORIG.        2" 5" PRINT:   ORIGIN OF DATA
 UWI .       490251100400:   UNIQUE WELL ID
 DICO. A2D Technologies, Inc.:   DIGITIZING COMPANY
 R1  . POROSITY WITH SANDSTONE:   REMARKS 1
~OTHER INFORMATION
~A   DEPT       AC        SPR         RD         RS       RMLL         GRD      CALD       CORR        DEN       PORD        CNC   
# ...
  103.5000   105.5583   -48.2251   230.7929    18.6102     9.0860   108.6685     8.0398     0.0072     2.4499     0.1369     0.3143
  104.0000   105.5604   -48.2294   230.6783    18.6041     9.0815   112.4208     8.0391     0.0027     2.4499     0.1369     0.3165
  104.5000   105.4120   -48.2337   230.5866    18.5977     9.0150   112.8648     8.0383     0.0086     2.4499     0.1369     0.3052
  105.0000   105.1918   -48.2380   230.4949    18.7215     8.9490   108.6454     8.0375     0.0177     2.4498     0.1369     0.2941
  105.5000   105.0466   -48.2434   230.3804    18.7138     8.8834   106.2323     8.0367     0.0358     2.4498     0.1370     0.2781
  106.0000   105.2021   -48.2477   230.2889    18.7076     8.8182   106.6763     8.0360     0.0448     2.4498     0.1367     0.2627
  106.5000   105.5079   -48.4026   230.1974    18.7014     8.8139   108.0275     8.0353     0.0311     2.4513     0.1355     0.2621
  107.0000   105.5130   -48.5575   228.5107    18.6950     8.7493   107.8634     8.0346     0.0235     2.4559     0.1310     0.2728
  107.5000   105.2830   -48.7124   228.4199    18.6874     8.7459   104.3976     8.0337     0.0265     2.4618     0.1280     0.2960
  108.0000   104.9837   -48.8675   226.7237    18.6813     8.6818   103.1875     8.0330     0.0325     2.4655     0.1262     0.2999
  108.5000   104.8524   -49.1739   225.0625    18.5456     8.6782   103.7819     8.0323     0.0217     2.4678     0.1277     0.2942
  109.0000   105.0092   -49.3288   223.4135    18.4109     8.6139   107.3820     8.0316     0.0143     2.4616     0.1326     0.2867
  109.5000   105.5403   -49.4837   220.2391    17.8830     8.6105   108.2772     8.0307     0.0218     2.4481     0.1383     0.2825
  110.0000   105.9211   -49.4880   212.6259    17.1609     8.5474   107.8190     8.0300     0.0323     2.4465     0.1393     0.2873
  110.5000   106.0766   -49.7937   199.6227    16.3399     8.4848   107.0600     8.0293     0.0338     2.4488     0.1351     0.2988
  111.0000   106.0053   -49.9495   179.7712    15.5581     8.2326   104.0950     8.0438     0.0262     2.4525     0.1339     0.3090
  111.5000   106.3875   -50.1044   157.4511    14.3074     7.2742   101.9312     8.0278     0.0201     2.4547     0.1360     0.3239
  112.0000   108.4964   -50.2593   122.5213    13.1088     6.8301   101.6251     8.0269     0.0155     2.4509     0.1451     0.3258
  112.5000   110.2296   -50.2636    98.0307    11.6038     6.2806   105.2253     8.0262     0.0155     2.4328     0.1518     0.3191
  113.0000   111.1364   -50.4187    80.6407    10.4506     6.1058   106.5715     8.0255     0.0219     2.4207     0.1581     0.3087
  113.5000   111.0664   -50.4239    66.8053     9.7451     6.5409   104.3070     8.0248     0.0350     2.4131     0.1603     0.3000
  114.0000   110.0198   -50.4282    52.3477     9.2145     8.0016   103.6984     8.0239     0.0380     2.4093     0.1588     0.2923
  114.5000   107.7710   -50.4325    35.1982     9.3579     8.2249   104.4432     8.0232     0.0319     2.4163     0.1525     0.2835
  115.0000   106.7995   -50.4369    27.3896     9.6679     8.0511   106.0902     8.0375     0.0121     2.4266     0.1470     0.2790
  115.5000   106.9549   -50.2906    25.3593     9.7993     8.2750   108.0362     8.0368     0.0061     2.4356     0.1440     0.2813
  116.0000   107.3358   -50.2959    24.9990     9.8652     8.6836   109.0818     8.0361     0.0212     2.4348     0.1459     0.2941
  116.5000   107.1017   -50.1486    24.8158     9.8612     8.7416   107.1198     8.0352     0.0242     2.4302     0.1477     0.2982
  117.0000   106.4979   -50.1540    24.6340     9.9267     8.7991   104.5563     8.0345     0.0241     2.4280     0.1489     0.3006
  117.5000   106.2995   -50.0075    24.6242     9.9226     8.7947   105.9008     8.0338     0.0163     2.4310     0.1462     0.3027
  118.0000   106.3811   -50.0120    24.6120     9.9193     8.8526   106.7959     8.0331     0.0135     2.4370     0.1420     0.3030
  118.5000   106.3863   -50.0173    24.6022     9.9160     8.8482   107.3921     8.0323     0.0225     2.4437     0.1390     0.2824
  119.0000   106.3151   -50.0216    24.4219     9.9127     8.8447   107.5338     8.0315     0.0270     2.4476     0.1381     0.2691
  119.5000   106.3216   -49.8743    24.4122     9.9094     8.7190   107.0452     8.0308     0.0254     2.4467     0.1383     0.2752
  120.0000   106.3268   -49.8797    24.2334     9.8367     8.4176   105.2620     8.0300     0.0148     2.4391     0.1427     0.2938
  120.5000   106.4071   -49.8840    24.0534     9.7653     8.1834   104.0519     8.0293     0.0087     2.4346     0.1452     0.2995
  121.0000   106.7879   -49.8894    23.7117     9.6272     8.0104   102.3906     8.0284     0.0177     2.4392     0.1422     0.3053
  121.5000   107.1688   -49.8937    23.3747     9.4910     7.9517   101.9324     8.0277     0.0252     2.4458     0.1379     0.3098
  122.0000   108.0004   -49.8980    22.8829     9.2918     7.8935   103.7280     8.0270     0.0282     2.4496     0.1368     0.3122
  122.5000   108.3048   -49.9023    22.2461     9.1597     7.8903   105.9766     8.0263     0.0221     2.4503     0.1383     0.3046
  123.0000   108.2349   -50.0572    21.7758     9.0932     7.8314   107.7740     8.0256     0.0085     2.4412     0.1425     0.3015
  123.5000   108.2414   -50.0626    21.4664     9.0272     7.5610   107.7669     8.0247     0.0039     2.4359     0.1450     0.3001
  124.0000   108.4720   -50.0669    21.1614     9.0242     7.2996   101.8933     8.0240     0.0207     2.4336     0.1456     0.2983
  124.5000   109.4539   -50.3724    20.4299     8.6966     7.0965   100.9857     8.0233     0.0386     2.4305     0.1469     0.2992
  125.0000   110.9617   -50.3767    19.3163     7.5255     6.9472   104.7363     8.0226     0.0431     2.4267     0.1503     0.3129
  125.5000   112.2802   -50.3855    15.8897     6.0637     5.6998   107.2855     8.0217     0.0430     2.4228     0.1532     0.3416
  126.0000   116.1533   -50.5370    13.9169     5.6938     4.0343   110.0252     8.0210     0.0399     2.4176     0.1575     0.3873
  126.5000   117.6762   -50.6919    12.8865     5.6133     3.9774   108.3222     8.0202     0.0323     2.4017     0.1681     0.3764
  127.0000   116.9191   -50.8468    12.7934     5.8615     4.6329   106.3602     8.0195     0.0187     2.3654     0.1887     0.3571
  127.5000   113.9942   -51.3029    14.1934     6.3573     5.7857   105.3005     8.0188     0.0066     2.3609     0.1893     0.3416
  128.0000   112.1211   -51.4598    17.4786     7.4579     7.4951   104.8421     8.0179    -0.0010     2.3744     0.1751     0.3128
  128.5000   110.0977   -51.9150    19.2588     8.3913     7.7428   105.1341     8.0172     0.0020     2.4167     0.1534     0.2912
  129.0000   108.6754   -52.2205    20.6380     8.9305     7.6860   105.5781     8.0165     0.0079     2.4333     0.1458     0.2948
  129.5000   107.6288   -52.3754    21.5091     9.2607     8.0097   106.3229     8.0158     0.0094     2.4378     0.1452     0.3045
  130.0000   106.5070   -52.3797    22.2616     9.6335     8.2899   108.8722     8.0149     0.0063     2.4386     0.1427     0.3127
  130.5000   105.6106   -52.2334    22.5622     9.6984     8.3444   110.6678     8.0142     0.0078     2.4513     0.1353     0.3103
  131.0000   105.9163   -51.9365    22.5533     9.7628     8.3403   111.2640     8.0135     0.0108     2.4604     0.1305     0.3079
  131.5000   106.2972   -51.6396    22.5443     9.8270     8.3370   110.3528     8.0128     0.0213     2.4611     0.1299     0.3052
  132.0000   106.3762   -51.3427    22.6927     9.8327     8.4512   110.3358     8.0120     0.0485     2.4550     0.1333     0.3016
  132.5000   105.9319   -51.0458    22.8420     9.9580     8.5655   111.8406     8.0112     0.0560     2.4512     0.1351     0.2960
  133.0000   105.4863   -50.7500    23.4748    10.0942     8.5025   113.0365     8.0104     0.0330     2.4489     0.1372     0.2871
  133.5000   105.0407   -50.4542    23.9604    10.3036     8.6175   112.1272     8.0249     0.0272     2.4481     0.1385     0.2786
