~VERSION INFORMATION
 VERS.                2.0:   CWLS LOG ASCII STANDARD - VERSION 2.0
 WRAP.                 NO:   ONE LINE PER DEPTH STEP
~WELL INFORMATION
#MNEM.UNIT      DATA TYPE    INFORMATION
#----------   ------------   ------------------------------
 STRT.F            0.0000:   START DEPTH
 STOP.F          618.0000:   STOP DEPTH
 STEP.F            0.5000:   STEP LENGTH
 NULL.          -999.2500:   NO VALUE
 COMP.   FLUOR DANIEL INC:   COMPANY
 WELL. NAVAL PETROLEUM RESERVE 3 SX-3 #2-33:   WELL
 FLD .             TEAPOT:   FIELD
 LOC .      S33 T39N R78W:   LOCATION
 CNTY.            NATRONA:   COUNTY
 STAT.            WYOMING:   STATE
 CTRY. UNITED STATES OF AMERICA:   COUNTRY
 SRVC.      Western Atlas:   SERVICE COMPANY
 DATE.        07-JAN-1995:   LOGDATE
 API .       490252267200:   API NUMBER
~CURVE INFORMATION
#MNEM.UNIT       API CODE    CURVE DESCRIPTION
#----------   ------------   ------------------------------
 DEPT.F                  :   
 GRR .GAPI   07 310 01 00:   GAMMA RAY FROM RES. LOG.
 RILD.OHMM   07 120 46 00:   INDUCTION LOG DEEP RESISTIVITY
 RILM.OHMM   07 120 44 00:   INDUCTION LOG MEDIUM RESISTIVITY
~PARAMETER INFORMATION
#MNEM.UNIT          VALUE    DESCRIPTION
#----------   ------------   ------------------------------
 PD  .                 GL:   PERMANENT DATUM
 EPD .F              5158:   ELEVATION PERMANENT DATUM
 LMF .                 KB:   LOG MEASURED FROM
 DAPD.F                10:   FEET ABOVE PERMANENT DATUM
 DMF .                 KB:   DRILLING MEASURED FROM
 EKB .F              5168:   KELLING BUSHING
 EDF .F              5167:   DRILLING FLOOR
 EGL .F              5158:   GROUND LEVEL
 DATE.         7-JAN-1995:   RUN DATE
 RUN .                  1:   RUN NUMBER
 DD  .F               625:   DEPTH DRILLER
 DL  .F               626:   DEPTH LOGGER
 BLI .F               618:   BOTTOM LOG INTERVAL
 CS  .IN            9.625:   CASING SIZE
 CBD .F                53:   CASING BOTTOM DRILLER
 CBL .F                54:   CASING BOTTOM LOGGER
 BS  .IN             8.75:   BIT SIZE
 BSD .F               625:   BIT SIZE AT DEPTH
 DFT .                AIR:   DRILLING FLUID TYPE
 MRT .F                89:   MAXIMUM RECORDED TEMPERATURE
 LUN .            HL 6530:   LOGGING UNIT NUMBER
 LUL .             CASPER:   LOGGING UNIT LOCATION
 ENGI.        VERN RAUTIO:   RECORDING ENGINEER
 WITN.        GARY STRONG:   WITNESSED BY
 CLNT.            A2DTECH:   CLIENT CODE
 ORIG.           5" PRINT:   ORIGIN OF DATA
 UWI .       490252267200:   UNIQUE WELL ID
 DICO. A2D Technologies, Inc.:   DIGITIZING COMPANY
~OTHER INFORMATION
~A    DEPT      GRR      RILD       RILM   
# ...
  273.0000   118.5117     8.8655     8.9480
  273.5000   118.9212     8.8902     8.9729
  274.0000   120.5917     8.8439     8.9262
  274.5000   121.5902     8.8083     8.8903
  275.0000   121.8090     8.7406     8.8219
  275.5000   122.0309     8.6777     8.7585
  276.0000   122.2481     8.6153     8.6955
  276.5000   122.4552     8.5534     8.6330
  277.0000   122.7673     8.4919     8.5709
  277.5000   125.3451     8.4308     8.5093
  278.0000   128.0024     8.3702     8.4481
  278.5000   127.7254     8.3100     8.3874
  279.0000   125.9914     8.2503     8.3271
  279.5000   123.8252     8.1910     8.2672
  280.0000   121.6643     8.1320     8.2078
  280.5000   119.4786     8.0736     8.1487
  281.0000   119.1571     7.9750     8.0492
  281.5000   119.8706     7.7446     7.8167
  282.0000   119.5114     7.5209     7.5910
  282.5000   117.8405     7.3037     7.3717
  283.0000   117.4466     7.0928     7.1588
  283.5000   119.0174     6.9001     6.9643
  284.0000   119.7561     6.7795     6.8426
  284.5000   120.4378     6.7319     6.7960
  285.0000   121.0951     6.7438     6.7938
  285.5000   119.6787     6.7903     6.9763
  286.0000   117.6630     6.8363     7.1040
  286.5000   116.5183     6.9489     7.2341
  287.0000   118.0851     7.1227     7.3665
  287.5000   120.9817     7.3007     7.5014
  288.0000   121.6831     7.4833     7.6387
  288.5000   121.9324     7.6704     7.7786
  289.0000   122.1913     7.8087     7.8814
  289.5000   123.3846     7.8087     7.8814
  290.0000   122.4525     7.7522     7.8244
  290.5000   121.2690     7.6909     7.7625
  291.0000   120.0368     7.6301     7.7012
  291.5000   122.3006     7.5698     7.6403
  292.0000   125.5995     7.5100     7.5799
  292.5000   126.6418     7.4508     7.5246
  293.0000   124.4840     7.3256     7.3864
  293.5000   123.9415     7.0140     7.0806
  294.0000   125.1234     6.6132     6.6746
  294.5000   126.6386     6.2337     6.2918
  295.0000   128.1750     5.8763     5.9310
  295.5000   128.7655     5.5393     5.5909
  296.0000   126.7462     5.3903     5.3871
  296.5000   124.4192     5.3406     5.3882
  297.0000   122.0013     5.4188     5.5574
  297.5000   121.7880     5.5305     5.8026
  298.0000   122.1651     5.6459     6.0578
  298.5000   123.8323     5.9574     6.3243
  299.0000   125.7741     6.2900     6.6024
  299.5000   127.6849     6.6417     6.8928
  300.0000   127.4201     7.0136     7.1960
  300.5000   124.9773     7.4018     7.5125
  301.0000   124.9181     7.6314     7.7041
  301.5000   125.3465     7.6915     7.7774
  302.0000   123.6355     7.7551     7.8514
  302.5000   122.2518     7.8194     7.9261
  303.0000   124.8770     7.8843     8.0015
  303.5000   127.4619     7.9497     8.0776
  304.0000   128.6068     8.0156     8.1545
  304.5000   127.1100     8.0821     8.2321
  305.0000   124.9209     8.1491     8.3104
  305.5000   123.8978     8.2167     8.3895
  306.0000   122.8224     8.2848     8.4693
  306.5000   121.7339     8.3535     8.5499
  307.0000   120.7286     8.4228     8.6312
  307.5000   121.4758     8.4926     8.7134
  308.0000   123.6943     8.5631     8.7963
  308.5000   127.8123     8.6341     8.8083
  309.0000   129.9223     8.7271     8.8083
  309.5000   128.2462     8.6814     8.7622
  310.0000   126.8979     8.6167     8.6970
  310.5000   127.2180     8.5525     8.6322
  311.0000   129.8989     8.4888     8.5678
  311.5000   131.5787     8.4256     8.5040
  312.0000   128.4251     8.3628     8.4407
  312.5000   123.4651     8.3006     8.3778
  313.0000   118.4634     8.2387     8.3154
  313.5000   119.0352     8.1774     8.2535
  314.0000   122.2267     8.1165     8.1920
  314.5000   125.3256     8.0560     8.1310
  315.0000   128.3859     7.8537     7.9268
  315.5000   126.8685     7.5439     7.6141
  316.0000   124.3984     7.2472     7.3138
  316.5000   126.2817     6.9589     7.0252
  317.0000   130.6473     6.5648     6.5682
  317.5000   133.1806     6.1211     6.0423
  318.0000   129.3187     5.7094     5.5058
  318.5000   126.4401     5.2228     4.8542
  319.0000   125.9242     4.5726     4.2876
  319.5000   125.4463     4.0034     3.7858
  320.0000   122.3443     3.5050     3.3428
  320.5000   120.2494     3.0687     2.9516
  321.0000   121.9562     2.7046     2.6062
  321.5000   123.5452     2.4522     2.4072
  322.0000   120.3808     2.3850     2.3850
  322.5000   115.6981     2.3630     2.4975
  323.0000   110.8535     2.4310     2.6332
  323.5000   111.4707     2.4853     2.7763
  324.0000   117.6640     2.6351     3.0445
  324.5000   122.2095     2.9910     3.4503
  325.0000   124.7235     3.3950     3.9103
  325.5000   127.8319     3.8536     4.4315
  326.0000   132.5041     4.3740     5.0222
  326.5000   136.1987     4.9648     5.6459
  327.0000   136.2177     5.6354     6.0283
  327.5000   133.8235     6.3099     6.3687
  328.0000   133.1732     6.4878     6.5138
  328.5000   135.3606     6.6091     6.6820
  329.0000   138.6821     6.6707     6.8587
  329.5000   140.6072     6.6619     6.8587
  330.0000   138.3481     6.6170     6.8587
  330.5000   135.0666     6.5724     6.8238
  331.0000   133.2587     6.5281     6.6785
  331.5000   132.3792     6.4852     6.5459
  332.0000   133.4199     6.0739     6.1977
  332.5000   136.3309     5.7115     5.8881
  333.0000   140.9589     5.3725     5.5951
  333.5000   145.2732     5.0538     5.3163
  334.0000   147.2716     4.8680     5.0522
  334.5000   147.3697     4.8231     4.9674
  335.0000   147.4951     4.7845     4.8841
  335.5000   146.9764     4.7469     4.8231
  336.0000   142.6527     4.7345     4.8680
  336.5000   136.4624     4.8231     5.0619
  337.0000   130.6548     4.9590     5.2851
  337.5000   132.6570     5.1775     5.5181
  338.0000   136.2246     5.4233     5.7613
  338.5000   136.7664     5.6808     6.0153
  339.0000   137.1496     5.9505     6.2805
  339.5000   137.6598     6.2330     6.5574
  340.0000   136.4665     6.5289     6.8472
  340.5000   134.2117     6.8389     7.1465
  341.0000   133.7716     7.1635     7.3953
  341.5000   134.0831     7.5036     7.6417
  342.0000   134.4161     7.8150     7.8814
  342.5000   134.7491     7.8112     7.8814
  343.0000   135.1101     7.6547     7.7251
  343.5000   134.0163     7.4976     7.5673
  344.0000   132.6145     7.3443     7.4127
  344.5000   131.1485     7.1943     7.2613
  345.0000   132.7284     7.0473     7.1129
  345.5000   135.6594     6.9037     6.9676
  346.0000   138.6331     6.7626     6.8253
  346.5000   141.2342     6.5445     6.6105
  347.0000   140.8548     6.1823     6.2517
  347.5000   139.9178     5.8407     5.9109
  348.0000   139.8861     5.5177     5.5785
  348.5000   140.3023     5.2133     5.2649
  349.0000   139.0830     5.0052     5.0518
  349.5000   137.8756     4.9590     5.0052
  350.0000   140.9532     4.9590     5.0052
  350.5000   144.4185     5.0262     5.2449
  351.0000   146.0239     5.1018     5.5238
  351.5000   143.2111     5.1784     5.8175
  352.0000   139.5968     5.4696     6.1269
  352.5000   136.6207     5.8363     6.4527
  353.0000   135.9273     6.2277     6.7958
  353.5000   137.1221     6.6465     7.1888
  354.0000   138.7881     7.1872     7.3194
  354.5000   141.8583     7.1811     7.4524
  355.0000   146.0027     7.4552     7.5221
  355.5000   149.2520     7.4757     7.5943
  356.0000   146.1721     7.5251     7.6361
  356.5000   142.9512     7.5748     7.6768
  357.0000   139.7013     7.6248     7.7176
  357.5000   139.8171     7.6751     7.7586
  358.0000   141.9296     7.7367     7.8087
  358.5000   142.9475     7.7182     7.7900
  359.0000   142.2937     7.6947     7.7663
  359.5000   140.2028     7.6713     7.7427
  360.0000   140.3142     7.6480     7.7192
  360.5000   140.7339     7.6247     7.6957
  361.0000   141.1756     7.6015     7.6723
  361.5000   141.4564     7.5784     7.6490
  362.0000   137.8562     7.5554     7.6257
  362.5000   134.0500     7.5250     7.5950
  363.0000   133.4609     7.5368     7.6070
  363.5000   135.5475     7.5560     7.6263
