~VERSION INFORMATION
 VERS.                2.0:   CWLS LOG ASCII STANDARD - VERSION 2.0
 WRAP.                 NO:   ONE LINE PER DEPTH STEP
~WELL INFORMATION
#MNEM.UNIT      DATA TYPE    INFORMATION
#----------   ------------   ------------------------------
 STRT.F           84.0000:   START DEPTH
 STOP.F          849.5000:   STOP DEPTH
 STEP.F            0.5000:   STEP LENGTH
 NULL.          -999.2500:   NO VALUE
 COMP. U S NAVY/INTEX OIL CO:   COMPANY
 WELL.     NPR 3 #81-S-34:   WELL
 FLD .        TEAPOT DOME:   FIELD
 LOC .      S34 T39N R78W:   LOCATION
 CNTY.            NATRONA:   COUNTY
 STAT.            WYOMING:   STATE
 CTRY. UNITED STATES OF AMERICA:   COUNTRY
 SRVC.       Schlumberger:   SERVICE COMPANY
 DATE.        29-JUL-1963:   LOGDATE
 API .       490250656700:   API NUMBER
~CURVE INFORMATION
#MNEM.UNIT       API CODE    CURVE DESCRIPTION
#----------   ------------   ------------------------------
 DEPT.F                  :   
 CALS.IN     60 280 50 00:   CALIPER FROM SONIC LOG
 DT  .US/F   60 520 33 00:   INTERVAL TRANSIT TIME
 SPR .MV     05 010 01 00:   SPONTANEOUS POTENTIAL FROM RES.
 ILD .OHMM   05 120 46 00:   INDUCTION LOG DEEP
 ASN .OHMM   05 041 16 00:   AMPLIFIED SHORT NORMAL 16"
 CILD.MMHO   05 110 46 00:   CONDUCTIVITY INDUCTION LOG DEEP
 GR  .GAPI   30 310 01 00:   GAMMA RAY FROM RES.
~PARAMETER INFORMATION
#MNEM.UNIT          VALUE    DESCRIPTION
#----------   ------------   ------------------------------
 PD  .                 GL:   PERMANENT DATUM
 EPD .F              5067:   ELEVATION PERMANENT DATUM
 LMF .                 KB:   LOG MEASURED FROM
 DAPD.F                 5:   FEET ABOVE PERMANENT DATUM
 DMF .                 KB:   DRILLING MEASURED FROM
 EKB .F              5072:   KELLING BUSHING
 EGL .F              5067:   GROUND LEVEL
 DATE.          7-29-1963:   RUN DATE
 RUN .                  1:   RUN NUMBER
 DD  .F               850:   DEPTH DRILLER
 DL  .F               850:   DEPTH LOGGER
 BLI .F               849:   BOTTOM LOG INTERVAL
 TLI .F                90:   TOP LOG INTERVAL
 CS  .IN            8.625:   CASING SIZE
 CBD .F                10:   CASING BOTTOM DRILLER
 BS  .IN            7.875:   BIT SIZE
 BSD .F               850:   BIT SIZE AT DEPTH
 DFT .            GEL-OIL:   DRILLING FLUID TYPE
 DFD .                9.4:   DRILLING FLUID DENSITY
 DFV .                 40:   DRILLING FLUID VISCOSITY
 DFPH.                  9:   DRILLING FLUID PH
 DFL .                8.4:   DRILLING FLUID LOSS
 MSS .           FLOWLINE:   MUD SAMPLE SOURCE
 RMS .OHMM           3.08:   RESISTIVITY MUD SAMPLE
 MST .F                79:   MUD SAMPLE TEMPERATURE
 RMF .OHMM           2.39:   RESISTIVITY MUD FILTRATE SAMPLE
 MFST.F                79:   MUD FILTRATE SAMPLE TEMPERATURE
 RMC .OHMM           3.29:   RESISTIVITY MUD CAKE
 MCST.F                79:   MUD CAKE SAMPLE TEMPERATURE
 MFSS.                 MP:   MUD FILTRATE SAMPLE SOURCE
 MCSS.                 MP:   MUD CAKE SAMPLE SOURCE
 TCS .HRS               1:   TIME CURCULATED STOPPED
 LUN .               4507:   LOGGING UNIT NUMBER
 LUL .              CSPR.:   LOGGING UNIT LOCATION
 ENGI.             KNOBEL:   RECORDING ENGINEER
 WITN.          JORGENSON:   WITNESSED BY
 CLNT.            A2DTECH:   CLIENT CODE
 ORIG.           5" PRINT:   ORIGIN OF DATA
 UWI .       490250656700:   UNIQUE WELL ID
 DICO. A2D Technologies, Inc.:   DIGITIZING COMPANY
~OTHER INFORMATION
~A   DEPT     CALS         DT        SPR        ILD        ASN       CILD         GR   
# ...
  675.5000     7.9352   107.1975   -23.8082     4.1905     5.4967   242.1548    76.2814
  676.0000     7.9202   107.8187   -24.0591     4.4242     5.5671   228.6611    74.8974
  676.5000     7.8942   105.6716   -24.0255     4.7386     5.6865   213.6681    75.7788
  677.0000     7.9456   104.4270   -23.9547     5.0618     6.0525   197.1757    73.1880
  677.5000     7.9923   103.5915   -24.2431     5.3870     6.4011   187.7615    77.5849
  678.0000     7.8606   102.3167   -24.5256     5.7124     6.7417   180.2301    80.9873
  678.5000     7.7246   100.3207   -24.8077     6.0361     7.0831   171.8619    81.9016
  679.0000     7.6385    98.7082   -25.0905     6.3453     7.4225   163.4937    77.6190
  679.5000     7.6727    98.8120   -25.3571     6.4928     7.7496   154.2887    79.6867
  680.0000     7.7129    99.4261   -25.2994     6.6423     7.9566   151.0853    78.7933
  680.5000     7.7309   100.0403   -25.1335     6.7939     8.0868   146.9665    77.7480
  681.0000     7.7087    99.6570   -24.9701     6.9529     8.0923   148.2741    76.7035
  681.5000     7.6865   100.4119   -24.8065     6.7916     8.0646   151.1506    77.9567
  682.0000     7.6647   101.4553   -24.6425     6.6067     8.0228   154.5128    80.3396
  682.5000     7.6385   102.3655   -24.4768     6.4203     7.9152   158.8505    81.8161
  683.0000     7.6465   103.1972   -24.3363     6.3089     7.7361   163.7901    81.9617
  683.5000     7.6591   104.0289   -24.6270     6.2657     7.5636   168.7297    77.2883
  684.0000     7.6131   104.7088   -24.9281     6.2023     7.3922   174.1632    76.0153
  684.5000     7.5579   105.3014   -25.1942     5.8271     7.2108   184.9895    70.6924
  685.0000     7.6368   105.8919   -25.3497     5.4556     6.9814   198.2218    74.4560
  685.5000     7.7344   106.8510   -25.2035     4.9647     6.7608   213.6880    80.4152
  686.0000     7.8325   108.2772   -24.5694     4.4763     6.5320   230.8727    81.2385
  686.5000     7.9307   109.7073   -23.9070     4.1537     6.1454   246.3389    81.5775
  687.0000     8.0308   113.0329   -23.6171     3.9658     5.7665   256.7992    78.2603
  687.5000     8.0470   113.5956   -23.3451     3.9642     5.3870   255.7531    82.8220
  688.0000     8.0303   112.0814   -23.0728     4.0210     5.1759   251.6921    79.2548
  688.5000     8.0130   110.6265   -22.8009     4.0786     5.3242   248.0002    80.9905
  689.0000     7.9960   109.0199   -22.6629     4.1265     5.4160   244.3084    74.1796
  689.5000     7.9804   107.0219   -22.6916     4.3086     5.5123   234.5058    76.9080
  690.0000     7.9551   101.4791   -22.7188     4.5963     5.8796   223.3264    79.7101
  690.5000     7.9638   100.6273   -22.7465     5.1958     6.6751   201.4644    78.1357
  691.0000     7.9935   101.6877   -22.7740     5.8128     7.0106   183.5774    81.7622
  691.5000     8.0226   101.7933   -22.8015     6.1951     7.2831   170.7926    84.3711
  692.0000     8.0520   101.3874   -22.8286     6.3650     7.4299   161.7155    85.5202
  692.5000     8.0520   101.9196   -22.8532     6.5262     7.5683   158.5774    81.4234
  693.0000     8.0421   102.4576   -22.9813     6.6445     7.7062   156.1566    86.3119
  693.5000     8.0322   102.6279   -23.1210     6.6418     7.8445   155.4094    82.2294
  694.0000     8.0223   101.8255   -23.2595     6.6425     7.9825   154.6623    81.7697
  694.5000     8.0137   101.0217   -23.3146     6.6556     8.1219   153.6005    84.2299
  695.0000     8.0138   100.4637   -23.3563     6.7101     8.2210   152.2242    79.4990
  695.5000     8.0172   100.5191   -23.3980     6.7630     8.2865   150.8465    76.1827
  696.0000     8.0302   100.5746   -23.4398     6.8183     8.3509   149.4657    77.6717
  696.5000     8.0261   100.6300   -23.4817     6.9415     8.4170   150.1745    80.9202
  697.0000     8.0122   100.4102   -23.5235     6.8438     8.4211   151.7943    80.7996
  697.5000     7.9984   100.0647   -23.5653     6.7364     8.4213   153.2427    82.1252
  698.0000     7.9692    99.7510   -23.6072     6.6316     8.4002   155.5439    82.1770
  698.5000     7.9339   100.7196   -23.6482     6.5336     8.3727   157.4268    82.4759
  699.0000     7.8972   101.2300   -23.6827     6.5124     8.2695   155.9100    84.9739
  699.5000     7.8960   100.8419   -23.9610     6.4899     8.2040   154.3410    87.1769
  700.0000     7.9441   101.1836   -24.0407     6.4670     8.0920   153.7551    84.4741
  700.5000     7.9978   102.2582   -23.8976     6.4446     8.0653   155.5134    84.6507
  701.0000     8.0298   103.3327   -23.7549     6.3902     8.0806   157.2676    82.6191
  701.5000     8.0037   103.4552   -23.6116     6.3026     8.0996   160.7300    80.1894
  702.0000     7.9774   103.3466   -23.4828     6.0943     8.1036   167.8706    80.5295
  702.5000     7.9509   104.6501   -23.4859     5.8822     7.8549   175.0112    85.8440
  703.0000     7.9243   106.3412   -23.4865     5.6739     7.5798   181.2393    85.2808
  703.5000     7.8980   108.1086   -23.4867     5.4936     7.2967   184.2771    84.3727
  704.0000     7.8755   108.5624   -23.4854     5.3911     7.0078   186.6833    82.1589
  704.5000     7.8824   108.1551   -23.4095     5.3162     6.8970   188.8753    88.2588
  705.0000     7.9178   108.3366   -23.1825     5.2192     6.6987   190.8996    90.7339
  705.5000     7.9529   107.2135   -22.9563     5.1792     6.5972   189.6365    84.2446
  706.0000     7.9879   105.5706   -22.8471     5.2101     6.8434   188.3211    82.7755
  706.5000     7.9732   103.9311   -22.8199     5.2871     7.0379   192.0773    87.5021
  707.0000     7.9237   103.7889   -22.7942     5.2703     7.0518   199.6969    90.9121
  707.5000     7.8709   104.5438   -22.7687     4.8132     7.0284   211.4001    94.2066
  708.0000     7.8999   106.5935   -22.7431     4.3237     6.7580   224.1721    90.9744
  708.5000     7.9358   109.3222   -22.7178     4.2385     6.3528   236.9247    85.7810
  709.0000     7.8790   112.0938   -22.6921     4.2934     5.9497   236.9247    82.9575
  709.5000     7.7970   112.5007   -22.6628     4.3270     5.5367   235.9643    78.9649
  710.0000     7.7132   111.9975   -22.4632     4.2479     5.6714   234.3384    79.9127
  710.5000     7.6231   110.6685   -22.0347     4.2576     5.8112   232.7788    83.8683
  711.0000     7.6740   108.7637   -22.0259     4.4551     5.6507   223.9540    78.9143
  711.5000     7.7425   104.4689   -22.2185     5.0237     5.9787   208.9610    77.1019
  712.0000     7.7376   101.4442   -22.6720     5.5799     6.7065   185.5765    81.5448
  712.5000     7.7105   101.8309   -23.1241     6.1406     7.2115   169.9791    81.9885
  713.0000     7.6825   102.1853   -23.3686     6.3536     7.3769   163.0753    82.1391
  713.5000     7.6546   102.5396   -23.5109     6.3997     7.5014   159.5188    82.8264
  714.0000     7.6264   101.9218   -23.6364     6.4100     7.5674   163.5117    81.0275
  714.5000     7.6197   100.2887   -23.9343     5.9188     7.6257   170.7531    81.3008
  715.0000     7.6566   102.3914   -23.6312     5.4296     7.6382   181.2762    82.8456
  715.5000     7.7015   102.4575   -23.3003     5.1770     7.6390   191.7992    75.4897
  716.0000     7.7412   103.4794   -23.0143     5.1782     7.4670   199.2678    77.8695
  716.5000     7.7779   105.3960   -22.7346     5.1912     7.1251   197.1329    82.0345
  717.0000     7.8379   106.8227   -22.4917     5.2193     6.6604   194.7413    78.9936
  717.5000     7.7616   105.7271   -22.2668     5.2468     6.4828   194.7803    83.5279
  718.0000     7.6728   106.5119   -22.0364     5.2736     6.6332   194.4028    85.1169
  718.5000     7.7059   106.8227   -22.0235     5.3650     6.6292   193.4462    86.0741
  719.0000     7.7599   103.6477   -22.0245     5.4912     6.8193   185.4961    82.0806
  719.5000     7.8147   100.4475   -22.0261     5.9793     7.7716   171.7155    80.7306
  720.0000     7.8509    98.6554   -21.8229     6.4214     8.0698   161.1925    77.8547
  720.5000     7.9165    98.8546   -21.4474     6.8021     8.3093   151.2803    79.6784
