~VERSION INFORMATION
 VERS.                2.0:   CWLS LOG ASCII STANDARD - VERSION 2.0
 WRAP.                 NO:   ONE LINE PER DEPTH STEP
~WELL INFORMATION
#MNEM.UNIT      DATA TYPE    INFORMATION
#----------   ------------   ------------------------------
 STRT.F           26.0000:   START DEPTH
 STOP.F          484.0000:   STOP DEPTH
 STEP.F            0.5000:   STEP LENGTH
 NULL.          -999.2500:   NO VALUE
 COMP.    FENIX & SCISSON:   COMPANY
 WELL.        NPR #44-S-3:   WELL
 FLD .              NPR-3:   FIELD
 LOC .       S3 T38N R78W:   LOCATION
 CNTY.            NATRONA:   COUNTY
 STAT.            WYOMING:   STATE
 CTRY. UNITED STATES OF AMERICA:   COUNTRY
 SRVC.              Welex:   SERVICE COMPANY
 DATE.        22-APR-1977:   LOGDATE
 API .       490251034000:   API NUMBER
~CURVE INFORMATION
#MNEM.UNIT       API CODE    CURVE DESCRIPTION
#----------   ------------   ------------------------------
 DEPT.F                  :   
 SPR .MV     07 010 01 00:   SPONTANEOUS POTENTIAL
 ILD .OHMM   07 120 46 00:   INDUCTION LOG DEEP
 ILM .OHMM   07 120 44 00:   INDUCTION LOG MEDIUM
 SGRD.OHMM   07 221 05 00:   SHALLOW SHORT GUARD RESISTIVITY
 GRD .GAPI   45 310 01 00:   GAMMA RAY FROM DENSITY LOG
 CALD.IN     45 280 60 00:   CALIPER FROM DENSITY LOG
 CORR.G/C3   45 356 01 00:   DENSITY CORRECTION
 RHOB.G/C3   45 350 01 00:   BULK DENSITY
 DPHI.DEC    45 890 12 00:   DENSITY POROSITY SANDSTONE
~PARAMETER INFORMATION
#MNEM.UNIT          VALUE    DESCRIPTION
#----------   ------------   ------------------------------
 PD  .                 GL:   PERMANENT DATUM
 EPD .F              5160:   ELEVATION PERMANENT DATUM
 LMF .                 GL:   LOG MEASURED FROM
 DMF .                 GL:   DRILLING MEASURED FROM
 EGL .F              5160:   GROUND LEVEL
 DATE.        22-APR-1977:   RUN DATE
 RUN .                  1:   RUN NUMBER
 DD  .F               490:   DEPTH DRILLER
 DL  .F               486:   DEPTH LOGGER
 BLI .F               484:   BOTTOM LOG INTERVAL
 TLI .F                30:   TOP LOG INTERVAL
 CS  .IN            8.625:   CASING SIZE
 CBD .F                40:   CASING BOTTOM DRILLER
 CBL .F                38:   CASING BOTTOM LOGGER
 BS  .IN            7.875:   BIT SIZE
 BSD .F               490:   BIT SIZE AT DEPTH
 DFT .            KCL GEL:   DRILLING FLUID TYPE
 DFD .                8.8:   DRILLING FLUID DENSITY
 DFV .                 36:   DRILLING FLUID VISCOSITY
 DFPH.                8.0:   DRILLING FLUID PH
 DFL .                6.4:   DRILLING FLUID LOSS
 MSS .            MUD PIT:   MUD SAMPLE SOURCE
 RMS .OHMM            .36:   RESISTIVITY MUD SAMPLE
 MST .F                60:   MUD SAMPLE TEMPERATURE
 RMF .OHMM            .30:   RESISTIVITY MUD FILTRATE SAMPLE
 MFST.F                60:   MUD FILTRATE SAMPLE TEMPERATURE
 RMC .OHMM            .42:   RESISTIVITY MUD CAKE
 MCST.F                60:   MUD CAKE SAMPLE TEMPERATURE
 MFSS.               MEAS:   MUD FILTRATE SAMPLE SOURCE
 MCSS.               MEAS:   MUD CAKE SAMPLE SOURCE
 RMB .OHMM            .30:   RESISTIVITY MUD AT BHT
 BHT .F                70:   BOTTOM HOLE TEMPERATURE
 TCS .HRS            0200:   TIME CURCULATED STOPPED
 MRT .F                70:   MAXIMUM RECORDED TEMPERATURE
 LUN .               8611:   LOGGING UNIT NUMBER
 LUL .             CASPER:   LOGGING UNIT LOCATION
 ENGI.          T. JOYNER:   RECORDING ENGINEER
 WITN.           ROB LYON:   WITNESSED BY
 CLNT.            A2DTECH:   CLIENT CODE
 ORIG.           5" PRINT:   ORIGIN OF DATA
 UWI .       490251034000:   UNIQUE WELL ID
 DICO. A2D Technologies, Inc.:   DIGITIZING COMPANY
~OTHER INFORMATION
~A   DEPT      SPR        ILD        ILM       SGRD        GRD       CALD       CORR       RHOB       DPHI   
# ...
  318.0000   -29.7981    18.6743    23.8162    29.2307    88.8675     7.7277    -0.0032     2.4062     0.1439
  318.5000   -29.7892    18.2947    23.5037    27.6729    92.5756     7.7289    -0.0001     2.4077     0.1442
  319.0000   -29.9288    18.0472    22.4070    27.8802    90.8103     7.7304     0.0016     2.4093     0.1427
  319.5000   -29.9198    17.9264    21.6589    28.4803    89.1930     7.7319     0.0032     2.4123     0.1406
  320.0000   -29.9110    17.9302    21.0811    29.4984    90.6821     7.7333     0.0048     2.4154     0.1387
  320.5000   -30.0505    17.9339    20.5187    28.5085    92.9109     7.7200     0.0049     2.4184     0.1378
  321.0000   -29.8932    17.9376    20.1099    27.7429    93.2166     7.7215     0.0021     2.4170     0.1387
  321.5000   -29.8843    17.8177    19.8429    27.0071    92.9282     7.7230     0.0007     2.4104     0.1414
  322.0000   -29.8754    17.8214    20.4151    27.0222    92.3488     7.7245    -0.0007     2.4067     0.1443
  322.5000   -29.8665    17.8251    21.1464    27.6198    91.3207     7.7408    -0.0021     2.4053     0.1458
  323.0000   -29.8576    17.7059    21.7528    28.2176    94.1437     7.7423    -0.0050     2.4031     0.1473
  323.5000   -29.8487    17.7096    21.6163    28.6297    94.8907     7.7438    -0.0048     2.4009     0.1499
  324.0000   -29.8398    17.5912    20.8946    29.0210    90.6131     7.7453    -0.0047     2.3988     0.1514
  324.5000   -29.8309    17.7169    20.4783    29.0370    89.2916     7.7023    -0.0046     2.3951     0.1517
  325.0000   -29.8220    17.7206    20.0703    29.0531    88.8577     7.6890    -0.0048     2.3884     0.1561
  325.5000   -29.8131    17.9727    20.0827    29.0692    89.7551     7.6461    -0.0059     2.3863     0.1585
  326.0000   -29.8024    18.3583    20.5163    28.8840    91.8360     7.6179    -0.0073     2.3893     0.1543
  326.5000   -29.7935    19.1329    21.2512    28.7047    93.6210     7.6042    -0.0071     2.3969     0.1519
  327.0000   -29.9330    18.8740    21.8607    28.7206    95.2581     7.6802    -0.0055     2.3999     0.1504
  327.5000   -29.9242    18.7393    21.4218    28.7364    96.7472     7.7409    -0.0039     2.3962     0.1509
  328.0000   -29.9153    18.3566    21.7369    28.7522    97.9763     7.7721    -0.0023     2.3933     0.1530
  328.5000   -30.0570    18.1066    22.0532    28.5659    99.8969     7.7584    -0.0007     2.3958     0.1521
  329.0000   -30.0459    17.7499    22.0669    28.3847   100.7875     7.7751    -0.0005     2.4010     0.1494
  329.5000   -30.0371    17.7537    22.2337    27.0621    98.5736     7.7766    -0.0004     2.4032     0.1487
  330.0000   -30.1766    17.6349    22.0942    26.1569    96.3598     7.7781    -0.0018     2.3971     0.1520
  330.5000   -30.1677    17.3963    22.1078    25.8083    96.3268     7.7795    -0.0017     2.3966     0.1529
  331.0000   -30.1588    17.2800    22.1215    25.4679    98.1729     7.7807    -0.0015     2.3989     0.1493
  331.5000   -30.3006    17.1644    21.5294    25.4854    96.9992     7.7822     0.0001     2.4028     0.1460
  332.0000   -30.2895    16.9322    20.8069    25.8546    95.2312     7.7377     0.0002     2.4073     0.1444
  332.5000   -30.2806    16.7040    20.3887    26.2254    96.5835     7.6963     0.0003     2.4103     0.1426
  333.0000   -30.2717    16.4771    20.1175    25.3517    97.3414     7.6978     0.0004     2.4067     0.1423
  333.5000   -30.4112    16.3670    19.8659    25.0173    93.9389     7.6993     0.0005     2.4045     0.1453
  334.0000   -30.4024    16.2575    19.8787    25.2047    91.1307     7.7008     0.0022     2.4031     0.1461
  334.5000   -30.3935    15.9271    20.0532    25.2186    90.3990     7.7023     0.0023     2.4054     0.1440
  335.0000   -30.3846    15.8214    20.3231    25.4076    93.5382     7.7038     0.0039     2.4092     0.1473
  335.5000   -30.3758    15.4998    20.1924    25.4216    94.1475     7.7052     0.0040     2.4115     0.1428
  336.0000   -30.3669    15.5030    19.3868    25.0863    95.3512     7.7216     0.0041     2.4093     0.1436
  336.5000   -30.3581    15.5062    18.8696    24.0801    97.7437     7.7231     0.0028     2.4057     0.1445
  337.0000   -30.3492    15.5094    18.6220    23.9240    99.6903     7.7246     0.0014     2.4027     0.1456
  337.5000   -30.3403    15.8378    18.5022    24.2739   100.1511     7.7261     0.0000     2.3961     0.1482
  338.0000   -30.3315    15.9509    18.5165    24.9684    97.0420     7.7275    -0.0014     2.3909     0.1519
  338.5000   -30.4732    16.2887    19.0476    25.3300    99.5868     7.7290    -0.0013     2.3925     0.1552
  339.0000   -30.4621    16.4051    19.4589    25.3440   102.8707     7.7154    -0.0011     2.3963     0.1525
  339.5000   -30.4532    16.2945    20.0169    25.0062   103.1791     7.7172    -0.0010     2.4001     0.1515
  340.0000   -30.4451    16.0749    20.0293    24.6764    99.3118     7.7187    -0.0009     2.4009     0.1476
  340.5000   -30.4355    15.9666    19.6303    24.5198    94.8882     7.7202    -0.0008     2.4002     0.1506
  341.0000   -30.4266    15.8252    18.5853    24.3643    97.4531     7.7217    -0.0006     2.4003     0.1491
  341.5000   -30.5684    15.6453    17.7181    24.0462    98.9362     7.7232     0.0010     2.4033     0.1464
  342.0000   -30.5573    15.7579    17.9760    23.5655    99.9852     7.7247     0.0011     2.4079     0.1428
  342.5000   -30.5484    16.2032    18.6198    22.7773   100.2974     7.6966     0.0012     2.4124     0.1401
  343.0000   -30.5395    16.5462    19.2868    22.7898   100.1638     7.6684     0.0013     2.4170     0.1379
  343.5000   -30.6813    16.5497    19.9776    23.4419    98.2472     7.6197     0.0014     2.4215     0.1367
  344.0000   -30.6702    16.4382    20.1286    23.9464    95.8848     7.5377     0.0001     2.4216     0.1364
  344.5000   -30.6613    16.4424    18.6659    23.7945    93.8196     7.6742     0.0002     2.4217     0.1379
  345.0000   -30.8008    16.3325    17.0718    22.6827    92.6459     7.7333    -0.0012     2.4187     0.1393
  345.5000   -30.7920    16.2233    17.0823    22.2288    94.1468     7.7052    -0.0026     2.4151     0.1393
  346.0000   -30.9318    16.0030    17.8170    22.3958    96.6878     7.7067    -0.0040     2.4122     0.1438
  346.5000   -31.0712    15.6785    16.6369    22.2538    97.1486     7.7082    -0.0054     2.4085     0.1426
  347.0000   -31.2107    15.2539    15.5350    21.5094    95.8225     7.7097    -0.0052     2.4041     0.1476
  347.5000   -31.2016    14.9438    15.5446    20.5043    96.1385     7.7112    -0.0051     2.4004     0.1485
  348.0000   -31.1927    14.5392    15.3406    19.9560    97.3422     7.7127    -0.0050     2.4109     0.1422
  348.5000   -31.3323    14.3417    14.2258    19.6927    98.3973     7.7142    -0.0048     2.4185     0.1392
  349.0000   -31.4718    14.3454    13.4686    19.8403    99.7496     7.7157    -0.0032     2.4178     0.1389
  349.5000   -31.7596    14.4480    13.2002    19.9890    99.6160     7.7171    -0.0031     2.4149     0.1394
  350.0000   -31.7507    14.3438    13.5866    20.1391    97.1173     7.7035    -0.0030     2.4142     0.1406
  350.5000   -31.7448    14.3030    14.3772    20.1514    92.9614     7.7174    -0.0029     2.4180     0.1388
  351.0000   -31.7379    14.2655    15.0796    20.1639    92.3804     7.7215    -0.0012     2.4225     0.1364
  351.5000   -31.7319    14.0781    15.5111    20.1764    94.3343     7.7230    -0.0041     2.4248     0.1355
  352.0000   -31.8758    13.9861    15.8450    20.1890    96.5810     7.7244    -0.0055     2.4227     0.1369
  352.5000   -32.0168    13.8007    14.7946    20.3417    97.4859     7.7259    -0.0069     2.4198     0.1378
  353.0000   -32.0108    13.7123    14.3988    20.3544    95.1308     7.7274    -0.0067     2.4153     0.1402
  353.5000   -32.0049    13.6244    14.7089    20.5084    92.3254     7.7289    -0.0050     2.4115     0.1434
  354.0000   -32.1488    13.6326    15.0256    20.5211    89.9658     7.7304    -0.0049     2.4070     0.1467
