~VERSION INFORMATION
 VERS.                2.0:   CWLS LOG ASCII STANDARD - VERSION 2.0
 WRAP.                 NO:   ONE LINE PER DEPTH STEP
~WELL INFORMATION
#MNEM.UNIT      DATA TYPE    INFORMATION
#----------   ------------   ------------------------------
 STRT.F           70.0000:   START DEPTH
 STOP.F          990.0000:   STOP DEPTH
 STEP.F            0.5000:   STEP LENGTH
 NULL.          -999.2500:   NO VALUE
 COMP. U S NAVY/INTEX OIL CO:   COMPANY
 WELL.      NPR 3 #55 S-2:   WELL
 FLD .            WILDCAT:   FIELD
 LOC .       S2 T38N R78W:   LOCATION
 CNTY.            NATRONA:   COUNTY
 STAT.            WYOMING:   STATE
 CTRY. UNITED STATES OF AMERICA:   COUNTRY
 SRVC.         Lane Wells:   SERVICE COMPANY
 DATE.        23-MAR-1960:   LOGDATE
 API .       490250968000:   API NUMBER
~CURVE INFORMATION
#MNEM.UNIT       API CODE    CURVE DESCRIPTION
#----------   ------------   ------------------------------
 DEPT.F                  :   
 SPR .MV     05 010 01 00:   SPONTANEOUS POTENTIAL FROM RES.
 ASN .OHMM   05 041 16 00:   AMPLIFIED SHORT NORMAL 16"
 ILD .OHMM   05 120 46 00:   INDUCTION LOG DEEP
 CILD.MMHO   05 110 46 00:   CONDUCTIVITY INDUCTION LOG DEEP
~PARAMETER INFORMATION
#MNEM.UNIT          VALUE    DESCRIPTION
#----------   ------------   ------------------------------
 PD  .                 GL:   PERMANENT DATUM
 EPD .F              5163:   ELEVATION PERMANENT DATUM
 LMF .                 KB:   LOG MEASURED FROM
 DAPD.F                 5:   FEET ABOVE PERMANENT DATUM
 DMF .                 KB:   DRILLING MEASURED FROM
 EKB .F              5168:   KELLING BUSHING
 EGL .F              5163:   GROUND LEVEL
 DATE.        23-MAR-1960:   RUN DATE
 RUN .                  1:   RUN NUMBER
 DD  .F              1010:   DEPTH DRILLER
 DL  .F               992:   DEPTH LOGGER
 BLI .F               990:   BOTTOM LOG INTERVAL
 TLI .F                70:   TOP LOG INTERVAL
 CS  .IN            8.625:   CASING SIZE
 CBD .F                12:   CASING BOTTOM DRILLER
 BS  .IN            7.875:   BIT SIZE
 BSD .F              1010:   BIT SIZE AT DEPTH
 DFT .   GEL-OIL EMULSION:   DRILLING FLUID TYPE
 DFD .                9.5:   DRILLING FLUID DENSITY
 DFV .                 40:   DRILLING FLUID VISCOSITY
 MSS .           FLOWLINE:   MUD SAMPLE SOURCE
 RMS .OHMM            2.8:   RESISTIVITY MUD SAMPLE
 MST .F                74:   MUD SAMPLE TEMPERATURE
 RMF .OHMM            2.0:   RESISTIVITY MUD FILTRATE SAMPLE
 MFST.F                74:   MUD FILTRATE SAMPLE TEMPERATURE
 RMC .OHMM            3.9:   RESISTIVITY MUD CAKE
 MCST.F                74:   MUD CAKE SAMPLE TEMPERATURE
 MFSS.          MUD PRESS:   MUD FILTRATE SAMPLE SOURCE
 MCSS.          MUD PRESS:   MUD CAKE SAMPLE SOURCE
 RMB .OHMM            2.8:   RESISTIVITY MUD AT BHT
 BHT .F                74:   BOTTOM HOLE TEMPERATURE
 MRT .F                74:   MAXIMUM RECORDED TEMPERATURE
 LUN .             L-4474:   LOGGING UNIT NUMBER
 LUL .             CASPER:   LOGGING UNIT LOCATION
 ENGI.             NELSON:   RECORDING ENGINEER
 WITN.          JORGENSEN:   WITNESSED BY
 CLNT.            A2DTECH:   CLIENT CODE
 ORIG.       2", 5" PRINT:   ORIGIN OF DATA
 UWI .       490250968000:   UNIQUE WELL ID
 DICO. A2D Technologies, Inc.:   DIGITIZING COMPANY
~OTHER INFORMATION
~A   DEPT      SPR          ASN        ILD      CILD  
   70.0000   -42.5048     6.6286     5.3197   199.3144
   70.5000   -42.5516     6.5246     5.2504   201.4194
   71.0000   -42.5984     6.4147     5.1687   203.8506
   71.5000   -42.6427     6.3012     5.0434   208.9936
   72.0000   -42.7818     6.2211     4.9742   212.7836
   72.5000   -42.9201     6.1374     4.9694   215.8998
   73.0000   -43.0588     6.0714     4.9034   217.2940
   73.5000   -43.0608     6.0281     4.9222   215.9380
   74.0000   -43.0874     6.0958     4.9687   214.5898
   74.5000   -43.3384     6.3493     5.0043   209.2101
   75.0000   -43.3401     6.5725     5.1247   203.1829
   75.5000   -43.4788     6.8840     5.3046   194.0492
   76.0000   -43.4809     7.0547     5.4676   189.0658
   76.5000   -43.5201     7.2237     5.6472   184.4720
   77.0000   -43.6217     7.3142     5.8218   180.9799
   77.5000   -43.6237     7.3775     5.9988   180.1510
   78.0000   -43.6257     7.4269     6.0463   179.0384
   78.5000   -43.6281     7.3714     6.0449   178.4936
   79.0000   -43.6298     7.2479     6.0436   177.7056
   79.5000   -43.6319     7.1507     6.0420   179.1003
   80.0000   -43.6339     7.0613     6.0136   180.8608
   80.5000   -43.4990     7.0174     5.9018   183.2638
   81.0000   -43.5016     6.9831     5.7900   185.3479
   81.5000   -43.5034     6.9592     5.7463   187.4244
   82.0000   -43.3688     6.9077     5.6271   190.1956
   82.5000   -43.3713     6.8335     5.5227   192.0789
   83.0000   -43.3730     6.7439     5.4694   194.3546
   83.5000   -43.3751     6.6215     5.2828   197.9395
   84.0000   -43.4517     6.4946     5.2136   200.1832
   84.5000   -43.6749     6.3621     5.1435   202.6602
   85.0000   -43.9279     6.2892     5.0318   204.0522
   85.5000   -44.0662     6.2383     4.9880   204.0729
   86.0000   -44.0683     6.2116     4.9360   202.7238
   86.5000   -44.0703     6.2197     4.9347   200.9478
   87.0000   -44.0374     6.2656     5.0015   198.6410
   87.5000   -43.8014     6.3504     5.0678   197.9166
   88.0000   -43.5993     6.5159     5.1601   195.7144
   88.5000   -43.3803     6.7545     5.2014   193.2102
   89.0000   -43.1247     6.9009     5.3102   191.3094
   89.5000   -43.1264     7.0269     5.4193   189.1073
   90.0000   -43.1285     7.1061     5.6053   186.9048
   90.5000   -43.1305     7.1855     5.7054   184.7022
   91.0000   -43.1603     7.2566     5.8825   182.3230
   91.5000   -43.4080     7.3101     5.9415   182.3421
   92.0000   -43.6066     7.3828     6.0082   180.9876
   92.5000   -43.6930     7.4598     5.9388   179.6394
   93.0000   -43.9608     7.4732     5.8281   182.4038
   93.5000   -44.1393     7.4185     5.7164   185.1722
   94.0000   -44.2378     7.2427     5.5944   188.7362
   94.5000   -44.2397     7.0917     5.4571   193.7272
   95.0000   -44.2418     6.7918     5.3129   197.5984
   95.5000   -44.2441     6.5632     5.1821   199.5878
   96.0000   -44.0565     6.3787     5.1573   201.8316
   96.5000   -43.7015     6.2738     5.1115   203.1525
   97.0000   -43.6184     6.2251     5.0698   204.5467
   97.5000   -43.3994     6.2054     5.0410   203.1948
   98.0000   -43.1614     6.2124     5.1074   203.2143
   98.5000   -43.0979     6.2516     5.1376   203.2349
   99.0000   -43.0286     6.3270     5.1729   203.2586
   99.5000   -43.0311     6.4124     5.1712   203.2761
  100.0000   -43.0783     6.5306     5.2381   203.2968
  100.5000   -43.1715     6.5219     5.2367   204.6909
  101.0000   -43.3880     6.4660     5.1673   206.4103
  101.5000   -43.6111     6.3393     5.1660   208.8548
  102.0000   -43.7243     6.1987     5.0965   210.8974
  102.5000   -43.7842     6.0901     5.0646   213.1410
  103.0000   -43.8647     6.0119     4.9578   215.7866
  103.5000   -43.6398     5.9889     4.8882   215.8036
  104.0000   -43.3826     6.0250     4.8870   217.1984
  104.5000   -43.0514     6.0810     4.8176   217.9946
  105.0000   -42.8461     6.1062     4.7483   218.6127
  105.5000   -42.7819     6.0786     4.6789   220.0094
  106.0000   -42.9211     5.9896     4.6774   220.6045
  106.5000   -42.9228     5.8581     4.6762   221.4742
  107.0000   -43.0615     5.7921     4.6748   223.7180
  107.5000   -43.1466     5.6960     4.6732   225.9616
  108.0000   -43.2022     5.6054     4.6721   226.9794
  108.5000   -43.3410     5.5600     4.6707   224.9221
  109.0000   -43.4062     5.6185     4.7070   222.7196
  109.5000   -43.4816     5.8471     4.8042   220.1748
  110.0000   -43.6206     6.1034     4.8706   217.8113
  110.5000   -43.6223     6.1619     4.8694   214.7186
  111.0000   -43.6244     6.1845     4.8681   211.1631
  111.5000   -43.5505     6.1842     4.9122   208.6561
  112.0000   -43.4681     6.1840     4.9533   205.1668
  112.5000   -43.2209     6.2108     5.0680   201.8087
  113.0000   -43.1667     6.2545     5.1347   199.6062
  113.5000   -42.8110     6.3627     5.1445   196.9888
  114.0000   -42.6803     6.5165     5.2678   193.8279
  114.5000   -42.5454     6.7400     5.3626   190.1588
  115.0000   -42.5480     7.0803     5.4694   187.2939
  115.5000   -42.6184     7.3525     5.5127   183.3290
  116.0000   -42.9946     7.5624     5.6218   183.3544
  116.5000   -43.6472     7.6236     5.6694   183.3722
  117.0000   -43.8830     7.5671     5.7039   183.3929
  117.5000   -44.0608     7.3238     5.8129   183.4134
  118.0000   -44.0629     6.9868     5.8694   181.7034
  118.5000   -43.8994     6.9151     5.9360   177.9618
  119.0000   -43.7937     7.0509     6.0722   175.2424
  119.5000   -43.5366     7.4841     6.1812   170.8175
  120.0000   -43.2332     7.9166     6.3583   168.4066
  120.5000   -42.8440     8.5738     6.4747   167.5367
  121.0000   -42.7086     8.9249     6.4036   168.4482
  121.5000   -42.7112     8.9815     6.1814   172.0239
  122.0000   -42.8497     8.4360     5.9263   176.2094
  122.5000   -43.1466     7.5293     5.7369   183.6218
  123.0000   -43.5372     6.7902     5.5148   189.5881
  123.5000   -43.7295     6.3585     5.3354   199.1102
  124.0000   -43.9508     6.0255     5.1556   211.1580
  124.5000   -43.9529     5.7475     5.0353   218.3085
  125.0000   -43.7842     5.5885     4.9320   226.3060
  125.5000   -43.5473     5.4691     4.8286   229.8076
  126.0000   -43.2759     5.4214     4.8270   230.4670
  126.5000   -43.1413     5.4321     4.8259   230.4906
  127.0000   -43.1438     5.5227     4.8245   229.9725
  127.5000   -43.1922     5.6320     4.8231   227.7814
  128.0000   -43.2842     5.7671     4.8218   226.0803
  128.5000   -43.6385     5.8799     4.8203   223.3654
  129.0000   -43.8347     5.9677     4.9202   220.9770
  129.5000   -43.9736     6.0519     5.0293   218.2989
  130.0000   -43.9754     6.1433     5.0884   215.2473
  130.5000   -43.8408     6.2311     5.1114   211.4252
  131.0000   -43.7514     6.3189     5.1537   208.2327
  131.5000   -43.5324     6.4106     5.2614   204.5954
  132.0000   -43.4372     6.5404     5.3025   201.6667
  132.5000   -43.3026     6.6575     5.3537   199.9885
  133.0000   -43.3047     6.7770     5.3524   196.4172
  133.5000   -43.3070     6.8253     5.3510   195.0618
  134.0000   -43.3088     6.8199     5.3494   195.0824
  134.5000   -43.4474     6.7703     5.3483   195.1030
  135.0000   -43.6703     6.6485     5.2789   195.5127
  135.5000   -43.8934     6.4553     5.1694   199.2664
  136.0000   -44.0002     6.2661     5.0721   203.4618
  136.5000   -44.0021     6.1257     5.0026   208.1177
  137.0000   -43.8674     5.9417     4.9020   215.8136
  137.5000   -43.7333     5.7210     4.7959   220.9825
  138.0000   -43.5537     5.6169     4.7943   225.4672
  138.5000   -43.3273     5.5165     4.7027   227.7014
  139.0000   -43.1926     5.4813     4.6557   228.5716
  139.5000   -43.0578     5.5258     4.7616   231.0252
  140.0000   -43.1970     5.6653     4.7893   229.0293
  140.5000   -43.3926     5.7615     4.7876   225.3362
  141.0000   -43.6156     5.8713     4.8544   221.4736
  141.5000   -43.8388     5.9990     4.9211   216.0439
  142.0000   -43.9253     6.2370     4.9875   210.5228
  142.5000   -44.1634     6.4939     5.0547   204.8880
