~VERSION INFORMATION
 VERS.                2.0:   CWLS LOG ASCII STANDARD - VERSION 2.0
 WRAP.                 NO:   ONE LINE PER DEPTH STEP
~WELL INFORMATION
#MNEM.UNIT      DATA TYPE    INFORMATION
#----------   ------------   ------------------------------
 STRT.F           15.0000:   START DEPTH
 STOP.F         5640.0000:   STOP DEPTH
 STEP.F            0.5000:   STEP LENGTH
 NULL.          -999.2500:   NO VALUE
 COMP.       F D SERV INC:   COMPANY
 WELL. NAVAL PETROLEUM RESERVE 3 SX-1 #43-10:   WELL
 FLD .         N.P.R. #.3:   FIELD
 LOC .      S10 T38N R78W:   LOCATION
 CNTY.            NATRONA:   COUNTY
 STAT.            WYOMING:   STATE
 CTRY. UNITED STATES OF AMERICA:   COUNTRY
 SRVC.      Dresser Atlas:   SERVICE COMPANY
 DATE.        05-JUL-1986:   LOGDATE
 API .       490251101800:   API NUMBER
~CURVE INFORMATION
#MNEM.UNIT       API CODE    CURVE DESCRIPTION
#----------   ------------   ------------------------------
 DEPT.F                  :   
 GRR .GAPI   07 310 01 00:   GAMMA RAY
 ILD .OHMM   07 120 46 00:   INDUCTION LOG DEEP
 ILM .OHMM   07 120 44 00:   INDUCTION LOG MEDIUM
 CALS.IN     60 280 50 00:   CALIPER FROM SONIC LOG
 GRS .GAPI   60 310 01 00:   GAMMA RAY FROM SONIC LOG
 AC  .US/F   60 520 00 00:   ACCOUSTIC
~PARAMETER INFORMATION
#MNEM.UNIT          VALUE    DESCRIPTION
#----------   ------------   ------------------------------
 PD  .                 GL:   PERMANENT DATUM
 EPD .F              5205:   ELEVATION PERMANENT DATUM
 LMF .                 KB:   LOG MEASURED FROM
 DAPD.F                 5:   FEET ABOVE PERMANENT DATUM
 DMF .                 KB:   DRILLING MEASURED FROM
 EKB .F              5210:   KELLING BUSHING
 EGL .F              5205:   GROUND LEVEL
 DATE.        05-JUL-1986:   RUN DATE
 RUN .                  1:   RUN NUMBER
 DD  .F               560:   DEPTH DRILLER
 DL  .F               560:   DEPTH LOGGER
 BLI .F               550:   BOTTOM LOG INTERVAL
 TLI .F                15:   TOP LOG INTERVAL
 CS  .IN            8.625:   CASING SIZE
 CBD .F                47:   CASING BOTTOM DRILLER
 CBL .F                47:   CASING BOTTOM LOGGER
 BS  .IN            7.875:   BIT SIZE
 BSD .F               560:   BIT SIZE AT DEPTH
 DFT .                AIR:   DRILLING FLUID TYPE
 BHT .F                83:   BOTTOM HOLE TEMPERATURE
 TCS .HRS            2100:   TIME CURCULATED STOPPED
 TLAB.HRS            2230:   TIME LOGGER AT BOTTOM
 MRT .F                83:   MAXIMUM RECORDED TEMPERATURE
 LUN .               7609:   LOGGING UNIT NUMBER
 LUL .           GILLETTE:   LOGGING UNIT LOCATION
 ENGI.              BAURT:   RECORDING ENGINEER
 CLNT.            A2DTECH:   CLIENT CODE
 ORIG. 1" 2" 2.5", 5" PRINT:   ORIGIN OF DATA
 UWI .       490251101800:   UNIQUE WELL ID
 DICO. A2D Technologies, Inc.:   DIGITIZING COMPANY
 R2  . HEADER NOT CLEARLY VISIBLE:   REMARKS 2
~OTHER INFORMATION
~A   DEPT       GRR       ILD        ILM       CALS        GRS         AC   
# ...
 4123.0000  -999.2500  -999.2500  -999.2500    10.7133    99.3939    91.3168
 4123.5000  -999.2500  -999.2500  -999.2500    10.7282   102.4242    90.8651
 4124.0000  -999.2500  -999.2500  -999.2500    10.7278   104.8648    90.5641
 4124.5000  -999.2500  -999.2500  -999.2500    10.7275   105.1515    90.8746
 4125.0000  -999.2500  -999.2500  -999.2500    10.7273   103.3333    91.3953
 4125.5000  -999.2500  -999.2500  -999.2500    10.7263   103.6364    91.6223
 4126.0000  -999.2500  -999.2500  -999.2500    10.7115   103.9394    91.6984
 4126.5000  -999.2500  -999.2500  -999.2500    10.7112   102.1212    91.3211
 4127.0000  -999.2500  -999.2500  -999.2500    10.7109    95.7576    90.7950
 4127.5000  -999.2500  -999.2500  -999.2500    10.7257    93.6364    90.4941
 4128.0000  -999.2500  -999.2500  -999.2500    10.7406    92.4242    90.2685
 4128.5000  -999.2500  -999.2500  -999.2500    10.7403    91.7806    89.5905
 4129.0000  -999.2500  -999.2500  -999.2500    10.7400    89.3939    88.4796
 4129.5000  -999.2500  -999.2500  -999.2500    10.7397    85.1515    86.5001
 4130.0000  -999.2500  -999.2500  -999.2500    10.7394    81.5152    84.3892
 4130.5000  -999.2500  -999.2500  -999.2500    10.7391    78.7879    83.1079
 4131.0000  -999.2500  -999.2500  -999.2500    10.7387    78.1818    83.1198
 4131.5000  -999.2500  -999.2500  -999.2500    10.7537    80.6061    83.7881
 4132.0000  -999.2500  -999.2500  -999.2500    10.7685    84.2424    84.6938
 4132.5000  -999.2500  -999.2500  -999.2500    10.7682    85.4545    85.8507
 4133.0000  -999.2500  -999.2500  -999.2500    10.7830    85.4545    87.6366
 4133.5000  -999.2500  -999.2500  -999.2500    10.7827    86.6667    89.1456
 4134.0000  -999.2500  -999.2500  -999.2500    10.8128    89.0909    90.9563
 4134.5000  -999.2500  -999.2500  -999.2500    10.8579    92.1212    92.0128
 4135.0000  -999.2500  -999.2500  -999.2500    10.8727    93.6364    91.4104
 4135.5000  -999.2500  -999.2500  -999.2500    10.8876    96.9697    90.2799
 4136.0000  -999.2500  -999.2500  -999.2500    10.9025    99.3939    89.4510
 4136.5000  -999.2500  -999.2500  -999.2500    10.9021    96.3636    88.9993
 4137.0000  -999.2500  -999.2500  -999.2500    10.9018    89.0909    89.1831
 4137.5000  -999.2500  -999.2500  -999.2500    10.8864    85.7327    92.1683
 4138.0000  -999.2500  -999.2500  -999.2500    10.8860    87.8788    94.2806
 4138.5000  -999.2500  -999.2500  -999.2500    10.8857    91.5152    94.5830
 4139.0000  -999.2500  -999.2500  -999.2500    10.8703    94.5455    94.3538
 4139.5000  -999.2500  -999.2500  -999.2500    10.8700    97.5758    93.0009
 4140.0000  -999.2500  -999.2500  -999.2500    10.8697    99.6970    92.0966
 4140.5000  -999.2500  -999.2500  -999.2500    10.8693    96.9697    91.0415
 4141.0000  -999.2500  -999.2500  -999.2500    10.8691    93.3333    90.2881
 4141.5000  -999.2500  -999.2500  -999.2500    10.8688    90.9091    89.7498
 4142.0000  -999.2500  -999.2500  -999.2500    10.8685    87.4324    89.4601
 4142.5000  -999.2500  -999.2500  -999.2500    10.8681    83.9394    91.5725
 4143.0000  -999.2500  -999.2500  -999.2500    10.8678    83.6364    93.6848
 4143.5000  -999.2500  -999.2500  -999.2500    10.8675    86.0606    95.1265
 4144.0000  -999.2500  -999.2500  -999.2500    10.8673    89.3939    95.3455
 4144.5000  -999.2500  -999.2500  -999.2500    10.8821    94.8485    95.1954
 4145.0000  -999.2500  -999.2500  -999.2500    10.8818    95.7576    94.5928
 4145.5000  -999.2500  -999.2500  -999.2500    10.8815    95.4545    93.6885
 4146.0000  -999.2500  -999.2500  -999.2500    10.8812    95.4545    92.4074
 4146.5000  -999.2500  -999.2500  -999.2500    10.8822    94.8485    91.4277
 4147.0000  -999.2500  -999.2500  -999.2500    10.8849    93.6364    91.5038
 4147.5000  -999.2500  -999.2500  -999.2500    10.8877    92.4242    91.5899
 4148.0000  -999.2500  -999.2500  -999.2500    10.8904    93.0303    90.9568
 4148.5000  -999.2500  -999.2500  -999.2500    10.8931    92.7273    89.8495
 4149.0000  -999.2500  -999.2500  -999.2500    10.9094    90.0000    88.7919
 4149.5000  -999.2500  -999.2500  -999.2500    10.9092    85.1515    88.6416
 4150.0000  -999.2500  -999.2500  -999.2500    10.9091    80.9091    89.9830
 4150.5000  -999.2500  -999.2500  -999.2500    10.9089    79.6911    90.5394
 4151.0000  -999.2500  -999.2500  -999.2500    10.9088    87.2596    90.3787
 4151.5000  -999.2500  -999.2500  -999.2500    10.9238    89.9810    89.4745
 4152.0000  -999.2500  -999.2500  -999.2500    10.9236    87.8539    87.2128
 4152.5000  -999.2500  -999.2500  -999.2500    10.9235    87.2420    85.7807
 4153.0000  -999.2500  -999.2500  -999.2500    10.9233    88.4483    84.7256
 4153.5000  -999.2500  -999.2500  -999.2500    10.9232    89.6546    83.6705
 4154.0000  -999.2500  -999.2500  -999.2500    10.9230    89.3442    83.3694
 4154.5000  -999.2500  -999.2500  -999.2500    10.9229    87.8232    85.5109
 4155.0000  -999.2500  -999.2500  -999.2500    10.9227    84.4841    87.2926
 4155.5000  -999.2500  -999.2500  -999.2500    10.9226    80.5388    87.9721
 4156.0000  -999.2500  -999.2500  -999.2500    10.9376    77.8057    86.2462
 4156.5000  -999.2500  -999.2500  -999.2500    10.9374    76.8908    80.8093
 4157.0000  -999.2500  -999.2500  -999.2500    10.9524    75.0495    78.0197
 4157.5000  -999.2500  -999.2500  -999.2500    10.9523    74.4534    77.1155
 4158.0000  -999.2500  -999.2500  -999.2500    10.9672    75.9627    77.3424
 4158.5000  -999.2500  -999.2500  -999.2500    10.9671    75.6538    79.6056
 4159.0000  -999.2500  -999.2500  -999.2500    10.9821    75.6480    81.7934
 4159.5000  -999.2500  -999.2500  -999.2500    10.9820    78.6724    83.5543
 4160.0000  -999.2500  -999.2500  -999.2500    10.9818    82.6060    84.1329
 4160.5000  -999.2500  -999.2500  -999.2500    10.9817    86.5862    83.4549
 4161.0000  -999.2500  -999.2500  -999.2500    10.9815    86.8367    81.7965
 4161.5000  -999.2500  -999.2500  -999.2500    10.9965    83.7991    79.8364
 4162.0000  -999.2500  -999.2500  -999.2500    11.0115    83.1872    78.7813
 4162.5000  -999.2500  -999.2500  -999.2500    11.0417    84.3935    78.1033
 4163.0000  -999.2500  -999.2500  -999.2500    11.1021    83.4785    78.0286
 4163.5000  -999.2500  -999.2500  -999.2500    11.1777    80.7454    85.9481
 4164.0000  -999.2500  -999.2500  -999.2500    11.2252    81.8086    93.3395
 4164.5000  -999.2500  -999.2500  -999.2500    11.2380    89.5201    97.8651
 4165.0000  -999.2500  -999.2500  -999.2500    11.1469    91.9385    97.1871
 4165.5000  -999.2500  -999.2500  -999.2500    11.0559    91.6296    93.6433
 4166.0000  -999.2500  -999.2500  -999.2500    10.9648    88.5935    85.3484
 4166.5000  -999.2500  -999.2500  -999.2500    10.8889    85.5573    81.2538
 4167.0000  -999.2500  -999.2500  -999.2500    10.8585    84.0363    80.5988
 4167.5000  -999.2500  -999.2500  -999.2500    10.8583    82.1716    81.1276
 4168.0000  -999.2500  -999.2500  -999.2500    10.8582    80.9929    81.9579
 4168.5000  -999.2500  -999.2500  -999.2500    10.8580    81.2915    82.8636
 4169.0000  -999.2500  -999.2500  -999.2500    10.8427    82.1933    83.7693
 4169.5000  -999.2500  -999.2500  -999.2500    10.8426    84.3087    83.7758
 4170.0000  -999.2500  -999.2500  -999.2500    10.8414    88.2422    83.1576
 4170.5000  -999.2500  -999.2500  -999.2500    10.8271    89.1455    81.3584
 4171.0000  -999.2500  -999.2500  -999.2500    10.8269    89.0905    78.7196
 4171.5000  -999.2500  -999.2500  -999.2500    10.8117    87.3141    76.3824
 4172.0000  -999.2500  -999.2500  -999.2500    10.8115    84.2780    74.1207
 4172.5000  -999.2500  -999.2500  -999.2500    10.8114    80.6358    72.3115
 4173.0000  -999.2500  -999.2500  -999.2500    10.8112    76.6905    71.7089
 4173.5000  -999.2500  -999.2500  -999.2500    10.8110    73.0483    71.6290
 4174.0000  -999.2500  -999.2500  -999.2500    10.8109    65.7207    73.1434
 4174.5000  -999.2500  -999.2500  -999.2500    10.8107    63.6427    75.4820
