~VERSION INFORMATION
 VERS.                2.0:   CWLS LOG ASCII STANDARD - VERSION 2.0
 WRAP.                 NO:   ONE LINE PER DEPTH STEP
~WELL INFORMATION
#MNEM.UNIT      DATA TYPE    INFORMATION
#----------   ------------   ------------------------------
 STRT.F           30.0000:   START DEPTH
 STOP.F          468.0000:   STOP DEPTH
 STEP.F            0.1000:   STEP LENGTH
 NULL.          -999.2500:   NO VALUE
 COMP. LAWRENCE/ALLISON INC:   COMPANY
 WELL.    72-12 SX #10-10:   WELL
 FLD .             TEAPOT:   FIELD
 LOC .      S10 T38N R78W:   LOCATION
 CNTY.            NATRONA:   COUNTY
 STAT.            WYOMING:   STATE
 CTRY. UNITED STATES OF AMERICA:   COUNTRY
 SRVC.           Gearhart:   SERVICE COMPANY
 DATE.        17-MAY-1988:   LOGDATE
 API .       490251122400:   API NUMBER
~CURVE INFORMATION
#MNEM.UNIT       API CODE    CURVE DESCRIPTION
#----------   ------------   ------------------------------
 DEPT.F                  :   
 GRR .GAPI   07 310 01 00:   GAMMA RAY
 RILD.OHMM   07 120 46 00:   INDUCTION LOG DEEP RESISTIVITY
 RILM.OHMM   07 120 44 00:   INDUCTION LOG MEDIUM RESISTIVITY
~PARAMETER INFORMATION
#MNEM.UNIT          VALUE    DESCRIPTION
#----------   ------------   ------------------------------
 PD  .                 GL:   PERMANENT DATUM
 EPD .F              5166:   ELEVATION PERMANENT DATUM
 LMF .                 KB:   LOG MEASURED FROM
 DAPD.F              10.2:   FEET ABOVE PERMANENT DATUM
 DMF .                 KB:   DRILLING MEASURED FROM
 EKB .F            5176.2:   KELLING BUSHING
 EGL .F              5166:   GROUND LEVEL
 DATE.        17-MAY-1988:   RUN DATE
 RUN .                  1:   RUN NUMBER
 DD  .F               480:   DEPTH DRILLER
 DL  .F               476:   DEPTH LOGGER
 BLI .F               468:   BOTTOM LOG INTERVAL
 TLI .F                47:   TOP LOG INTERVAL
 CS  .IN            9.625:   CASING SIZE
 CBD .F                43:   CASING BOTTOM DRILLER
 CBL .F                47:   CASING BOTTOM LOGGER
 BS  .IN             8.75:   BIT SIZE
 BSD .F               480:   BIT SIZE AT DEPTH
 DFT .                AIR:   DRILLING FLUID TYPE
 TCS .HRS            0630:   TIME CURCULATED STOPPED
 TLAB.HRS            0930:   TIME LOGGER AT BOTTOM
 LUN .               7597:   LOGGING UNIT NUMBER
 LUL .           GILLETTE:   LOGGING UNIT LOCATION
 ENGI.             SLATKY:   RECORDING ENGINEER
 WITN.             STRONG:   WITNESSED BY
 CLNT.            A2DTECH:   CLIENT CODE
 ORIG.           5" PRINT:   ORIGIN OF DATA
 UWI .       490251122400:   UNIQUE WELL ID
 DICO. A2D Technologies, Inc.:   DIGITIZING COMPANY
~OTHER INFORMATION
~A   DEPT      GRR       RILD       RILM   
# ...
  230.2000   121.6412     6.2845     5.8883
  230.3000   120.9219     6.3281     5.9265
  230.4000   120.5576     6.3987     5.9539
  230.5000   120.4364     6.4340     5.9869
  230.6000   120.6666     6.4967     6.0312
  230.7000   121.6534     6.5690     6.1012
  230.8000   122.3685     6.6331     6.2216
  230.9000   123.2727     6.6701     6.2502
  231.0000   124.0121     6.7439     6.3051
  231.1000   124.4982     6.7909     6.3639
  231.2000   124.9989     6.8662     6.3992
  231.3000   125.2358     6.9625     6.4411
  231.4000   125.4800     7.0014     6.4705
  231.5000   125.7243     7.0786     6.5273
  231.6000   126.0194     7.1575     6.6001
  231.7000   126.5262     7.2373     6.6737
  231.8000   126.9915     7.3082     6.7618
  231.9000   127.3073     7.3493     6.8236
  232.0000   127.5515     7.3893     6.8998
  232.1000   127.7474     7.4302     6.9645
  232.2000   127.4474     7.4713     7.0083
  232.3000   126.9928     7.5030     7.1481
  232.4000   126.6788     7.5027     7.1804
  232.5000   126.2273     7.5434     7.2203
  232.6000   125.5492     7.5544     7.2603
  232.7000   125.0353     7.5541     7.3006
  232.8000   124.3613     7.5538     7.3489
  232.9000   123.8025     7.5535     7.3820
  233.0000   123.3212     7.5123     7.3999
  233.1000   122.8400     7.5005     7.3997
  233.2000   122.3202     7.4805     7.4018
  233.3000   121.8776     7.4387     7.4509
  233.4000   121.5576     7.3959     7.4507
  233.5000   121.3182     7.3956     7.4505
  233.6000   121.0788     7.3658     7.4503
  233.7000   120.8172     7.3246     7.4479
  233.8000   120.8194     7.2837     7.3982
  233.9000   120.9800     7.2417     7.3980
  234.0000   121.3212     7.2026     7.3528
  234.1000   121.7715     7.1340     7.2832
  234.2000   122.0415     7.0548     7.2426
  234.3000   122.2600     6.9682     7.2022
  234.4000   122.3491     6.8482     7.1304
  234.5000   122.3515     6.7751     7.0513
  234.6000   122.3539     6.6999     6.9731
  234.7000   122.3567     6.6256     6.8939
  234.8000   122.1454     6.5444     6.7798
  234.9000   121.9060     6.4313     6.6384
  235.0000   121.7576     6.2957     6.4921
  235.1000   121.7303     6.1571     6.3488
  235.2000   121.4597     6.0365     6.2099
  235.3000   121.2515     5.9497     6.1071
  235.4000   121.0121     5.9150     5.9798
  235.5000   120.8606     5.8834     5.8828
  235.6000   120.8630     5.8735     5.8083
  235.7000   120.8658     5.8585     5.7118
  235.8000   120.8679     5.8323     5.6172
  235.9000   121.4545     5.8320     5.5003
  236.0000   122.4242     5.8011     5.3791
  236.1000   123.3939     5.7911     5.2767
  236.2000   124.5143     5.7909     5.2190
  236.3000   125.1291     5.7907     5.1899
  236.4000   125.8570     5.7904     5.1610
  236.5000   126.5848     5.7902     5.1473
  236.6000   127.2921     5.7899     5.1392
  236.7000   127.8598     5.7897     5.1113
  236.8000   128.4655     5.7957     5.1112
  236.9000   128.9133     5.8296     5.1110
  237.0000   129.3151     5.8294     5.1109
  237.1000   130.0079     5.8291     5.1186
  237.2000   130.2962     5.8289     5.1463
  237.3000   130.4964     5.8348     5.1462
  237.4000   130.7406     5.8691     5.1682
  237.5000   130.9091     5.8688     5.2121
  237.6000   130.9115     5.8911     5.2623
  237.7000   130.9144     5.9093     5.2920
  237.8000   130.5260     5.9091     5.3512
  237.9000   130.0448     5.9088     5.4110
  238.0000   129.5636     5.9394     5.4714
  238.1000   129.0939     5.9723     5.5324
  238.2000   128.8545     6.0198     5.5936
  238.3000   128.6152     6.0807     5.6247
  238.4000   128.5067     6.1167     5.6801
  238.5000   128.5788     6.1482     5.7436
  238.6000   128.8230     6.2057     5.8076
  238.7000   129.0672     6.2748     5.8717
  238.8000   129.3115     6.3447     5.8715
  238.9000   129.5557     6.4206     5.8962
  239.0000   129.8000     6.4535     5.9122
  239.1000   130.0388     6.5137     5.9205
  239.2000   130.0412     6.5862     5.9536
  239.3000   129.6715     6.6596     6.0202
  239.4000   129.3152     6.7395     6.0874
  239.5000   128.9485     6.7739     6.1554
  239.6000   128.2279     6.8627     6.2240
  239.7000   127.7466     6.9451     6.2935
  239.8000   127.0824     6.9901     6.3995
  239.9000   126.1157     7.0744     6.4798
  240.0000   125.0303     7.1468     6.5522
  240.1000   124.3055     7.2264     6.6346
  240.2000   123.3430     7.3069     6.7460
  240.3000   122.7382     7.3882     6.7834
  240.4000   122.1382     7.4777     6.9074
  240.5000   121.4727     7.5538     7.0232
  240.6000   120.9843     7.6380     7.1016
  240.7000   120.5103     7.7231     7.1812
  240.8000   119.8521     7.8021     7.2610
  240.9000   119.4764     7.8492     7.3422
  241.0000   119.5879     7.8887     7.4447
  241.1000   120.0873     7.9616     7.5492
  241.2000   120.5601     8.0137     7.5915
  241.3000   121.0461     8.0203     7.7180
  241.4000   121.4194     8.0689     7.7832
  241.5000   121.7151     8.1094     7.8479
  241.6000   122.2207     8.1841     7.9354
  241.7000   122.6873     8.2381     8.0251
  241.8000   123.0024     8.2447     8.0691
  241.9000   123.4660     8.2949     8.1473
  242.0000   124.0970     8.3363     8.2160
  242.1000   124.3541     8.3824     8.2616
  242.2000   124.3564     8.4288     8.3082
  242.3000   124.5267     8.4685     8.3536
  242.4000   124.6642     8.4681     8.4000
  242.5000   124.6667     8.5101     8.4466
  242.6000   124.6692     8.5572     8.4826
  242.7000   124.6715     8.5857     8.4824
  242.8000   124.5091     8.5922     8.4822
  242.9000   124.2697     8.6448     8.5163
  243.0000   124.0303     8.6875     8.5636
  243.1000   123.7723     8.7045     8.6004
  243.2000   123.3285     8.7041     8.6001
  243.3000   123.0091     8.7105     8.5999
  243.4000   122.6691     8.7641     8.6343
  243.5000   122.2273     8.7638     8.6595
  243.6000   121.9663     8.7634     8.6593
  243.7000   121.7485     8.7819     8.6590
  243.8000   121.5091     8.8239     8.6588
  243.9000   121.2697     8.8234     8.6585
  244.0000   121.0303     8.8231     8.6583
  244.1000   120.7663     8.8228     8.6685
  244.2000   120.3345     8.8224     8.7183
  244.3000   120.0091     8.8220     8.7180
  244.4000   119.7697     8.8216     8.7178
  244.5000   119.4970     8.8213     8.7176
  244.6000   118.9603     8.8209     8.7173
  244.7000   118.5346     8.8205     8.7171
  244.8000   118.2061     8.8202     8.7168
  244.9000   117.7837     8.8198     8.7511
  245.0000   117.0606     8.8194     8.7772
  245.1000   116.2452     8.8191     8.7770
  245.2000   115.8255     8.8187     8.7767
  245.3000   115.3443     8.8183     8.8234
  245.4000   114.9515     8.8179     8.8376
  245.5000   114.7391     8.8176     8.8373
  245.6000   114.7422     8.8172     8.8371
  245.7000   114.7442     8.8169     8.8368
  245.8000   114.8933     8.8165     8.8836
  245.9000   115.2230     8.8161     8.8981
  246.0000   115.7576     8.8158     8.8978
  246.1000   116.8755     8.8457     8.8976
  246.2000   117.4921     8.8766     8.8973
  246.3000   118.0764     8.8762     8.8971
  246.4000   118.5625     8.8758     8.9315
  246.5000   119.0485     8.8754     8.9587
  246.6000   119.6149     8.8751     8.9585
  246.7000   120.2225     8.8747     8.9582
  246.8000   120.8097     8.8743     8.9580
  246.9000   121.2958     8.8739     8.9577
  247.0000   121.8000     8.8736     8.9575
  247.1000   122.6574     8.8732     8.9572
  247.2000   123.0570     8.8729     8.9570
  247.3000   123.4055     8.8725     8.9567
  247.4000   123.6497     8.8721     8.9565
  247.5000   123.8786     8.9141     8.9562
  247.6000   123.5786     8.9333     8.9560
  247.7000   123.3849     8.9329     8.9557
  247.8000   123.0109     8.9326     8.9555
  247.9000   122.5297     8.9321     8.9552
  248.0000   122.0485     8.9318     8.9550
  248.1000   121.5673     8.9314     8.9547
  248.2000   120.8934     8.9311     8.9545
  248.3000   120.1703     8.9307     8.9543
