~VERSION INFORMATION
 VERS.                2.0:   CWLS LOG ASCII STANDARD - VERSION 2.0
 WRAP.                 NO:   ONE LINE PER DEPTH STEP
~WELL INFORMATION
#MNEM.UNIT      DATA TYPE    INFORMATION
#----------   ------------   ------------------------------
 STRT.F           66.0000:   START DEPTH
 STOP.F         1030.5000:   STOP DEPTH
 STEP.F            0.5000:   STEP LENGTH
 NULL.          -999.2500:   NO VALUE
 COMP. U S NAVY/INTEX OIL CO:   COMPANY
 WELL.      NRP-3 #68S-11:   WELL
 FLD .             TEAPOT:   FIELD
 LOC .      S11 T38N R78W:   LOCATION
 CNTY.            NATRONA:   COUNTY
 STAT.            WYOMING:   STATE
 CTRY. UNITED STATES OF AMERICA:   COUNTRY
 SRVC.       Schlumberger:   SERVICE COMPANY
 DATE.        07-JUL-1962:   LOGDATE
 API .       490250632700:   API NUMBER
~CURVE INFORMATION
#MNEM.UNIT       API CODE    CURVE DESCRIPTION
#----------   ------------   ------------------------------
 DEPT.F                  :   
 SPR .MV     05 010 01 00:   SPONTANEOUS POTENTIAL FROM RES.
 ASN .OHMM   05 041 16 00:   AMPLIFIED SHORT NORMAL 16"
 ILD .OHMM   05 120 46 00:   INDUCTION LOG DEEP
 CILD.MMHO   05 110 46 00:   CONDUCTIVITY INDUCTION LOG DEEP
 GRN .GAPI   35 310 30 00:   GAMMA RAY
 GR  .GAPI   81 310 01 00:   GAMMA RAY
~PARAMETER INFORMATION
#MNEM.UNIT          VALUE    DESCRIPTION
#----------   ------------   ------------------------------
 LMF .                 KB:   LOG MEASURED FROM
 DMF .                 KB:   DRILLING MEASURED FROM
 EKB .F              5226:   KELLING BUSHING
 EGL .F              5221:   GROUND LEVEL
 DATE.           7-7-1962:   RUN DATE
 RUN .                  1:   RUN NUMBER
 DD  .F              1030:   DEPTH DRILLER
 DL  .F              1031:   DEPTH LOGGER
 BLI .F              1030:   BOTTOM LOG INTERVAL
 TLI .F                90:   TOP LOG INTERVAL
 CBD .F                10:   CASING BOTTOM DRILLER
 BS  .IN             6.75:   BIT SIZE
 BSD .F              1030:   BIT SIZE AT DEPTH
 DFT .            GEL-OIL:   DRILLING FLUID TYPE
 DFD .               10.2:   DRILLING FLUID DENSITY
 DFV .                 50:   DRILLING FLUID VISCOSITY
 DFL .                3.6:   DRILLING FLUID LOSS
 RMS .OHMM           5.06:   RESISTIVITY MUD SAMPLE
 MST .F                71:   MUD SAMPLE TEMPERATURE
 RMF .OHMM           4.89:   RESISTIVITY MUD FILTRATE SAMPLE
 MFST.F                71:   MUD FILTRATE SAMPLE TEMPERATURE
 RMC .OHMM           4.85:   RESISTIVITY MUD CAKE
 MCST.F                71:   MUD CAKE SAMPLE TEMPERATURE
 MFSS.                  M:   MUD FILTRATE SAMPLE SOURCE
 MCSS.                  M:   MUD CAKE SAMPLE SOURCE
 RMB .OHMM           4.54:   RESISTIVITY MUD AT BHT
 BHT .F                82:   BOTTOM HOLE TEMPERATURE
 TCS .HRS               1:   TIME CURCULATED STOPPED
 MRT .F                82:   MAXIMUM RECORDED TEMPERATURE
 LUN .               2503:   LOGGING UNIT NUMBER
 LUL .              CSPR.:   LOGGING UNIT LOCATION
 ENGI.             KNOBEL:   RECORDING ENGINEER
 WITN.          JORGENSEN:   WITNESSED BY
 CLNT.            A2DTECH:   CLIENT CODE
 ORIG.      2" & 5" PRINT:   ORIGIN OF DATA
 UWI .       490250632700:   UNIQUE WELL ID
 DICO. A2D Technologies, Inc.:   DIGITIZING COMPANY
~OTHER INFORMATION
~A   DEPT      SPR        ASN        ILD       CILD        GRN          GR  
# ...
  638.0000   -33.0434     8.2719     8.1359   135.0526  -999.2500   102.6611
  638.5000   -33.2028     8.2017     8.0618   136.3774  -999.2500    99.5536
  639.0000   -33.3735     8.2343     7.9829   137.7022  -999.2500   104.9427
  639.5000   -33.5432     8.1360     7.9045   139.1040  -999.2500   108.3542
  640.0000   -33.7126     8.0232     7.8479   137.8278  -999.2500   110.2529
  640.5000   -33.8823     7.9960     7.9417   136.4729  -999.2500   111.9040
  641.0000   -34.0527     8.1325     8.0342   135.1181  -999.2500   113.2644
  641.5000   -34.2190     8.4047     8.1263   133.7632  -999.2500   114.6305
  642.0000   -34.1732     8.7235     8.2184   132.4083  -999.2500   115.5393
  642.5000   -34.0188     8.7660     8.3138   131.0534  -999.2500   115.9265
  643.0000   -33.8666     8.4366     8.3350   129.6954  -999.2500   116.3148
  643.5000   -33.7139     8.8077     8.3354   128.3484  -999.2500   116.7107
  644.0000   -33.5621     9.2233     8.3352   127.2621  -999.2500   117.6655
  644.5000   -33.4479     8.9497     8.3352   128.2745  -999.2500   119.8770
  645.0000   -33.5886     8.5744     8.3352   129.2677  -999.2500   122.0433
  645.5000   -33.7268     8.4977     8.3352   130.2569  -999.2500   123.2734
  646.0000   -33.8641     8.5326     8.3352   131.1507  -999.2500   120.4607
  646.5000   -34.0013     8.5740     8.3352   131.1382  -999.2500   113.5574
  647.0000   -34.1387     8.5345     8.3351   131.1400  -999.2500   106.9376
  647.5000   -34.2772     8.4616     8.3299   131.1387  -999.2500   104.3292
  648.0000   -34.4173     8.3966     8.3120   131.1394  -999.2500   105.5305
  648.5000   -34.3847     8.4106     8.2942   131.1394  -999.2500   106.8628
  649.0000   -34.3389     8.3811     8.2765   131.9178  -999.2500   108.0422
  649.5000   -34.2937     8.3103     8.2588   133.0206  -999.2500   107.5423
  650.0000   -34.2487     8.2378     8.2410   134.1219  -999.2500   107.0096
  650.5000   -34.2038     8.2508     8.2233   135.1288  -999.2500   106.5041
  651.0000   -34.1589     8.2955     8.2056   135.8231  -999.2500   108.1886
  651.5000   -34.1139     8.3378     8.1879   136.4628  -999.2500   110.0909
  652.0000   -34.0686     8.2914     8.1701   137.1026  -999.2500   111.5096
  652.5000   -34.0299     8.2260     8.1525   137.7423  -999.2500   109.5502
  653.0000   -34.0647     8.1598     8.1370   138.3820  -999.2500   107.6167
  653.5000   -34.0998     8.0933     8.1112   139.0218  -999.2500   105.6495
  654.0000   -34.1346     8.0382     8.0830   138.7439  -999.2500   106.6822
  654.5000   -34.1692     8.0001     8.0546   138.3307  -999.2500   110.5526
  655.0000   -34.2039     8.0200     8.0263   137.9176  -999.2500   112.2846
  655.5000   -34.2386     8.0623     7.9979   137.5044  -999.2500   110.4471
  656.0000   -34.2733     8.1048     7.9697   137.1128  -999.2500   107.3459
  656.5000   -34.3079     8.0894     7.9425   137.6345  -999.2500   104.1988
  657.0000   -34.3426     8.0464     7.8831   138.1292  -999.2500   101.8891
  657.5000   -34.3773     8.0028     7.8196   138.6235  -999.2500   101.4277
  658.0000   -34.4120     7.9591     7.7560   139.1073  -999.2500   101.9220
  658.5000   -34.4407     7.9151     7.6924   139.9870  -999.2500   103.0527
  659.0000   -34.4660     7.8941     7.6288   140.8442  -999.2500   105.2799
  659.5000   -34.4913     7.8852     7.5652   141.6994  -999.2500   108.7490
  660.0000   -34.5167     7.8767     7.5012   142.5542  -999.2500   109.8053
  660.5000   -34.5420     7.8684     7.4412   143.4090  -999.2500   108.3702
  661.0000   -34.5674     7.8577     7.4527   144.2638  -999.2500   106.9552
  661.5000   -34.5929     7.7973     7.4668   145.1186  -999.2500   108.2247
  662.0000   -34.6200     7.7490     7.4807   145.9734  -999.2500   109.8226
  662.5000   -34.5663     7.7225     7.4945   146.8283  -999.2500   107.2527
  663.0000   -34.4960     7.6957     7.5082   147.6831  -999.2500   103.6547
  663.5000   -34.4252     7.6689     7.5221   148.5379  -999.2500   102.3775
  664.0000   -34.3546     7.6418     7.5356   148.2076  -999.2500   101.5398
  664.5000   -34.2840     7.6219     7.5905   146.0203  -999.2500   101.6988
  665.0000   -34.2133     7.7017     7.6776   143.8330  -999.2500   102.4891
  665.5000   -34.1426     7.8250     7.7650   141.6456  -999.2500   104.5353
  666.0000   -34.0739     7.9481     7.8484   139.4583  -999.2500   107.3284
  666.5000   -34.0984     8.0716     7.9046   137.2660  -999.2500   110.1369
  667.0000   -34.2989     8.1937     7.9617   135.0922  -999.2500   112.0834
  667.5000   -34.4963     8.2207     8.0189   133.7148  -999.2500   110.1304
  668.0000   -34.6910     8.2433     8.0764   133.0196  -999.2500   107.8031
  668.5000   -34.7649     8.2880     8.1340   132.3113  -999.2500   106.8281
  669.0000   -34.5905     8.3789     8.1560   131.6030  -999.2500   110.4909
  669.5000   -34.4206     8.3598     8.1765   131.4308  -999.2500   113.4313
  670.0000   -34.2500     8.3104     8.1973   132.2748  -999.2500   110.4487
  670.5000   -34.0802     8.2602     8.2180   133.1187  -999.2500   107.3787
  671.0000   -33.9089     8.2708     8.2228   133.9626  -999.2500   104.7150
  671.5000   -33.8617     8.2294     8.1191   134.8065  -999.2500   103.1257
  672.0000   -33.9183     8.1407     8.0153   135.6504  -999.2500   102.0482
  672.5000   -33.9762     8.0708     7.9119   136.4943  -999.2500   102.2177
  673.0000   -34.0345     8.0502     7.8100   137.3382  -999.2500   102.3557
  673.5000   -34.0927     8.0285     7.7365   138.1821  -999.2500   103.0026
  674.0000   -34.1510     8.0070     7.7380   139.1040  -999.2500   104.0227
  674.5000   -34.2144     7.9858     7.7380   141.8732  -999.2500   105.0560
  675.0000   -34.0766     7.9091     7.7387   144.9243  -999.2500   105.9894
  675.5000   -33.8661     7.8102     7.7321   147.4865  -999.2500   104.6194
  676.0000   -33.6540     7.7110     7.6223   148.9424  -999.2500   103.1482
  676.5000   -33.4417     7.6118     7.5152   150.3765  -999.2500   101.6826
  677.0000   -33.2292     7.5124     7.4088   151.8148  -999.2500   100.2013
  677.5000   -33.0406     7.4146     7.3024   153.2540  -999.2500    99.8974
  678.0000   -33.0970     7.3618     7.1967   154.6934  -999.2500   103.6352
  678.5000   -33.1564     7.3156     7.1586   156.0288  -999.2500   107.9111
  679.0000   -33.2148     7.3396     7.2401   154.4339  -999.2500   108.8439
  679.5000   -33.2729     7.3922     7.3184   152.9465  -999.2500   105.1196
  680.0000   -33.3312     7.4712     7.3967   151.4591  -999.2500   103.5358
  680.5000   -33.3890     7.5520     7.4750   149.9715  -999.2500   110.5701
  681.0000   -33.4304     7.6330     7.5533   148.4871  -999.2500   113.4698
  681.5000   -33.4147     7.7137     7.6315   147.0622  -999.2500   114.7319
  682.0000   -33.4003     7.7938     7.7109   145.6512  -999.2500   112.7028
  682.5000   -33.3860     7.8181     7.7204   144.2991  -999.2500   110.0211
  683.0000   -33.3716     7.7672     7.6950   142.9469  -999.2500   109.1905
  683.5000   -33.3573     7.7668     7.6685   141.5947  -999.2500   108.2335
  684.0000   -33.3430     7.7756     7.6399   140.2426  -999.2500   107.3216
  684.5000   -33.3287     7.8174     7.7331   138.8904  -999.2500   107.9714
  685.0000   -33.3144     7.9074     7.8469   137.9923  -999.2500   108.7124
  685.5000   -33.3000     7.9912     7.9358   137.7168  -999.2500   109.7652
  686.0000   -33.2857     8.0693     7.9164   137.4414  -999.2500   112.2759
  686.5000   -33.2715     8.0765     7.8991   137.1659  -999.2500   114.7488
  687.0000   -33.2571     8.0424     7.8819   138.0364  -999.2500   117.1973
  687.5000   -33.2423     8.0076     7.8649   139.1806  -999.2500   117.7524
  688.0000   -33.1981     7.9727     7.8478   140.3247  -999.2500   114.7656
  688.5000   -33.1056     7.9378     7.8307   141.4689  -999.2500   111.7106
  689.0000   -33.0138     7.9028     7.8136   142.6130  -999.2500   108.6242
  689.5000   -32.9218     7.8681     7.7965   143.0863  -999.2500   106.7728
