~VERSION INFORMATION
 VERS.                2.0:   CWLS LOG ASCII STANDARD - VERSION 2.0
 WRAP.                 NO:   ONE LINE PER DEPTH STEP
~WELL INFORMATION
#MNEM.UNIT      DATA TYPE    INFORMATION
#----------   ------------   ------------------------------
 STRT.F           32.0000:   START DEPTH
 STOP.F          501.0000:   STOP DEPTH
 STEP.F            0.5000:   STEP LENGTH
 NULL.          -999.2500:   NO VALUE
 COMP. FENIX & SCISSON, INC., U.S. NAVY:   COMPANY
 WELL.     NPR-3 #82-S-10:   WELL
 FLD .             TEAPOT:   FIELD
 LOC .      S10 T38N R78W:   LOCATION
 CNTY.            NATRONA:   COUNTY
 STAT.            WYOMING:   STATE
 CTRY. UNITED STATES OF AMERICA:   COUNTRY
 SRVC.              Welex:   SERVICE COMPANY
 DATE.        10-MAY-1977:   LOGDATE
 API .       490251035300:   API NUMBER
~CURVE INFORMATION
#MNEM.UNIT       API CODE    CURVE DESCRIPTION
#----------   ------------   ------------------------------
 DEPT.F                  :   
 GURD.OHMM   07 220 05 00:   SHALLOW SHORT GUARD RESISTIVITY
 ILD .OHMM   07 120 46 00:   INDUCTION LOG DEEP
 ILM .OHMM   07 120 44 00:   INDUCTION LOG MEDIUM
 SPR .MV     07 010 01 00:   SPONTANEOUS POTENTIAL
 CALD.IN     45 280 60 00:   CALIPER FROM DENSITY LOG
 CORR.G/C3   45 356 01 00:   DENSITY CORRECTION
 DPHI.DEC    45 890 12 00:   DENSITY POROSITY SANDSTONE
 GRD .GAPI   45 310 01 00:   GAMMA RAY FROM DENSITY LOG
 RHOB.G/C3   45 350 01 00:   BULK DENSITY
~PARAMETER INFORMATION
#MNEM.UNIT          VALUE    DESCRIPTION
#----------   ------------   ------------------------------
 PD  .                 GL:   PERMANENT DATUM
 EPD .F              5134:   ELEVATION PERMANENT DATUM
 LMF .                 GL:   LOG MEASURED FROM
 DMF .                 GL:   DRILLING MEASURED FROM
 EGL .F              5134:   GROUND LEVEL
 DATE.        10-MAY-1977:   RUN DATE
 RUN .                  1:   RUN NUMBER
 DD  .F               505:   DEPTH DRILLER
 DL  .F               504:   DEPTH LOGGER
 BLI .F               502:   BOTTOM LOG INTERVAL
 TLI .F                30:   TOP LOG INTERVAL
 CS  .IN            8.625:   CASING SIZE
 CBD .F                40:   CASING BOTTOM DRILLER
 CBL .F                41:   CASING BOTTOM LOGGER
 BS  .IN            7.875:   BIT SIZE
 BSD .F               505:   BIT SIZE AT DEPTH
 DFT .            KCL MUD:   DRILLING FLUID TYPE
 DFD .                8.7:   DRILLING FLUID DENSITY
 DFV .                 29:   DRILLING FLUID VISCOSITY
 DFPH.                7.5:   DRILLING FLUID PH
 DFL .                6.6:   DRILLING FLUID LOSS
 MSS .           FLOWLINE:   MUD SAMPLE SOURCE
 RMS .OHMM           0.26:   RESISTIVITY MUD SAMPLE
 MST .F                72:   MUD SAMPLE TEMPERATURE
 RMF .OHMM           0.22:   RESISTIVITY MUD FILTRATE SAMPLE
 MFST.F                72:   MUD FILTRATE SAMPLE TEMPERATURE
 RMC .OHMM           0.42:   RESISTIVITY MUD CAKE
 MCST.F                72:   MUD CAKE SAMPLE TEMPERATURE
 MFSS.           FANN KIT:   MUD FILTRATE SAMPLE SOURCE
 MCSS.           FANN KIT:   MUD CAKE SAMPLE SOURCE
 RMB .OHMM           0.24:   RESISTIVITY MUD AT BHT
 BHT .F                78:   BOTTOM HOLE TEMPERATURE
 TCS .HRS               1:   TIME CURCULATED STOPPED
 MRT .F                78:   MAXIMUM RECORDED TEMPERATURE
 LUN .               8611:   LOGGING UNIT NUMBER
 LUL .             CASPER:   LOGGING UNIT LOCATION
 ENGI.            C. DOAK:   RECORDING ENGINEER
 WITN.         D. RHOADES:   WITNESSED BY
 CLNT.            A2DTECH:   CLIENT CODE
 ORIG.           5" PRINT:   ORIGIN OF DATA
 UWI .       490251035300:   UNIQUE WELL ID
 DICO. A2D Technologies, Inc.:   DIGITIZING COMPANY
~OTHER INFORMATION
~A   DEPT     GURD        ILD        ILM         SPR      CALD       CORR       DPHI        GRD       RHOB   
# ...
   68.5000     9.5015     7.2490     9.3182   -32.0000     7.6308     0.0240     0.1374   120.9326     2.4556
   69.0000     9.7026     7.2629     9.3879   -32.1392     7.6469     0.0196     0.1406   123.1742     2.4482
   69.5000     9.8326     7.3049     9.4582   -32.4222     7.6479     0.0197     0.1382   124.6739     2.4445
   70.0000     9.9055     7.3589     9.4634   -32.5593     7.6338     0.0213     0.1351   125.4319     2.4581
   70.5000     9.9102     7.3619     9.5353   -32.6974     7.6351     0.0244     0.1322   125.2956     2.4596
   71.0000     9.9836     7.3647     9.5405   -32.9824     7.6213     0.0261     0.1274   125.0190     2.4612
   71.5000     9.9884     7.4190     9.5457   -32.9707     7.6071     0.0286     0.1205   124.2932     2.4725
   72.0000     9.9931     7.3897     9.6171   -33.1071     7.6084     0.0323     0.1157   123.1224     2.4816
   72.5000    10.0672     7.3739     9.5548   -33.3730     7.6095     0.0340     0.1157   121.0613     2.4862
   73.0000    10.0026     7.3770     9.5613   -33.5575     7.6254     0.0359     0.1177   117.9617     2.4832
   73.5000     9.9384     7.3800     9.4352   -33.9627     7.6237     0.0387     0.1198   116.1973     2.4766
   74.0000     9.9443     7.3837     9.3108   -34.1012     7.6274     0.0403     0.1222   116.0651     2.4714
   74.5000     9.8794     7.4379     9.1880   -34.0881     7.6135     0.0415     0.1243   117.6306     2.4707
   75.0000     9.6813     7.4926     8.8808   -34.3740     7.6146     0.0435     0.1236   121.0683     2.4741
   75.5000     9.5541     7.4957     8.5839   -34.5670     7.6007     0.0452     0.1209   125.6129     2.4821
   76.0000     9.5587     7.5507     8.4123   -34.8581     7.6018     0.0490     0.1176   127.5578     2.4852
   76.5000     9.4962     7.4501     8.3590   -35.0830     7.6028     0.0514     0.1149   125.3484     2.4890
   77.0000     9.5673     7.4531     8.3636   -35.2202     7.5890     0.0515     0.1140   123.7284     2.4906
   77.5000     9.5952     7.4040     8.3577   -35.4340     7.5900     0.0517     0.1165   124.9354     2.4914
   78.0000     9.6726     7.4078     8.2588   -35.6468     7.5911     0.0518     0.1193   126.2868     2.4847
   78.5000     9.7147     7.4622     8.2633   -35.7803     7.5923     0.0519     0.1187   126.7440     2.4818
   79.0000     9.7684     7.4652     8.2098   -35.8145     7.5933     0.0520     0.1181   126.0223     2.4834
   79.5000     9.8592     7.4683     8.1577   -36.0516     7.5943     0.0521     0.1187   125.1482     2.4842
   80.0000     9.9324     7.4714     8.1632   -36.0417     7.5953     0.0523     0.1198   123.2355     2.4798
   80.5000     9.8686     7.4158     8.1676   -36.0282     7.6112     0.0524     0.1216   121.0261     2.4739
   81.0000     9.8056     7.2735     8.1158   -36.1653     7.5971     0.0525     0.1237   119.7068     2.4740
   81.5000     9.7424     7.1772     8.0632   -36.3054     7.5984     0.0526     0.1278   119.5742     2.4687
   82.0000     9.6799     7.1801     8.0120   -36.4425     7.5994     0.0512     0.1347   119.7390     2.4603
   82.5000     9.6857     7.2329     7.8530   -36.6344     7.5856     0.0405     0.1392   120.3536     2.4480
   83.0000     9.7575     7.2861     7.6431   -36.7143     7.5866     0.0269     0.1454   121.4253     2.4376
   83.5000     9.8298     7.3396     7.3864   -36.8512     7.5728     0.0171     0.1493   123.2774     2.4279
   84.0000     9.9713     7.3936     7.3964   -37.2857     7.5738     0.0157     0.1508   125.6083     2.4288
   84.5000    10.1850     7.5120     7.5071   -37.5716     7.5579     0.0173     0.1473   127.3863     2.4386
   85.0000    10.3316     7.6071     7.7139   -38.0063     7.5312     0.0189     0.1412   125.7743     2.4476
   85.5000    10.4804     7.7162     7.8797   -38.5870     7.5622     0.0175     0.1364   122.8231     2.4529
   86.0000    10.4853     7.8811     8.0491   -37.5336     7.5930     0.0146     0.1411   118.8332     2.4552
   86.5000    10.3464     7.9941     8.2222   -37.6737     7.6238     0.0163     0.1426   117.6583     2.4403
   87.0000    10.2800     8.1141     8.3989   -37.5102     7.6397     0.0149     0.1414   119.1621     2.4457
   87.5000    10.2851     8.1685     8.4618   -37.6503     7.6408     0.0135     0.1393   123.0358     2.4495
   88.0000    10.5065     8.1162     8.5842   -37.4868     7.6567     0.0121     0.1386   125.7225     2.4496
   88.5000    10.5844     8.1195     8.5888   -37.4752     7.6577     0.0107     0.1386   127.3707     2.4473
   89.0000    10.4441     8.0660     8.5935   -37.6131     7.6436     0.0076     0.1395   127.8318     2.4397
   89.5000    10.2347     7.9585     8.5982   -37.6006     7.6449     0.0020     0.1437   127.8479     2.4288
   90.0000    10.0978     7.9068     8.5436   -37.8865     7.6459    -0.0009     0.1544   127.7151     2.4184
   90.5000    10.1038     7.8560     8.4309   -38.3213     7.6469    -0.0023     0.1577   127.1383     2.4140
   91.0000    10.1086     7.7516     8.3198   -38.9067     7.6479    -0.0037     0.1589   126.2642     2.4141
   91.5000    10.1836     7.6483     8.3244   -39.5010     7.6490    -0.0051     0.1594   125.6815     2.4142
   92.0000    10.1884     7.5462     8.3288   -39.7743     7.6500    -0.0094     0.1585   124.7992     2.4135
   92.5000    10.1229     7.4457     8.2759   -39.7597     7.6510    -0.0089     0.1570   123.8947     2.4143
   93.0000     9.9889     7.3974     8.2816   -39.5992     7.6521    -0.0062     0.1555   122.4750     2.4154
   93.5000     9.7181     7.3471     8.1723   -38.8434     7.6533    -0.0046     0.1513   121.3041     2.4182
   94.0000     9.5845     7.2455     8.0646   -38.8317     7.6544    -0.0014     0.1462   120.4300     2.4243
   94.5000     9.3353     7.1062     7.9034   -39.1206     7.6403     0.0033     0.1423   119.7043     2.4348
   95.0000     9.2754     7.0114     7.7981   -38.9572     7.6415     0.0079     0.1419   118.9785     2.4386
   95.5000     9.2159     6.9653     7.6953   -38.6479     7.6274     0.0110     0.1428   118.1044     2.4395
   96.0000     8.9700     6.8257     7.7005   -38.4903     7.6287     0.0128     0.1386   117.3787     2.4500
   96.5000     8.7296     6.7347     7.8661   -38.7738     7.6298     0.0157     0.1314   116.8013     2.4686
   97.0000     9.4235     6.6904     8.0909   -38.4640     7.6308     0.0188     0.1212   116.0756     2.4831
   97.5000    10.7506     6.7402     8.3799   -38.1547     7.6319     0.0219     0.1131   115.4941     2.4944
   98.0000     9.3675     6.7898     8.6824   -37.9940     7.6177     0.0236     0.1113   117.7398     2.4997
   98.5000     8.9903     6.8580     8.9350   -37.9821     7.6190     0.0252     0.1209   119.0912     2.4781
   99.0000     9.1840     6.9859     9.1191   -38.1196     7.6201     0.0253     0.1343   119.5524     2.4639
   99.5000     9.5114     7.1352     8.9989   -38.2567     7.6211     0.0254     0.1361   117.6397     2.4572
  100.0000     9.7826     7.2877     9.0674   -38.3938     7.6221     0.0255     0.1366   117.9525     2.4551
  100.5000    10.0667     7.4475     9.3266   -38.3792     7.6231     0.0256     0.1381   120.3680     2.4537
  101.0000    10.2877     7.6105     9.5932   -38.5163     7.6390     0.0260     0.1399   122.5202     2.4508
  101.5000    10.4250     7.8198     9.8673   -38.6564     7.6401     0.0274     0.1417   125.5935     2.4486
  102.0000     9.9387     8.0424     9.9412   -38.7935     7.6560     0.0275     0.1437   126.0328     2.4457
  102.5000     9.8058     8.2143     9.8101   -39.0765     7.6570     0.0246     0.1461   125.7521     2.4390
  103.0000     9.8116     8.3321     9.5478   -39.0648     7.6729     0.0248     0.1476   125.1748     2.4308
  103.5000     9.9529     8.5102     9.3570   -39.0624     7.6740     0.0279     0.1461   123.8555     2.4379
  104.0000    10.1662     8.5137     9.1069   -38.6069     7.6750     0.0310     0.1434   120.3108     2.4460
  104.5000    10.3125     8.4576     8.9249   -38.5967     7.6762     0.0341     0.1392   117.8046     2.4543
