~VERSION INFORMATION
 VERS.                2.0:   CWLS LOG ASCII STANDARD - VERSION 2.0
 WRAP.                 NO:   ONE LINE PER DEPTH STEP
~WELL INFORMATION
#MNEM.UNIT      DATA TYPE    INFORMATION
#----------   ------------   ------------------------------
 STRT.F           57.5000:   START DEPTH
 STOP.F         4049.0000:   STOP DEPTH
 STEP.F            0.5000:   STEP LENGTH
 NULL.          -999.2500:   NO VALUE
 COMP. LAWRENCE/ALLISON INC:   COMPANY
 WELL.     NPR #3` #13-11:   WELL
 FLD .             NPR #3:   FIELD
 LOC .      S11 T38N R78W:   LOCATION
 CNTY.            NATRONA:   COUNTY
 STAT.            WYOMING:   STATE
 CTRY. UNITED STATES OF AMERICA:   COUNTRY
 SRVC.      Dresser Atlas:   SERVICE COMPANY
 DATE.        13-MAR-1986:   LOGDATE
 API .       490251106500:   API NUMBER
~CURVE INFORMATION
#MNEM.UNIT       API CODE    CURVE DESCRIPTION
#----------   ------------   ------------------------------
 DEPT.F                  :   
 CALR.IN     07 280 01 00:   CALIPER FROM RESISTIVITY
 GRR .GAPI   07 310 01 00:   GAMMA RAY FROM RESISTIVITY
 RILD.OHMM   07 120 46 00:   RESISTIVITY INDUCTION LOG DEEP
 RILM.OHMM   07 120 44 00:   RESISTIVITY INDUCTION LOG MEDIUM
 RFOC.OHMM   07 220 04 00:   RESISTIVITY FOCUSED LOG
 SPR .MV     07 010 01 00:   SPONTANEOUS POTENTIAL FROM RES.
 PORD.DEC    45 890 12 00:   POROSITY DENSITY SANDSTONE
 CNC .DEC    42 890 03 00:   COMPENSATED NEUTRON POROSITY SANDSTONE
 CORR.G/C3   45 356 01 00:   DENSITY CORRECTION
 DEN .G/C3   45 350 01 00:   COMPENSATED BULK DENSTIY
 DT  .US/F   60 520 00 00:   INTERVAL TRANSIT TIME
~PARAMETER INFORMATION
#MNEM.UNIT          VALUE    DESCRIPTION
#----------   ------------   ------------------------------
 PD  .                 GL:   PERMANENT DATUM
 EPD .F              5176:   ELEVATION PERMANENT DATUM
 LMF .                 KB:   LOG MEASURED FROM
 DAPD.F              11.8:   FEET ABOVE PERMANENT DATUM
 DMF .                 KB:   DRILLING MEASURED FROM
 EKB .F            5187.8:   KELLING BUSHING
 EGL .F              5176:   GROUND LEVEL
 DATE.        13-MAR-1986:   RUN DATE
 RUN .                  1:   RUN NUMBER
 DD  .F              4051:   DEPTH DRILLER
 DL  .F              4051:   DEPTH LOGGER
 BLI .F              4049:   BOTTOM LOG INTERVAL
 TLI .F               564:   TOP LOG INTERVAL
 CS  .IN            8.625:   CASING SIZE
 CBD .F               564:   CASING BOTTOM DRILLER
 CBL .F               564:   CASING BOTTOM LOGGER
 BS  .IN            7.875:   BIT SIZE
 BSD .F              4051:   BIT SIZE AT DEPTH
 DFT .          POLY- KCL:   DRILLING FLUID TYPE
 DFD .                8.9:   DRILLING FLUID DENSITY
 DFV .                 36:   DRILLING FLUID VISCOSITY
 DFPH.                8.5:   DRILLING FLUID PH
 DFL .               13.5:   DRILLING FLUID LOSS
 MSS .           FLOWLINE:   MUD SAMPLE SOURCE
 RMS .OHMM           .275:   RESISTIVITY MUD SAMPLE
 MST .F                55:   MUD SAMPLE TEMPERATURE
 RMF .OHMM           .206:   RESISTIVITY MUD FILTRATE SAMPLE
 MFST.F                55:   MUD FILTRATE SAMPLE TEMPERATURE
 RMC .OHMM           .344:   RESISTIVITY MUD CAKE
 MCST.F                55:   MUD CAKE SAMPLE TEMPERATURE
 MFSS.               CALC:   MUD FILTRATE SAMPLE SOURCE
 MCSS.               CALC:   MUD CAKE SAMPLE SOURCE
 RMB .OHMM           .092:   RESISTIVITY MUD AT BHT
 BHT .F               164:   BOTTOM HOLE TEMPERATURE
 TCS .HRS            0400:   TIME CURCULATED STOPPED
 MRT .F               164:   MAXIMUM RECORDED TEMPERATURE
 LUN .               6274:   LOGGING UNIT NUMBER
 LUL .           GILLETTE:   LOGGING UNIT LOCATION
 ENGI.             MILLER:   RECORDING ENGINEER
 WITN.             STRONG:   WITNESSED BY
 CLNT.            A2DTECH:   CLIENT CODE
 ORIG.         2.5" PRINT:   ORIGIN OF DATA
 UWI .       490251106500:   UNIQUE WELL ID
 DICO. A2D Technologies, Inc.:   DIGITIZING COMPANY
~OTHER INFORMATION
~A   DEPT     CALR         GRR      RILD       RILM       RFOC        SPR       PORD        CNC       CORR        DEN         DT   
# ...
 4022.5000     8.0558  -999.2500     3.2388     3.4056     4.2486   -18.9602     0.0872     0.2691     0.0119     2.5077    80.8534
 4023.0000     8.0560  -999.2500     3.2393     3.4061     4.4662   -18.6544     0.0811     0.2685    -0.0030     2.5182    80.8554
 4023.5000     8.0561  -999.2500     3.1950     3.4066     4.1636   -18.0428     0.0788     0.2679    -0.0058     2.5197    80.7718
 4024.0000     8.0563  -999.2500     3.1513     3.3598     3.7753   -17.7370     0.0777     0.2788     0.0034     2.5167    80.7089
 4024.5000     8.0564  -999.2500     3.1083     3.2829     3.2019   -17.4312     0.0875     0.2848     0.0123     2.4925    80.8615
 4025.0000     8.0566  -999.2500     3.0236     3.2232     3.1610   -17.4312     0.1146     0.2861     0.0242     2.4668    80.8635
 4025.5000     8.0567  -999.2500     2.9823     3.1790     3.7345   -17.1254     0.1376     0.2830     0.0392     2.4290    80.8654
 4026.0000     8.0569  -999.2500     2.9827     3.1795     3.9487   -16.8196     0.1435     0.2794     0.0391     2.4320    80.8674
 4026.5000     8.0570  -999.2500     2.9831     3.1800     3.8417   -16.5138     0.1342     0.2824     0.0179     2.4410    80.8694
 4027.0000     8.0572  -999.2500     3.0253     3.1804     3.6862   -16.5138     0.1263     0.2861    -0.0245     2.4415    80.8714
 4027.5000     8.0573  -999.2500     3.0257     3.1808     3.3928   -16.2080     0.1247     0.2909    -0.0337     2.4349    80.7932
 4028.0000     8.0575  -999.2500     2.9843     3.1813     3.1663   -16.2080     0.1322     0.2927    -0.0247     2.4273    79.8746
 4028.5000     8.0576  -999.2500     2.9436     3.1817     3.1156   -15.9021     0.1451     0.2921    -0.0097     2.4182    76.2144
 4029.0000     8.0578  -999.2500     2.9034     3.1822     3.5399   -15.9021     0.1524     0.2939     0.0325     2.4001    73.4880
 4029.5000     8.0885  -999.2500     2.7853     3.1706     3.3498   -15.9021     0.1579     0.3176     0.0656     2.3940    75.9631
 4030.0000     8.0887  -999.2500     2.7093     3.0842     3.2141   -15.2905     0.1276     0.3194     0.0595     2.4133    79.0798
 4030.5000     8.0888  -999.2500     2.6355     3.0109     3.3055   -14.9847     0.1172     0.3096     0.0353     2.4474    80.8857
 4031.0000     8.0960  -999.2500     2.5995     3.0008     3.3526   -14.9847     0.1144     0.3034     0.0140     2.4552    80.8877
 4031.5000     8.1503  -999.2500     2.5639     2.8786     3.1725   -14.6789     0.1170     0.2991    -0.0102     2.4532    80.8897
 4032.0000     8.1505  -999.2500     2.5289     2.8094     3.1734   -14.0673     0.1225     0.2949     0.0017     2.4441    80.8917
 4032.5000     8.1506  -999.2500     2.4944     2.7326     3.2186   -13.7615     0.1272     0.2902     0.0137     2.4383    80.8938
 4033.0000     8.1439  -999.2500     2.4948     2.7244     3.2645   -13.7615     0.1301     0.2849     0.0106     2.4384    80.8965
 4033.5000     8.1203  -999.2500     2.4951     2.6955     3.1760   -13.7615     0.1292     0.2802     0.0105     2.4414    80.8994
 4034.0000     8.1205  -999.2500     2.4955     2.6960     3.0055   -13.4557     0.1264     0.2781     0.0104     2.4421    80.9024
 4034.5000     8.1206  -999.2500     2.5307     2.6963     2.9241   -13.4557     0.1264     0.2782     0.0104     2.4428    80.9053
 4035.0000     8.1208  -999.2500     2.5665     2.6967     2.9657   -13.4557     0.1263     0.2781     0.0072     2.4420    80.9083
 4035.5000     8.1209  -999.2500     2.5668     2.7349     3.0080   -13.4557     0.1256     0.2769    -0.0019     2.4435    80.9113
 4036.0000     8.1211  -999.2500     2.6031     2.7353     3.1367   -13.4557     0.1225     0.2745    -0.0020     2.4442    80.9142
 4036.5000     8.0907  -999.2500     2.6035     2.8201     3.2709   -13.4557     0.1065     0.2679     0.0160     2.4556    80.9172
 4037.0000     8.0908  -999.2500     2.6402     2.8598     3.3175   -13.4557     0.0977     0.2636     0.0220     2.4789    80.9201
 4037.5000     8.0910  -999.2500     2.6993     2.9820     3.2276   -13.4557     0.0936     0.2670     0.0279     2.4902    80.9231
 4038.0000     8.0911  -999.2500     2.7371     3.0804     3.1839   -13.4557     0.0905     0.2801     0.0278     2.4969    80.9260
 4038.5000     8.0913  -999.2500     2.8142     3.2424     3.1849   -13.1498     0.0875     0.2909     0.0247     2.5037    80.9290
 4039.0000     8.0914  -999.2500     2.8935     3.3809     3.3212   -13.1498     0.0850     0.2880     0.0246     2.5097    80.9319
 4039.5000     8.0916  -999.2500     2.9526     3.4218     3.5607   -13.1498     0.0801     0.2827     0.0397     2.5164    80.9349
 4040.0000     8.0917  -999.2500     2.9750     3.4223     3.6923   -13.4557     0.0747     0.2794     0.0547     2.5239    80.9378
 4040.5000     8.0919  -999.2500     2.9947     3.4288     3.7657   -13.4557     0.0698     0.2845     0.1010     2.5307    80.9408
 4041.0000     8.0920  -999.2500     2.9951     3.4771     3.7969   -13.4557     0.0644     0.2895     0.1115     2.5373    80.9437
 4041.5000     8.0922  -999.2500     2.9955     3.5204     3.7910   -13.7615     0.0590     0.2933     0.0930     2.5492    80.9467
 4042.0000     8.0924  -999.2500     2.9960     3.5703     3.7689   -13.7615     0.0573     0.2882     0.0672     2.5535    80.9497
 4042.5000     8.0925  -999.2500     2.9964     3.5708     3.7149   -13.7615     0.0579     0.2842     0.0375     2.5481    80.9526
 4043.0000     8.0927  -999.2500     2.9968     3.5713     3.5674   -13.7615     0.0591     0.2874     0.0330     2.5473    80.9556
 4043.5000     8.0928  -999.2500     2.9972     3.5762     3.8275   -13.7615     0.0603     0.2911     0.0405     2.5472    80.9585
 4044.0000     8.0930  -999.2500     2.9976     3.6225     4.4575   -13.7615     0.0609     0.2962     0.0404     2.5472    80.9615
 4044.5000     8.0931  -999.2500     2.9980     3.6230     5.0142   -13.7615     0.0646     0.3012     0.0327     2.5438    80.9644
 4045.0000     8.0933  -999.2500     2.9985     3.6235     4.6882   -13.7615     0.0731     0.2981     0.0326     2.5335    80.9674
 4045.5000     8.0934  -999.2500     2.9989     3.6240     4.5800   -13.7615     0.0802     0.2944     0.0399     2.5181    80.9703
 4046.0000     8.0936  -999.2500     2.9993     3.6245     4.7159   -13.7615     0.0832     0.2885     0.0459     2.5106    80.9733
 4046.5000     8.0937  -999.2500     2.9997     3.6226     4.8788   -13.7615     0.0856     0.2824     0.0388     2.5057    80.9762
 4047.0000     8.0939  -999.2500     3.0001     3.5753     5.0165   -13.7615     0.0874     0.2782     0.0237     2.5032    80.9792
 4047.5000     8.0940  -999.2500     3.0166     3.5758     5.1294   -13.7615     0.0880     0.2758     0.0116     2.5017    80.9821
 4048.0000     8.0942  -999.2500     3.0429     3.5763     5.1308   -13.7615     0.0904     0.2788     0.0049     2.5001    80.9851
 4048.5000     8.0943  -999.2500     3.0434     3.5768     5.1322   -13.7615     0.0946     0.3150     0.0018     2.4986    80.9880
 4049.0000     8.0945  -999.2500     3.0438     3.5780     5.1337   -13.7615     0.0994     0.3216     0.0058     2.4940    80.9910
