~VERSION INFORMATION
 VERS.                2.0:   CWLS LOG ASCII STANDARD - VERSION 2.0
 WRAP.                 NO:   ONE LINE PER DEPTH STEP
~WELL INFORMATION
#MNEM.UNIT      DATA TYPE    INFORMATION
#----------   ------------   ------------------------------
 STRT.F           70.0000:   START DEPTH
 STOP.F          884.0000:   STOP DEPTH
 STEP.F            0.5000:   STEP LENGTH
 NULL.          -999.2500:   NO VALUE
 COMP. U S NAVY/INTEX OIL CO:   COMPANY
 WELL.   NPR#3 "S" #16-35:   WELL
 FLD .             TEAPOT:   FIELD
 LOC .      S35 T39N R78W:   LOCATION
 CNTY.            NATRONA:   COUNTY
 STAT.            WYOMING:   STATE
 CTRY. UNITED STATES OF AMERICA:   COUNTRY
 SRVC.         Lane Wells:   SERVICE COMPANY
 DATE.        21-MAR-1960:   LOGDATE
 API .       490250651800:   API NUMBER
~CURVE INFORMATION
#MNEM.UNIT       API CODE    CURVE DESCRIPTION
#----------   ------------   ------------------------------
 DEPT.F                  :   
 SPR .MV     05 010 01 00:   SPONTANEOUS POTENTIAL FROM RES.
 ASN .OHMM   05 040 16 00:   AMPLIFIED SHORT NORMAL 16"
 ILD .OHMM   05 120 46 00:   INDUCTION LOG DEEP
 CILD.MMHO   05 110 46 00:   CONDUCTIVITY INDUCTION LOG DEEP
 GR  .GAPI   30 310 01 00:   GAMMA RAY
~PARAMETER INFORMATION
#MNEM.UNIT          VALUE    DESCRIPTION
#----------   ------------   ------------------------------
 PD  .                 GL:   PERMANENT DATUM
 EPD .F              5091:   ELEVATION PERMANENT DATUM
 LMF .                 KB:   LOG MEASURED FROM
 DAPD.F                 5:   FEET ABOVE PERMANENT DATUM
 DMF .                 KB:   DRILLING MEASURED FROM
 EKB .F              5096:   KELLING BUSHING
 EGL .F              5091:   GROUND LEVEL
 DATE.          3-21-1960:   RUN DATE
 RUN .                  1:   RUN NUMBER
 DD  .F               913:   DEPTH DRILLER
 DL  .F               885:   DEPTH LOGGER
 BLI .F               883:   BOTTOM LOG INTERVAL
 TLI .F                70:   TOP LOG INTERVAL
 CS  .IN            8.625:   CASING SIZE
 CBD .F                12:   CASING BOTTOM DRILLER
 BS  .IN            7.875:   BIT SIZE
 BSD .F               913:   BIT SIZE AT DEPTH
 DFT .   GEL-OIL EMULSION:   DRILLING FLUID TYPE
 DFD .                9.9:   DRILLING FLUID DENSITY
 DFV .                 40:   DRILLING FLUID VISCOSITY
 MSS .           FLOWLINE:   MUD SAMPLE SOURCE
 RMS .OHMM              3:   RESISTIVITY MUD SAMPLE
 MST .F                64:   MUD SAMPLE TEMPERATURE
 RMF .OHMM            2.2:   RESISTIVITY MUD FILTRATE SAMPLE
 MFST.F                64:   MUD FILTRATE SAMPLE TEMPERATURE
 RMC .OHMM              4:   RESISTIVITY MUD CAKE
 MCST.F                64:   MUD CAKE SAMPLE TEMPERATURE
 MFSS.                MUD:   MUD FILTRATE SAMPLE SOURCE
 MCSS.              PRESS:   MUD CAKE SAMPLE SOURCE
 RMB .OHMM            2.7:   RESISTIVITY MUD AT BHT
 BHT .F                70:   BOTTOM HOLE TEMPERATURE
 MRT .F                70:   MAXIMUM RECORDED TEMPERATURE
 LUN .             L-4474:   LOGGING UNIT NUMBER
 LUL .             CASPER:   LOGGING UNIT LOCATION
 ENGI.             NELSON:   RECORDING ENGINEER
 WITN.          JORGENSEN:   WITNESSED BY
 CLNT.            A2DTECH:   CLIENT CODE
 ORIG.      2" & 5" PRINT:   ORIGIN OF DATA
 UWI .       490250651800:   UNIQUE WELL ID
 DICO. A2D Technologies, Inc.:   DIGITIZING COMPANY
~OTHER INFORMATION
~A   DEPT      SPR          ASN      ILD        CILD        GR   
# ...
  253.0000   -30.7052     3.7452     3.1968   324.7899  -999.2500
  253.5000   -30.2510     3.5670     3.1981   343.6075  -999.2500
  254.0000   -29.8327     3.4965     3.1391   362.4250  -999.2500
  254.5000   -29.4204     3.5142     3.0089   369.4478  -999.2500
  255.0000   -29.6323     3.5119     2.9391   371.2485  -999.2500
  255.5000   -29.9393     3.5394     3.0148   371.2485  -999.2500
  256.0000   -30.2252     3.7057     3.0898   370.0870  -999.2500
  256.5000   -30.5314     3.8544     3.1663   369.4478  -999.2500
  257.0000   -30.6115     4.0075     3.2407   354.5070  -999.2500
  257.5000   -30.5335     4.1569     3.3168   336.7647  -999.2500
  258.0000   -30.4859     4.3112     3.3920   319.0225  -999.2500
  258.5000   -30.4238     4.4590     3.4679   308.6751  -999.2500
  259.0000   -30.3686     4.6111     3.5431   305.9380  -999.2500
  259.5000   -30.3097     4.7604     3.6191   303.2009  -999.2500
  260.0000   -30.2524     4.9150     3.6930   300.2999  -999.2500
  260.5000   -30.1945     5.0314     3.7725   297.5590  -999.2500
  261.0000   -30.1373     5.0325     3.8184   295.4487  -999.2500
  261.5000   -30.0803     5.0404     3.7542   293.6484  -999.2500
  262.0000   -30.0229     4.9856     3.6970   295.4593  -999.2500
  262.5000   -29.9662     4.8292     3.6368   299.2558  -999.2500
  263.0000   -29.9084     4.6761     3.5785   303.7804  -999.2500
  263.5000   -29.8521     4.5190     3.5197   311.0279  -999.2500
  264.0000   -29.7949     4.3647     3.4597   321.3776  -999.2500
  264.5000   -29.7219     4.2083     3.4039   331.7272  -999.2500
  265.0000   -29.4768     4.0546     3.3338   342.0768  -999.2500
  265.5000   -29.1774     3.8962     3.2513   356.1044  -999.2500
  266.0000   -28.8916     3.7722     3.1738   369.4478  -999.2500
  266.5000   -28.5911     3.7534     3.0942   375.7270  -999.2500
  267.0000   -28.3126     3.7613     3.0156   381.0402  -999.2500
  267.5000   -28.0007     3.7664     2.9365   386.3534  -999.2500
  268.0000   -28.0212     3.7688     2.8576   391.6666  -999.2500
  268.5000   -28.2466     3.7044     2.7786   396.9797  -999.2500
  269.0000   -28.4221     3.6225     2.6996   402.2929  -999.2500
  269.5000   -28.6200     3.5443     2.6207   407.6061  -999.2500
  270.0000   -28.8061     3.4560     2.5415   412.6651  -999.2500
  270.5000   -28.9976     3.2831     2.4629   431.0684  -999.2500
  271.0000   -29.1911     3.1049     2.3830   448.6314  -999.2500
  271.5000   -29.3437     2.9311     2.3051   466.1945  -999.2500
  272.0000   -29.2026     2.7557     2.2260   483.7575  -999.2500
  272.5000   -29.0373     2.7036     2.2033   501.3205  -999.2500
  273.0000   -28.8756     2.7150     2.2045   518.8835  -999.2500
  273.5000   -28.7094     2.8275     2.2064   538.7155  -999.2500
  274.0000   -28.5540     2.9822     2.2002   536.5306  -999.2500
  274.5000   -28.3717     3.1291     2.2524   526.1014  -999.2500
  275.0000   -28.2755     3.2794     2.3760   505.4022  -999.2500
  275.5000   -28.2789     3.4286     2.4907   485.0325  -999.2500
  276.0000   -28.3493     3.5778     2.6106   461.5514  -999.2500
  276.5000   -28.5309     3.7280     2.7274   435.9154  -999.2500
  277.0000   -28.6914     3.8759     2.8458   410.2694  -999.2500
  277.5000   -28.8689     4.0271     2.9638   384.6452  -999.2500
  278.0000   -28.9948     4.1740     3.0938   365.8732  -999.2500
  278.5000   -28.9557     4.3330     3.1847   366.6543  -999.2500
  279.0000   -28.9124     4.3460     3.1534   367.6471  -999.2500
  279.5000   -28.8666     4.3259     3.0918   368.4619  -999.2500
  280.0000   -28.8236     4.2166     3.0359   369.4478  -999.2500
  280.5000   -28.7776     4.0844     2.9778   380.1981  -999.2500
  281.0000   -28.7321     3.9548     2.9202   391.4886  -999.2500
  281.5000   -28.6900     3.8250     2.8628   402.7791  -999.2500
  282.0000   -28.6179     3.6937     2.8045   414.0696  -999.2500
  282.5000   -28.3003     3.5662     2.7480   425.3601  -999.2500
  283.0000   -27.9673     3.4302     2.6890   436.6507  -999.2500
  283.5000   -27.6297     3.3299     2.6331   450.4802  -999.2500
  284.0000   -27.3924     3.3097     2.5757   450.4802  -999.2500
  284.5000   -27.7829     3.4208     2.6734   434.6991  -999.2500
  285.0000   -28.3733     3.7330     2.8165   415.4112  -999.2500
  285.5000   -28.9351     4.0293     2.9525   396.1232  -999.2500
  286.0000   -29.4984     4.3420     3.0912   376.8352  -999.2500
  286.5000   -29.5855     4.6374     3.2288   357.5473  -999.2500
  287.0000   -29.6121     4.9538     3.3668   338.2593  -999.2500
  287.5000   -29.6463     5.0740     3.5046   318.9713  -999.2500
  288.0000   -29.6798     5.0503     3.6425   302.8211  -999.2500
  288.5000   -29.7118     5.0472     3.7802   295.3824  -999.2500
  289.0000   -29.7446     5.0377     3.9179   288.9844  -999.2500
  289.5000   -29.7771     5.2276     4.0556   282.5864  -999.2500
  290.0000   -29.8094     5.4888     4.1933   276.1885  -999.2500
  290.5000   -29.8428     5.7477     4.3311   268.6999  -999.2500
  291.0000   -29.8762     6.0052     4.4688   259.4166  -999.2500
  291.5000   -29.9023     6.2613     4.6068   250.1333  -999.2500
  292.0000   -29.8305     6.5212     4.7443   240.8499  -999.2500
  292.5000   -29.7427     6.7300     4.8829   231.5666  -999.2500
  293.0000   -29.6568     6.8965     5.0191   222.2833  -999.2500
  293.5000   -29.5705     7.0635     5.1609   213.0000  -999.2500
  294.0000   -29.4844     7.2351     5.2656   205.5822  -999.2500
  294.5000   -29.3976     7.3296     5.2794   205.3092  -999.2500
  295.0000   -29.3123     7.2707     5.2900   205.0819  -999.2500
  295.5000   -29.2243     7.1483     5.2989   204.8545  -999.2500
  296.0000   -29.1416     7.0362     5.3092   204.6272  -999.2500
  296.5000   -29.0476     6.9075     5.3186   204.3999  -999.2500
  297.0000   -29.0068     6.8619     5.3285   204.1725  -999.2500
  297.5000   -29.0276     6.9106     5.3381   203.9452  -999.2500
  298.0000   -29.0382     6.9345     5.3479   203.7178  -999.2500
  298.5000   -29.0541     6.9095     5.3578   203.4905  -999.2500
  299.0000   -29.0671     6.8771     5.3677   203.2632  -999.2500
  299.5000   -29.0816     6.8470     5.3775   203.0358  -999.2500
  300.0000   -29.0954     6.8157     5.3872   202.8085  -999.2500
  300.5000   -29.1095     6.7829     5.3971   202.5811  -999.2500
  301.0000   -29.1237     6.7824     5.4068   202.3538  -999.2500
  301.5000   -29.1371     6.8941     5.4167   202.1265  -999.2500
  302.0000   -29.1521     7.0435     5.4264   201.9808  -999.2500
  302.5000   -29.1641     7.1873     5.4359   199.6399  -999.2500
  303.0000   -29.1823     7.3337     5.4503   196.9608  -999.2500
  303.5000   -29.1666     7.4788     5.5171   194.2817  -999.2500
  304.0000   -29.1101     7.6278     5.5947   191.6026  -999.2500
  304.5000   -29.0588     7.7879     5.6709   188.9236  -999.2500
  305.0000   -29.0047     7.9556     5.7482   186.2445  -999.2500
  305.5000   -28.9521     8.1114     5.8243   183.5654  -999.2500
  306.0000   -28.8987     8.2913     5.9022   180.8864  -999.2500
  306.5000   -28.8458     8.3949     5.9777   178.5536  -999.2500
  307.0000   -28.7927     8.3955     6.0545   180.3102  -999.2500
  307.5000   -28.7397     8.1243     6.0858   184.5804  -999.2500
  308.0000   -28.6871     7.6725     6.0554   188.2304  -999.2500
  308.5000   -28.6339     7.2339     5.8272   192.7482  -999.2500
  309.0000   -28.5817     7.0231     5.5890   200.7556  -999.2500
  309.5000   -28.5282     6.8307     5.2874   211.2064  -999.2500
  310.0000   -28.4664     6.6381     4.9979   223.1856  -999.2500
  310.5000   -28.3179     6.2923     4.7010   249.3072  -999.2500
  311.0000   -28.1284     5.6961     4.4083   282.6128  -999.2500
  311.5000   -27.9273     5.1007     4.1131   311.8083  -999.2500
  312.0000   -27.6755     4.5052     3.8191   343.8418  -999.2500
  312.5000   -27.3939     3.9102     3.5251   375.9109  -999.2500
  313.0000   -27.1121     3.3134     3.2302   408.0042  -999.2500
  313.5000   -26.8638     3.0416     2.9381   440.1826  -999.2500
