~VERSION INFORMATION
 VERS.                2.0:   CWLS LOG ASCII STANDARD - VERSION 2.0
 WRAP.                 NO:   ONE LINE PER DEPTH STEP
~WELL INFORMATION
#MNEM.UNIT      DATA TYPE    INFORMATION
#----------   ------------   ------------------------------
 STRT.F          700.0000:   START DEPTH
 STOP.F         2111.0000:   STOP DEPTH
 STEP.F            0.5000:   STEP LENGTH
 NULL.          -999.2500:   NO VALUE
 COMP. FENIX & SCISSON INC:   COMPANY
 WELL.    35 SAX 34 #3-34:   WELL
 FLD .             TEAPOT:   FIELD
 LOC .      S34 T39N R78W:   LOCATION
 CNTY.            NATRONA:   COUNTY
 STAT.            WYOMING:   STATE
 CTRY. UNITED STATES OF AMERICA:   COUNTRY
 SRVC.            Unknown:   SERVICE COMPANY
 DATE.        29-MAY-1978:   LOGDATE
 API .       490251061700:   API NUMBER
~CURVE INFORMATION
#MNEM.UNIT       API CODE    CURVE DESCRIPTION
#----------   ------------   ------------------------------
 DEPT.F                  :   
 CALD.IN     45 280 60 00:   CALIPER FROM DENSITY LOG
 GRD .GAPI   45 310 01 00:   GAMMA RAY FROM DENSITY LOG
 RHOB.G/C3   45 350 01 00:   BULK DENSITY
 DPHI.DEC    45 890 00 00:   DENSITY POROSITY
 CORR.G/C3   45 356 01 00:   DENSITY CORRECTION
~PARAMETER INFORMATION
#MNEM.UNIT          VALUE    DESCRIPTION
#----------   ------------   ------------------------------
 PD  .                 GL:   PERMANENT DATUM
 EPD .F              5105:   ELEVATION PERMANENT DATUM
 LMF .                 KB:   LOG MEASURED FROM
 DAPD.F                10:   FEET ABOVE PERMANENT DATUM
 DMF .                 KB:   DRILLING MEASURED FROM
 EKB .F              5115:   KELLING BUSHING
 EGL .F              5105:   GROUND LEVEL
 DATE.          5-29-1978:   RUN DATE
 RUN .                  1:   RUN NUMBER
 DD  .F              2111:   DEPTH DRILLER
 DL  .F              2118:   DEPTH LOGGER
 BLI .F              2110:   BOTTOM LOG INTERVAL
 TLI .F               720:   TOP LOG INTERVAL
 CS  .IN            9.625:   CASING SIZE
 CBD .F               711:   CASING BOTTOM DRILLER
 CBL .F               721:   CASING BOTTOM LOGGER
 BS  .IN             8.75:   BIT SIZE
 BSD .F              2111:   BIT SIZE AT DEPTH
 DFT .                OIL:   DRILLING FLUID TYPE
 TCS .HRS               1:   TIME CURCULATED STOPPED
 LUN .               2958:   LOGGING UNIT NUMBER
 LUL .               CASP:   LOGGING UNIT LOCATION
 ENGI.             MILLER:   RECORDING ENGINEER
 WITN.           MCGINLEY:   WITNESSED BY
 CLNT.            A2DTECH:   CLIENT CODE
 ORIG.           5" PRINT:   ORIGIN OF DATA
 UWI .       490251061700:   UNIQUE WELL ID
 DICO. A2D Technologies, Inc.:   DIGITIZING COMPANY
~OTHER INFORMATION
~A   DEPT     CALD         GRD      RHOB       DPHI       CORR   
# ...
  883.0000     9.6755    70.8718     2.2763     0.1538     0.2679
  883.5000     9.7297    70.6001     2.3199     0.1650     0.2477
  884.0000     9.7230    71.0014     2.3209     0.1763     0.2233
  884.5000     9.7146    71.5213     2.2922     0.1870     0.2234
  885.0000     9.7064    72.5205     2.2814     0.1958     0.2349
  885.5000     9.6983    76.4542     2.2647     0.1966     0.2363
  886.0000     9.6857    81.2955     2.2451     0.1911     0.2369
  886.5000     9.6450    84.5720     2.2466     0.1883     0.2376
  887.0000     9.6044    84.7548     2.2514     0.1888     0.2384
  887.5000     9.5706    85.4102     2.2560     0.1819     0.2390
  888.0000     9.5917    85.0669     2.2627     0.1634     0.2376
  888.5000     9.6242    82.6825     2.2710     0.1422     0.2349
  889.0000     9.6569    80.8533     2.2982     0.1347     0.2232
  889.5000     9.6897    80.9091     2.3260     0.1281     0.2045
  890.0000     9.7225    81.7066     2.3369     0.1385     0.1860
  890.5000     9.7471    82.5082     2.3417     0.1436     0.1689
  891.0000     9.7059    83.8714     2.3337     0.1507     0.1820
  891.5000     9.6650    84.9303     2.3247     0.1569     0.1993
  892.0000     9.6242    84.9790     2.3157     0.1581     0.2038
  892.5000     9.5836    83.4114     2.3071     0.1560     0.2036
  893.0000     9.5482    79.4217     2.3068     0.1520     0.2036
  893.5000     9.5341    75.4663     2.3116     0.1459     0.2034
  894.0000     9.5198    71.7923     2.3190     0.1398     0.2023
  894.5000     9.5215    71.3652     2.3264     0.1341     0.2012
  895.0000     9.5418    71.3680     2.3338     0.1330     0.2001
  895.5000     9.5622    71.3703     2.3413     0.1324     0.1990
  896.0000     9.5557    71.5300     2.3463     0.1185     0.1978
  896.5000     9.5261    72.7020     2.3517     0.0928     0.1982
  897.0000     9.4962    73.8875     2.3626     0.0708     0.1990
  897.5000     9.4612    74.2261     2.3982     0.0699     0.1962
  898.0000     9.4027    74.0171     2.4339     0.0715     0.1870
  898.5000     9.3449    73.7940     2.4408     0.0803     0.1921
  899.0000     9.3212    73.9603     2.4378     0.0910     0.1993
  899.5000     9.3409    74.1311     2.4322     0.1017     0.1970
  900.0000     9.3602    73.5105     2.4107     0.1044     0.1958
  900.5000     9.3793    72.8942     2.3959     0.1051     0.2097
  901.0000     9.3862    72.3533     2.4050     0.1058     0.2081
  901.5000     9.3651    72.3752     2.3974     0.1064     0.1993
  902.0000     9.3246    72.7993     2.3901     0.1020     0.1991
  902.5000     9.2474    73.9352     2.3856     0.0750     0.1988
  903.0000     9.1756    74.1273     2.3879     0.0712     0.1984
  903.5000     9.1870    74.7042     2.4046     0.0676     0.1980
  904.0000     9.2236    75.3665     2.4358     0.0708     0.1976
  904.5000     9.2590    75.9239     2.4438     0.0830     0.1976
  905.0000     9.2947    74.9925     2.4446     0.0953     0.1977
  905.5000     9.3304    72.6463     2.4234     0.1075     0.1976
  906.0000     9.3661    70.4113     2.3914     0.1197     0.1947
  906.5000     9.4018    69.4172     2.3721     0.1253     0.1764
  907.0000     9.4376    71.6391     2.3550     0.1198     0.1739
  907.5000     9.4626    72.3148     2.3616     0.1129     0.1744
  908.0000     9.4807    71.0952     2.3689     0.1082     0.1750
  908.5000     9.4986    70.1314     2.3759     0.1070     0.1754
  909.0000     9.5165    70.0115     2.3792     0.1086     0.1762
  909.5000     9.5344    69.8768     2.3803     0.1126     0.1805
  910.0000     9.5523    69.7162     2.3777     0.1167     0.1868
  910.5000     9.5713    68.7585     2.3721     0.1208     0.1933
  911.0000     9.6150    67.1238     2.3664     0.1245     0.1997
  911.5000     9.6614    66.1889     2.3607     0.1277     0.2068
  912.0000     9.6883    65.0095     2.3551     0.1318     0.2148
  912.5000     9.6785    63.2722     2.3494     0.1392     0.2228
  913.0000     9.6694    62.4455     2.3436     0.1466     0.2301
  913.5000     9.6603    62.3266     2.3348     0.1540     0.2335
  914.0000     9.6499    64.5311     2.3224     0.1621     0.2377
  914.5000     9.6113    67.1683     2.3098     0.1611     0.2422
  915.0000     9.5730    67.3615     2.3014     0.1601     0.2466
  915.5000     9.5348    67.4891     2.2998     0.1618     0.2511
  916.0000     9.4971    67.2250     2.2997     0.1631     0.2559
  916.5000     9.4716    66.0445     2.2996     0.1603     0.2575
  917.0000     9.4728    65.9916     2.2994     0.1602     0.2562
  917.5000     9.4976    66.6818     2.2993     0.1617     0.2544
  918.0000     9.5240    65.4555     2.2992     0.1617     0.2485
  918.5000     9.5503    63.7380     2.2990     0.1617     0.2264
  919.0000     9.5766    63.6125     2.2989     0.1447     0.2216
  919.5000     9.6032    64.1466     2.3004     0.1270     0.2234
  920.0000     9.6289    64.2769     2.3229     0.1173     0.2256
  920.5000     9.5564    62.8988     2.3551     0.0942     0.2272
  921.0000     9.5715    61.5974     2.3663     0.0711     0.2187
  921.5000     9.5936    61.8389     2.4001     0.0688     0.2097
  922.0000     9.6045    61.9666     2.4270     0.0639     0.2007
  922.5000     9.5566    61.2751     2.4400     0.0868     0.2005
  923.0000     9.5093    61.1176     2.4446     0.1070     0.2010
  923.5000     9.4845    60.8246     2.4438     0.1132     0.1949
  924.0000     9.4702    59.9037     2.3890     0.1235     0.2042
  924.5000     9.4231    58.9942     2.3723     0.1339     0.2236
  925.0000     9.3749    58.0755     2.3577     0.1443     0.2355
  925.5000     9.3687    57.6155     2.3370     0.1565     0.2374
  926.0000     9.3652    58.6652     2.3162     0.1424     0.2424
  926.5000     9.3614    60.1234     2.3055     0.1244     0.2753
  927.0000     9.3575    60.3393     2.3335     0.1193     0.2817
  927.5000     9.3537    60.2356     2.3572     0.1142     0.2560
  928.0000     9.3499    60.4420     2.3667     0.1094     0.2465
  928.5000     9.3461    60.7183     2.3723     0.1078     0.2367
  929.0000     9.3422    60.9961     2.3767     0.1054     0.2268
  929.5000     9.3384    61.2716     2.3792     0.1018     0.2169
  930.0000     9.3346    61.3318     2.3818     0.1110     0.2070
  930.5000     9.3236    61.1613     2.3809     0.1094     0.1971
  931.0000     9.3054    60.9910     2.3767     0.1139     0.1942
  931.5000     9.2876    60.8088     2.3725     0.1194     0.1925
  932.0000     9.2796    61.2052     2.3679     0.1248     0.1908
  932.5000     9.3247    62.3718     2.3609     0.1285     0.1891
  933.0000     9.3690    63.5616     2.3537     0.1330     0.1876
  933.5000     9.4132    64.7478     2.3466     0.1380     0.1876
  934.0000     9.4577    65.9293     2.3394     0.1401     0.1888
  934.5000     9.4813    67.0919     2.3337     0.1306     0.1921
  935.0000     9.4952    68.3680     2.3337     0.1218     0.1952
  935.5000     9.5090    72.0427     2.3374     0.1130     0.1970
  936.0000     9.5229    75.6460     2.3530     0.1050     0.1931
  936.5000     9.5436    76.1532     2.3682     0.1146     0.1808
  937.0000     9.5774    74.8591     2.3783     0.1041     0.1681
  937.5000     9.6367    72.8915     2.3760     0.1010     0.1816
  938.0000     9.7127    69.9741     2.3813     0.1042     0.2033
  938.5000     9.7883    65.8792     2.3869     0.1113     0.2043
  939.0000     9.8139    65.2331     2.3828     0.1176     0.2018
  939.5000     9.7753    64.9890     2.3735     0.1208     0.2064
  940.0000     9.7378    65.7221     2.3649     0.1224     0.2211
  940.5000     9.7085    66.5484     2.3636     0.1075     0.2361
  941.0000     9.7017    66.0773     2.3687     0.1263     0.2491
  941.5000     9.6945    64.3474     2.3745     0.1441     0.2411
  942.0000     9.6701    65.4769     2.3556     0.1565     0.2333
  942.5000     9.6333    68.9240     2.3174     0.1573     0.2420
  943.0000     9.5962    71.0148     2.3071     0.1573     0.2706
  943.5000     9.5589    70.2010     2.3048     0.1588     0.2749
