~VERSION INFORMATION
 VERS.                2.0:   CWLS LOG ASCII STANDARD - VERSION 2.0
 WRAP.                 NO:   ONE LINE PER DEPTH STEP
~WELL INFORMATION
#MNEM.UNIT      DATA TYPE    INFORMATION
#----------   ------------   ------------------------------
 STRT.F            8.5000:   START DEPTH
 STOP.F         2140.0000:   STOP DEPTH
 STEP.F            0.5000:   STEP LENGTH
 NULL.          -999.2500:   NO VALUE
 COMP. LAWRENCE/ALLISON INC:   COMPANY
 WELL.   11-61 SHX #61-11:   WELL
 FLD .             TEAPOT:   FIELD
 LOC .      S11 T38N R78W:   LOCATION
 CNTY.            NATRONA:   COUNTY
 STAT.            WYOMING:   STATE
 CTRY. UNITED STATES OF AMERICA:   COUNTRY
 SRVC.      NL McCullough:   SERVICE COMPANY
 DATE.        04-MAY-1988:   LOGDATE
 API .       490251115600:   API NUMBER
~CURVE INFORMATION
#MNEM.UNIT       API CODE    CURVE DESCRIPTION
#----------   ------------   ------------------------------
 DEPT.F                  :   
 GRR .GAPI   81 310 01 00:   GAMMY RAY
 ROP .FT/HR  91 810 01 00:   RAT OF DRILLING PENETRATION
 TGAS.TC/CC  91 830 01 00:   TOTAL GAS UNIT
~PARAMETER INFORMATION
#MNEM.UNIT          VALUE    DESCRIPTION
#----------   ------------   ------------------------------
 PD  .                 GL:   PERMANENT DATUM
 EPD .F              5135:   ELEVATION PERMANENT DATUM
 LMF .                 KB:   LOG MEASURED FROM
 DAPD.F                 8:   FEET ABOVE PERMANENT DATUM
 DMF .                 KB:   DRILLING MEASURED FROM
 EKB .F              5143:   KELLING BUSHING
 EGL .F              5135:   GROUND LEVEL
 DATE.        04-MAY-1988:   RUN DATE
 RUN .                  1:   RUN NUMBER
 DD  .F              2140:   DEPTH DRILLER
 DL  .F               572:   DEPTH LOGGER
 BLI .F               568:   BOTTOM LOG INTERVAL
 CS  .IN              5.5:   CASING SIZE
 CBD .F               622:   CASING BOTTOM DRILLER
 BSD .F              2140:   BIT SIZE AT DEPTH
 DFT .         KCL/ WATER:   DRILLING FLUID TYPE
 TCS .HRS               1:   TIME CURCULATED STOPPED
 ENGI.               DALY:   RECORDING ENGINEER
 WITN.           MR. LOWL:   WITNESSED BY
 CLNT.            A2DTECH:   CLIENT CODE
 ORIG.           5" PRINT:   ORIGIN OF DATA
 UWI .       490251115600:   UNIQUE WELL ID
 DICO. A2D Technologies, Inc.:   DIGITIZING COMPANY
~OTHER INFORMATION
~A    DEPT      GRR       ROP       TGAS   
# ...
 1737.5000  -999.2500     1.0000     3.1357
 1738.0000  -999.2500     0.9698     3.1460
 1738.5000  -999.2500     0.8654     3.1562
 1739.0000  -999.2500     0.8208     3.1665
 1739.5000  -999.2500     0.8113     3.1768
 1740.0000  -999.2500     0.8113     3.1871
 1740.5000  -999.2500     0.8113     3.1974
 1741.0000  -999.2500     0.8113     3.2077
 1741.5000  -999.2500     0.8019     3.2179
 1742.0000  -999.2500     0.7642     3.2282
 1742.5000  -999.2500     0.6981     3.2385
 1743.0000  -999.2500     0.6321     3.2488
 1743.5000  -999.2500     0.5849     3.2591
 1744.0000  -999.2500     0.5283     3.2694
 1744.5000  -999.2500     0.5849     3.2796
 1745.0000  -999.2500     0.6604     3.2899
 1745.5000  -999.2500     0.6994     3.3002
 1746.0000  -999.2500     0.6849     3.3105
 1746.5000  -999.2500     0.5849     3.3208
 1747.0000  -999.2500     0.5377     3.3311
 1747.5000  -999.2500     0.5000     3.3414
 1748.0000  -999.2500     0.4623     3.3516
 1748.5000  -999.2500     0.4434     3.3619
 1749.0000  -999.2500     0.4434     3.3722
 1749.5000  -999.2500     0.4528     3.3825
 1750.0000  -999.2500     0.4623     3.3928
 1750.5000  -999.2500     0.4623     2.6126
 1751.0000  -999.2500     0.4623     2.2567
 1751.5000  -999.2500     0.4623     2.2725
 1752.0000  -999.2500     0.4528     2.2877
 1752.5000  -999.2500     0.3962     2.3030
 1753.0000  -999.2500     0.3767     2.3182
 1753.5000  -999.2500     0.3491     2.3335
 1754.0000  -999.2500     0.3491     2.3487
 1754.5000  -999.2500     0.3491     2.3640
 1755.0000  -999.2500     0.3491     2.3792
 1755.5000  -999.2500     0.3491     2.3945
 1756.0000  -999.2500     0.3491     2.4097
 1756.5000  -999.2500     0.3491     2.4250
 1757.0000  -999.2500     0.3491     2.4402
 1757.5000  -999.2500     0.3491     2.4555
 1758.0000  -999.2500     0.3491     2.4707
 1758.5000  -999.2500     0.3491     2.4860
 1759.0000  -999.2500     0.3491     2.5012
 1759.5000  -999.2500     0.3491     2.5165
 1760.0000  -999.2500     0.3491     2.5317
 1760.5000  -999.2500     0.3491     2.5470
 1761.0000  -999.2500     0.3491     2.5628
 1761.5000  -999.2500     0.3491     2.5809
 1762.0000  -999.2500     0.3585     2.5991
 1762.5000  -999.2500     0.3679     2.6172
 1763.0000  -999.2500     0.3774     2.6354
 1763.5000  -999.2500     0.3774     2.6535
 1764.0000  -999.2500     0.3774     2.6717
 1764.5000  -999.2500     0.3962     2.6898
 1765.0000  -999.2500     0.4057     2.7080
 1765.5000  -999.2500     0.4151     2.7261
 1766.0000  -999.2500     0.4245     2.7443
 1766.5000  -999.2500     0.4434     2.7624
 1767.0000  -999.2500     0.4528     2.7806
 1767.5000  -999.2500     0.4340     2.7987
 1768.0000  -999.2500     0.4151     2.8168
 1768.5000  -999.2500     0.3758     2.8350
 1769.0000  -999.2500     0.3208     2.8531
 1769.5000  -999.2500     0.3019     2.8713
 1770.0000  -999.2500     0.3019     2.8894
 1770.5000  -999.2500     0.3019     2.9076
 1771.0000  -999.2500     0.3113     2.9257
 1771.5000  -999.2500     0.3208     2.9439
 1772.0000  -999.2500     0.3241     2.9620
 1772.5000  -999.2500     0.3302     2.9802
 1773.0000  -999.2500     0.3302     2.9983
 1773.5000  -999.2500     0.3302     3.0164
 1774.0000  -999.2500     0.3208     3.0346
 1774.5000  -999.2500     0.3208     3.0527
 1775.0000  -999.2500     0.3208     3.0709
 1775.5000  -999.2500     0.3208     3.0890
 1776.0000  -999.2500     0.3208     3.1072
 1776.5000  -999.2500     0.3210     3.1253
 1777.0000  -999.2500     0.3302     3.1435
 1777.5000  -999.2500     0.3456     3.1616
 1778.0000  -999.2500     0.3585     3.1798
 1778.5000  -999.2500     0.3679     3.1979
 1779.0000  -999.2500     0.3774     3.2160
 1779.5000  -999.2500     0.3868     3.2342
 1780.0000  -999.2500     0.3962     2.8674
 1780.5000  -999.2500     0.3868     2.1072
 1781.0000  -999.2500     0.3774     2.1150
 1781.5000  -999.2500     0.3679     2.1228
 1782.0000  -999.2500     0.3679     2.1306
 1782.5000  -999.2500     0.3585     2.1384
 1783.0000  -999.2500     0.3491     2.1462
 1783.5000  -999.2500     0.3491     2.1540
 1784.0000  -999.2500     0.3396     2.1619
 1784.5000  -999.2500     0.3396     2.1697
 1785.0000  -999.2500     0.3396     2.1775
 1785.5000  -999.2500     0.3302     2.1853
 1786.0000  -999.2500     0.3208     2.1931
 1786.5000  -999.2500     0.3113     2.2009
 1787.0000  -999.2500     0.3113     2.2087
 1787.5000  -999.2500     0.3019     2.2165
 1788.0000  -999.2500     0.3026     2.2243
 1788.5000  -999.2500     0.3113     2.2321
 1789.0000  -999.2500     0.3113     2.2399
 1789.5000  -999.2500     0.3113     2.2477
 1790.0000  -999.2500     0.3113     2.2556
 1790.5000  -999.2500     0.3113     2.2634
 1791.0000  -999.2500     0.3113     2.2712
 1791.5000  -999.2500     0.3019     2.2790
 1792.0000  -999.2500     0.3019     2.2868
 1792.5000  -999.2500     0.3113     2.2946
 1793.0000  -999.2500     0.3113     2.3024
 1793.5000  -999.2500     0.3113     2.3102
 1794.0000  -999.2500     0.3113     2.3180
 1794.5000  -999.2500     0.3113     2.3258
 1795.0000  -999.2500     0.3113     2.3336
 1795.5000  -999.2500     0.3113     2.3415
 1796.0000  -999.2500     0.3070     2.3493
 1796.5000  -999.2500     0.3019     2.3571
 1797.0000  -999.2500     0.3019     2.3649
 1797.5000  -999.2500     0.3019     2.3727
 1798.0000  -999.2500     0.3019     2.3805
 1798.5000  -999.2500     0.3019     2.3883
 1799.0000  -999.2500     0.3113     2.3961
 1799.5000  -999.2500     0.3113     2.4039
 1800.0000  -999.2500     0.3113     2.4117
 1800.5000  -999.2500     0.3208     2.4195
 1801.0000  -999.2500     0.3302     2.4273
 1801.5000  -999.2500     0.3302     2.4352
 1802.0000  -999.2500     0.3019     2.4430
 1802.5000  -999.2500     0.2830     2.4508
 1803.0000  -999.2500     0.2642     2.4586
 1803.5000  -999.2500     0.2642     2.4664
 1804.0000  -999.2500     0.2642     2.4742
 1804.5000  -999.2500     0.2642     2.4820
 1805.0000  -999.2500     0.2642     2.4901
 1805.5000  -999.2500     0.2641     2.5459
 1806.0000  -999.2500     0.2639     2.6036
 1806.5000  -999.2500     0.2637     2.6613
 1807.0000  -999.2500     0.2635     2.7190
 1807.5000  -999.2500     0.2633     2.7767
 1808.0000  -999.2500     0.2631     2.8344
 1808.5000  -999.2500     0.2629     2.8922
 1809.0000  -999.2500     0.2626     2.9499
 1809.5000  -999.2500     0.2624     3.0076
 1810.0000  -999.2500     0.2622     3.0653
 1810.5000  -999.2500     0.2620     3.1230
 1811.0000  -999.2500     0.2618     3.1807
 1811.5000  -999.2500     0.2616     3.2384
 1812.0000  -999.2500     0.2614     3.2961
 1812.5000  -999.2500     0.2612     3.3538
 1813.0000  -999.2500     0.2610     3.4116
 1813.5000  -999.2500     0.2608     3.4693
 1814.0000  -999.2500     0.2615     3.5270
 1814.5000  -999.2500     0.2626     3.5847
 1815.0000  -999.2500     0.2638     3.6424
 1815.5000  -999.2500     0.2650     3.7001
 1816.0000  -999.2500     0.2662     3.7578
 1816.5000  -999.2500     0.2674     3.8155
 1817.0000  -999.2500     0.2686     3.8732
 1817.5000  -999.2500     0.2698     3.9310
 1818.0000  -999.2500     0.2710     3.9887
 1818.5000  -999.2500     0.2722     4.0464
 1819.0000  -999.2500     0.2734     4.1041
 1819.5000  -999.2500     0.2746     4.1618
 1820.0000  -999.2500     0.2758     4.2195
 1820.5000  -999.2500     0.2770     4.2772
 1821.0000  -999.2500     0.2782     4.3349
 1821.5000  -999.2500     0.2794     4.3926
 1822.0000  -999.2500     0.2806     4.4409
 1822.5000  -999.2500     0.2818     4.4665
 1823.0000  -999.2500     0.2830     4.4922
 1823.5000  -999.2500     0.2842     4.5178
 1824.0000  -999.2500     0.2854     4.5435
 1824.5000  -999.2500     0.2866     4.5692
 1825.0000  -999.2500     0.2878     4.5948
 1825.5000  -999.2500     0.2890     4.6205
 1826.0000  -999.2500     0.2902     4.6461
 1826.5000  -999.2500     0.2914     4.6718
 1827.0000  -999.2500     0.2926     4.6975
 1827.5000  -999.2500     0.2938     4.7231
 1828.0000  -999.2500     0.2950     4.7488
