~VERSION INFORMATION
 VERS.                2.0:   CWLS LOG ASCII STANDARD - VERSION 2.0
 WRAP.                 NO:   ONE LINE PER DEPTH STEP
~WELL INFORMATION
#MNEM.UNIT      DATA TYPE    INFORMATION
#----------   ------------   ------------------------------
 STRT.F          906.5000:   START DEPTH
 STOP.F         2710.5000:   STOP DEPTH
 STEP.F            0.5000:   STEP LENGTH
 NULL.          -999.2500:   NO VALUE
 COMP.   FLUOR DANIEL INC:   COMPANY
 WELL. NAVAL PETROLEUM RESERVE 3 X-4 #77-4:   WELL
 FLD .             TEAPOT:   FIELD
 LOC .       S4 T38N R78W:   LOCATION
 CNTY.            NATRONA:   COUNTY
 STAT.            WYOMING:   STATE
 CTRY. UNITED STATES OF AMERICA:   COUNTRY
 SRVC.            Unknown:   SERVICE COMPANY
 DATE.        21-JUN-1995:   LOGDATE
 API .       490252273600:   API NUMBER
~CURVE INFORMATION
#MNEM.UNIT       API CODE    CURVE DESCRIPTION
#----------   ------------   ------------------------------
 DEPT.F                  :   
 TGAS.UNITS  91 830 01 00:   TOTAL GAS FROM HOTWIRE
 ROP .MIN/FT 91 810 01 00:   RAT OF DRILLING PENETRATION
~PARAMETER INFORMATION
#MNEM.UNIT          VALUE    DESCRIPTION
#----------   ------------   ------------------------------
 EKB .F              5291:   KELLING BUSHING
 EGL .F              5281:   GROUND LEVEL
 DATE.            6-21-95:   RUN DATE
 DD  .F              2711:   DEPTH DRILLER
 CBD .F               893:   CASING BOTTOM DRILLER
 ENGI.               HUSK:   RECORDING ENGINEER
 WITN.              TOWER:   WITNESSED BY
 CLNT.            A2DTECH:   CLIENT CODE
 ORIG.           5" PRINT:   ORIGIN OF DATA
 UWI .       490252273600:   UNIQUE WELL ID
 DICO. A2D Technologies, Inc.:   DIGITIZING COMPANY
~OTHER INFORMATION
~A   DEPT      TGAS         ROP 
# ...
 1149.5000   249.8405     0.7198
 1150.0000   249.8108     0.7282
 1150.5000   249.7810     0.9488
 1151.0000   249.7512     0.9487
 1151.5000   249.7215     0.9485
 1152.0000   249.6917     0.9484
 1152.5000   249.6620     0.7418
 1153.0000   249.6322     0.7417
 1153.5000   249.6024     0.7530
 1154.0000   249.5727     0.7529
 1154.5000   249.5429     0.7413
 1155.0000   249.5131     0.7411
 1155.5000   249.4834     0.7409
 1156.0000   249.4536     0.7179
 1156.5000   249.4239     0.5801
 1157.0000   249.3941     0.5800
 1157.5000   249.3643     0.5798
 1158.0000   249.3346     0.5797
 1158.5000   249.3048     0.5796
 1159.0000   249.2750     0.5794
 1159.5000   249.2453     0.5793
 1160.0000   249.2155     0.5791
 1160.5000   249.1858     0.5790
 1161.0000   249.1560     0.5788
 1161.5000   249.1262     0.5787
 1162.0000   249.0965     0.5786
 1162.5000   249.0667     0.5784
 1163.0000   249.0369     0.5897
 1163.5000   249.0072     0.6011
 1164.0000   248.9774     0.7385
 1164.5000   248.9477     0.7384
 1165.0000   248.9179     0.7382
 1165.5000   248.8881     0.7496
 1166.0000   248.8584     0.8641
 1166.5000   248.8286     0.9098
 1167.0000   248.7989     0.8982
 1167.5000   248.7691     0.9096
 1168.0000   248.7393     0.9209
 1168.5000   248.7096     0.9207
 1169.0000   248.6798     0.9206
 1169.5000   248.6500     0.9204
 1170.0000   248.6203     0.7139
 1170.5000   248.5905     0.7137
 1171.0000   248.5608     0.7136
 1171.5000   248.5310     0.7134
 1172.0000   248.5012     0.7133
 1172.5000   248.4715     0.7017
 1173.0000   248.4417     0.6901
 1173.5000   248.4119     0.6899
 1174.0000   248.3822     0.7013
 1174.5000   248.3524     0.7126
 1175.0000   248.3227     0.7124
 1175.5000   248.2929     0.7352
 1176.0000   248.2631     0.9645
 1176.5000   248.2334     0.9643
 1177.0000   248.2036     0.9757
 1177.5000   248.1738     0.9870
 1178.0000   248.1441     0.9409
 1178.5000   248.1143     0.7000
 1179.0000   248.0846     0.7238
 1179.5000   248.0548     0.7456
 1180.0000   248.0250     1.2395
 1180.5000   247.9979     1.2425
 1181.0000   247.9723     1.2454
 1181.5000   247.9467     1.2484
 1182.0000   247.9211     1.2513
 1182.5000   247.8955     1.4823
 1183.0000   247.8699     1.4828
 1183.5000   247.8443     1.4834
 1184.0000   247.8187     1.4801
 1184.5000   247.7931     1.2437
 1185.0000   247.7675     1.2444
 1185.5000   247.7419     1.2449
 1186.0000   247.7163     1.1996
 1186.5000   247.6907     0.4661
 1187.0000   247.6651     0.4668
 1187.5000   247.6395     0.4674
 1188.0000   247.6138     0.4679
 1188.5000   247.5883     0.4685
 1189.0000   247.5627     0.4690
 1189.5000   247.5370     0.4696
 1190.0000   247.5114     0.4702
 1190.5000   247.4858     0.4709
 1191.0000   247.4602     0.4714
 1191.5000   247.4346     0.4720
 1192.0000   247.4090     0.4725
 1192.5000   247.3834     0.4731
 1193.0000   247.3578     0.4737
 1193.5000   247.3322     0.4742
 1194.0000   247.3066     0.4748
 1194.5000   247.2810     0.4868
 1195.0000   247.2554     0.4874
 1195.5000   247.2298     0.4880
 1196.0000   247.2042     0.5001
 1196.5000   247.1786     0.5007
 1197.0000   247.1530     0.5012
 1197.5000   247.1274     0.5247
 1198.0000   247.1018     0.7546
 1198.5000   247.0762     0.7552
 1199.0000   247.0506     0.7672
 1199.5000   247.0250     0.7678
 1200.0000   246.9952     0.7225
 1200.5000   249.3306     0.7110
 1201.0000   250.4199     0.7110
 1201.5000   248.1917     0.7110
 1202.0000   245.3941     0.6881
 1202.5000   245.4161     0.6078
 1203.0000   245.4381     0.6078
 1203.5000   245.4600     0.6078
 1204.0000   245.4820     0.6193
 1204.5000   245.5040     0.6193
 1205.0000   245.5263     0.6307
 1205.5000   245.5489     0.6422
 1206.0000   245.5754     0.6307
 1206.5000   245.5974     0.6193
 1207.0000   245.6193     0.6193
 1207.5000   245.6413     0.6078
 1208.0000   246.2272     0.6200
 1208.5000   246.2491     0.7225
 1209.0000   245.7068     0.7339
 1209.5000   245.7293     0.7339
 1210.0000   245.7530     0.7339
 1210.5000   245.7749     0.7339
 1211.0000   245.7970     0.7339
 1211.5000   245.8195     0.7454
 1212.0000   245.8463     0.7454
 1212.5000   245.8683     0.9404
 1213.0000   245.8903     0.9518
 1213.5000   245.9123     0.9633
 1214.0000   245.9342     0.9748
 1214.5000   245.9562     0.9864
 1215.0000   245.9782     1.0092
 1215.5000   246.0001     0.9862
 1216.0000   246.0226     0.7339
 1216.5000   246.0496     0.6422
 1217.0000   246.0715     0.6422
 1217.5000   246.0935     0.6422
 1218.0000   246.1155     0.6422
 1218.5000   246.1375     0.6537
 1219.0000   246.1594     0.6537
 1219.5000   246.1814     0.6422
 1220.0000   246.1564     0.6537
 1220.5000   246.0799     0.6193
 1221.0000   246.0035     0.6078
 1221.5000   245.9270     0.6078
 1222.0000   245.8506     0.6078
 1222.5000   245.7741     0.6193
 1223.0000   245.6977     0.6193
 1223.5000   245.6212     0.6307
 1224.0000   245.5447     0.7569
 1224.5000   245.4683     0.7683
 1225.0000   245.3918     0.7683
 1225.5000   245.3154     0.7798
 1226.0000   245.2389     0.7798
 1226.5000   245.1625     0.6307
 1227.0000   245.0860     0.6307
 1227.5000   245.0096     0.6307
 1228.0000   244.9331     0.6307
 1228.5000   244.8566     0.6307
 1229.0000   244.7802     0.6193
 1229.5000   244.7037     0.6193
 1230.0000   244.6273     0.6193
 1230.5000   244.5508     0.6193
 1231.0000   244.4743     0.6193
 1231.5000   244.3979     0.6078
 1232.0000   244.3214     0.5963
 1232.5000   244.2450     0.5963
 1233.0000   244.1685     0.5963
 1233.5000   244.0921     0.6078
 1234.0000   244.0156     0.6078
 1234.5000   243.9392     0.6193
 1235.0000   243.8627     0.6193
 1235.5000   243.7863     0.6193
 1236.0000   243.7098     0.6193
 1236.5000   243.6333     0.6307
 1237.0000   243.0268     0.6422
 1237.5000   243.0488     0.6422
 1238.0000   243.0707     0.6651
 1238.5000   243.0927     0.7472
 1239.0000   243.1147     0.7569
 1239.5000   243.1366     0.7798
 1240.0000   243.1586     0.6971
 1240.5000   242.6165     0.5843
 1241.0000   242.0748     0.5952
 1241.5000   242.1022     0.6061
 1242.0000   241.5548     0.6170
 1242.5000   241.0128     0.6163
 1243.0000   240.4709     0.6157
 1243.5000   240.4984     0.6152
 1244.0000   241.0842     0.6146
 1244.5000   241.1062     0.6140
 1245.0000   240.5639     0.6135
 1245.5000   240.5865     0.6245
 1246.0000   240.6090     0.6238
 1246.5000   240.6357     0.6232
 1247.0000   239.5298     0.6112
 1247.5000   239.5518     0.5992
 1248.0000   239.5738     0.5413
 1248.5000   239.0263     0.4603
 1249.0000   239.0538     0.4713
 1249.5000   239.0758     0.4708
 1250.0000   238.5338     0.4587
 1250.5000   239.1203     0.4466
 1251.0000   238.5833     0.4460
 1251.5000   238.6052     0.4570
 1252.0000   238.6272     0.4563
 1252.5000   238.6492     0.4558
 1253.0000   238.1072     0.4668
 1253.5000   237.5598     0.4661
 1254.0000   237.5873     0.4770
 1254.5000   237.0451     0.4881
 1255.0000   237.6316     0.4874
 1255.5000   237.6541     0.4984
 1256.0000   238.2446     0.5092
 1256.5000   238.8304     0.5086
 1257.0000   238.8524     0.5080
 1257.5000   238.3050     0.5075
 1258.0000   238.3324     0.5069
 1258.5000   238.3544     0.5385
 1259.0000   238.3764     0.5272
 1259.5000   238.3985     0.5159
 1260.0000   238.4211     0.5159
 1260.5000   237.8784     0.5047
 1261.0000   238.4697     0.5055
 1261.5000   238.4917     0.5062
 1262.0000   239.0776     0.5070
 1262.5000   239.0996     0.5077
 1263.0000   239.1216     0.5084
 1263.5000   238.5789     0.5092
 1264.0000   238.0376     0.5099
 1264.5000   237.4957     0.5107
 1265.0000   236.9538     0.5114
 1265.5000   236.9812     0.5121
 1266.0000   235.8754     0.5129
 1266.5000   235.8974     0.5136
 1267.0000   235.9193     0.5143
 1267.5000   235.9413     0.5151
 1268.0000   235.9633     0.5159
 1268.5000   235.4211     0.6279
 1269.0000   235.4436     0.6262
 1269.5000   235.4662     0.6244
 1270.0000   234.9234     0.6227
 1270.5000   234.9508     0.6210
