~VERSION INFORMATION
 VERS.                2.0:   CWLS LOG ASCII STANDARD - VERSION 2.0
 WRAP.                 NO:   ONE LINE PER DEPTH STEP
~WELL INFORMATION
#MNEM.UNIT      DATA TYPE    INFORMATION
#----------   ------------   ------------------------------
 STRT.F           30.0000:   START DEPTH
 STOP.F         3375.5000:   STOP DEPTH
 STEP.F            0.5000:   STEP LENGTH
 NULL.          -999.2500:   NO VALUE
 COMP.       INTEX OIL CO:   COMPANY
 WELL.   NPR ##3 57-SX-34:   WELL
 FLD .             TEAPOT:   FIELD
 LOC .      S34 T39N R78W:   LOCATION
 CNTY.            NATRONA:   COUNTY
 STAT.            WYOMING:   STATE
 CTRY. UNITED STATES OF AMERICA:   COUNTRY
 SRVC.       Schlumberger:   SERVICE COMPANY
 DATE.        12-AUG-1967:   LOGDATE
 API .       490251023200:   API NUMBER
~CURVE INFORMATION
#MNEM.UNIT       API CODE    CURVE DESCRIPTION
#----------   ------------   ------------------------------
 DEPT.F                  :   
 SPR .MV     07 010 01 00:   SPONTANEOUS POTENTIAL
 ILD .OHMM   07 120 46 00:   INDUCTION LOG DEEP
 ASN .OHMM   05 041 16 00:   AMPLIFIED SHORT NORMAL 16"
 CILD.MMHO   07 110 46 00:   CONDUCTIVITY INDUCTION LOG DEEP
 LL8 .OHMM   07 220 08 00:   LATEROLOG-8 RES.
 ILM .OHMM   07 120 44 00:   INDUCTION LOG MEDIUM
 CALD.IN     45 280 60 00:   CALIPER
 GRD .GAPI   45 310 01 00:   GAMMA RAY FROM DENSITY LOG
 RHOB.G/C3   45 350 01 00:   BULK DENSITY
 DPHI.DEC    45 890 12 00:   DENSITY POROSITY SANDSTONE
 CORR.G/C3   45 356 01 00:   DENSITY CORRECTION
~PARAMETER INFORMATION
#MNEM.UNIT          VALUE    DESCRIPTION
#----------   ------------   ------------------------------
 PD  .                 GL:   PERMANENT DATUM
 EPD .F              5084:   ELEVATION PERMANENT DATUM
 LMF .                 KB:   LOG MEASURED FROM
 DAPD.F                12:   FEET ABOVE PERMANENT DATUM
 DMF .                 KB:   DRILLING MEASURED FROM
 EKB .F              5096:   KELLING BUSHING
 EGL .F              5084:   GROUND LEVEL
 DATE.            8-12-67:   RUN DATE
 RUN .                  2:   RUN NUMBER
 DD  .F              3380:   DEPTH DRILLER
 DL  .F              3371:   DEPTH LOGGER
 BLI .F              3368:   BOTTOM LOG INTERVAL
 TLI .F               630:   TOP LOG INTERVAL
 CS  .IN            10.75:   CASING SIZE
 CBD .F               643:   CASING BOTTOM DRILLER
 BS  .IN            9.875:   BIT SIZE
 BSD .F              3380:   BIT SIZE AT DEPTH
 DFT .               CHEM:   DRILLING FLUID TYPE
 DFD .                9.4:   DRILLING FLUID DENSITY
 DFV .                 48:   DRILLING FLUID VISCOSITY
 DFPH.                8.5:   DRILLING FLUID PH
 DFL .                3.6:   DRILLING FLUID LOSS
 MSS .          FLOW LINE:   MUD SAMPLE SOURCE
 RMS .OHMM           2.81:   RESISTIVITY MUD SAMPLE
 MST .F                88:   MUD SAMPLE TEMPERATURE
 RMF .OHMM            1.7:   RESISTIVITY MUD FILTRATE SAMPLE
 MFST.F                86:   MUD FILTRATE SAMPLE TEMPERATURE
 MFSS.                  M:   MUD FILTRATE SAMPLE SOURCE
 RMB .OHMM           2.03:   RESISTIVITY MUD AT BHT
 BHT .F               122:   BOTTOM HOLE TEMPERATURE
 TCS .HRS             2.5:   TIME CURCULATED STOPPED
 MRT .F               122:   MAXIMUM RECORDED TEMPERATURE
 LUN .               7030:   LOGGING UNIT NUMBER
 LUL .               CSPR:   LOGGING UNIT LOCATION
 ENGI.             SCHODE:   RECORDING ENGINEER
 WITN.                MAY:   WITNESSED BY
 CLNT.            A2DTECH:   CLIENT CODE
 ORIG.   1" 2.5" 5" PRINT:   ORIGIN OF DATA
 UWI .       490251023200:   UNIQUE WELL ID
 DICO. A2D Technologies, Inc.:   DIGITIZING COMPANY
~OTHER INFORMATION
~A   DEPT      SPR        ILD        ASN       CILD        LL8        ILM       CALD         GRD      RHOB       DPHI       CORR   
# ...
  243.5000   -49.2004    10.8333    11.4955    81.6929  -999.2500  -999.2500    10.0721    75.9491     2.5319     0.0743     0.0539
  244.0000   -49.2653    10.9845    11.6967    81.1535  -999.2500  -999.2500    10.0744    74.3417     2.5428     0.0664     0.0485
  244.5000   -49.3311    11.1132    11.8824    80.6654  -999.2500  -999.2500    10.0760    73.5691     2.5255     0.0753     0.0431
  245.0000   -49.3968    11.1859    12.0890    80.1772  -999.2500  -999.2500    10.0749    76.8147     2.5041     0.0858     0.0377
  245.5000   -49.4624    11.4467    12.0224    79.7244  -999.2500  -999.2500    10.0753    76.4606     2.4838     0.0961     0.0322
  246.0000   -49.5281    11.4688    11.9338    80.4724  -999.2500  -999.2500    10.0752    75.7341     2.4605     0.1066     0.0269
  246.5000   -49.5933    11.3707    11.8345    81.1699  -999.2500  -999.2500    10.0751    76.1139     2.4593     0.1121     0.0215
  247.0000   -49.6601    11.2848    11.7429    81.8673  -999.2500  -999.2500    10.0751    79.0944     2.4626     0.1102     0.0175
  247.5000   -49.7236    11.2001    11.6483    82.5647  -999.2500  -999.2500    10.0751    78.5047     2.4776     0.0999     0.0211
  248.0000   -49.7973    11.1120    11.5543    83.2621  -999.2500  -999.2500    10.0753    79.5999     2.4966     0.0892     0.0293
  248.5000   -49.8487    11.0263    11.4599    84.1831  -999.2500  -999.2500    10.0751    78.5523     2.5149     0.0786     0.0372
  249.0000   -49.9086    10.9396    11.3664    85.4035  -999.2500  -999.2500    10.0754    77.4065     2.5282     0.0733     0.0449
  249.5000   -49.9656    10.8531    11.2730    86.6240  -999.2500  -999.2500    10.0753    76.2218     2.5104     0.0906     0.0522
  250.0000   -50.0236    10.7665    11.1735    87.5984  -999.2500  -999.2500    10.0747    78.2596     2.4798     0.0960     0.0623
  250.5000   -50.0830    10.6800    11.1061    87.5984  -999.2500  -999.2500    10.0775    78.9174     2.4912     0.0992     0.0550
  251.0000   -50.1393    10.5942    11.0822    87.5984  -999.2500  -999.2500    10.0414    77.9708     2.4931     0.0944     0.0394
  251.5000   -50.1954    10.5064    11.0528    87.5984  -999.2500  -999.2500     9.9460    76.4486     2.4839     0.0969     0.0741
  252.0000   -50.1997    10.4218    11.0226    87.2908  -999.2500  -999.2500     9.8195    76.9916     2.4753     0.1018     0.0590
  252.5000   -50.1973    10.3393    10.9949    86.9833  -999.2500  -999.2500     9.7515    78.7891     2.4680     0.1086     0.0459
  253.0000   -50.1959    10.3359    10.9677    86.6757  -999.2500  -999.2500     9.7271    79.2334     2.4813     0.1055     0.0521
  253.5000   -50.0218    10.3326    10.9304    86.3681  -999.2500  -999.2500     9.6907    80.0134     2.4953     0.1003     0.0583
  254.0000   -49.7861    10.3371    10.9713    86.0605  -999.2500  -999.2500     9.6980    81.0687     2.4837     0.0961     0.0559
  254.5000   -49.5521    10.3334    11.0569    85.7530  -999.2500  -999.2500     9.7218    81.9823     2.4600     0.1102     0.0438
  255.0000   -49.3230    10.3241    11.1085    87.5984  -999.2500  -999.2500     9.8504    82.7182     2.4571     0.1153     0.0313
  255.5000   -49.0835    10.1922    10.9476    87.5984  -999.2500  -999.2500    10.1299    81.4498     2.4522     0.1167     0.0264
  256.0000   -48.8602    10.0826    10.8168    90.0591  -999.2500  -999.2500    10.2979    79.8594     2.4460     0.1181     0.0338
  256.5000   -48.6299     9.9631    10.6710    92.5197  -999.2500  -999.2500    10.2713    81.4292     2.4447     0.1160     0.0377
  257.0000   -48.7066     9.8486    10.5307    95.4724  -999.2500  -999.2500    10.2362    82.6416     2.4527     0.1134     0.0298
  257.5000   -48.8007     9.7333    10.3952    96.6535  -999.2500  -999.2500    10.1603    80.8493     2.4600     0.1107     0.0254
  258.0000   -48.9023     9.6128    10.2572    98.0879  -999.2500  -999.2500    10.0888    79.4864     2.4678     0.1081     0.0426
  258.5000   -49.0006     9.5038    10.1100    99.5701  -999.2500  -999.2500    10.1247    78.2173     2.4751     0.1055     0.0577
  259.0000   -49.0065     9.4102    10.0561   101.3485  -999.2500  -999.2500    10.1555    78.6837     2.4837     0.1029     0.0733
  259.5000   -49.0095     9.3117    10.0420   101.8699  -999.2500  -999.2500    10.2329    79.4548     2.4836     0.1003     0.0889
  260.0000   -49.0072     9.2083     9.9794   102.5188  -999.2500  -999.2500    10.2868    78.8712     2.4743     0.1056     0.1047
  260.5000   -49.0084     9.1236     9.9038   103.1675  -999.2500  -999.2500    10.3399    76.7237     2.4547     0.1163     0.1155
  261.0000   -49.0084     9.0624     9.7808   103.8150  -999.2500  -999.2500    10.1605    77.5990     2.4041     0.1291     0.1053
  261.5000   -49.0075     8.9955     9.6313   104.4606  -999.2500  -999.2500     9.9891    79.9391     2.4338     0.1244     0.0768
  262.0000   -49.0094     8.9302     9.5987   105.1010  -999.2500  -999.2500     9.7750    81.6144     2.4043     0.1196     0.0547
  262.5000   -49.0072     8.8656     9.5684   105.7429  -999.2500  -999.2500     9.7639    81.0386     2.4097     0.1306     0.0467
  263.0000   -49.0019     8.7945     9.5419   106.3848  -999.2500  -999.2500     9.8104    80.6601     2.4273     0.1244     0.0403
  263.5000   -48.9122     8.7629     9.5139   107.0267  -999.2500  -999.2500     9.8675    77.8690     2.4442     0.1199     0.0388
  264.0000   -48.8293     8.7854     9.4820   107.2835  -999.2500  -999.2500     9.9197    75.3935     2.4592     0.1120     0.0387
  264.5000   -48.7415     8.8018     9.4841   105.7087  -999.2500  -999.2500     9.9753    74.9034     2.4746     0.1018     0.0429
  265.0000   -48.6559     8.8192     9.5337   103.3465  -999.2500  -999.2500     9.9980    76.8184     2.4947     0.0945     0.0525
  265.5000   -48.5701     8.8375     9.5752   102.9528  -999.2500  -999.2500     9.9948    77.1385     2.4851     0.0971     0.0485
  266.0000   -48.4846     8.8546     9.6261   102.4606  -999.2500  -999.2500    10.0049    75.7281     2.4789     0.1024     0.0427
  266.5000   -48.3966     8.8726     9.6685   101.9685  -999.2500  -999.2500    10.0231    74.3266     2.4893     0.0961     0.0362
  267.0000   -48.3143     8.8907     9.6834   101.3780  -999.2500  -999.2500    10.0353    73.7043     2.4779     0.0980     0.0311
  267.5000   -48.2210     8.9062     9.4896   101.5748  -999.2500  -999.2500    10.0350    74.2142     2.4859     0.1011     0.0310
  268.0000   -48.2150     8.9283     9.3161   102.0669  -999.2500  -999.2500    10.0287    71.3093     2.4858     0.0969     0.0307
  268.5000   -48.2128     8.9414     9.4335   102.5591  -999.2500  -999.2500    10.0215    70.4118     2.4734     0.0984     0.0278
  269.0000   -48.2148     8.9412     9.4863   103.0512  -999.2500  -999.2500    10.0144    71.6554     2.4888     0.1004     0.0255
  269.5000   -48.2140     8.7480     9.3906   104.4713  -999.2500  -999.2500    10.0077    72.1824     2.4832     0.1045     0.0234
  270.0000   -48.2142     8.5872     9.2938   107.2835  -999.2500  -999.2500     9.9996    72.4864     2.4615     0.1117     0.0291
  270.5000   -48.2147     8.4127     9.1806   110.0956  -999.2500  -999.2500     9.9997    72.8632     2.4421     0.1189     0.0338
  271.0000   -48.2139     8.2442     9.0637   114.1732  -999.2500  -999.2500    10.0125    73.3057     2.4473     0.1181     0.0381
  271.5000   -48.2153     8.0747     8.9164   119.0945  -999.2500  -999.2500    10.0211    73.5903     2.4536     0.1134     0.0301
  272.0000   -48.2145     7.9034     8.7198   124.0157  -999.2500  -999.2500    10.0334    74.1318     2.4590     0.1171     0.0236
  272.5000   -48.2119     7.7360     8.5238   128.9370  -999.2500  -999.2500     9.9750    75.0095     2.4550     0.1234     0.0236
  273.0000   -48.2239     7.5634     8.3272   130.9055  -999.2500  -999.2500     9.8965    78.5827     2.4425     0.1297     0.0313
  273.5000   -48.1145     7.3930     8.1272   131.3967  -999.2500  -999.2500     9.8223    82.1036     2.4310     0.1359     0.0388
