~VERSION INFORMATION
 VERS.                2.0:   CWLS LOG ASCII STANDARD - VERSION 2.0
 WRAP.                 NO:   ONE LINE PER DEPTH STEP
~WELL INFORMATION
#MNEM.UNIT      DATA TYPE    INFORMATION
#----------   ------------   ------------------------------
 STRT.F           80.0000:   START DEPTH
 STOP.F         1056.0000:   STOP DEPTH
 STEP.F            0.5000:   STEP LENGTH
 NULL.          -999.2500:   NO VALUE
 COMP. U S NAVY-INTEX OIL:   COMPANY
 WELL.      NPR 3 #68-S-2:   WELL
 FLD .        TEAPOT DOME:   FIELD
 LOC .       S2 T38N R78W:   LOCATION
 CNTY.            NATRONA:   COUNTY
 STAT.            WYOMING:   STATE
 CTRY. UNITED STATES OF AMERICA:   COUNTRY
 SRVC.       Schlumberger:   SERVICE COMPANY
 DATE.        21-JUL-1964:   LOGDATE
 API .       490250638800:   API NUMBER
~CURVE INFORMATION
#MNEM.UNIT       API CODE    CURVE DESCRIPTION
#----------   ------------   ------------------------------
 DEPT.F                  :   
 SPR .MV     05 010 01 00:   SPONTANEOUS POTENTIAL FROM RES.
 ASN .OHMM   05 041 16 00:   AMPLIFIED SHORT NORMAL 16"
 ILD .OHMM   05 120 46 00:   INDUCTION LOG DEEP
 CILD.MMHO   05 110 46 00:   CONDUCTIVITY INDUCTION LOG DEEP
 GR  .GAPI   30 310 01 00:   GAMMA RAY
 CALS.IN     60 280 50 00:   CALIPER FROM SONIC LOG
 DT  .US/F   60 520 00 00:   INTERVAL TRANSIT TIME
~PARAMETER INFORMATION
#MNEM.UNIT          VALUE    DESCRIPTION
#----------   ------------   ------------------------------
 PD  .                 GL:   PERMANENT DATUM
 EPD .F              5201:   ELEVATION PERMANENT DATUM
 LMF .                 KB:   LOG MEASURED FROM
 DAPD.F                 5:   FEET ABOVE PERMANENT DATUM
 DMF .                 KB:   DRILLING MEASURED FROM
 EKB .F              5206:   KELLING BUSHING
 EGL .F              5201:   GROUND LEVEL
 DATE.          8-12-1964:   RUN DATE
 RUN .                  1:   RUN NUMBER
 DD  .F              1055:   DEPTH DRILLER
 DL  .F              1057:   DEPTH LOGGER
 BLI .F              1055:   BOTTOM LOG INTERVAL
 TLI .F               450:   TOP LOG INTERVAL
 CS  .IN              4.5:   CASING SIZE
 BS  .IN             6.75:   BIT SIZE
 DFT .            GEL OIL:   DRILLING FLUID TYPE
 DFD .                9.3:   DRILLING FLUID DENSITY
 DFV .                 48:   DRILLING FLUID VISCOSITY
 DFPH.                 10:   DRILLING FLUID PH
 DFL .                 10:   DRILLING FLUID LOSS
 MSS .           FLOWLINE:   MUD SAMPLE SOURCE
 RMS .OHMM           1.07:   RESISTIVITY MUD SAMPLE
 MST .F                95:   MUD SAMPLE TEMPERATURE
 RMF .OHMM            .67:   RESISTIVITY MUD FILTRATE SAMPLE
 MFST.F                95:   MUD FILTRATE SAMPLE TEMPERATURE
 RMC .OHMM           1.44:   RESISTIVITY MUD CAKE
 MCST.F                95:   MUD CAKE SAMPLE TEMPERATURE
 MFSS.                 FP:   MUD FILTRATE SAMPLE SOURCE
 MCSS.                 FP:   MUD CAKE SAMPLE SOURCE
 TCS .HRS               1:   TIME CURCULATED STOPPED
 LUN .               4507:   LOGGING UNIT NUMBER
 LUL .               CSPR:   LOGGING UNIT LOCATION
 ENGI.             DANNER:   RECORDING ENGINEER
 WITN.         JORGENESEN:   WITNESSED BY
 CLNT.            A2DTECH:   CLIENT CODE
 ORIG.           2" PRINT:   ORIGIN OF DATA
 UWI .       490250638800:   UNIQUE WELL ID
 DICO. A2D Technologies, Inc.:   DIGITIZING COMPANY
~OTHER INFORMATION
~A   DEPT      SPR          ASN        ILD      CILD        GR       CALS         DT   
# ...
  262.0000   -39.4933     8.2195     6.6617   152.0189  -999.2500  -999.2500  -999.2500
  262.5000   -39.4933     8.1297     6.5868   152.8090  -999.2500  -999.2500  -999.2500
  263.0000   -39.4933     7.9349     6.5868   152.8044  -999.2500  -999.2500  -999.2500
  263.5000   -39.4933     7.7852     6.5120   152.8014  -999.2500  -999.2500  -999.2500
  264.0000   -39.4933     7.7853     6.5120   152.7975  -999.2500  -999.2500  -999.2500
  264.5000   -39.4933     7.7855     6.5120   153.5379  -999.2500  -999.2500  -999.2500
  265.0000   -39.4933     7.7706     6.4371   154.5266  -999.2500  -999.2500  -999.2500
  265.5000   -39.4933     7.7558     6.4371   157.2502  -999.2500  -999.2500  -999.2500
  266.0000   -39.4933     7.7466     6.3623   160.6694  -999.2500  -999.2500  -999.2500
  266.5000   -39.4933     7.7039     6.2849   165.4653  -999.2500  -999.2500  -999.2500
  267.0000   -39.3989     7.5913     6.0903   169.0699  -999.2500  -999.2500  -999.2500
  267.5000   -39.3443     7.4086     5.9506   171.9306  -999.2500  -999.2500  -999.2500
  268.0000   -39.3443     7.1310     5.7635   175.0890  -999.2500  -999.2500  -999.2500
  268.5000   -39.3443     7.0071     5.6162   178.3967  -999.2500  -999.2500  -999.2500
  269.0000   -39.1952     7.0268     5.4566   181.2574  -999.2500  -999.2500  -999.2500
  269.5000   -39.1952     7.0523     5.2395   185.4941  -999.2500  -999.2500  -999.2500
  270.0000   -39.1455     7.0045     5.2395   186.9791  -999.2500  -999.2500  -999.2500
  270.5000   -39.0462     6.4997     5.2395   185.4872  -999.2500  -999.2500  -999.2500
  271.0000   -39.0462     6.8129     5.3568   181.9865  -999.2500  -999.2500  -999.2500
  271.5000   -39.0462     7.0863     5.4641   179.1184  -999.2500  -999.2500  -999.2500
  272.0000   -39.0462     7.2630     5.4641   175.8031  -999.2500  -999.2500  -999.2500
  272.5000   -39.0462     7.1552     5.5701   174.7457  -999.2500  -999.2500  -999.2500
  273.0000   -39.1952     7.0074     5.6138   175.0769  -999.2500  -999.2500  -999.2500
  273.5000   -39.1952     6.9336     5.6624   176.2761  -999.2500  -999.2500  -999.2500
  274.0000   -39.1952     6.9985     5.6886   175.3918  -999.2500  -999.2500  -999.2500
  274.5000   -39.3443     7.0562     5.6886   172.8085  -999.2500  -999.2500  -999.2500
  275.0000   -39.4188     7.0990     5.7635   170.5731  -999.2500  -999.2500  -999.2500
  275.5000   -39.4933     7.0607     5.7635   169.8254  -999.2500  -999.2500  -999.2500
  276.0000   -39.4933     6.9943     5.7635   172.0530  -999.2500  -999.2500  -999.2500
  276.5000   -39.4933     6.9343     5.6886   174.3190  -999.2500  -999.2500  -999.2500
  277.0000   -39.6423     6.9196     5.6138   176.5103  -999.2500  -999.2500  -999.2500
  277.5000   -39.6423     6.9648     5.4953   178.4287  -999.2500  -999.2500  -999.2500
  278.0000   -39.6423     6.9851     5.4491   179.4796  -999.2500  -999.2500  -999.2500
  278.5000   -39.6423     6.9801     5.3892   178.7310  -999.2500  -999.2500  -999.2500
  279.0000   -39.6423     6.9009     5.3144   177.6613  -999.2500  -999.2500  -999.2500
  279.5000   -39.6423     6.7620     5.3144   178.8732  -999.2500  -999.2500  -999.2500
  280.0000   -39.6423     6.6807     5.3643   182.6885  -999.2500  -999.2500  -999.2500
  280.5000   -39.6423     6.6296     5.4104   183.9255  -999.2500  -999.2500  -999.2500
  281.0000   -39.4933     6.6210     5.4641   183.1768  -999.2500  -999.2500  -999.2500
  281.5000   -39.4933     6.7621     5.5776   180.5321  -999.2500  -999.2500  -999.2500
  282.0000   -39.4933     6.9887     5.6886   176.1752  -999.2500  -999.2500  -999.2500
  282.5000   -39.4933     7.0262     5.6886   173.4927  -999.2500  -999.2500  -999.2500
  283.0000   -39.4933     7.0413     5.6612   173.7624  -999.2500  -999.2500  -999.2500
  283.5000   -39.4933     7.0593     5.6138   174.9739  -999.2500  -999.2500  -999.2500
  284.0000   -39.3443     7.1167     5.5389   176.9047  -999.2500  -999.2500  -999.2500
  284.5000   -39.1952     7.1467     5.4641   178.1039  -999.2500  -999.2500  -999.2500
  285.0000   -39.0462     6.8621     5.4641   179.4267  -999.2500  -999.2500  -999.2500
  285.5000   -38.8972     6.7409     5.3892   179.7582  -999.2500  -999.2500  -999.2500
  286.0000   -38.8873     6.7970     5.3842   180.9573  -999.2500  -999.2500  -999.2500
  286.5000   -38.5991     6.9075     5.3655   181.6480  -999.2500  -999.2500  -999.2500
  287.0000   -38.4501     6.9642     5.4117   180.6770  -999.2500  -999.2500  -999.2500
  287.5000   -38.4501     6.9978     5.4641   179.4083  -999.2500  -999.2500  -999.2500
  288.0000   -38.3010     7.0037     5.5439   177.1230  -999.2500  -999.2500  -999.2500
  288.5000   -38.3234     6.9762     5.6998   174.6020  -999.2500  -999.2500  -999.2500
  289.0000   -38.4501     6.9382     5.7635   170.4682  -999.2500  -999.2500  -999.2500
  289.5000   -38.8052     6.9301     5.7922   167.9476  -999.2500  -999.2500  -999.2500
  290.0000   -38.8972     7.0015     5.8383   167.4851  -999.2500  -999.2500  -999.2500
  290.5000   -39.0462     7.0736     5.9132   167.4814  -999.2500  -999.2500  -999.2500
  291.0000   -39.2300     7.1363     5.9880   167.3040  -999.2500  -999.2500  -999.2500
  291.5000   -39.4933     7.3138     5.9880   165.9855  -999.2500  -999.2500  -999.2500
  292.0000   -39.4933     7.2510     5.9880   165.5853  -999.2500  -999.2500  -999.2500
  292.5000   -39.4933     7.1192     5.9818   167.5906  -999.2500  -999.2500  -999.2500
  293.0000   -39.4933     7.1793     5.8383   170.4383  -999.2500  -999.2500  -999.2500
  293.5000   -39.4933     7.1794     5.7398   173.3741  -999.2500  -999.2500  -999.2500
  294.0000   -39.1952     7.1796     5.5389   177.1278  -999.2500  -999.2500  -999.2500
  294.5000   -38.8152     7.1622     5.4229   180.9933  -999.2500  -999.2500  -999.2500
  295.0000   -38.5743     7.0869     5.2270   184.1888  -999.2500  -999.2500  -999.2500
  295.5000   -38.3010     6.8802     5.0898   188.2770  -999.2500  -999.2500  -999.2500
  296.0000   -38.2414     6.7607     4.9850   190.6545  -999.2500  -999.2500  -999.2500
  296.5000   -38.1495     6.6076     4.9388   194.2474  -999.2500  -999.2500  -999.2500
  297.0000   -38.0030     6.5065     4.8653   196.6493  -999.2500  -999.2500  -999.2500
  297.5000   -38.0030     6.4120     4.8653   197.9359  -999.2500  -999.2500  -999.2500
  298.0000   -38.0030     6.4462     4.8653   194.2110  -999.2500  -999.2500  -999.2500
  298.5000   -38.0750     6.4687     4.9401   192.0002  -999.2500  -999.2500  -999.2500
  299.0000   -38.3159     6.4765     5.0300   188.7725  -999.2500  -999.2500  -999.2500
  299.5000   -38.5991     6.5216     5.2395   185.2709  -999.2500  -999.2500  -999.2500
  300.0000   -38.9625     6.6395     5.3345   181.5631  -999.2500  -999.2500  -999.2500
  300.5000   -39.2790     6.8469     5.4321   178.0260  -999.2500  -999.2500  -999.2500
  301.0000   -39.5955     6.9632     5.5389   174.4889  -999.2500  -999.2500  -999.2500
  301.5000   -39.9121     6.8668     5.6468   171.0951  -999.2500  -999.2500  -999.2500
  302.0000   -40.0894     7.0168     5.7635   170.4316  -999.2500  -999.2500  -999.2500
  302.5000   -40.1329     7.0708     5.7635   170.4427  -999.2500  -999.2500  -999.2500
  303.0000   -40.2384     7.0785     5.7635   170.4549  -999.2500  -999.2500  -999.2500
  303.5000   -40.3092     7.0397     5.7635   170.4650  -999.2500  -999.2500  -999.2500
  304.0000   -40.3875     7.0021     5.7335   171.2400  -999.2500  -999.2500  -999.2500
  304.5000   -40.2384     7.0374     5.6886   172.4317  -999.2500  -999.2500  -999.2500
  305.0000   -40.2011     7.0742     5.6886   173.4747  -999.2500  -999.2500  -999.2500
  305.5000   -40.0894     7.1223     5.6755   174.2314  -999.2500  -999.2500  -999.2500
  306.0000   -39.9404     7.1523     5.6138   175.2628  -999.2500  -999.2500  -999.2500
  306.5000   -39.7877     7.1217     5.5389   176.4846  -999.2500  -999.2500  -999.2500
  307.0000   -39.5504     7.0787     5.4641   177.6463  -999.2500  -999.2500  -999.2500
