~VERSION INFORMATION
 VERS.                2.0:   CWLS LOG ASCII STANDARD - VERSION 2.0
 WRAP.                 NO:   ONE LINE PER DEPTH STEP
~WELL INFORMATION
#MNEM.UNIT      DATA TYPE    INFORMATION
#----------   ------------   ------------------------------
 STRT.F           70.0000:   START DEPTH
 STOP.F          806.0000:   STOP DEPTH
 STEP.F            0.5000:   STEP LENGTH
 NULL.          -999.2500:   NO VALUE
 COMP. U S NAVY/INTEX OIL CO:   COMPANY
 WELL. RES 3 TEAPOT DOME #33-S-2:   WELL
 FLD .             TEAPOT:   FIELD
 LOC .       S2 T38N R78W:   LOCATION
 CNTY.            NATRONA:   COUNTY
 STAT.            WYOMING:   STATE
 CTRY. UNITED STATES OF AMERICA:   COUNTRY
 SRVC.         Lane Wells:   SERVICE COMPANY
 DATE.        15-MAR-1980:   LOGDATE
 API .       490250644600:   API NUMBER
~CURVE INFORMATION
#MNEM.UNIT       API CODE    CURVE DESCRIPTION
#----------   ------------   ------------------------------
 DEPT.F                  :   
 GR  .GAPI   30 310 01 00:   GAMMA RAY
 SPR .MV     05 010 01 00:   SPONTANEOUS POTENTIAL FROM RES.
 CILD.MMHO   05 110 46 00:   CONDUCTIVITY INDUCTION LOG DEEP
 ASN .OHMM   05 041 16 00:   AMPLIFIED SHORT NORMAL 16"
 ILD .OHMM   05 120 46 00:   INDUCTION LOG DEEP
~PARAMETER INFORMATION
#MNEM.UNIT          VALUE    DESCRIPTION
#----------   ------------   ------------------------------
 PD  .                 GL:   PERMANENT DATUM
 EPD .F              5119:   ELEVATION PERMANENT DATUM
 LMF .                 KB:   LOG MEASURED FROM
 DAPD.F                 5:   FEET ABOVE PERMANENT DATUM
 DMF .                 KB:   DRILLING MEASURED FROM
 EKB .F              5124:   KELLING BUSHING
 EGL .F              5119:   GROUND LEVEL
 DATE.            3-15-60:   RUN DATE
 RUN .                  1:   RUN NUMBER
 DD  .F               810:   DEPTH DRILLER
 DL  .F               808:   DEPTH LOGGER
 BLI .F               806:   BOTTOM LOG INTERVAL
 TLI .F                70:   TOP LOG INTERVAL
 CS  .IN            8.625:   CASING SIZE
 CBD .F                12:   CASING BOTTOM DRILLER
 BS  .IN            7.875:   BIT SIZE
 BSD .F               810:   BIT SIZE AT DEPTH
 DFT .   GEL/OIL EMULSION:   DRILLING FLUID TYPE
 DFD .                6.8:   DRILLING FLUID DENSITY
 DFV .                 34:   DRILLING FLUID VISCOSITY
 DFPH.                7.6:   DRILLING FLUID PH
 DFL .                9.4:   DRILLING FLUID LOSS
 MSS .           FLOWLINE:   MUD SAMPLE SOURCE
 RMS .OHMM            4.2:   RESISTIVITY MUD SAMPLE
 MST .F                65:   MUD SAMPLE TEMPERATURE
 RMF .OHMM            3.3:   RESISTIVITY MUD FILTRATE SAMPLE
 MFST.F                68:   MUD FILTRATE SAMPLE TEMPERATURE
 RMC .OHMM              4:   RESISTIVITY MUD CAKE
 MCST.F                68:   MUD CAKE SAMPLE TEMPERATURE
 MFSS.                MUD:   MUD FILTRATE SAMPLE SOURCE
 MCSS.              PRESS:   MUD CAKE SAMPLE SOURCE
 RMB .OHMM            3.9:   RESISTIVITY MUD AT BHT
 BHT .F                71:   BOTTOM HOLE TEMPERATURE
 MRT .F                71:   MAXIMUM RECORDED TEMPERATURE
 LUN .             L-4474:   LOGGING UNIT NUMBER
 LUL .             CASPER:   LOGGING UNIT LOCATION
 ENGI.      GRIGGS/NELSON:   RECORDING ENGINEER
 WITN.   JORGENSEN/HUDSON:   WITNESSED BY
 CLNT.            A2DTECH:   CLIENT CODE
 ORIG. 1", 2.5", 5" PRINT:   ORIGIN OF DATA
 UWI .       490250644600:   UNIQUE WELL ID
 DICO. A2D Technologies, Inc.:   DIGITIZING COMPANY
~OTHER INFORMATION
~A   DEPT       GR        SPR        CILD         ASN        ILD 
# ...
  436.0000  -999.2500   -30.5663    38.4269     8.9564     8.0781
  436.5000  -999.2500   -30.4752    38.7653     8.9428     8.0576
  437.0000  -999.2500   -30.3851    39.1384     8.9066     8.0353
  437.5000  -999.2500   -30.3054    39.4631     8.8626     8.0115
  438.0000  -999.2500   -30.2293    39.8493     8.8241     7.9916
  438.5000  -999.2500   -30.1353    40.1625     8.7860     7.9743
  439.0000  -999.2500   -30.0280    40.5576     8.7452     7.9491
  439.5000  -999.2500   -29.9657    40.9712     8.7270     7.9187
  440.0000  -999.2500   -30.0015    40.4429     8.7753     7.9111
  440.5000  -999.2500   -30.1114    39.5691     8.8994     7.9515
  441.0000  -999.2500   -30.2270    38.7756     9.0541     8.0287
  441.5000  -999.2500   -30.3269    37.9263     9.2033     8.1115
  442.0000  -999.2500   -30.4347    37.0982     9.3743     8.1879
  442.5000  -999.2500   -30.5480    36.2700     9.6092     8.2650
  443.0000  -999.2500   -30.6416    35.4419     9.8965     8.3427
  443.5000  -999.2500   -30.7178    34.6137    10.2143     8.4169
  444.0000  -999.2500   -30.7794    33.7856    10.5999     8.4963
  444.5000  -999.2500   -30.8062    32.9574    11.0555     8.5848
  445.0000  -999.2500   -30.8320    32.1293    11.3974     8.6535
  445.5000  -999.2500   -30.9330    31.3011    11.3569     8.6644
  446.0000  -999.2500   -31.0432    30.4729    10.8938     8.6180
  446.5000  -999.2500   -30.9352    29.5591    10.2826     8.5509
  447.0000  -999.2500   -30.5261    30.9451     9.8225     8.4904
  447.5000  -999.2500   -30.0455    32.4910     9.5739     8.4348
  448.0000  -999.2500   -29.7548    34.0369     9.4289     8.3758
  448.5000  -999.2500   -29.6618    35.5828     9.3096     8.3142
  449.0000  -999.2500   -29.6532    37.1287     9.2215     8.2533
  449.5000  -999.2500   -29.7262    38.6745     9.1837     8.1944
  450.0000  -999.2500   -29.9179    40.2204     9.1627     8.1371
  450.5000  -999.2500   -30.1470    41.7663     9.0694     8.0774
  451.0000  -999.2500   -30.2881    43.3122     8.8488     8.0127
  451.5000  -999.2500   -30.3247    44.7896     8.5803     7.9528
  452.0000  -999.2500   -30.3269    44.6709     8.4070     7.9123
  452.5000  -999.2500   -30.3396    44.5572     8.3577     7.8891
  453.0000  -999.2500   -30.3583    44.4435     8.3395     7.8668
  453.5000  -999.2500   -30.3720    44.3299     8.3068     7.8364
  454.0000  -999.2500   -30.3830    44.2162     8.3108     7.8015
  454.5000  -999.2500   -30.3966    44.1025     8.3727     7.7658
  455.0000  -999.2500   -30.4122    43.9889     8.4414     7.7338
  455.5000  -999.2500   -30.4266    43.8752     8.4824     7.7174
  456.0000  -999.2500   -30.4398    43.7615     8.5189     7.7249
  456.5000  -999.2500   -30.4532    43.6479     8.5736     7.7470
  457.0000  -999.2500   -30.4672    43.5342     8.6313     7.7675
  457.5000  -999.2500   -30.4809    43.4205     8.6596     7.7831
  458.0000  -999.2500   -30.4943    43.3069     8.6467     7.7996
  458.5000  -999.2500   -30.5076    43.1932     8.6239     7.8186
  459.0000  -999.2500   -30.5212    43.0795     8.6406     7.8364
  459.5000  -999.2500   -30.5352    42.9658     8.7057     7.8533
  460.0000  -999.2500   -30.5492    42.8522     8.7840     7.8717
  460.5000  -999.2500   -30.5622    42.7385     8.8558     7.8891
  461.0000  -999.2500   -30.5754    42.6248     8.9331     7.8994
  461.5000  -999.2500   -30.5903    42.5112     9.0045     7.9017
  462.0000  -999.2500   -30.6048    42.3975     9.0220     7.9006
  462.5000  -999.2500   -30.6160    42.2838     8.9661     7.9001
  463.0000  -999.2500   -30.6282    42.1702     8.8770     7.9002
  463.5000  -999.2500   -30.6468    42.0565     8.7978     7.9004
  464.0000  -999.2500   -30.6621    41.9428     8.7319     7.9008
  464.5000  -999.2500   -30.6546    41.8292     8.6708     7.9004
  465.0000  -999.2500   -30.6203    41.7262     8.6199     7.8989
  465.5000  -999.2500   -30.5764    41.6183     8.5817     7.8993
  466.0000  -999.2500   -30.5364    41.5016     8.5486     7.9018
  466.5000  -999.2500   -30.5000    41.3934     8.5210     7.9002
  467.0000  -999.2500   -30.4653    41.2781     8.4986     7.8945
  467.5000  -999.2500   -30.4316    41.1674     8.4647     7.9031
  468.0000  -999.2500   -30.3910    41.0038     8.4179     7.9472
  468.5000  -999.2500   -30.3432    40.0071     8.4064     8.0259
  469.0000  -999.2500   -30.3147    38.1916     8.4826     8.1178
  469.5000  -999.2500   -30.3365    36.3622     8.6351     8.2055
  470.0000  -999.2500   -30.4028    34.5511     8.8062     8.2879
  470.5000  -999.2500   -30.4781    32.7197     8.9674     8.3718
  471.0000  -999.2500   -30.5427    30.9090     9.1363     8.4608
  471.5000  -999.2500   -30.6062    29.0811     9.3179     8.5541
  472.0000  -999.2500   -30.6768    27.2595     9.4750     8.6499
  472.5000  -999.2500   -30.7451    25.4379     9.6072     8.7495
  473.0000  -999.2500   -30.8066    23.6192     9.7912     8.8581
  473.5000  -999.2500   -30.8752    21.8005    10.1131     8.9773
  474.0000  -999.2500   -30.9547    19.9818    10.6076     9.1005
  474.5000  -999.2500   -31.0173    18.1632    11.0781     9.2189
  475.0000  -999.2500   -31.0314    16.3444    11.3267     9.3343
  475.5000  -999.2500   -31.0011    14.5258    11.4575     9.4556
  476.0000  -999.2500   -30.9562    12.7071    11.6540     9.5797
  476.5000  -999.2500   -30.9139    10.5210    11.8776     9.6947
  477.0000  -999.2500   -30.8734    10.5210    12.0463     9.8058
  477.5000  -999.2500   -30.8349     9.7357    12.2309     9.9343
  478.0000  -999.2500   -30.7968     8.7695    12.4693    10.0707
  478.5000  -999.2500   -30.7497     7.8034    12.6252    10.1596
  479.0000  -999.2500   -30.6998     6.7134    12.5889    10.1609
  479.5000  -999.2500   -30.6823     6.7134    12.4484    10.1029
  480.0000  -999.2500   -30.7227     7.3365    12.3359    10.0430
  480.5000  -999.2500   -30.8010     8.0392    12.2372     9.9998
  481.0000  -999.2500   -30.8808     8.7418    12.1311     9.9563
  481.5000  -999.2500   -30.9534     9.4445    12.0145     9.9052
  482.0000  -999.2500   -31.0266    10.1472    11.9223     9.8547
  482.5000  -999.2500   -31.0981    10.8499    11.8662     9.8071
  483.0000  -999.2500   -31.1684    11.5526    11.8203     9.7587
  483.5000  -999.2500   -31.2505    12.2552    11.7491     9.7115
  484.0000  -999.2500   -31.3332    12.9579    11.6456     9.6653
  484.5000  -999.2500   -31.3689    13.6606    11.5684     9.6089
  485.0000  -999.2500   -31.3290    14.3287    11.5995     9.5338
  485.5000  -999.2500   -31.2448    14.3287    11.7262     9.4472
  486.0000  -999.2500   -31.1633    15.6994    11.8319     9.3616
  486.5000  -999.2500   -31.0929    16.9876    11.8373     9.2804
  487.0000  -999.2500   -31.0208    18.2759    11.7485     9.1990
  487.5000  -999.2500   -30.9477    19.5641    11.5412     9.1150
  488.0000  -999.2500   -30.8752    20.8524    11.1853     9.0308
  488.5000  -999.2500   -30.7942    22.1406    10.6360     8.9493
  489.0000  -999.2500   -30.7159    23.4289    10.2323     8.8684
  489.5000  -999.2500   -30.6811    24.7171    10.0570     8.7838
  490.0000  -999.2500   -30.7074    25.7515     9.8739     8.6978
  490.5000  -999.2500   -30.7622    28.2749     9.6289     8.6185
  491.0000  -999.2500   -30.8112    30.3829     9.4178     8.5442
  491.5000  -999.2500   -30.8576    32.4910     9.2087     8.4599
  492.0000  -999.2500   -30.9072    34.5990     8.9874     8.3593
  492.5000  -999.2500   -30.9452    36.7071     8.7983     8.2559
  493.0000  -999.2500   -30.9796    38.8151     8.5951     8.1596
  493.5000  -999.2500   -31.0581    40.9231     8.3854     8.0622
  494.0000  -999.2500   -31.2011    43.0312     8.2723     7.9613
  494.5000  -999.2500   -31.3667    45.1392     8.1924     7.8706
  495.0000  -999.2500   -31.5168    47.2472     7.9964     7.7876
  495.5000  -999.2500   -31.6640    48.5972     7.7319     7.6803
  496.0000  -999.2500   -31.8170   178.3175     6.4967     7.5284
  496.5000  -999.2500   -31.9543   183.6493     6.2866     7.3541
