~VERSION INFORMATION
 VERS.                2.0:   CWLS LOG ASCII STANDARD - VERSION 2.0
 WRAP.                 NO:   ONE LINE PER DEPTH STEP
~WELL INFORMATION
#MNEM.UNIT      DATA TYPE    INFORMATION
#----------   ------------   ------------------------------
 STRT.F           30.0000:   START DEPTH
 STOP.F          637.0000:   STOP DEPTH
 STEP.F            0.5000:   STEP LENGTH
 NULL.          -999.2500:   NO VALUE
 COMP.    FENIX & SCISSON:   COMPANY
 WELL.        NPR #82-S-3:   WELL
 FLD .             TEAPOT:   FIELD
 LOC .       S3 T38N R78W:   LOCATION
 CNTY.            NATRONA:   COUNTY
 STAT.            WYOMING:   STATE
 CTRY. UNITED STATES OF AMERICA:   COUNTRY
 SRVC.              Welex:   SERVICE COMPANY
 DATE.        08-MAY-1977:   LOGDATE
 API .       490251035100:   API NUMBER
~CURVE INFORMATION
#MNEM.UNIT       API CODE    CURVE DESCRIPTION
#----------   ------------   ------------------------------
 DEPT.F                  :   
 SPR .MV     07 010 01 00:   SPONTANEOUS POTENTIAL FROM RES.
 ILD .OHMM   07 120 46 00:   INDUCTION LOG DEEP
 ILM .OHMM   07 120 44 00:   INDUCTION LOG MEDIUM
 SGRD.OHMM   07 220 05 00:   SHALLOW GUARD RESISTIVITY
 GRD .GAPI   45 310 01 00:   GAMMA RAY FROM DENSITY LOG
 CALD.IN     45 280 60 00:   CALIPER FROM DENSITY LOG
 CORR.G/C3   45 356 01 00:   DENSITY CORRECTION
 RHOB.G/C3   45 350 01 00:   BULK DENSITY
 DPHI.DEC    45 890 12 00:   DENSITY POROSITY SANDSTONE
~PARAMETER INFORMATION
#MNEM.UNIT          VALUE    DESCRIPTION
#----------   ------------   ------------------------------
 PD  .                 GL:   PERMANENT DATUM
 EPD .F              5100:   ELEVATION PERMANENT DATUM
 LMF .                 GL:   LOG MEASURED FROM
 DMF .                 GL:   DRILLING MEASURED FROM
 EGL .F              5100:   GROUND LEVEL
 DATE.        08-MAY-1977:   RUN DATE
 RUN .                  1:   RUN NUMBER
 DD  .F               635:   DEPTH DRILLER
 DL  .F               640:   DEPTH LOGGER
 BLI .F               638:   BOTTOM LOG INTERVAL
 TLI .F                30:   TOP LOG INTERVAL
 CS  .IN            8.625:   CASING SIZE
 CBD .F                40:   CASING BOTTOM DRILLER
 CBL .F                38:   CASING BOTTOM LOGGER
 BS  .IN            7.875:   BIT SIZE
 BSD .F               635:   BIT SIZE AT DEPTH
 DFT .            KCL MUD:   DRILLING FLUID TYPE
 DFD .                8.8:   DRILLING FLUID DENSITY
 DFV .                 32:   DRILLING FLUID VISCOSITY
 DFPH.                7.5:   DRILLING FLUID PH
 MSS .           FLOWLINE:   MUD SAMPLE SOURCE
 RMS .OHMM            .25:   RESISTIVITY MUD SAMPLE
 MST .F                80:   MUD SAMPLE TEMPERATURE
 RMF .OHMM            .22:   RESISTIVITY MUD FILTRATE SAMPLE
 MFST.F                80:   MUD FILTRATE SAMPLE TEMPERATURE
 RMC .OHMM            .31:   RESISTIVITY MUD CAKE
 MCST.F                80:   MUD CAKE SAMPLE TEMPERATURE
 MFSS.               MEAS:   MUD FILTRATE SAMPLE SOURCE
 MCSS.               MEAS:   MUD CAKE SAMPLE SOURCE
 RMB .OHMM            .23:   RESISTIVITY MUD AT BHT
 BHT .F                87:   BOTTOM HOLE TEMPERATURE
 TCS .HRS            0130:   TIME CURCULATED STOPPED
 MRT .F                87:   MAXIMUM RECORDED TEMPERATURE
 LUN .               8611:   LOGGING UNIT NUMBER
 LUL .             CASPER:   LOGGING UNIT LOCATION
 ENGI.            C. DOAK:   RECORDING ENGINEER
 WITN.            R. LYON:   WITNESSED BY
 CLNT.            A2DTECH:   CLIENT CODE
 ORIG.           5" PRINT:   ORIGIN OF DATA
 UWI .       490251035100:   UNIQUE WELL ID
 DICO. A2D Technologies, Inc.:   DIGITIZING COMPANY
~OTHER INFORMATION
~A   DEPT      SPR        ILD        ILM       SGRD         GRD      CALD        CORR        RHOB     DPHI   
# ...
  358.5000   -53.7677     6.2450     7.5911     8.6775   130.6078     7.9570     0.0248     2.4240     0.1493
  359.0000   -53.6064     6.5125     7.9722     9.0508   133.3049     7.9585     0.0249     2.4270     0.1475
  359.5000   -53.5930     6.7916     8.3149    10.9863   136.2959     7.9448     0.0280     2.4406     0.1400
  360.0000   -53.5797     7.1316     8.7927    11.3803   140.6262     7.9169     0.0281     2.4556     0.1304
  360.5000   -53.5663     7.4371     8.9215    11.7884   136.3256     7.9031     0.0298     2.4609     0.1283
  361.0000   -53.5529     7.7025     8.9283    11.8767   135.2987     7.9050     0.0284     2.4632     0.1265
  361.5000   -53.5395     7.9227     9.0591    12.0531   131.2957     7.8912     0.0285     2.4640     0.1250
  362.0000   -53.3782     8.0932     9.3837    12.2274   128.9296     7.8931     0.0302     2.4716     0.1217
  362.5000   -53.3648     8.2673     9.5211    11.9039   128.0478     7.8946     0.0318     2.4731     0.1214
  363.0000   -53.2035     8.2724     9.3962    11.6713   129.5544     7.8960     0.0349     2.4642     0.1261
  363.5000   -52.8943     8.2195     9.1495    11.6000   131.9502     7.8827     0.0366     2.4613     0.1276
  364.0000   -52.5850     8.0576     8.9076    11.4477   133.7507     7.8841     0.0352     2.4659     0.1270
  364.5000   -52.4237     7.8977     9.1006    11.3777   134.0499     7.9005     0.0353     2.4600     0.1297
  365.0000   -52.2624     7.7410     9.4267    11.1554   132.2923     7.9020     0.0355     2.4585     0.1294
  365.5000   -52.2490     7.5353     9.3691    11.0851   133.0511     7.9183     0.0388     2.4609     0.1272
  366.0000   -52.2357     7.2347     9.8395    10.8686   133.1250     7.9198     0.0402     2.4707     0.1206
  366.5000   -52.2223     6.8984    10.0507    10.5810   131.5927     7.9213     0.0419     2.4700     0.1230
  367.0000   -52.3602     6.5777     9.4555    10.3011   131.6075     7.9227     0.0405     2.4671     0.1239
  367.5000   -52.6427     6.3153     8.3018    10.0285   130.1342     7.9242     0.0407     2.4641     0.1281
  368.0000   -53.0697     6.0634     7.4410     8.4473   128.5121     7.9257     0.0363     2.4500     0.1379
  368.5000   -53.3555     5.7419     6.8559    10.3227   126.2948     7.9272     0.0305     2.4300     0.1466
  369.0000   -53.3388     5.5128     6.6288     9.0640   124.9704     7.9286     0.0276     2.4136     0.1576
  369.5000   -53.3254     5.3663     6.5418     7.6349   124.0922     7.9301     0.0247     2.4099     0.1585
  370.0000   -53.3120     5.2590     6.5933     6.8887   127.3810     7.9317     0.0234     2.4092     0.1585
  370.5000   -53.1507     5.2995     6.7361     9.3373   129.4791     7.9034     0.0220     2.4108     0.1573
  371.0000   -52.9894     5.4509     6.9775     8.4970   126.9642     7.9198     0.0206     2.4199     0.1501
  371.5000   -52.9761     5.6067     7.1779     8.7111   129.5533     7.9361     0.0208     2.4319     0.1453
  372.0000   -52.8147     5.8469     7.5383    10.1471   133.4524     7.9376     0.0224     2.4349     0.1435
  372.5000   -52.6534     6.1396     7.8624    11.4703   133.7050     7.9391     0.0225     2.4313     0.1419
  373.0000   -52.4921     6.4469     8.1441    11.9305   131.3094     7.9406     0.0257     2.4486     0.1383
  373.5000   -52.1829     6.6312     8.4360    11.8574   132.0188     7.9271     0.0288     2.4494     0.1350
  374.0000   -52.1695     6.8957     8.6187    11.8664   133.7698     7.9137     0.0289     2.4494     0.1350
  374.5000   -52.0082     7.2291     8.8648    11.5510   133.2290     7.9304     0.0291     2.4503     0.1350
  375.0000   -51.8469     7.4766     9.0568    10.9409   130.7289     7.9319     0.0292     2.4511     0.1344
  375.5000   -51.6856     7.7507     9.1894    11.8936   129.4519     7.9334     0.0293     2.4527     0.1323
  376.0000   -51.5243     7.9556     9.3884    12.5776   128.1577     7.9349     0.0310     2.4587     0.1302
  376.5000   -51.2150     8.0155     9.3309    12.0771   130.5535     7.9363     0.0311     2.4677     0.1245
  377.0000   -51.0537     8.0759     9.4074    12.0863   130.1219     7.9230     0.0312     2.4745     0.1209
  377.5000   -51.0403     8.1930     9.3420    12.1792   129.0950     7.9244     0.0329     2.4806     0.1181
  378.0000   -51.0270     8.3119     9.1609    11.9390   128.8085     7.9107     0.0345     2.4866     0.1136
  378.5000   -51.0163     8.3199     9.1050    12.2822   130.0175     7.8973     0.0346     2.4927     0.1106
  379.0000   -51.1515     8.3797     9.1749    12.2915   132.4133     7.8991     0.0333     2.4786     0.1187
  379.5000   -51.1376     8.3849     9.5037    12.0491   132.7220     7.9006     0.0364     2.4764     0.1199
  380.0000   -51.2726     8.3325     9.3808    12.0583   130.8060     7.9021     0.0425     2.4989     0.0992
  380.5000   -51.2589     8.3377     9.1959    12.2327   129.6304     7.9036     0.0471     2.5169     0.0953
  381.0000   -51.2459     8.2856     9.2029    11.9914   128.9012     7.9051     0.0473     2.5184     0.0950
  381.5000   -51.3910     8.1772     9.2100    11.7549   129.2136     7.8913     0.0459     2.5133     0.0983
  382.0000   -51.6629     8.0151     9.2807    12.2607   132.2046     7.8779     0.0460     2.5044     0.1042
  382.5000   -51.7975     7.9649     9.4817    11.4527   135.1956     7.8798     0.0401     2.4985     0.1072
  383.0000   -51.7841     7.9151     9.6206    11.6227   138.1866     7.8961     0.0373     2.4934     0.1099
  383.5000   -51.9186     7.9202     9.5618    11.8747   140.1323     7.9125     0.0375     2.4897     0.1125
  384.0000   -52.0533     7.8167     8.9938    12.1320   135.9841     7.9139     0.0376     2.4875     0.1122
  384.5000   -52.0398     7.7143     8.6363    11.8928   137.0406     7.9154     0.0380     2.4973     0.1074
  385.0000   -52.0264     7.5093     8.2929    11.5759   141.8173     7.9169     0.0424     2.5026     0.1023
  385.5000   -52.1613     7.3100     8.5311    11.5869   142.8701     7.9184     0.0455     2.5094     0.0969
  386.0000   -52.5914     7.1649     8.7159    11.4348   140.3589     7.9046     0.0472     2.5207     0.0912
  386.5000   -52.7263     7.0227     8.4854    11.8471   143.0486     7.9065     0.0458     2.5447     0.0828
  387.0000   -52.8610     6.8833     8.0366    11.4544   142.6207     7.8931     0.0429     2.5500     0.0801
  387.5000   -52.8471     6.7457     7.7689     9.2574   142.3379     7.8946     0.0386     2.5254     0.0957
  388.0000   -52.8337     6.6129     7.7215     6.0007   144.2872     7.8960     0.0342     2.4934     0.1118
  388.5000   -53.1162     6.4816     7.8902    10.2816   146.0840     7.9272     0.0298     2.4860     0.1136
  389.0000   -53.3987     6.3530     8.0596    10.9460   139.5549     7.9584     0.0285     2.4890     0.1046
  389.5000   -53.5365     6.2690     7.6875    10.2973   134.6590     7.9896     0.0316     2.5025     0.1004
  390.0000   -53.8190     6.1880     7.8001    10.0230   129.4655     7.9911     0.0362     2.5071     0.0998
  390.5000   -54.0982     6.0652     7.9690    10.6747   129.7780     7.9926     0.0379     2.5057     0.1006
  391.0000   -54.0848     5.9041     7.5475    11.1340   130.8344     7.9941     0.0365     2.4833     0.1120
  391.5000   -54.3673     5.7472     7.0992    10.7650   132.3374     7.9955     0.0307     2.4595     0.1257
  392.0000   -54.6497     5.5945     6.4514     9.0053   135.6260     7.9970     0.0248     2.4350     0.1442
  392.5000   -54.7876     5.3344     6.0265     5.9592   135.0456     7.9985     0.0189     2.4201     0.1535
  393.0000   -54.0312     5.1927     5.8258     4.6530   134.3126     7.9851     0.0161     2.4097     0.1612
  393.5000   -53.7220     5.1959     6.3777     4.3157   133.8810     7.9866     0.0147     2.4081     0.1573
  394.0000   -53.2648     5.3813     6.9805     8.4894   134.1972     7.9881     0.0179     2.4203     0.1268
  394.5000   -52.9556     5.6898     7.3310    10.6662   135.2537     7.9747     0.0345     2.4592     0.1059
