~VERSION INFORMATION
 VERS.                2.0:   CWLS LOG ASCII STANDARD - VERSION 2.0
 WRAP.                 NO:   ONE LINE PER DEPTH STEP
~WELL INFORMATION
#MNEM.UNIT      DATA TYPE    INFORMATION
#----------   ------------   ------------------------------
 STRT.F           80.0000:   START DEPTH
 STOP.F          782.0000:   STOP DEPTH
 STEP.F            0.5000:   STEP LENGTH
 NULL.          -999.2500:   NO VALUE
 COMP.            US NAVY:   COMPANY
 WELL. NPR 3 TEAPOT DOM #87-S-34:   WELL
 FLD .             TEAPOT:   FIELD
 LOC .      S34 T39N R78W:   LOCATION
 CNTY.            NATRONA:   COUNTY
 STAT.            WYOMING:   STATE
 CTRY. UNITED STATES OF AMERICA:   COUNTRY
 SRVC.       Schlumberger:   SERVICE COMPANY
 DATE.        07-AUG-1961:   LOGDATE
 API .       490250651100:   API NUMBER
~CURVE INFORMATION
#MNEM.UNIT       API CODE    CURVE DESCRIPTION
#----------   ------------   ------------------------------
 DEPT.F                  :   
 GR  .GAPI   30 310 01 00:   GAMMA RAY
 SPR .MV     05 010 01 00:   SPONTANEOUS POTENTIAL FROM RES.
 ASN .OHMM   05 041 16 00:   AMPLIFIED SHORT NORMAL 16"
 ILD .OHMM   05 120 46 00:   INDUCTION LOG DEEP
 CILD.MMHO   05 110 46 00:   CONDUCTIVITY INDUCTION LOG DEEP
~PARAMETER INFORMATION
#MNEM.UNIT          VALUE    DESCRIPTION
#----------   ------------   ------------------------------
 PD  .                 KB:   PERMANENT DATUM
 EPD .F                  :   ELEVATION PERMANENT DATUM
 LMF .                 KB:   LOG MEASURED FROM
 DAPD.F                  :   FEET ABOVE PERMANENT DATUM
 DMF .                 KB:   DRILLING MEASURED FROM
 EKB .F              5102:   KELLING BUSHING
 EDF .F                  :   DRILLING FLOOR
 EGL .F              5097:   GROUND LEVEL
 DATE.        07-AUG-1961:   RUN DATE
 RUN .                  1:   RUN NUMBER
 DD  .F               770:   DEPTH DRILLER
 DL  .F               783:   DEPTH LOGGER
 BLI .F               782:   BOTTOM LOG INTERVAL
 TLI .F               100:   TOP LOG INTERVAL
 CS  .IN                 :   CASING SIZE
 CBD .F                  :   CASING BOTTOM DRILLER
 CBL .F                  :   CASING BOTTOM LOGGER
 BS  .IN             6.75:   BIT SIZE
 BSD .F               770:   BIT SIZE AT DEPTH
 DFT .       OIL EMULSION:   DRILLING FLUID TYPE
 DFD .               10.4:   DRILLING FLUID DENSITY
 DFV .                 45:   DRILLING FLUID VISCOSITY
 DFPH.                   :   DRILLING FLUID PH
 DFL .                   :   DRILLING FLUID LOSS
 MSS .                   :   MUD SAMPLE SOURCE
 RMS .OHMM           0.95:   RESISTIVITY MUD SAMPLE
 MST .F                72:   MUD SAMPLE TEMPERATURE
 RMF .OHMM               :   RESISTIVITY MUD FILTRATE SAMPLE
 MFST.F                  :   MUD FILTRATE SAMPLE TEMPERATURE
 RMC .OHMM               :   RESISTIVITY MUD CAKE
 MCST.F                  :   MUD CAKE SAMPLE TEMPERATURE
 MFSS.                   :   MUD FILTRATE SAMPLE SOURCE
 MCSS.                   :   MUD CAKE SAMPLE SOURCE
 RMB .OHMM               :   RESISTIVITY MUD AT BHT
 BHT .F                  :   BOTTOM HOLE TEMPERATURE
 TCS .HRS               1:   TIME CURCULATED STOPPED
 TLAB.HRS                :   TIME LOGGER AT BOTTOM
 MRT .F                  :   MAXIMUM RECORDED TEMPERATURE
 LUN .               2544:   LOGGING UNIT NUMBER
 LUL .                   :   LOGGING UNIT LOCATION
 ENGI.             QUINBY:   RECORDING ENGINEER
 WITN.          JORGENSON:   WITNESSED BY
 CLNT.            A2DTECH:   CLIENT CODE
 ORIG.       2", 5" PRINT:   ORIGIN OF DATA
 UWI .       490250651100:   UNIQUE WELL ID
 DICO. A2D Technologies, Inc.:   DIGITIZING COMPANY
 OS  .                   :   OTHER SERVICES
 PWI .                   :   PRIMARY WELL IDENTIFIER
 R1  .                   :   REMARKS 1
 R2  .                   :   REMARKS 2
~OTHER INFORMATION
~A   DEPT       GR        SPR         ASN         ILD      CILD  
# ...
  263.0000  -999.2500   -31.1329     8.9303     7.5291   129.6833
  263.5000  -999.2500   -31.4199     8.9403     7.4026   131.7190
  264.0000  -999.2500   -31.4904     8.8500     7.3313   134.1743
  264.5000  -999.2500   -31.7221     8.7816     7.2556   134.1654
  265.0000  -999.2500   -31.7221     8.6302     7.1800   134.7595
  265.5000  -999.2500   -31.7221     8.3834     7.1795   135.6535
  266.0000  -999.2500   -31.7221     8.1664     7.1039   135.6446
  266.5000  -999.2500   -31.7221     7.9919     7.0283   135.6381
  267.0000  -999.2500   -31.6365     8.0974     7.0278   135.6307
  267.5000  -999.2500   -31.5332     8.1858     7.0275   135.6222
  268.0000  -999.2500   -31.2689     8.2827     7.0271   135.6156
  268.5000  -999.2500   -31.1757     8.3537     7.0267   135.6081
  269.0000  -999.2500   -30.9215     8.3916     7.0264   135.5999
  269.5000  -999.2500   -30.6647     8.3219     7.0260   135.5931
  270.0000  -999.2500   -30.3625     8.1581     7.0256   135.5856
  270.5000  -999.2500   -30.3096     8.1747     7.0252   135.5775
  271.0000  -999.2500   -30.2115     8.2253     7.0249   135.5706
  271.5000  -999.2500   -30.2115     8.2788     7.0997   135.5630
  272.0000  -999.2500   -30.2115     8.3267     7.0994   135.5552
  272.5000  -999.2500   -30.2241     8.3774     7.1147   135.5481
  273.0000  -999.2500   -30.5136     8.3853     7.1739   135.5405
  273.5000  -999.2500   -30.7327     8.2866     7.2489   135.5329
  274.0000  -999.2500   -30.9668     8.1901     7.3238   135.5255
  274.5000  -999.2500   -31.1178     8.1136     7.3234   134.0165
  275.0000  -999.2500   -31.1178     8.1589     7.3983   134.0090
  275.5000  -999.2500   -31.2689     8.2198     7.4733   132.4986
  276.0000  -999.2500   -31.2689     8.2958     7.4729   130.9910
  276.5000  -999.2500   -31.2689     8.3700     7.5478   129.4820
  277.0000  -999.2500   -31.1178     8.3200     7.6228   127.9717
  277.5000  -999.2500   -30.9668     8.0689     7.6224   127.9655
  278.0000  -999.2500   -30.8157     8.1744     7.6973   127.8378
  278.5000  -999.2500   -30.6219     8.3162     7.6969   126.4479
  279.0000  -999.2500   -30.3625     8.4837     7.6965   129.2645
  279.5000  -999.2500   -30.2644     8.6415     7.5475   134.3017
  280.0000  -999.2500   -30.2115     8.6265     7.1687   139.9391
  280.5000  -999.2500   -30.2115     8.1740     6.7893   143.6562
  281.0000  -999.2500   -30.2115     7.9188     6.4148   146.1711
  281.5000  -999.2500   -30.2694     7.8659     6.3122   147.4249
  282.0000  -999.2500   -30.5237     7.8079     6.1883   149.6996
  282.5000  -999.2500   -30.8157     7.7383     6.1878   150.7131
  283.0000  -999.2500   -30.8812     7.5617     6.1122   151.9069
  283.5000  -999.2500   -30.9844     7.5427     6.1074   153.4009
  284.0000  -999.2500   -31.1178     7.6181     6.0361   153.7537
  284.5000  -999.2500   -31.1178     7.6270     6.0050   154.8874
  285.0000  -999.2500   -31.1178     7.6333     5.9601   154.8799
  285.5000  -999.2500   -31.1178     7.6484     5.9597   155.2927
  286.0000  -999.2500   -30.9668     7.6485     5.9593   156.3664
  286.5000  -999.2500   -30.9341     7.6243     5.9590   155.3976
  287.0000  -999.2500   -30.8157     7.5583     5.9585   154.3695
  287.5000  -999.2500   -30.5765     7.4981     6.0680   151.8393
  288.0000  -999.2500   -30.4733     7.4831     6.2038   148.8274
  288.5000  -999.2500   -30.3625     7.4995     6.4092   146.7794
  289.0000  -999.2500   -30.1158     7.6490     6.6323   142.7478
  289.5000  -999.2500   -29.9094     7.8428     6.8089   139.7961
  290.0000  -999.2500   -29.7583     8.0179     7.0105   137.6879
  290.5000  -999.2500   -29.6073     8.1222     7.1238   135.2778
  291.0000  -999.2500   -29.6073     8.1490     7.2495   133.7677
  291.5000  -999.2500   -29.6073     8.1915     7.3859   133.7613
  292.0000  -999.2500   -29.4562     8.2572     7.4257   133.7538
  292.5000  -999.2500   -29.5191     8.3161     7.4605   133.7453
  293.0000  -999.2500   -29.6224     8.3724     7.4601   133.7387
  293.5000  -999.2500   -29.9094     8.4175     7.3844   135.4730
  294.0000  -999.2500   -30.1309     8.4479     7.2912   138.2275
  294.5000  -999.2500   -30.2342     8.4179     7.1577   139.7222
  295.0000  -999.2500   -30.3625     8.3557     6.9629   141.5164
  295.5000  -999.2500   -30.4405     8.2546     6.8364   142.7102
  296.0000  -999.2500   -30.5136     8.1621     6.7801   144.2042
  296.5000  -999.2500   -30.5136     8.0910     6.6587   145.6993
  297.0000  -999.2500   -30.5136     8.0113     6.6074   147.1918
  297.5000  -999.2500   -30.5136     7.9364     6.5531   147.1847
  298.0000  -999.2500   -30.3625     7.8820     6.4774   147.1772
  298.5000  -999.2500   -30.2694     7.8612     6.5002   147.1695
  299.0000  -999.2500   -30.0151     7.8914     6.5520   147.1622
  299.5000  -999.2500   -29.9094     7.9066     6.6764   145.1728
  300.0000  -999.2500   -29.0030     7.8765     6.8022   142.6427
  300.5000  -999.2500   -30.1035     7.8763     7.0045   137.6599
  301.0000  -999.2500   -30.3584     7.8762     7.3787   134.6347
  301.5000  -999.2500   -30.5067     7.8911     7.7274   130.5625
  302.0000  -999.2500   -30.7462     8.1409     7.9804   126.6267
  302.5000  -999.2500   -30.8421     8.5383     8.1031   123.7363
  303.0000  -999.2500   -30.9531     8.9449     8.2276   119.9838
  303.5000  -999.2500   -31.1019     9.1465     8.2805   119.9625
  304.0000  -999.2500   -31.1299     9.2699     8.2801   120.2604
  304.5000  -999.2500   -31.2485     9.3360     8.2044   122.9186
  305.0000  -999.2500   -31.2462     9.3132     8.0534   125.1752
  305.5000  -999.2500   -31.0929     9.2039     7.8884   127.8856
  306.0000  -999.2500   -30.9393     9.0644     7.7134   131.8594
  306.5000  -999.2500   -30.8693     8.9197     7.3746   136.2589
  307.0000  -999.2500   -30.6178     8.7072     7.0620   139.6953
  307.5000  -999.2500   -30.3282     8.4766     6.7539   145.3047
  308.0000  -999.2500   -29.9637     8.3108     6.5452   148.9290
  308.5000  -999.2500   -29.7123     8.1262     6.4278   151.3864
  309.0000  -999.2500   -29.5661     7.9340     6.3185   152.7478
  309.5000  -999.2500   -29.4131     7.8021     6.3934   153.0808
  310.0000  -999.2500   -29.2598     7.6627     6.5487   148.1481
  310.5000  -999.2500   -29.4540     7.5330     6.7230   145.1684
  311.0000  -999.2500   -29.7538     7.6368     6.9194   143.1432
  311.5000  -999.2500   -30.0082     7.9182     6.9943   140.6230
  312.0000  -999.2500   -30.0967     8.2283     7.0823   138.1383
  312.5000  -999.2500   -30.1552     8.4940     7.1442   137.1371
  313.0000  -999.2500   -30.1524     8.6105     7.2563   134.5488
  313.5000  -999.2500   -30.1503     8.6955     7.2941   133.6336
  314.0000  -999.2500   -29.9970     8.7488     7.3689   133.0030
  314.5000  -999.2500   -29.8434     8.7757     7.4043   131.4776
  315.0000  -999.2500   -29.7659     8.7756     7.5189   130.6305
  315.5000  -999.2500   -29.6654     8.7385     7.5937   128.4309
  316.0000  -999.2500   -29.3834     8.6548     7.6687   126.9049
  316.5000  -999.2500   -29.1624     8.6885     7.7521   126.8844
  317.0000  -999.2500   -28.9260     8.7976     7.8185   125.3604
  317.5000  -999.2500   -28.7723     8.9254     7.9260   125.3352
  318.0000  -999.2500   -28.7099     8.9825     7.9684   125.3153
  318.5000  -999.2500   -28.4660     9.0313     7.9679   125.2928
  319.0000  -999.2500   -28.4633     9.0605     7.9676   125.2670
  319.5000  -999.2500   -28.4087     9.0604     7.8809   125.2478
  320.0000  -999.2500   -28.3082     9.0452     7.6656   125.3254
  320.5000  -999.2500   -28.3059     9.0006     7.5604   126.7042
  321.0000  -999.2500   -28.3036     8.9018     7.4350   130.2402
  321.5000  -999.2500   -28.3013     8.7736     7.2880   132.7306
  322.0000  -999.2500   -28.3897     8.6380     7.1842   137.1427
  322.5000  -999.2500   -28.6367     8.5173     7.0614   138.6306
  323.0000  -999.2500   -28.8987     8.4268     6.9856   138.6033
  323.5000  -999.2500   -29.2137     8.3814     6.9587   138.5811
