~VERSION INFORMATION
 VERS.                2.0:   CWLS LOG ASCII STANDARD - VERSION 2.0
 WRAP.                 NO:   ONE LINE PER DEPTH STEP
~WELL INFORMATION
#MNEM.UNIT      DATA TYPE    INFORMATION
#----------   ------------   ------------------------------
 STRT.F           30.0000:   START DEPTH
 STOP.F          715.0000:   STOP DEPTH
 STEP.F            0.5000:   STEP LENGTH
 NULL.          -999.2500:   NO VALUE
 COMP. FENIX & SCISSON INC:   COMPANY
 WELL.   NPR-3 #84SX15-15:   WELL
 FLD .             TEAPOT:   FIELD
 LOC .      S15 T38N R78W:   LOCATION
 CNTY.            NATRONA:   COUNTY
 STAT.            WYOMING:   STATE
 CTRY. UNITED STATES OF AMERICA:   COUNTRY
 SRVC.            Unknown:   SERVICE COMPANY
 DATE.        15-MAY-1978:   LOGDATE
 API .       490251064000:   API NUMBER
~CURVE INFORMATION
#MNEM.UNIT       API CODE    CURVE DESCRIPTION
#----------   ------------   ------------------------------
 DEPT.F                  :   
 SPR .MV     05 010 01 00:   SPONTANEOUS POTENTIAL FROM RES.
 SN  .OHMM   05 040 16 00:   SHORT NORMAL 16"
 ILD .OHMM   05 120 46 00:   INDUCTION LOG DEEP
 CALD.IN     45 280 60 00:   CALIPER FROM DENSITY LOG
 GRD .GAPI   45 310 01 00:   GAMMA RAY FROM DENSITY LOG
 CORR.G/C3   45 356 01 00:   DENSITY CORRECTION
 DPHI.DEC    45 890 12 00:   DENSITY POROSITY SANDSTONE
 DEN .G/C3   45 350 01 00:   COMPENSATED BULK DENSITY
~PARAMETER INFORMATION
#MNEM.UNIT          VALUE    DESCRIPTION
#----------   ------------   ------------------------------
 PD  .                 GL:   PERMANENT DATUM
 EPD .F              5247:   ELEVATION PERMANENT DATUM
 LMF .                 KB:   LOG MEASURED FROM
 DMF .                 KB:   DRILLING MEASURED FROM
 EKB .F              5251:   KELLING BUSHING
 EGL .F              5247:   GROUND LEVEL
 DATE.        15-MAY-1978:   RUN DATE
 RUN .                  1:   RUN NUMBER
 DD  .F               725:   DEPTH DRILLER
 DL  .F               720:   DEPTH LOGGER
 BLI .F               713:   BOTTOM LOG INTERVAL
 TLI .F                40:   TOP LOG INTERVAL
 CS  .IN            8.625:   CASING SIZE
 CBD .F                40:   CASING BOTTOM DRILLER
 CBL .F                40:   CASING BOTTOM LOGGER
 BS  .IN            7.875:   BIT SIZE
 BSD .F               725:   BIT SIZE AT DEPTH
 DFT .                KCL:   DRILLING FLUID TYPE
 DFD .                8.6:   DRILLING FLUID DENSITY
 DFV .                 33:   DRILLING FLUID VISCOSITY
 DFPH.                9.5:   DRILLING FLUID PH
 DFL .                 12:   DRILLING FLUID LOSS
 MSS .           FLOWLINE:   MUD SAMPLE SOURCE
 RMS .OHMM             .2:   RESISTIVITY MUD SAMPLE
 MST .F                80:   MUD SAMPLE TEMPERATURE
 RMF .OHMM            .18:   RESISTIVITY MUD FILTRATE SAMPLE
 MFST.F                83:   MUD FILTRATE SAMPLE TEMPERATURE
 RMC .OHMM            .26:   RESISTIVITY MUD CAKE
 MCST.F                83:   MUD CAKE SAMPLE TEMPERATURE
 MFSS.               MEAS:   MUD FILTRATE SAMPLE SOURCE
 RMB .OHMM             .2:   RESISTIVITY MUD AT BHT
 BHT .F                80:   BOTTOM HOLE TEMPERATURE
 TCS .HRS            0200:   TIME CURCULATED STOPPED
 MRT .F                80:   MAXIMUM RECORDED TEMPERATURE
 LUN .               3006:   LOGGING UNIT NUMBER
 LUL .               CASP:   LOGGING UNIT LOCATION
 ENGI.             MILLER:   RECORDING ENGINEER
 WITN.           MCGINLEY:   WITNESSED BY
 CLNT.            A2DTECH:   CLIENT CODE
 ORIG.           5" PRINT:   ORIGIN OF DATA
 UWI .       490251064000:   UNIQUE WELL ID
 DICO. A2D Technologies, Inc.:   DIGITIZING COMPANY
~OTHER INFORMATION
~A   DEPT      SPR         SN        ILD       CALD         GRD      CORR       DPHI        DEN   
# ...
  151.5000   -31.7293    10.0124    14.3511     7.2113    66.9177     0.0322     0.2019     2.3491
  152.0000   -32.1805     9.9421    14.5510     7.1723    64.9460     0.0492     0.1918     2.3525
  152.5000   -32.4812     9.8041    14.1540     7.1604    65.3891     0.0562     0.1811     2.3724
  153.0000   -32.4812     9.7352    13.9596     7.1646    66.4933     0.0546     0.1750     2.3784
  153.5000   -32.6316     9.7339    13.8634     7.1786    66.3302     0.0477     0.1727     2.3836
  154.0000   -33.2331     9.8001    13.9596     7.1996    68.1190     0.0259     0.1799     2.3843
  154.5000   -34.1353     9.8667    13.9596     7.2140    69.9646     0.0079     0.1887     2.3813
  155.0000   -35.1880     9.8653    13.9596     7.2205    70.4970     0.0108     0.1861     2.3692
  155.5000   -35.7895     9.9328    13.9596     7.2432    70.1882     0.0363     0.1777     2.3661
  156.0000   -36.3910     9.7946    13.6730     7.2635    66.1440     0.0423     0.1675     2.3811
  156.5000   -36.8421     9.6588    13.1174     7.3277    63.3963     0.0362     0.1579     2.4194
  157.0000   -37.8947     9.5248    12.4344     7.3266    68.2657     0.0302     0.1535     2.4231
  157.5000   -38.9474     9.2637    11.3445     7.3256    71.3615     0.0301     0.1496     2.4283
  158.0000   -40.0000     8.8860    10.2268     7.3245    71.3541     0.0286     0.1379     2.4350
  158.5000   -40.7519     8.4066     9.0299     7.2779    73.7563     0.0286     0.1340     2.4508
  159.0000   -41.3534     7.9531     8.4851     7.2617    79.9236     0.0285     0.1370     2.4552
  159.5000   -41.5115     7.4722     8.0842     7.2154    82.7776     0.0285     0.1327     2.4537
  160.0000   -41.5684     7.1481     7.6491     7.1992    81.8666     0.0284     0.1267     2.4619
  160.5000   -41.6253     6.9401     7.0889     7.1680    79.7507     0.0299     0.1307     2.4566
  161.0000   -41.6822     6.7942     6.6612     7.1669    79.7433     0.0298     0.1386     2.4528
  161.5000   -41.7390     6.6483     6.4795     7.2112    81.0913     0.0298     0.1356     2.4498
  162.0000   -41.7959     6.5027     6.4348     7.2253    80.9333     0.0297     0.1485     2.4413
  162.5000   -41.8528     6.2809     6.3465     7.2547    80.5999     0.0297     0.1293     2.4406
  163.0000   -41.9097     6.1937     6.2593     7.2534    82.1233     0.0312     0.1272     2.4537
  163.5000   -41.9549     6.1929     6.2593     7.2524    82.7397     0.0296     0.1284     2.4616
  164.0000   -41.9549     6.1920     6.2593     7.2513    82.1085     0.0296     0.1311     2.4585
  164.5000   -41.9634     6.1912     6.2593     7.2654    82.7143     0.0295     0.1342     2.4555
  165.0000   -41.9722     6.1903     6.2593     7.2643    83.2984     0.0280     0.1351     2.4554
  165.5000   -41.9811     6.1895     6.2593     7.2784    82.8374     0.0249     0.1342     2.4584
  166.0000   -41.9900     6.1886     6.2593     7.2622    80.2697     0.0234     0.1297     2.4591
  166.5000   -41.9989     6.1877     6.2593     7.2612    78.3044     0.0233     0.1366     2.4553
  167.0000   -42.0077     6.1869     6.3027     7.2602    76.6404     0.0233     0.1354     2.4523
  167.5000   -42.0166     6.1860     6.2593     7.2742    75.8818     0.0217     0.1426     2.4492
  168.0000   -42.0255     6.1852     6.2593     7.2880    77.8322     0.0187     0.1433     2.4514
  168.5000   -42.0344     6.1843     6.2593     7.3172    78.4254     0.0186     0.1412     2.4551
  169.0000   -42.0432     6.2266     6.2593     7.3615    81.4300     0.0216     0.1355     2.4573
  169.5000   -42.0521     6.2255     6.2593     7.4208    83.8322     0.0231     0.1250     2.4610
  170.0000   -42.0610     6.1817     6.2593     7.4956    84.2785     0.0261     0.1223     2.4693
  170.5000   -42.0699     6.1809     6.2593     7.6000    82.6126     0.0290     0.1301     2.4700
  171.0000   -42.0787     6.1800     6.2593     7.7047    82.6051     0.0274     0.1331     2.4662
  171.5000   -42.0876     6.1792     6.2593     7.7943    81.2423     0.0289     0.1277     2.4639
  172.0000   -42.0965     6.2214     6.2593     7.8086    77.1686     0.0464     0.1304     2.4751
  172.5000   -42.1053     6.2203     6.2593     7.8073    77.8238     0.0514     0.1199     2.4705
  173.0000   -42.2556     6.2195     6.2593     7.8368    80.9608     0.0408     0.1283     2.4645
  173.5000   -42.2586     6.2620     6.2593     7.9110    83.6451     0.0347     0.1350     2.4614
  174.0000   -42.4032     6.3043     6.2593     7.8948    84.3679     0.0287     0.1416     2.4629
  174.5000   -42.3977     6.4356     6.3027     7.8032    81.9490     0.0286     0.1368     2.4545
  175.0000   -42.3922     6.6154     6.4497     7.7417    83.5982     0.0286     0.1332     2.4515
  175.5000   -42.3867     6.6142     6.5768     7.7104    84.3456     0.0285     0.1293     2.4575
  176.0000   -42.3812     6.6133     6.6612     7.6641    81.9267     0.0240     0.1323     2.4642
  176.5000   -42.3757     6.6124     6.7074     7.6430    80.8669     0.0179     0.1341     2.4634
  177.0000   -42.3702     6.6574     6.7074     7.6013    82.9661     0.0209     0.1275     2.4626
  177.5000   -42.3647     6.6564     6.6612     7.5852    83.2617     0.0268     0.1234     2.4663
  178.0000   -42.3591     6.7019     6.6153     7.5841    80.6922     0.0313     0.1273     2.4693
  178.5000   -42.3536     6.6546     6.5697     7.5226    78.2751     0.0267     0.1300     2.4715
  179.0000   -42.3481     6.6537     6.4795     7.4159    76.4605     0.0207     0.1309     2.4692
  179.5000   -42.3426     6.6991     6.4795     7.3544    76.0013     0.0101     0.1432     2.4541
  180.0000   -42.3371     6.6518     6.4825     7.3382    75.8433     0.0056     0.1390     2.4428
  180.5000   -42.3316     6.6509     6.5244     7.2919    75.2334     0.0055     0.1330     2.4473
  181.0000   -42.3261     6.6500     6.5697     7.2455    77.5172     0.0070     0.1433     2.4457
  181.5000   -42.3206     6.6491     6.6153     7.2294    79.9721     0.0039     0.1478     2.4382
  182.0000   -42.3151     6.6481     6.6153     7.1830    82.6685     0.0084     0.1334     2.4359
  182.5000   -42.3096     6.6472     6.6153     7.1518    84.2399     0.0159     0.1331     2.4576
  183.0000   -42.3040     6.6463     6.5694     7.0903    81.5198     0.0158     0.1313     2.4591
  183.5000   -42.2985     6.6454     6.4795     7.0288    80.1569     0.0173     0.1169     2.4658
  184.0000   -42.2930     6.6445     6.4795     6.9674    80.4526     0.0217     0.1139     2.4773
  184.5000   -42.2875     6.5978     6.5244     6.9208    81.1963     0.0172     0.1236     2.4928
  185.0000   -42.2820     6.6428     6.5244     6.8595    79.0583     0.0036     0.1241     2.5017
  185.5000   -42.2765     6.6419     6.5697     6.8416    72.3926    -0.0130     0.1211     2.4799
  186.0000   -42.2710     6.6410     6.6612     6.8121    64.0054     0.0080     0.1296     2.4671
  186.5000   -42.2655     6.6862     6.7074     6.8564    54.2088     0.0260     0.1311     2.4673
  187.0000   -42.2600     6.7316     6.7540     6.9306    55.2556     0.0320     0.1242     2.4654
  187.5000   -42.2556     6.7931     6.8480     7.0353    61.8747     0.0335     0.1263     2.4745
  188.0000   -42.2373     6.9665     6.8955     7.1702    73.1625     0.0319     0.1299     2.4714
  188.5000   -42.2183     6.8626     6.8480     7.3051    77.5225     0.0274     0.1242     2.4653
  189.0000   -42.1992     6.6355     6.7540     7.3346    79.3282     0.0258     0.1215     2.4699
  189.5000   -42.1802     6.6346     6.6153     7.3333    80.5636     0.0273     0.1224     2.4773
  190.0000   -42.1611     6.6337     6.5244     7.3322    83.5243     0.0257     0.1243     2.4772
  190.5000   -42.1420     6.6327     6.4795     7.3312    81.8584     0.0224     0.1219     2.4748
  191.0000   -42.1230     6.6318     6.5244     7.3603    79.8932     0.0226     0.1204     2.4741
  191.5000   -42.1039     6.6769     6.5244     7.3747    79.1346     0.0256     0.1195     2.4793
