~VERSION INFORMATION
 VERS.                2.0:   CWLS LOG ASCII STANDARD - VERSION 2.0
 WRAP.                 NO:   ONE LINE PER DEPTH STEP
~WELL INFORMATION
#MNEM.UNIT      DATA TYPE    INFORMATION
#----------   ------------   ------------------------------
 STRT.F           50.0000:   START DEPTH
 STOP.F          854.0000:   STOP DEPTH
 STEP.F            0.5000:   STEP LENGTH
 NULL.          -999.2500:   NO VALUE
 COMP. FENIX & SCISSON INC:   COMPANY
 WELL.    45 SX 11 #45-11:   WELL
 FLD .             TEAPOT:   FIELD
 LOC .      S11 T38N R78W:   LOCATION
 CNTY.            NATRONA:   COUNTY
 STAT.            WYOMING:   STATE
 CTRY. UNITED STATES OF AMERICA:   COUNTRY
 SRVC.           BIRDWELL:   SERVICE COMPANY
 DATE.        01-MAR-1978:   LOGDATE
 API .       490251058600:   API NUMBER
~CURVE INFORMATION
#MNEM.UNIT       API CODE    CURVE DESCRIPTION
#----------   ------------   ------------------------------
 DEPT.F                  :   
 CALD.IN     45 280 60 00:   CALIPER
 CORR.G/C3   45 356 01 00:   DENSITY CORRECTION
 RHOB.G/C3   45 350 01 00:   BULK DENSITY
 DPOR.DEC    45 890 12 00:   DENSITY POROSITY SANDSTONE
 GRD .GAPI   45 310 01 00:   GAMMA RAY FROM DENSITY LOG
 SPR .MV     05 010 01 00:   SPONTANEOUS POTENTIAL FROM RES.
 SN  .OHMM   05 040 16 00:   SHORT NORMAL 16"
 ILD .OHMM   05 120 46 00:   INDUCTION LOG DEEP
~PARAMETER INFORMATION
#MNEM.UNIT          VALUE    DESCRIPTION
#----------   ------------   ------------------------------
 PD  .                 GL:   PERMANENT DATUM
 EPD .F              5186:   ELEVATION PERMANENT DATUM
 LMF .                 KB:   LOG MEASURED FROM
 DAPD.F                 4:   FEET ABOVE PERMANENT DATUM
 DMF .                 KB:   DRILLING MEASURED FROM
 EKB .F              5190:   KELLING BUSHING
 EGL .F              5186:   GROUND LEVEL
 DATE.           3-1-1978:   RUN DATE
 RUN .                  1:   RUN NUMBER
 DD  .F               848:   DEPTH DRILLER
 DL  .F               856:   DEPTH LOGGER
 BLI .F               851:   BOTTOM LOG INTERVAL
 TLI .F                50:   TOP LOG INTERVAL
 CS  .IN            8.625:   CASING SIZE
 CBD .F                40:   CASING BOTTOM DRILLER
 CBL .F                40:   CASING BOTTOM LOGGER
 BS  .IN            7.875:   BIT SIZE
 BSD .F               848:   BIT SIZE AT DEPTH
 DFT .          LIGNOSULF:   DRILLING FLUID TYPE
 DFD .                8.5:   DRILLING FLUID DENSITY
 DFV .                 30:   DRILLING FLUID VISCOSITY
 DFPH.               11.5:   DRILLING FLUID PH
 MSS .                PIT:   MUD SAMPLE SOURCE
 RMS .OHMM              2:   RESISTIVITY MUD SAMPLE
 MST .F                59:   MUD SAMPLE TEMPERATURE
 RMF .OHMM            1.8:   RESISTIVITY MUD FILTRATE SAMPLE
 MFST.F                60:   MUD FILTRATE SAMPLE TEMPERATURE
 RMC .OHMM            2.2:   RESISTIVITY MUD CAKE
 MCST.F                60:   MUD CAKE SAMPLE TEMPERATURE
 MFSS.               MEAS:   MUD FILTRATE SAMPLE SOURCE
 MCSS.               MEAS:   MUD CAKE SAMPLE SOURCE
 RMB .OHMM           1.69:   RESISTIVITY MUD AT BHT
 BHT .F                70:   BOTTOM HOLE TEMPERATURE
 TCS .HRS               3:   TIME CURCULATED STOPPED
 MRT .F                70:   MAXIMUM RECORDED TEMPERATURE
 LUN .               2959:   LOGGING UNIT NUMBER
 LUL .               CASP:   LOGGING UNIT LOCATION
 ENGI.            POINTER:   RECORDING ENGINEER
 WITN.         HARRINGTON:   WITNESSED BY
 CLNT.            A2DTECH:   CLIENT CODE
 ORIG.       2", 5" PRINT:   ORIGIN OF DATA
 UWI .       490251058600:   UNIQUE WELL ID
 DICO. A2D Technologies, Inc.:   DIGITIZING COMPANY
~OTHER INFORMATION
~A   DEPT       CALD      CORR      RHOB       DPOR        GRD        SPR         SN        ILD   
# ...
  617.0000     7.7693     0.0928     2.3926     0.1775   131.5857   -19.9055     6.5613     5.6927
  617.5000     7.7482     0.0481     2.3719     0.1807   132.8164   -19.7944     6.0444     5.5651
  618.0000     7.7266     0.0352     2.3628     0.1476   129.1654   -19.9293     6.0227     5.5858
  618.5000     7.7227     0.0383     2.3996     0.1254   120.5559   -20.1260     5.9951     5.6086
  619.0000     7.7257     0.0334     2.4325     0.1226   111.9994   -20.3242     6.2016     5.6306
  619.5000     7.7431     0.0324     2.4617     0.0960   105.0853   -20.5219     6.8268     5.6543
  620.0000     7.7601     0.0338     2.4891     0.0923   105.9329   -20.7195     7.9881     5.7683
  620.5000     7.7772     0.0354     2.4863     0.0938   109.6349   -20.9172     9.3470     6.5595
  621.0000     7.7837     0.0348     2.4856     0.0952   111.8823   -21.1152     9.9315     7.4563
  621.5000     7.7947     0.0310     2.4871     0.0847   112.6661   -21.2934    10.2143     8.4839
  622.0000     7.8057     0.0283     2.4825     0.0889   115.3236   -21.3455    10.5084     9.2085
  622.5000     7.8166     0.0305     2.5014     0.0956   116.0612   -21.1986    10.5846     9.1178
  623.0000     7.8275     0.0327     2.4810     0.1016   114.0238   -21.0487    10.6048     9.0361
  623.5000     7.8384     0.0348     2.4699     0.1028   111.9635   -21.3239    10.6236     8.9551
  624.0000     7.8399     0.0363     2.4705     0.1044   110.4985   -21.8733    10.6427     8.8749
  624.5000     7.8311     0.0345     2.4685     0.1038   109.6272   -22.3746    10.6623     8.7792
  625.0000     7.8223     0.0327     2.4649     0.1028   112.2239   -21.6628    10.7204     8.8819
  625.5000     7.8135     0.0324     2.4688     0.1044   114.9262   -20.8827    10.9768     9.0106
  626.0000     7.8047     0.0435     2.4659     0.1111   112.7121   -20.9694    11.2333     9.1512
  626.5000     7.7959     0.0559     2.4507     0.1286   106.5410   -21.5784    11.7106     9.8996
  627.0000     7.7871     0.0513     2.4299     0.1404    97.9061   -22.1964    12.5083    10.2776
  627.5000     7.7783     0.0497     2.4053     0.1362    83.9494   -22.8125    13.3626    10.6543
  628.0000     7.7695     0.0530     2.4098     0.1327    71.7828   -23.4509    14.2415    11.3608
  628.5000     7.7607     0.0532     2.4166     0.1581    72.3554   -24.6577    17.2885    12.5692
  629.0000     7.7519     0.0547     2.3962     0.1676    72.7915   -25.8818    19.2178    13.9061
  629.5000     7.7432     0.0509     2.3762     0.1799    73.1385   -27.1045    20.4233    15.3852
  630.0000     7.7428     0.0465     2.3672     0.1803    78.2642   -28.2852    20.8831    17.0217
  630.5000     7.7429     0.0639     2.3414     0.1686    86.4469   -28.8532    20.9920    18.1387
  631.0000     7.7429     0.0690     2.3597     0.1873    84.4850   -29.3942    21.0500    18.3082
  631.5000     7.7429     0.0651     2.3359     0.1925    81.6449   -29.9097    20.9460    17.9521
  632.0000     7.7429     0.0625     2.3226     0.2094    79.2484   -30.0084    20.8645    17.7137
  632.5000     7.7429     0.0689     2.3196     0.2029    79.6036   -30.0938    20.6445    17.3143
  633.0000     7.7429     0.0791     2.2967     0.2009    81.0867   -30.1359    20.5842    17.2617
  633.5000     7.7429     0.0808     2.3017     0.2042    82.5703   -29.5562    20.5241    17.2153
  634.0000     7.7429     0.0792     2.2966     0.2053    84.0546   -28.9150    20.4706    17.1690
  634.5000     7.7429     0.0893     2.3155     0.1897    85.4439   -28.7488    19.8019    16.6972
  635.0000     7.7429     0.0970     2.3448     0.1745    84.8047   -28.8046    18.8966    16.0743
  635.5000     7.7429     0.0884     2.3490     0.1594    84.2024   -28.9645    18.0327    15.4746
  636.0000     7.7429     0.0698     2.3687     0.1444    86.1867   -29.0734    17.2083    15.1451
  636.5000     7.7429     0.0547     2.3936     0.1293    88.4457   -28.2652    16.6728    14.9807
  637.0000     7.7429     0.0567     2.4186     0.1182    90.7209   -26.4857    16.6080    14.8180
  637.5000     7.7429     0.0593     2.4405     0.1248    92.3294   -24.9478    16.5433    14.6571
  638.0000     7.7429     0.0607     2.4410     0.1323    91.8382   -24.6223    16.4789    14.4979
  638.5000     7.7428     0.0615     2.4229     0.1397    91.6052   -24.2756    16.4148    14.3405
  639.0000     7.7428     0.0624     2.4184     0.1472    91.9293   -24.6261    16.3509    14.2415
  639.5000     7.7488     0.0572     2.4025     0.1538    92.2709   -25.0392    16.2873    14.2415
  640.0000     7.7936     0.0471     2.3865     0.1544    91.4223   -24.9861    16.2239    14.2415
  640.5000     7.8243     0.0366     2.3755     0.1567    90.1713   -24.9187    16.1607    14.2442
  641.0000     7.8238     0.0344     2.3819     0.1610    89.7297   -24.8452    16.0727    14.2473
  641.5000     7.8239     0.0364     2.3873     0.1646    89.5067   -25.2272    16.1009    14.1051
  642.0000     7.8239     0.0386     2.3663     0.1646    89.2316   -25.6674    16.1507    14.2201
  642.5000     7.8239     0.0404     2.3630     0.1692    89.1337   -26.1091    16.2001    14.3615
  643.0000     7.8239     0.0395     2.3634     0.1739    89.3289   -26.5498    16.2497    14.5041
  643.5000     7.8239     0.0385     2.3509     0.1775    89.0581   -26.9917    16.2993    14.6477
  644.0000     7.8239     0.0392     2.3434     0.1802    86.4180   -27.4310    16.3492    14.7927
  644.5000     7.8239     0.0405     2.3397     0.1761    87.5587   -27.4860    16.3992    14.9392
  645.0000     7.8239     0.0418     2.3398     0.1710    90.9110   -27.4852    16.4494    15.0871
  645.5000     7.8239     0.0431     2.3517     0.1684    93.9184   -27.4847    16.4995    15.1998
  646.0000     7.8237     0.0444     2.3626     0.1666    92.4155   -27.4895    16.5273    15.1478
  646.5000     7.8232     0.0457     2.3578     0.1674    90.0290   -27.7476    16.1860    15.1062
  647.0000     7.8228     0.0470     2.3627     0.1690    88.7701   -28.2911    15.9546    15.0647
  647.5000     7.8223     0.0483     2.3617     0.1704    88.9810   -28.8287    15.7761    15.0233
  648.0000     7.8218     0.0496     2.3548     0.1706    88.9772   -28.9658    15.7761    14.9823
  648.5000     7.8214     0.0488     2.3527     0.1708    88.7327   -28.6742    15.9176    14.9408
  649.0000     7.8209     0.0410     2.3510     0.1701    88.4875   -28.3874    15.7489    14.8299
  649.5000     7.8205     0.0335     2.3485     0.1739    88.2454   -28.0915    15.4906    14.6466
  650.0000     7.8200     0.0258     2.3715     0.1690    87.9993   -27.6303    15.2387    14.4657
  650.5000     7.8196     0.0244     2.3716     0.1645    89.1632   -26.5675    14.9911    14.2867
  651.0000     7.8191     0.0243     2.3695     0.1612    91.6989   -26.0736    14.7476    14.1100
  651.5000     7.8186     0.0245     2.3682     0.1673    93.8721   -26.0647    14.5080    13.9359
  652.0000     7.8182     0.0246     2.3598     0.1734    92.6345   -26.0640    14.2723    13.8349
  652.5000     7.8177     0.0247     2.3512     0.1791    91.3776   -26.0647    14.1096    13.8056
  653.0000     7.8172     0.0248     2.3467     0.1756    90.6905   -26.0643    14.1342    13.7765
  653.5000     7.8168     0.0249     2.3452     0.1751    91.4655   -26.0664    14.1567    13.7475
  654.0000     7.8163     0.0251     2.3506     0.1775    92.3092   -26.1952    14.1791    13.7235
  654.5000     7.8159     0.0252     2.3486     0.1771    93.1442   -26.6074    14.2016    13.7441
  655.0000     7.8154     0.0253     2.3449     0.1763    93.6286   -27.0101    14.2242    13.7646
  655.5000     7.8149     0.0254     2.3482     0.1756    93.8318   -27.2863    14.2467    13.7852
  656.0000     7.8145     0.0256     2.3496     0.1748    93.5418   -27.2812    14.2694    13.8059
  656.5000     7.8140     0.0257     2.3477     0.1743    92.8982   -27.2823    14.2920    13.8267
  657.0000     7.8136     0.0258     2.3496     0.1743    91.0387   -27.2808    14.3147    13.8474
