~VERSION INFORMATION
 VERS.                2.0:   CWLS LOG ASCII STANDARD - VERSION 2.0
 WRAP.                 NO:   ONE LINE PER DEPTH STEP
~WELL INFORMATION
#MNEM.UNIT      DATA TYPE    INFORMATION
#----------   ------------   ------------------------------
 STRT.F           35.0000:   START DEPTH
 STOP.F          484.0000:   STOP DEPTH
 STEP.F            0.5000:   STEP LENGTH
 NULL.          -999.2500:   NO VALUE
 COMP. LAWRENCE/ALLISON INC:   COMPANY
 WELL.     73-1 STX #1-10:   WELL
 FLD .              NPR-3:   FIELD
 LOC .      S10 T38N R78W:   LOCATION
 CNTY.            NATRONA:   COUNTY
 STAT.            WYOMING:   STATE
 CTRY. UNITED STATES OF AMERICA:   COUNTRY
 SRVC.              Welex:   SERVICE COMPANY
 DATE.        04-APR-1977:   LOGDATE
 API .       490251032400:   API NUMBER
~CURVE INFORMATION
#MNEM.UNIT       API CODE    CURVE DESCRIPTION
#----------   ------------   ------------------------------
 DEPT.F                  :   
 CALD.IN     45 280 60 00:   CALIPER
 GRD .GAPI   45 310 01 00:   GAMMA RAY FROM DENSITY LOG
 RHOB.G/C3   45 350 01 00:   BULK DENSITY
 DPHI.DEC    45 890 12 00:   DENSITY POROSITY SANDSTONE
 CORR.G/C3   45 356 01 00:   DENSITY CORRECTION
 SPR .MV     07 010 01 00:   SPONTANEOUS POTENTIAL
 SGRD.OHMM   07 220 05 00:   SHALLOW RESISTIVITY
 ILD .OHMM   07 120 46 00:   INDUCTION LOG DEEP
 ILM .OHMM   07 120 44 00:   INDUCTION LOG MEDIUM
~PARAMETER INFORMATION
#MNEM.UNIT          VALUE    DESCRIPTION
#----------   ------------   ------------------------------
 PD  .                 GL:   PERMANENT DATUM
 EPD .F              5170:   ELEVATION PERMANENT DATUM
 LMF .                 GL:   LOG MEASURED FROM
 DMF .                 GL:   DRILLING MEASURED FROM
 EGL .F              5170:   GROUND LEVEL
 DATE.             4-4-77:   RUN DATE
 RUN .                  1:   RUN NUMBER
 DD  .F               490:   DEPTH DRILLER
 DL  .F               487:   DEPTH LOGGER
 BLI .F               485:   BOTTOM LOG INTERVAL
 TLI .F                35:   TOP LOG INTERVAL
 CS  .IN            8.625:   CASING SIZE
 CBD .F                42:   CASING BOTTOM DRILLER
 CBL .F                42:   CASING BOTTOM LOGGER
 BS  .IN            7.875:   BIT SIZE
 BSD .F               490:   BIT SIZE AT DEPTH
 DFT .            KCL MUD:   DRILLING FLUID TYPE
 DFD .                8.4:   DRILLING FLUID DENSITY
 DFV .                 32:   DRILLING FLUID VISCOSITY
 DFPH.                8.5:   DRILLING FLUID PH
 DFL .                 17:   DRILLING FLUID LOSS
 RMS .OHMM            .48:   RESISTIVITY MUD SAMPLE
 MST .F                48:   MUD SAMPLE TEMPERATURE
 RMF .OHMM            .44:   RESISTIVITY MUD FILTRATE SAMPLE
 MFST.F                48:   MUD FILTRATE SAMPLE TEMPERATURE
 RMC .OHMM            .62:   RESISTIVITY MUD CAKE
 MCST.F                48:   MUD CAKE SAMPLE TEMPERATURE
 MFSS.          FANN TEST:   MUD FILTRATE SAMPLE SOURCE
 MCSS.          FANN TEST:   MUD CAKE SAMPLE SOURCE
 BHT .F                58:   BOTTOM HOLE TEMPERATURE
 TCS .HRS               2:   TIME CURCULATED STOPPED
 MRT .F                58:   MAXIMUM RECORDED TEMPERATURE
 LUN .               8611:   LOGGING UNIT NUMBER
 LUL .           GILLETTE:   LOGGING UNIT LOCATION
 ENGI.               DOAK:   RECORDING ENGINEER
 WITN.      B. HARRINGTON:   WITNESSED BY
 CLNT.            A2DTECH:   CLIENT CODE
 ORIG.        2" 5" PRINT:   ORIGIN OF DATA
 UWI .       490251032400:   UNIQUE WELL ID
 DICO. A2D Technologies, Inc.:   DIGITIZING COMPANY
~OTHER INFORMATION
~A   DEPT     CALD        GRD       RHOB       DPHI       CORR        SPR       SGRD        ILD        ILM   
# ...
  144.5000     8.0775   102.5275     2.4179     0.1375    -0.0110   -50.7062     9.8832     5.8685     7.0771
  145.0000     8.0775   103.4460     2.4190     0.1372    -0.0116   -51.1846     9.4396     5.7570     6.8470
  145.5000     8.0775   104.1018     2.4158     0.1405    -0.0122   -51.5873     8.9821     5.6172     6.6249
  146.0000     8.0775   102.3901     2.4134     0.1411    -0.0108   -51.5110     8.1266     5.6173     6.3917
  146.5000     8.0775   100.4200     2.4200     0.1350    -0.0071   -51.4317     7.5414     5.6944     6.5951
  147.0000     8.0775   100.3294     2.4305     0.1289    -0.0034   -51.1223    11.0990     5.7790     6.8262
  147.5000     8.0776   101.1382     2.4349     0.1227     0.0003   -50.6074    10.9579     5.8649     7.0653
  148.0000     8.0775   101.9687     2.4390     0.1166     0.0040   -50.0914    10.6869     5.9520     7.3361
  148.5000     8.0775   102.8001     2.4531     0.1104     0.0077   -49.5756    10.5029     6.0405     7.7688
  149.0000     8.0797   103.6307     2.4669     0.1043     0.0114   -49.0598    10.5731     6.1302     8.2683
  149.5000     7.9868   104.4622     2.4763     0.1000     0.0151   -48.8458    10.9105     6.2213     8.2683
  150.0000     7.8586   105.2799     2.4660     0.1071     0.0139   -48.9218    11.0990     6.3138     7.8427
  150.5000     7.7305   105.7368     2.4557     0.1125     0.0121   -49.0316    11.0990     6.4075     6.8785
  151.0000     7.6380   105.0231     2.4547     0.1164     0.0102   -49.6735    11.0990     6.5028     6.9855
  151.5000     7.6361   104.3128     2.4551     0.1108     0.0084   -49.9339    11.0990     6.5994     7.2072
  152.0000     7.8157   104.9044     2.4503     0.1153     0.0061   -50.1921    11.0265     6.6299     7.4359
  152.5000     8.0667   105.7638     2.4404     0.1194     0.0035   -50.4497    10.9453     6.5458     7.6736
  153.0000     8.0776   106.6238     2.4336     0.1235     0.0008   -50.7080    10.8647     6.4691     7.9503
  153.5000     8.0739   107.4787     2.4353     0.1243    -0.0019   -50.9647    10.7847     6.3933     7.8509
  154.0000     8.0712   107.8894     2.4368     0.1217    -0.0046   -51.0469    10.7053     6.3184     7.7138
  154.5000     8.0691   107.2244     2.4383     0.1188    -0.0072   -51.1017    10.6265     6.2444     7.5793
  155.0000     8.0669   105.9662     2.4351     0.1275    -0.0099   -51.1589    10.4567     6.1713     7.4482
  155.5000     8.0648   105.2671     2.4153     0.1372    -0.0126   -51.2188    10.2441     6.1030     7.3193
  156.0000     8.0626   106.3527     2.4141     0.1434    -0.0139   -50.8377    10.0358     5.8597     7.1926
  156.5000     8.0603   110.2119     2.4135     0.1417    -0.0112   -49.6235     9.8318     5.6396     7.0682
  157.0000     8.0579   111.0455     2.4057     0.1450    -0.0087   -48.6648     9.6319     5.4274     6.9458
  157.5000     8.0192   110.4464     2.3927     0.1534    -0.0065   -47.7273     9.4361     5.2229     6.6360
  158.0000     7.9478   109.5574     2.3795     0.1619    -0.0074   -47.5176     9.3649     5.0262     6.1183
  158.5000     7.8761   108.6901     2.3658     0.1695    -0.0085   -48.0981     9.3188     4.8369     5.6414
  159.0000     7.8053   108.2503     2.3638     0.1655    -0.0095   -49.2518     8.4195     4.5911     5.2024
  159.5000     7.7341   108.8260     2.3624     0.1690    -0.0109   -50.3822     6.3470     4.6017     4.8064
  160.0000     7.8170   109.3687     2.3617     0.1739    -0.0190   -51.1760     4.5465     4.6228     5.0754
  160.5000     8.0048   109.9105     2.3737     0.1655    -0.0243   -51.5937     5.8859     4.6804     5.3519
  161.0000     8.0480   110.4535     2.3852     0.1578    -0.0178   -51.5949     9.7391     4.7605     5.6443
  161.5000     8.0583   110.6892     2.3965     0.1502    -0.0116   -51.5978     9.6558     4.9330     5.9534
  162.0000     8.0601   110.1495     2.4020     0.1465    -0.0085   -51.5976     9.4919     5.1095     6.2792
  162.5000     8.0615   109.0543     2.3921     0.1525    -0.0085   -51.5982     9.7476     5.2924     6.6228
  163.0000     8.0630   107.9904     2.3772     0.1590    -0.0085   -51.5964    10.0756     5.4818     6.9853
  163.5000     8.0645   107.2881     2.3705     0.1654    -0.0083   -51.5023    10.4146     5.6780     7.3676
  164.0000     8.0660   107.6165     2.3711     0.1699    -0.0041   -50.9768    10.6954     5.8813     7.7137
  164.5000     8.0675   109.7120     2.3928     0.1542    -0.0001   -50.4542    10.4265     6.0918     8.0431
  165.0000     8.0689   111.8636     2.4138     0.1421     0.0039   -49.9289    10.4914     6.3098     7.9542
  165.5000     8.0704   112.2178     2.4322     0.1300     0.0073   -49.4209    10.7153     6.4759     7.8038
  166.0000     8.0719   108.6194     2.4271     0.1243     0.0039   -49.6068    10.9443     6.5468     7.6111
  166.5000     8.0735   104.9925     2.4208     0.1319     0.0004   -49.8275    11.0662     6.6181     7.8936
  167.0000     8.0750   106.5344     2.4162     0.1295     0.0006   -50.0447    11.1560     6.6902     8.1951
  167.5000     8.0764   108.5074     2.4271     0.1248     0.0021   -50.2586    11.2466     6.7632     8.5082
  168.0000     8.0779   110.5058     2.4415     0.1200     0.0037   -50.3222    11.4605     6.8370     8.9818
  168.5000     8.0794   110.2842     2.4547     0.1152     0.0052   -50.0874    11.8374     6.9116     8.9620
  169.0000     8.0809   109.3002     2.4631     0.1104     0.0066   -49.8469    11.7485     6.9870     8.9063
  169.5000     8.0824   112.6563     2.4630     0.1088     0.0031   -50.0251    11.6718     7.0175     8.8511
  170.0000     8.0839   111.6099     2.4442     0.1181    -0.0138   -50.3196    11.5963     7.0326     8.7958
  170.5000     8.0854   110.3051     2.4203     0.1252    -0.0288   -50.6190    11.5159     7.0477     8.7375
  171.0000     8.0869   109.0393     2.4234     0.1279    -0.0361   -50.9230    11.7460     7.0629     8.9909
  171.5000     8.0884   107.7648     2.4297     0.1264    -0.0299   -51.0844    11.9970     7.0781     9.2692
  172.0000     8.0899   106.5508     2.4277     0.1261    -0.0246   -51.2052    12.1695     7.0933     9.4063
  172.5000     8.0914   107.2068     2.4236     0.1276    -0.0272   -51.3241    12.1693     7.1085     9.4044
  173.0000     8.0929   107.9731     2.4288     0.1258    -0.0298   -51.4427    12.1689     7.1238     9.4050
  173.5000     8.0944   107.5244     2.4337     0.1240    -0.0281   -51.5651    12.1686     7.1391     9.4048
  174.0000     8.0960   106.8034     2.4392     0.1166    -0.0222   -51.5088    12.1708     7.1544     9.4046
  174.5000     8.0973   107.4441     2.4590     0.1084    -0.0137   -51.3407    12.1651     7.1698     9.4040
  175.0000     8.0940   108.9424     2.4738     0.1030    -0.0049   -51.1712    12.6195     7.1851     9.4056
  175.5000     8.0905   110.8991     2.4776     0.0987    -0.0051   -51.0012    12.1760     7.2007     9.2697
  176.0000     8.0870   107.5203     2.4820     0.0944    -0.0058   -50.8314    11.4081     7.1639     9.0795
  176.5000     8.0835   103.5116     2.4919     0.0901    -0.0065   -50.6613    11.5039     7.1212     8.8933
  177.0000     8.0801   103.7844     2.4949     0.0884    -0.0057   -50.4909    11.9439     7.0788     8.7108
  177.5000     8.0766   106.1177     2.4773     0.1019    -0.0050   -50.3237    11.5351     7.0366     8.5321
  178.0000     8.0731   108.4590     2.4555     0.1141    -0.0062   -50.2460    11.1680     6.9663     8.3571
  178.5000     8.0696   109.1224     2.4337     0.1264    -0.0140   -50.4534    10.8125     6.8242     8.1856
  179.0000     8.0661   106.8147     2.4111     0.1386    -0.0223   -50.6524    10.6980     6.6849     8.0177
  179.5000     8.0627   103.1750     2.4055     0.1448    -0.0231   -50.8509    10.6980     6.5485     7.7962
  180.0000     8.0592   100.2521     2.4164     0.1394    -0.0165   -51.0499    10.6271     6.3727     7.4291
  180.5000     8.0557   100.7167     2.4255     0.1340    -0.0098   -51.2489    10.3600     6.0873     7.0792
