~VERSION INFORMATION
 VERS.                2.0:   CWLS LOG ASCII STANDARD - VERSION 2.0
 WRAP.                 NO:   ONE LINE PER DEPTH STEP
~WELL INFORMATION
#MNEM.UNIT      DATA TYPE    INFORMATION
#----------   ------------   ------------------------------
 STRT.F            0.0000:   START DEPTH
 STOP.F         2230.0000:   STOP DEPTH
 STEP.F            0.5000:   STEP LENGTH
 NULL.          -999.2500:   NO VALUE
 COMP. LAWRENCE/ALLISON INC:   COMPANY
 WELL. NPR 3 SH X 34 #48-34:   WELL
 FLD .            WILDCAT:   FIELD
 LOC .      S34 T39N R78W:   LOCATION
 CNTY.            NATRONA:   COUNTY
 STAT.            WYOMING:   STATE
 CTRY. UNITED STATES OF AMERICA:   COUNTRY
 SRVC.            Unknown:   SERVICE COMPANY
 DATE.        02-SEP-1991:   LOGDATE
 API .       490251110600:   API NUMBER
~CURVE INFORMATION
#MNEM.UNIT       API CODE    CURVE DESCRIPTION
#----------   ------------   ------------------------------
 DEPT.F                  :   
 ROP .MIN/FT 91 810 01 00:   RAT OF DRILLING PENETRATION
 TGAS.UNITS  91 830 01 00:   TOTAL GAS FROM HOTWIRE
 C1  .VF     91 831 01 00:   METHANE
 C2  .VF     91 832 01 00:   ETHANE
 C3  .VF     91 833 01 00:   PROPANE
 C4  .VF     91 834 01 00:   BUTANE
 TT  .US/F   81 520 00 00:   TRANSIT TIME
 GR  .GAPI   81 310 01 00:   GAMMA RAY FROM CEMENT BOND LOG
~PARAMETER INFORMATION
#MNEM.UNIT          VALUE    DESCRIPTION
#----------   ------------   ------------------------------
 EKB .F              5145:   KELLING BUSHING
 EGL .F              5135:   GROUND LEVEL
 DATE.          09-2-1991:   RUN DATE
 RUN .                  1:   RUN NUMBER
 BLI .F              2400:   BOTTOM LOG INTERVAL
 TLI .F              2200:   TOP LOG INTERVAL
 ENGI.           C. TOWER:   RECORDING ENGINEER
 WITN.            R. HUSK:   WITNESSED BY
 CLNT.            A2DTECH:   CLIENT CODE
 ORIG.           5" PRINT:   ORIGIN OF DATA
 UWI .       490251110600:   UNIQUE WELL ID
 DICO. A2D Technologies, Inc.:   DIGITIZING COMPANY
~OTHER INFORMATION
~A    DEPT     ROP       TGAS         C1         C2         C3         C4          TT         GR  
# ...
 1255.5000     0.5339     5.9524    10.1102     2.1429  -999.2500  -999.2500  -999.2500  -999.2500
 1256.0000     0.5339     5.9524    10.1147     2.1429  -999.2500  -999.2500  -999.2500  -999.2500
 1256.5000     0.5339     5.9524    10.1192     2.1429  -999.2500  -999.2500  -999.2500  -999.2500
 1257.0000     0.5339     5.9524    10.1237     2.1429  -999.2500  -999.2500  -999.2500  -999.2500
 1257.5000     0.5339     5.9524    10.1282     2.1429  -999.2500  -999.2500  -999.2500  -999.2500
 1258.0000     0.5339     5.9524    10.1326     2.1429  -999.2500  -999.2500  -999.2500  -999.2500
 1258.5000     0.5339     5.9524    10.1371     2.1429  -999.2500  -999.2500  -999.2500  -999.2500
 1259.0000     0.5339     5.9524    10.1416     2.1429  -999.2500  -999.2500  -999.2500  -999.2500
 1259.5000     0.5339     5.9524    10.1461     2.1429  -999.2500  -999.2500  -999.2500  -999.2500
 1260.0000     0.5339     5.9524    10.1506     2.1429  -999.2500  -999.2500  -999.2500  -999.2500
 1260.5000     0.5339     5.9524    10.1551     2.1429  -999.2500  -999.2500  -999.2500  -999.2500
 1261.0000     0.5339     5.9524    10.1595     2.1429  -999.2500  -999.2500  -999.2500  -999.2500
 1261.5000     0.5339     5.9524    10.1640     2.1429  -999.2500  -999.2500  -999.2500  -999.2500
 1262.0000     0.5339     5.9524    10.1685     2.1429  -999.2500  -999.2500  -999.2500  -999.2500
 1262.5000     0.5344     5.9524    10.1730     2.1429  -999.2500  -999.2500  -999.2500  -999.2500
 1263.0000     0.5349     5.9524    10.1775     2.1429  -999.2500  -999.2500  -999.2500  -999.2500
 1263.5000     0.5354     5.9524    10.1820     2.1429  -999.2500  -999.2500  -999.2500  -999.2500
 1264.0000     0.5359     5.9524    10.1865     2.1429  -999.2500  -999.2500  -999.2500  -999.2500
 1264.5000     0.5364     5.9524    10.1909     2.1429  -999.2500  -999.2500  -999.2500  -999.2500
 1265.0000     0.5370     5.9523    10.1954     2.1429  -999.2500  -999.2500  -999.2500  -999.2500
 1265.5000     0.5375     5.9486    10.1999     2.1429  -999.2500  -999.2500  -999.2500  -999.2500
 1266.0000     0.5380     5.9392    10.2044     2.1429  -999.2500  -999.2500  -999.2500  -999.2500
 1266.5000     0.5385     5.9299    10.2089     2.1429  -999.2500  -999.2500  -999.2500  -999.2500
 1267.0000     0.5390     5.9205    10.2134     2.1429  -999.2500  -999.2500  -999.2500  -999.2500
 1267.5000     0.5395     5.9112    10.2178     2.1429  -999.2500  -999.2500  -999.2500  -999.2500
 1268.0000     0.5400     5.9018    10.2223     2.1429  -999.2500  -999.2500  -999.2500  -999.2500
 1268.5000     0.5405     5.8925    10.2268     2.1429  -999.2500  -999.2500  -999.2500  -999.2500
 1269.0000     0.5411     5.8831    10.2313     2.1429  -999.2500  -999.2500  -999.2500  -999.2500
 1269.5000     0.5416     5.8738    10.2358     2.1429  -999.2500  -999.2500  -999.2500  -999.2500
 1270.0000     0.5421     5.8644    10.2403     2.1429  -999.2500  -999.2500  -999.2500  -999.2500
 1270.5000     0.5426     5.8550    10.2448     2.1429  -999.2500  -999.2500  -999.2500  -999.2500
 1271.0000     0.5431     5.8457    10.2492     2.1429  -999.2500  -999.2500  -999.2500  -999.2500
 1271.5000     0.5436     5.8363    10.2537     2.1429  -999.2500  -999.2500  -999.2500  -999.2500
 1272.0000     0.5441     5.8270    10.2582     2.1429  -999.2500  -999.2500  -999.2500  -999.2500
 1272.5000     0.5447     5.8176    10.2627     2.1429  -999.2500  -999.2500  -999.2500  -999.2500
 1273.0000     0.5452     5.8083    10.2672     2.1429  -999.2500  -999.2500  -999.2500  -999.2500
 1273.5000     0.5457     5.7989    10.2717     2.1429  -999.2500  -999.2500  -999.2500  -999.2500
 1274.0000     0.5462     5.7896    10.2761     2.1429  -999.2500  -999.2500  -999.2500  -999.2500
 1274.5000     0.5459     5.7802    10.2806     2.1429  -999.2500  -999.2500  -999.2500  -999.2500
 1275.0000     0.5446     5.7709    10.2851     2.1429  -999.2500  -999.2500  -999.2500  -999.2500
 1275.5000     0.5433     5.7615    10.2896     2.1429  -999.2500  -999.2500  -999.2500  -999.2500
 1276.0000     0.5421     5.7521    10.2941     2.1429  -999.2500  -999.2500  -999.2500  -999.2500
 1276.5000     0.5408     5.7428    10.2986     2.1429  -999.2500  -999.2500  -999.2500  -999.2500
 1277.0000     0.5395     5.7334    10.3031     2.1429  -999.2500  -999.2500  -999.2500  -999.2500
 1277.5000     0.5382     5.7241    10.3075     2.1429  -999.2500  -999.2500  -999.2500  -999.2500
 1278.0000     0.5369     5.7147    10.3120     2.1429  -999.2500  -999.2500  -999.2500  -999.2500
 1278.5000     0.5356     5.7054    10.3165     2.1429  -999.2500  -999.2500  -999.2500  -999.2500
 1279.0000     0.5343     5.6960    10.3210     2.1429  -999.2500  -999.2500  -999.2500  -999.2500
 1279.5000     0.5331     5.6867    10.3255     2.1429  -999.2500  -999.2500  -999.2500  -999.2500
 1280.0000     0.5318     5.6773    10.3300     2.1429  -999.2500  -999.2500  -999.2500  -999.2500
 1280.5000     0.5305     5.6680    10.3344     2.1429  -999.2500  -999.2500  -999.2500  -999.2500
 1281.0000     0.5292     5.6586    10.3389     2.1429  -999.2500  -999.2500  -999.2500  -999.2500
 1281.5000     0.5279     5.6493    10.3434     2.1429  -999.2500  -999.2500  -999.2500  -999.2500
 1282.0000     0.5266     5.6399    10.3479     2.1429  -999.2500  -999.2500  -999.2500  -999.2500
 1282.5000     0.5253     5.6305    10.3524     2.1429  -999.2500  -999.2500  -999.2500  -999.2500
 1283.0000     0.5241     5.6212    10.3569     2.1429  -999.2500  -999.2500  -999.2500  -999.2500
 1283.5000     0.5228     5.6118    10.3614     2.1429  -999.2500  -999.2500  -999.2500  -999.2500
 1284.0000     0.5214     5.6025    10.3659     2.1429  -999.2500  -999.2500  -999.2500  -999.2500
 1284.5000     0.5219     5.5931    10.3703     2.1429  -999.2500  -999.2500  -999.2500  -999.2500
 1285.0000     0.5225     5.5838    10.3748     2.1429  -999.2500  -999.2500  -999.2500  -999.2500
 1285.5000     0.5232     5.5744    10.3793     2.1429  -999.2500  -999.2500  -999.2500  -999.2500
 1286.0000     0.5238     5.5651    10.3838     2.1429  -999.2500  -999.2500  -999.2500  -999.2500
 1286.5000     0.5244     5.5557    10.3883     2.1429  -999.2500  -999.2500  -999.2500  -999.2500
 1287.0000     0.5250     5.5464    10.3927     2.1429  -999.2500  -999.2500  -999.2500  -999.2500
 1287.5000     0.5257     5.5370    10.3972     2.1429  -999.2500  -999.2500  -999.2500  -999.2500
 1288.0000     0.5263     5.5276    10.4017     2.1429  -999.2500  -999.2500  -999.2500  -999.2500
 1288.5000     0.5269     5.5183    10.4062     2.1429  -999.2500  -999.2500  -999.2500  -999.2500
 1289.0000     0.5275     5.5089    10.4107     2.1429  -999.2500  -999.2500  -999.2500  -999.2500
 1289.5000     0.5281     5.4995    10.4152     2.1429  -999.2500  -999.2500  -999.2500  -999.2500
 1290.0000     0.5288     5.4903    10.4197     2.1429  -999.2500  -999.2500  -999.2500  -999.2500
 1290.5000     0.5294     5.4810    10.4242     2.1429  -999.2500  -999.2500  -999.2500  -999.2500
 1291.0000     0.5300     5.4829    10.4286     2.1429  -999.2500  -999.2500  -999.2500  -999.2500
 1291.5000     0.5306     5.4960    10.4331     2.1429  -999.2500  -999.2500  -999.2500  -999.2500
 1292.0000     0.5312     5.5091    10.4376     2.1429  -999.2500  -999.2500  -999.2500  -999.2500
 1292.5000     0.5319     5.5223    10.4421     2.1429  -999.2500  -999.2500  -999.2500  -999.2500
 1293.0000     0.5325     5.5354    10.4466     2.1429  -999.2500  -999.2500  -999.2500  -999.2500
 1293.5000     0.5331     5.5486    10.4511     2.1429  -999.2500  -999.2500  -999.2500  -999.2500
 1294.0000     0.5337     5.5618    10.4555     2.1429  -999.2500  -999.2500  -999.2500  -999.2500
 1294.5000     0.5348     5.5749    10.4600     2.1429  -999.2500  -999.2500  -999.2500  -999.2500
 1295.0000     0.5361     5.5881    10.4645     2.1429  -999.2500  -999.2500  -999.2500  -999.2500
 1295.5000     0.5373     5.6013    10.4690     2.1429  -999.2500  -999.2500  -999.2500  -999.2500
