~VERSION INFORMATION
 VERS.                2.0:   CWLS LOG ASCII STANDARD - VERSION 2.0
 WRAP.                 NO:   ONE LINE PER DEPTH STEP
~WELL INFORMATION
#MNEM.UNIT      DATA TYPE    INFORMATION
#----------   ------------   ------------------------------
 STRT.F           90.0000:   START DEPTH
 STOP.F          928.0000:   STOP DEPTH
 STEP.F            0.5000:   STEP LENGTH
 NULL.          -999.2500:   NO VALUE
 COMP.  UNITED STATE NAVY:   COMPANY
 WELL.      NPR 3 #58-S-2:   WELL
 FLD .             TEAPOT:   FIELD
 LOC .       S2 T38N R78W:   LOCATION
 CNTY.            NATRONA:   COUNTY
 STAT.            WYOMING:   STATE
 CTRY. UNITED STATES OF AMERICA:   COUNTRY
 SRVC.       Schlumberger:   SERVICE COMPANY
 DATE.        26-JUN-1962:   LOGDATE
 API .       490250639500:   API NUMBER
~CURVE INFORMATION
#MNEM.UNIT       API CODE    CURVE DESCRIPTION
#----------   ------------   ------------------------------
 DEPT.F                  :   
 ASN .OHMM   05 041 16 00:   AMPLIFIED SHORT NORMAL 16"
 ILD .OHMM   05 120 46 00:   INDUCTION LOG DEEP
 CILD.MMHO   05 110 46 00:   CONDUCTIVITY INDUCTION LOG DEEP
 SPR .MV     05 010 01 00:   SPONTANEOUS POTENTIAL FROM RES.
 GR  .GAPI   30 310 01 00:   GAMMA RAY
~PARAMETER INFORMATION
#MNEM.UNIT          VALUE    DESCRIPTION
#----------   ------------   ------------------------------
 PD  .                 KB:   PERMANENT DATUM
 EKB .F              5189:   KELLING BUSHING
 EGL .F              5184:   GROUND LEVEL
 DATE.        26-JUN-1962:   RUN DATE
 RUN .                  1:   RUN NUMBER
 DD  .F               925:   DEPTH DRILLER
 DL  .F               929:   DEPTH LOGGER
 BLI .F               928:   BOTTOM LOG INTERVAL
 TLI .F                90:   TOP LOG INTERVAL
 BS  .IN             6.75:   BIT SIZE
 BSD .F               925:   BIT SIZE AT DEPTH
 DFT .       OIL EMULSION:   DRILLING FLUID TYPE
 DFD .                 10:   DRILLING FLUID DENSITY
 DFV .                 50:   DRILLING FLUID VISCOSITY
 DFL .                3.7:   DRILLING FLUID LOSS
 RMS .OHMM            4.7:   RESISTIVITY MUD SAMPLE
 MST .F                83:   MUD SAMPLE TEMPERATURE
 RMF .OHMM            3.8:   RESISTIVITY MUD FILTRATE SAMPLE
 MFST.F                83:   MUD FILTRATE SAMPLE TEMPERATURE
 RMC .OHMM            4.4:   RESISTIVITY MUD CAKE
 MCST.F                83:   MUD CAKE SAMPLE TEMPERATURE
 TCS .HRS               1:   TIME CURCULATED STOPPED
 LUN .               2503:   LOGGING UNIT NUMBER
 LUL .               CSPR:   LOGGING UNIT LOCATION
 ENGI.             DANNER:   RECORDING ENGINEER
 WITN.          JORGENSEN:   WITNESSED BY
 CLNT.            A2DTECH:   CLIENT CODE
 ORIG.      2" & 5" PRINT:   ORIGIN OF DATA
 UWI .       490250639500:   UNIQUE WELL ID
 DICO. A2D Technologies, Inc.:   DIGITIZING COMPANY
~OTHER INFORMATION
~A   DEPT        ASN        ILD      CILD       SPR         GR   
# ...
  578.0000     8.2537     8.1800   133.6558   -51.9701  -999.2500
  578.5000     8.2237     8.1815   134.3777   -51.9627  -999.2500
  579.0000     8.1646     8.1077   135.8515   -51.5075  -999.2500
  579.5000     8.0889     7.9596   138.0771   -51.0522  -999.2500
  580.0000     7.9990     7.8858   141.7990   -51.3433  -999.2500
  580.5000     7.9091     7.7377   144.0246   -51.4851  -999.2500
  581.0000     7.8192     7.6642   146.2578   -51.6269  -999.2500
  581.5000     7.7430     7.5907   147.7315   -51.7687  -999.2500
  582.0000     7.6394     7.5923   149.2053   -51.6119  -999.2500
  582.5000     7.5660     7.5938   149.1678   -51.6045  -999.2500
  583.0000     7.5843     7.6702   149.1378   -51.4478  -999.2500
  583.5000     7.6579     7.6717   148.3559   -51.4403  -999.2500
  584.0000     7.7349     7.7482   145.3184   -51.4328  -999.2500
  584.5000     7.8402     7.8246   142.2809   -51.2761  -999.2500
  585.0000     7.9435     7.9011   139.9953   -51.2687  -999.2500
  585.5000     8.0208     7.9775   138.4615   -51.1119  -999.2500
  586.0000     8.1261     8.0540   136.9277   -50.9552  -999.2500
  586.5000     8.1842     8.1304   136.1459   -50.7985  -999.2500
  587.0000     8.1796     8.2069   134.6121   -50.7910  -999.2500
  587.5000     8.0722     8.2834   133.8302   -50.7836  -999.2500
  588.0000     8.0975     8.3598   133.0483   -50.6269  -999.2500
  588.5000     8.2178     8.3613   132.2665   -50.6194  -999.2500
  589.0000     8.3353     8.3628   131.4846   -50.6119  -999.2500
  589.5000     8.3955     8.3643   130.7027   -50.7537  -999.2500
  590.0000     8.4078     8.3658   130.6727   -50.8955  -999.2500
  590.5000     8.4080     8.3673   129.8908   -51.0373  -999.2500
  591.0000     8.3931     8.3688   130.6202   -51.1791  -999.2500
  591.5000     8.3333     8.3703   130.5827   -51.3209  -999.2500
  592.0000     8.3335     8.2968   131.3121   -51.3134  -999.2500
  592.5000     8.3186     8.2984   132.7783   -51.1567  -999.2500
  593.0000     8.3188     8.2999   133.5077   -50.8507  -999.2500
  593.5000     8.2889     8.2263   134.2296   -50.9925  -999.2500
  594.0000     8.2441     8.2279   135.6959   -51.1343  -999.2500
  594.5000     8.2443     8.2294   135.6658   -51.2761  -999.2500
  595.0000     8.2444     8.2312   135.6358   -51.4179  -999.2500
  595.5000     8.2446     8.3076   135.6059   -51.4104  -999.2500
  596.0000     8.2297     8.3091   135.5759   -51.5522  -999.2500
  596.5000     8.1999     8.3106   135.5459   -51.6940  -999.2500
  597.0000     8.1700     8.3121   134.7640   -51.6866  -999.2500
  597.5000     8.2302     8.3886   133.9821   -51.6791  -999.2500
  598.0000     8.3503     8.5400   132.4483   -51.8209  -999.2500
  598.5000     8.5153     8.6165   130.9146   -51.8134  -999.2500
  599.0000     8.6654     8.7679   127.8771   -51.8060  -999.2500
  599.5000     8.8604     8.8443   124.8395   -51.7985  -999.2500
  600.0000     9.0255     8.9372   122.2242   -51.7910  -999.2500
  600.5000     9.1906     9.1390   120.1961   -51.9738  -999.2500
  601.0000     9.3706     9.3703   118.6365   -51.9340  -999.2500
  601.5000     9.5357     9.4453   116.4260   -51.7817  -999.2500
  602.0000     9.6575     9.5202   115.0075   -51.7787  -999.2500
  602.5000     9.8059     9.5202   113.4962   -51.7756  -999.2500
  603.0000     9.8987     9.6702   111.2329   -51.9226  -999.2500
  603.5000     9.9991     9.8951   108.9696   -52.0688  -999.2500
  604.0000    10.2049    10.1199   105.9545   -52.2151  -999.2500
  604.5000    10.5747    10.3448   102.9393   -52.5105  -999.2500
  605.0000    10.9445    10.4948    99.1722   -52.8060  -999.2500
  605.5000    11.3193    10.7196    95.4052   -52.9522  -999.2500
  606.0000    11.6192    10.8696    93.8938   -52.9492  -999.2500
  606.5000    11.3193    10.9445    92.3824   -52.9462  -999.2500
  607.0000    11.1694    11.0945    91.6228   -52.9431  -999.2500
  607.5000    11.7691    11.0945    92.3690   -53.2386  -999.2500
  608.0000    11.8441    11.0945    93.8632   -53.5349  -999.2500
  608.5000    11.3943    11.0195    93.9646   -53.8303  -999.2500
  609.0000    11.1694    10.9445    94.6563   -53.6773  -999.2500
  609.5000    11.0945    10.7946    96.8496   -53.5250  -999.2500
  610.0000    10.9445    10.6447    97.5940   -53.3727  -999.2500
  610.5000    10.8696    10.4948    99.0903   -53.2204  -999.2500
  611.0000    10.8696    10.3448    99.8346   -53.2174  -999.2500
  611.5000    10.7946    10.1949   100.5784   -53.3636  -999.2500
  612.0000    10.7946    10.1199   101.3226   -53.2114  -999.2500
  612.5000    10.7946    10.1949   102.0688   -53.3583  -999.2500
  613.0000    10.7196    10.1949   102.0592   -53.2060  -999.2500
  613.5000    10.6447    10.1949   102.0516   -53.2030  -999.2500
  614.0000    10.5697    10.1949   102.7977   -53.2000  -999.2500
  614.5000    10.4948    10.1949   102.0363   -53.0477  -999.2500
  615.0000    10.4948    10.1199   102.0286   -52.8954  -999.2500
  615.5000    10.4948    10.1199   101.2707   -52.8924  -999.2500
  616.0000    10.4948    10.1199   100.5113   -52.8894  -999.2500
  616.5000    10.4948    10.1199   100.4864   -52.8863  -999.2500
  617.0000    10.4948    10.1199    99.7443   -53.0333  -999.2500
  617.5000    10.4948    10.1199    99.7366   -53.3280  -999.2500
  618.0000    10.4948    10.1199    99.7290   -53.4750  -999.2500
  618.5000    10.4948    10.1199   101.2251   -53.3220  -999.2500
  619.0000    10.4198    10.1199   102.7212   -52.8712  -999.2500
  619.5000    10.3107     9.9700   103.4673   -52.5696  -999.2500
  620.0000    10.1850     9.9700   106.4653   -52.5666  -999.2500
  620.5000    10.0593     9.8951   108.7133   -52.5642  -999.2500
  621.0000     9.9370     9.8201   110.2094   -52.5612  -999.2500
  621.5000     9.8501     9.6702   111.7055   -52.3960  -999.2500
  622.0000     9.8191     9.5952   112.4516   -52.1075  -999.2500
  622.5000     9.7751     9.5202   113.1958   -52.1045  -999.2500
  623.0000     9.6852     9.4453   114.0250   -52.2508  -999.2500
  623.5000     9.5952     9.3703   114.7167   -52.2476  -999.2500
  624.0000     9.5052     9.3703   116.1804   -52.2446  -999.2500
  624.5000     9.4303     9.2954   116.9248   -52.2416  -999.2500
  625.0000     9.3553     9.2204   118.4207   -52.3878  -999.2500
  625.5000     9.2804     9.0705   119.1650   -52.6833  -999.2500
  626.0000     9.1904     8.9955   120.6630   -53.1280  -999.2500
  626.5000     9.1154     8.9955   122.1572   -52.6772  -999.2500
  627.0000     8.9955     8.8456   122.9033   -52.0772  -999.2500
  627.5000     8.8756     8.8456   123.6475   -51.7756  -999.2500
  628.0000     8.8306     8.8456   123.6380   -51.6234  -999.2500
  628.5000     8.8156     8.8456   124.3841   -51.4711  -999.2500
  629.0000     8.7686     8.7706   124.3745   -51.0209  -999.2500
  629.5000     8.7716     8.8456   124.3684   -51.0937  -999.2500
  630.0000     8.7256     8.7706   124.2604   -51.6120  -999.2500
  630.5000     8.6807     8.7706   122.8496   -51.4597  -999.2500
  631.0000     8.7993     8.7706   121.3383   -51.3074  -999.2500
  631.5000     8.9505     8.7706   120.5788   -51.4537  -999.2500
  632.0000     8.7706     8.7706   120.5712   -52.1969  -999.2500
  632.5000     8.7556     8.7706   121.3173   -52.1939  -999.2500
  633.0000     8.7706     8.7706   121.3077   -52.1908  -999.2500
  633.5000     8.7376     8.7554   124.3076   -52.1878  -999.2500
  634.0000     8.6617     8.4598   128.8112   -52.3348  -999.2500
  634.5000     8.4927     8.1642   135.5705   -52.3310  -999.2500
  635.0000     8.0210     8.0160   140.8260   -52.0294  -999.2500
  635.5000     7.8711     7.7961   143.0740   -51.4294  -999.2500
  636.0000     7.6762     7.6462   145.3239   -50.8294  -999.2500
  636.5000     7.5412     7.4963   147.5719   -50.6771  -999.2500
  637.0000     7.5112     7.4213   148.4309   -50.5248  -999.2500
  637.5000     7.4513     7.4213   150.6267   -50.3732  -999.2500
  638.0000     7.3763     7.3463   152.0602   -50.3860  -999.2500
  638.5000     7.5712     7.4213   152.0525   -50.8219  -999.2500
