~VERSION INFORMATION
 VERS.                2.0:   CWLS LOG ASCII STANDARD - VERSION 2.0
 WRAP.                 NO:   ONE LINE PER DEPTH STEP
~WELL INFORMATION
#MNEM.UNIT      DATA TYPE    INFORMATION
#----------   ------------   ------------------------------
 STRT.F           10.0000:   START DEPTH
 STOP.F         2599.5000:   STOP DEPTH
 STEP.F            0.5000:   STEP LENGTH
 NULL.          -999.2500:   NO VALUE
 COMP. FENIX & SCISSON INC:   COMPANY
 WELL.   34-SHX-33 #34-33:   WELL
 FLD .             TEAPOT:   FIELD
 LOC .      S33 T39N R78W:   LOCATION
 CNTY.            NATRONA:   COUNTY
 STAT.            WYOMING:   STATE
 CTRY. UNITED STATES OF AMERICA:   COUNTRY
 SRVC.           BIRDWELL:   SERVICE COMPANY
 DATE.        20-FEB-1978:   LOGDATE
 API .       490251058400:   API NUMBER
~CURVE INFORMATION
#MNEM.UNIT       API CODE    CURVE DESCRIPTION
#----------   ------------   ------------------------------
 DEPT.F                  :   
 GR  .GAPI   30 310 01 00:   GAMMA RAY
 CALI.IN     70 280 01 00:   CALIPER
~PARAMETER INFORMATION
#MNEM.UNIT          VALUE    DESCRIPTION
#----------   ------------   ------------------------------
 PD  .                 GL:   PERMANENT DATUM
 EPD .F              5174:   ELEVATION PERMANENT DATUM
 LMF .                 KB:   LOG MEASURED FROM
 DAPD.F                10:   FEET ABOVE PERMANENT DATUM
 DMF .                 KB:   DRILLING MEASURED FROM
 EKB .F              5184:   KELLING BUSHING
 EGL .F              5174:   GROUND LEVEL
 DATE.            2-20-78:   RUN DATE
 RUN .                  1:   RUN NUMBER
 DD  .F              2590:   DEPTH DRILLER
 DL  .F              2600:   DEPTH LOGGER
 BLI .F              2600:   BOTTOM LOG INTERVAL
 CS  .IN            8.625:   CASING SIZE
 CBD .F               737:   CASING BOTTOM DRILLER
 BS  .IN            8.625:   BIT SIZE
 BSD .F              2590:   BIT SIZE AT DEPTH
 TCS .HRS               2:   TIME CURCULATED STOPPED
 LUL .             CASPER:   LOGGING UNIT LOCATION
 ENGI.             MILLER:   RECORDING ENGINEER
 WITN.           MCGINLEY:   WITNESSED BY
 CLNT.            A2DTECH:   CLIENT CODE
 ORIG.           5" PRINT:   ORIGIN OF DATA
 UWI .       490251058400:   UNIQUE WELL ID
 DICO. A2D Technologies, Inc.:   DIGITIZING COMPANY
~OTHER INFORMATION
~A   DEPT        GR      CALI   
# ...
 2440.0000   154.0349     9.4203
 2440.5000   151.4114     9.4203
 2441.0000   152.0301     9.4203
 2441.5000   152.2786     9.4203
 2442.0000   152.2581     9.4203
 2442.5000   154.3466     9.4203
 2443.0000   158.0205     9.4203
 2443.5000   161.8585     9.4203
 2444.0000   165.7158     9.4203
 2444.5000   169.6081     9.4203
 2445.0000   173.5327     9.4203
 2445.5000   174.0988     9.4203
 2446.0000   171.3208     9.4203
 2446.5000   168.6062     9.4203
 2447.0000   169.6968     9.4203
 2447.5000   171.9577     9.4203
 2448.0000   174.2687     9.4203
 2448.5000   174.8164     9.4203
 2449.0000   172.8189     9.4203
 2449.5000   169.6216     9.4203
 2450.0000   166.3114     9.4203
 2450.5000   169.2045     9.4203
 2451.0000   175.5026     9.4203
 2451.5000   181.7660     9.4203
 2452.0000   181.9089     9.4203
 2452.5000   179.5721     9.4203
 2453.0000   175.4630     9.4203
 2453.5000   171.4148     9.4203
 2454.0000   170.8411     9.4203
 2454.5000   170.5393     9.4203
 2455.0000   171.1595     9.4208
 2455.5000   174.4660     9.4226
 2456.0000   178.9467     9.4244
 2456.5000   180.6776     9.4263
 2457.0000   178.3078     9.4281
 2457.5000   174.0402     9.4298
 2458.0000   165.9221     9.4317
 2458.5000   156.4212     9.4335
 2459.0000   148.2722     9.4353
 2459.5000   149.9958     9.4371
 2460.0000   155.2674     9.4388
 2460.5000   166.1087     9.4403
 2461.0000   177.6519     9.4440
 2461.5000   196.7759     9.4629
 2462.0000   215.0154     9.4815
 2462.5000   217.6653     9.5003
 2463.0000   211.7350     9.5193
 2463.5000   201.5302     9.5192
 2464.0000   184.4268     9.3833
 2464.5000   162.0387     9.3221
 2465.0000   150.4073     9.3203
 2465.5000   144.6369     9.3205
 2466.0000   139.6415     9.3207
 2466.5000   137.3242     9.3212
 2467.0000   139.6557     9.3216
 2467.5000   142.8191     9.3221
 2468.0000   147.3845     9.3225
 2468.5000   152.1534     9.3230
 2469.0000   157.0137     9.3234
 2469.5000   159.8726     9.3238
 2470.0000   160.9572     9.3243
 2470.5000   157.8040     9.3247
 2471.0000   154.2751     9.3252
 2471.5000   152.0278     9.3256
 2472.0000   156.4894     9.3261
 2472.5000   164.4938     9.3265
 2473.0000   168.8430     9.3270
 2473.5000   166.8156     9.3274
 2474.0000   160.0809     9.3279
 2474.5000   149.0458     9.3283
 2475.0000   141.9656     9.3288
 2475.5000   135.6958     9.3292
 2476.0000   135.2401     9.3296
 2476.5000   139.6416     9.3301
 2477.0000   144.7905     9.3306
 2477.5000   149.7729     9.3310
 2478.0000   150.3575     9.3314
 2478.5000   150.8961     9.3319
 2479.0000   152.3149     9.3323
 2479.5000   155.3796     9.3328
 2480.0000   158.4530     9.3332
 2480.5000   161.5023     9.3337
 2481.0000   163.8184     9.3341
 2481.5000   162.1842     9.3346
 2482.0000   161.2627     9.3350
 2482.5000   157.9388     9.3355
 2483.0000   154.2509     9.3359
 2483.5000   150.8036     9.3364
 2484.0000   147.8284     9.3368
 2484.5000   147.3831     9.3372
 2485.0000   149.3066     9.3377
 2485.5000   152.4134     9.3381
 2486.0000   155.4512     9.3386
 2486.5000   155.0638     9.3390
 2487.0000   151.5978     9.3394
 2487.5000   149.1302     9.3400
 2488.0000   152.1472     9.3407
 2488.5000   159.0623     9.3604
 2489.0000   164.9498     9.4021
 2489.5000   164.6596     9.4021
 2490.0000   164.6178     9.4033
 2490.5000   164.8457     9.4047
 2491.0000   164.9378     9.4061
 2491.5000   162.2110     9.4074
 2492.0000   157.2601     9.4088
 2492.5000   153.3919     9.4101
 2493.0000   151.1600     9.4115
 2493.5000   149.9417     9.4128
 2494.0000   148.6119     9.4142
 2494.5000   148.3233     9.4155
 2495.0000   148.7526     9.4169
 2495.5000   151.0021     9.4183
 2496.0000   155.7711     9.4196
 2496.5000   160.9282     9.4244
 2497.0000   165.3487     9.4333
 2497.5000   165.9245     9.4422
 2498.0000   165.1638     9.4511
 2498.5000   162.6961     9.4600
 2499.0000   160.2691     9.4689
 2499.5000   158.6241     9.4778
 2500.0000   158.7173     9.4866
 2500.5000   162.7462     9.4956
 2501.0000   165.9705     9.5045
 2501.5000   164.3384     9.5132
 2502.0000   161.0657     9.5172
 2502.5000   161.5327     9.5045
 2503.0000   162.9511     9.4922
 2503.5000   164.4033     9.4799
 2504.0000   164.9413     9.4676
 2504.5000   164.6869     9.4553
 2505.0000   163.2413     9.4428
 2505.5000   161.8354     9.4403
 2506.0000   162.1444     9.4402
 2506.5000   162.5898     9.4403
 2507.0000   164.4013     9.4404
 2507.5000   165.6728     9.4398
 2508.0000   165.5329     9.4103
 2508.5000   166.9046     9.3775
 2509.0000   166.2292     9.3618
 2509.5000   165.4548     9.3640
 2510.0000   167.0506     9.3662
 2510.5000   168.9967     9.3685
 2511.0000   170.9431     9.3708
 2511.5000   172.6311     9.3731
 2512.0000   168.9630     9.3754
 2512.5000   166.0482     9.3777
 2513.0000   163.6315     9.3807
 2513.5000   155.5292     9.3564
 2514.0000   147.0540     9.3266
 2514.5000   142.8436     9.2999
 2515.0000   141.2471     9.3007
 2515.5000   144.5221     9.3008
 2516.0000   145.8500     9.3008
 2516.5000   151.7350     9.3007
 2517.0000   158.3793     9.2964
 2517.5000   163.0669     9.2795
 2518.0000   167.8771     9.2632
 2518.5000   171.5292     9.2610
 2519.0000   174.9572     9.2609
 2519.5000   176.5723     9.2611
 2520.0000   169.0642     9.2433
 2520.5000   161.4351     9.2204
 2521.0000   153.9372     9.2224
 2521.5000   150.0094     9.2237
 2522.0000   150.7942     9.2249
 2522.5000   153.9569     9.2262
 2523.0000   159.6252     9.2274
 2523.5000   164.5799     9.2287
 2524.0000   163.6532     9.2300
 2524.5000   163.8860     9.2312
 2525.0000   164.8423     9.2325
 2525.5000   164.8597     9.2337
 2526.0000   164.1938     9.2350
 2526.5000   164.4203     9.2363
 2527.0000   165.0732     9.2375
 2527.5000   167.2055     9.2388
 2528.0000   169.2753     9.2400
 2528.5000   167.2277     9.2411
 2529.0000   164.4541     9.2412
 2529.5000   165.0866     9.2404
 2530.0000   165.7300     9.2168
 2530.5000   165.9249     9.1921
 2531.0000   164.5637     9.1678
 2531.5000   161.0634     9.1316
 2532.0000   157.0074     9.0914
 2532.5000   154.9144     9.0819
 2533.0000   155.9770     9.0816
 2533.5000   156.3849     9.0816
 2534.0000   156.6705     9.0817
 2534.5000   162.2354     9.0817
 2535.0000   167.4147     9.0817
 2535.5000   164.1478     9.0817
 2536.0000   159.8921     9.0817
 2536.5000   157.3178     9.0817
 2537.0000   159.6866     9.0816
 2537.5000   170.2944     9.0777
 2538.0000   181.5736     9.0676
 2538.5000   177.2577     9.0577
 2539.0000   171.7300     9.0477
 2539.5000   168.0359     9.0377
 2540.0000   171.0079     9.0277
 2540.5000   176.5969     9.0177
 2541.0000   182.0787     9.0077
 2541.5000   181.9496     8.9978
 2542.0000   179.6514     8.9878
 2542.5000   182.0760     8.9778
 2543.0000   184.4676     8.9678
 2543.5000   184.5552     8.9579
 2544.0000   181.1620     8.9480
 2544.5000   174.1486     8.9423
 2545.0000   167.1792     8.9423
 2545.5000   163.3719     8.9421
 2546.0000   160.9687     8.9331
 2546.5000   156.9140     8.9097
 2547.0000   152.8439     8.8865
 2547.5000   151.5981     8.8633
 2548.0000   154.5384     8.8602
 2548.5000   154.3286     8.8581
 2549.0000   155.5289     8.8558
 2549.5000   156.9162     8.8535
 2550.0000   156.0990     8.8513
 2550.5000   155.2610     8.8490
 2551.0000   154.8888     8.8467
 2551.5000   157.4905     8.8445
 2552.0000   159.6113     8.8422
 2552.5000   161.1119     8.8399
 2553.0000   163.2997     8.8377
 2553.5000   165.1645     8.8354
 2554.0000   161.0899     8.8331
 2554.5000   154.6633     8.8308
 2555.0000   153.1938     8.8286
 2555.5000   150.5647     8.8263
 2556.0000   147.2145     8.8241
 2556.5000   147.0689     8.8239
 2557.0000   148.0850     8.8266
 2557.5000   149.0780     8.8294
 2558.0000   148.8793     8.8321
 2558.5000   149.0567     8.8349
 2559.0000   150.2649     8.8378
 2559.5000   151.1616     8.8403
 2560.0000   154.6586     8.8309
 2560.5000   158.3720     8.7617
 2561.0000   160.1693     8.6924
