~VERSION INFORMATION
 VERS.                2.0:   CWLS LOG ASCII STANDARD - VERSION 2.0
 WRAP.                 NO:   ONE LINE PER DEPTH STEP
~WELL INFORMATION
#MNEM.UNIT      DATA TYPE    INFORMATION
#----------   ------------   ------------------------------
 STRT.F           44.0000:   START DEPTH
 STOP.F          666.0000:   STOP DEPTH
 STEP.F            0.5000:   STEP LENGTH
 NULL.          -999.2500:   NO VALUE
 COMP. FENIX & SCISSON INC:   COMPANY
 WELL.     NPR-3 #22SX-10:   WELL
 FLD .             TEAPOT:   FIELD
 LOC .      S10 T38N R78W:   LOCATION
 CNTY.            NATRONA:   COUNTY
 STAT.            WYOMING:   STATE
 CTRY. UNITED STATES OF AMERICA:   COUNTRY
 SRVC.            Unknown:   SERVICE COMPANY
 DATE.        11-JUL-1978:   LOGDATE
 API .       490251065600:   API NUMBER
~CURVE INFORMATION
#MNEM.UNIT       API CODE    CURVE DESCRIPTION
#----------   ------------   ------------------------------
 DEPT.F                  :   
 CALD.IN     45 280 60 00:   CALIPER FROM DENSITY LOG
 GRD .GAPI   45 310 01 00:   GAMMA RAY FROM DENSITY LOG
 CORR.G/C3   45 356 01 00:   DENSITY CORRECTION
 DPHI.DEC    45 890 12 00:   DENSITY POROSITY SANDSTONE
 RHOB.G/C3   45 350 01 00:   BULK DENSITY
 SPR .MV     05 010 01 00:   SPONTANEOUS POTENTIAL FROM RES.
 SN  .OHMM   05 040 16 00:   SHORT NORMAL 16"
 ILD .OHMM   05 120 46 00:   INDUCTION LOG DEEP
~PARAMETER INFORMATION
#MNEM.UNIT          VALUE    DESCRIPTION
#----------   ------------   ------------------------------
 PD  .                 GL:   PERMANENT DATUM
 EPD .F              5263:   ELEVATION PERMANENT DATUM
 LMF .                 KB:   LOG MEASURED FROM
 DAPD.F                 4:   FEET ABOVE PERMANENT DATUM
 DMF .                 KB:   DRILLING MEASURED FROM
 EKB .F              5267:   KELLING BUSHING
 EGL .F              5263:   GROUND LEVEL
 DATE.        11-JUL-1978:   RUN DATE
 RUN .                  1:   RUN NUMBER
 DD  .F               657:   DEPTH DRILLER
 DL  .F               666:   DEPTH LOGGER
 BLI .F               660:   BOTTOM LOG INTERVAL
 TLI .F                50:   TOP LOG INTERVAL
 CS  .IN            8.625:   CASING SIZE
 CBD .F                40:   CASING BOTTOM DRILLER
 BS  .IN            7.875:   BIT SIZE
 BSD .F               657:   BIT SIZE AT DEPTH
 DFT .                KCL:   DRILLING FLUID TYPE
 DFD .                8.6:   DRILLING FLUID DENSITY
 DFV .                 33:   DRILLING FLUID VISCOSITY
 DFPH.                9.0:   DRILLING FLUID PH
 DFL .                 14:   DRILLING FLUID LOSS
 MSS .           FLOWLINE:   MUD SAMPLE SOURCE
 RMS .OHMM            .16:   RESISTIVITY MUD SAMPLE
 MST .F                89:   MUD SAMPLE TEMPERATURE
 RMF .OHMM            .15:   RESISTIVITY MUD FILTRATE SAMPLE
 MFST.F                89:   MUD FILTRATE SAMPLE TEMPERATURE
 RMC .OHMM            .32:   RESISTIVITY MUD CAKE
 MCST.F                88:   MUD CAKE SAMPLE TEMPERATURE
 MFSS.               MEAS:   MUD FILTRATE SAMPLE SOURCE
 BHT .F                76:   BOTTOM HOLE TEMPERATURE
 TCS .HRS            0200:   TIME CURCULATED STOPPED
 MRT .F                76:   MAXIMUM RECORDED TEMPERATURE
 LUN .               2958:   LOGGING UNIT NUMBER
 LUL .               CASP:   LOGGING UNIT LOCATION
 ENGI.             MILLER:   RECORDING ENGINEER
 WITN.           MCGINLEY:   WITNESSED BY
 CLNT.            A2DTECH:   CLIENT CODE
 ORIG.           5" PRINT:   ORIGIN OF DATA
 UWI .       490251065600:   UNIQUE WELL ID
 DICO. A2D Technologies, Inc.:   DIGITIZING COMPANY
~OTHER INFORMATION
~A   DEPT     CALD         GRD      CORR       DPHI       RHOB        SPR         SN        ILD   
# ...
  165.5000     7.4613    76.7426    -0.0012     0.1486     2.4333   -72.2404     6.5894     7.4221
  166.0000     7.4454    87.5812    -0.0013     0.1468     2.4371   -72.2255     6.5478     7.3252
  166.5000     7.4447    90.9546    -0.0013     0.1529     2.4348   -72.2107     6.5073     7.2795
  167.0000     7.4439    90.3448    -0.0013     0.1538     2.4295   -72.1958     6.5108     7.2340
  167.5000     7.4583    82.9273    -0.0029     0.1538     2.4264   -72.1810     6.5143     7.2546
  168.0000     7.4879    82.0151     0.0045     0.1429     2.4319   -72.1662     6.5179     7.2961
  168.5000     7.5325    78.5310     0.0059     0.1369     2.4439   -72.1513     6.5664     7.3377
  169.0000     7.5924    77.1649     0.0060     0.1360     2.4567   -72.1365     6.5701     7.3792
  169.5000     7.6068    78.4255     0.0061     0.1423     2.4539   -72.1217     6.6653     7.5115
  170.0000     7.6060    82.2996     0.0063     0.1393     2.4450   -72.1068     6.7149     7.6201
  170.5000     7.6053    81.9924     0.0065     0.1333     2.4484   -72.0920     6.8115     7.6761
  171.0000     7.6045    81.6854     0.0067     0.1294     2.4575   -72.0771     6.9095     7.4224
  171.5000     7.6189    81.5295     0.0068     0.1294     2.4687   -72.0696     7.0573     7.3749
  172.0000     7.6489    81.7286     0.0070     0.1309     2.4713   -72.0696     7.2082     7.5863
  172.5000     7.7402    82.7298     0.0072     0.1342     2.4622   -72.0696     7.3119     7.8024
  173.0000     7.8602    83.6330     0.0073     0.1369     2.4562   -72.0695     7.3663     7.9152
  173.5000     7.8901    83.7809     0.0075     0.1396     2.4524   -72.0695     7.4211     7.8619
  174.0000     7.9031    82.4137     0.0077     0.1417     2.4508   -72.0695     7.4251     7.7016
  174.5000     7.9023    81.8041     0.0076     0.1411     2.4493   -72.0695     7.4292     7.6093
  175.0000     7.8864    81.6494     0.0075     0.1321     2.4470   -72.0694     7.3822     7.6675
  175.5000     7.8856    84.5182     0.0074     0.1309     2.4560   -72.0694     7.3365     7.8320
  176.0000     7.8695    91.4728     0.0058     0.1268     2.4725   -72.0694     7.3405     7.8368
  176.5000     7.8536    91.7720     0.0042     0.1201     2.4800   -72.0693     7.2932     7.7345
  177.0000     7.8529    87.2278     0.0011     0.1201     2.4815   -72.0693     7.2471     7.5812
  177.5000     7.8370    78.9026    -0.0020     0.1242     2.4792   -72.0693     7.2013     7.4811
  178.0000     7.8211    78.2941    -0.0052     0.1360     2.4664   -72.0693     7.2062     7.3340
  178.5000     7.7900    78.7434    -0.0053     0.1432     2.4521   -72.0692     7.1597     7.2881
  179.0000     7.7893    78.7378    -0.0069     0.1525     2.4363   -72.0692     7.1649     7.2413
  179.5000     7.7734    78.8857    -0.0085     0.1545     2.4257   -72.0692     7.1684     7.1919
  180.0000     7.7423    84.4776    -0.0086     0.1547     2.4227   -72.0691     7.1723     7.1524
  180.5000     7.7264    84.9281    -0.0057     0.1492     2.4227   -72.0691     7.1273     7.1077
  181.0000     7.7105    85.0737    -0.0043     0.1465     2.4271   -72.0691     7.1310     7.1131
  181.5000     7.7097    86.5821    -0.0014     0.1429     2.4339   -72.0691     7.1356     7.1174
  182.0000     7.7090    88.0904     0.0000     0.1369     2.4436   -72.0690     7.1395     7.1217
  182.5000     7.7082    88.0859    -0.0001     0.1276     2.4601   -72.0690     7.0934     7.1260
  183.0000     7.7075    87.9301    -0.0002     0.1273     2.4713   -72.0690     7.0486     7.1303
  183.5000     7.7067    87.7743    -0.0003     0.1258     2.4758   -72.0690     7.0534     7.1838
  184.0000     7.7062    87.3160    -0.0004     0.1252     2.4765   -72.0689     7.0572     7.1882
  184.5000     7.7068    87.0089    -0.0005     0.1291     2.4675   -72.0689     7.0610     7.2421
  185.0000     7.7073    89.1224    -0.0006     0.1390     2.4562   -72.0689     7.0651     7.2466
  185.5000     7.7079    89.1179    -0.0007     0.1453     2.4487   -72.0688     7.0686     7.3011
  186.0000     7.7084    87.9031    -0.0008     0.1462     2.4419   -72.0688     7.0724     7.3065
  186.5000     7.7089    84.2677    -0.0009     0.1444     2.4388   -72.0654     7.0763     7.3613
  187.0000     7.7095    81.5401    -0.0010     0.1420     2.4426   -72.0576     7.0802     7.4166
  187.5000     7.7100    80.7791     0.0004     0.1405     2.4478   -72.0498     7.0353     7.4722
  188.0000     7.7106    80.4720     0.0002     0.1414     2.4508   -72.0420     7.0394     7.5283
  188.5000     7.7111    80.3161     0.0000     0.1366     2.4522   -72.0342     7.0439     7.6372
  189.0000     7.7116    80.4630    -0.0002     0.1366     2.4545   -72.0265     7.0476     7.6945
  189.5000     7.7122    80.9445    -0.0005     0.1381     2.4544   -72.0187     7.0514     7.7523
  190.0000     7.7121    83.4496    -0.0007     0.1429     2.4529   -72.0109     7.0552     7.8105
  190.5000     7.7113    84.8368    -0.0010     0.1453     2.4446   -72.0031     7.1077     7.8702
  191.0000     7.7106    84.8321    -0.0012     0.1450     2.4393   -71.9953     7.1116     7.9341
  191.5000     7.7098    85.4329    -0.0015     0.1426     2.4408   -71.9875     7.1154     7.9889
  192.0000     7.6939    86.0336    -0.0017     0.1390     2.4460   -71.9797     7.1683     7.9937
  192.5000     7.6932    86.1803    -0.0020     0.1363     2.4505   -71.9719     7.2259     7.9986
  193.0000     7.6772    86.3260    -0.0022     0.1345     2.4535   -71.9641     7.2756     8.0034
  193.5000     7.6458    86.3215    -0.0025     0.1357     2.4549   -71.9564     7.3305     8.0083
  194.0000     7.5075    85.8631    -0.0027     0.1372     2.4565   -71.9486     7.4360     8.0684
  194.5000     7.4629    85.4047    -0.0030     0.1336     2.4579   -71.9408     7.4913     8.1850
  195.0000     7.4621    86.3079    -0.0032     0.1333     2.4587   -71.9330     7.5991     8.3033
  195.5000     7.4614    89.3292    -0.0035     0.1345     2.4601   -71.9252     7.6556     8.4234
  196.0000     7.4606    90.2335    -0.0037     0.1366     2.4535   -71.9174     7.7126     8.5451
  196.5000     7.4750    90.5304    -0.0040     0.1438     2.4405   -71.9096     7.7167     8.6093
  197.0000     7.5046    90.5259    -0.0042     0.1402     2.4457   -71.8976     7.7209     8.6741
  197.5000     7.5642    90.3701    -0.0045     0.1401     2.4472   -71.8830     7.7250     8.6805
  198.0000     7.6089    87.9450    -0.0047     0.1463     2.4351   -72.0204     7.7292     8.6857
  198.5000     7.5930    86.4277    -0.0035     0.1372     2.4426   -72.0022     7.7335     8.6910
  199.0000     7.6074    86.1206    -0.0036     0.1369     2.4508   -71.9876     7.7377     8.6962
  199.5000     7.6372    86.8725    -0.0037     0.1390     2.4546   -71.8247     7.7961     8.7015
  200.0000     7.7016    90.5828    -0.0006     0.1393     2.4508   -71.8101     7.8106     8.7668
  200.5000     7.7566    92.7632     0.0008     0.1369     2.4395   -71.7952     7.9484     8.8326
  201.0000     7.8172    92.3048     0.0021     0.1336     2.4710   -71.7804     8.0898     8.8994
  201.5000     7.8925    91.6952    -0.0025     0.1303     2.4785   -71.9161     8.1985     9.0281
  202.0000     7.9678    92.4471    -0.0071     0.1312     2.4620   -71.8979     8.2595     9.1586
  202.5000     8.0584    94.5605    -0.0087     0.1330     2.4604   -71.8834     8.2639     9.3551
  203.0000     7.9518    95.1623    -0.0087     0.1302     2.4619   -71.8688     8.2684     9.4903
  203.5000     7.8907    94.0976    -0.0085     0.1249     2.4694   -71.8543     8.2728     9.6275
  204.0000     7.8751    91.3699    -0.0082     0.1234     2.4829   -71.8398     8.3344     9.6998
  204.5000     7.8747    88.6422    -0.0080     0.1213     2.4806   -71.8249     8.3964     9.8458
  205.0000     7.8742    86.6710    -0.0077     0.1378     2.4633   -71.8101     8.4589     9.9141
  205.5000     7.8738    85.7587    -0.0074     0.1381     2.4505   -71.6442     8.4634     9.9898
