~VERSION INFORMATION
 VERS.                2.0:   CWLS LOG ASCII STANDARD - VERSION 2.0
 WRAP.                 NO:   ONE LINE PER DEPTH STEP
~WELL INFORMATION
#MNEM.UNIT      DATA TYPE    INFORMATION
#----------   ------------   ------------------------------
 STRT.F           36.0000:   START DEPTH
 STOP.F          686.0000:   STOP DEPTH
 STEP.F            0.5000:   STEP LENGTH
 NULL.          -999.2500:   NO VALUE
 COMP.    FENIX & SCISSON:   COMPANY
 WELL.        NPR #15-S-2:   WELL
 FLD .             TEAPOT:   FIELD
 LOC .       S2 T38N R78W:   LOCATION
 CNTY.            NATRONA:   COUNTY
 STAT.            WYOMING:   STATE
 CTRY. UNITED STATES OF AMERICA:   COUNTRY
 SRVC.       Schlumberger:   SERVICE COMPANY
 DATE.        16-MAR-1977:   LOGDATE
 API .       490251029900:   API NUMBER
~CURVE INFORMATION
#MNEM.UNIT       API CODE    CURVE DESCRIPTION
#----------   ------------   ------------------------------
 DEPT.F                  :   
 SPR .MV     07 010 01 00:   SPONTANEOUS POTENTIAL FROM RES.
 ILD .OHMM   07 120 46 00:   INDUCTION LOG DEEP
 ILM .OHMM   07 120 44 00:   INDUCTION LOG MEDIUM
 LL8 .OHMM   07 220 08 00:   LATEROLOG-8 RES.
 GRD .GAPI   45 310 01 00:   GAMMA RAY FROM DENSITY LOG
 CALD.IN     45 280 60 00:   CALIPER FROM DENSITY LOG
 CORR.G/C3   45 356 01 00:   DENSITY CORRECTION
 RHOB.G/C3   45 350 01 00:   BULK DENSITY
 DPHI.DEC    45 890 12 00:   DENSITY POROSITY SANDSTONE
~PARAMETER INFORMATION
#MNEM.UNIT          VALUE    DESCRIPTION
#----------   ------------   ------------------------------
 PD  .                 GL:   PERMANENT DATUM
 EPD .F              5129:   ELEVATION PERMANENT DATUM
 LMF .                 KB:   LOG MEASURED FROM
 DAPD.F                 4:   FEET ABOVE PERMANENT DATUM
 DMF .                 KB:   DRILLING MEASURED FROM
 EKB .F              5133:   KELLING BUSHING
 EGL .F              5129:   GROUND LEVEL
 DATE.        15-MAR-1977:   RUN DATE
 RUN .                  1:   RUN NUMBER
 DD  .F               680:   DEPTH DRILLER
 DL  .F               680:   DEPTH LOGGER
 BLI .F               683:   BOTTOM LOG INTERVAL
 TLI .F                48:   TOP LOG INTERVAL
 CS  .IN            8.625:   CASING SIZE
 CBD .F                40:   CASING BOTTOM DRILLER
 CBL .F                49:   CASING BOTTOM LOGGER
 BS  .IN            7.875:   BIT SIZE
 BSD .F               680:   BIT SIZE AT DEPTH
 DFT .            KCL MUD:   DRILLING FLUID TYPE
 DFD .                8.8:   DRILLING FLUID DENSITY
 DFV .                 33:   DRILLING FLUID VISCOSITY
 DFPH.                9.6:   DRILLING FLUID PH
 DFL .                9.0:   DRILLING FLUID LOSS
 MSS .                PIT:   MUD SAMPLE SOURCE
 RMS .OHMM           0.22:   RESISTIVITY MUD SAMPLE
 MST .F                50:   MUD SAMPLE TEMPERATURE
 RMF .OHMM           0.21:   RESISTIVITY MUD FILTRATE SAMPLE
 MFST.F                50:   MUD FILTRATE SAMPLE TEMPERATURE
 MFSS.               MEAS:   MUD FILTRATE SAMPLE SOURCE
 TCS .HRS            1800:   TIME CURCULATED STOPPED
 TLAB.HRS            2130:   TIME LOGGER AT BOTTOM
 LUN .               7711:   LOGGING UNIT NUMBER
 LUL .               CSPR:   LOGGING UNIT LOCATION
 ENGI.             TAYLER:   RECORDING ENGINEER
 CLNT.            A2DTECH:   CLIENT CODE
 ORIG.           5" PRINT:   ORIGIN OF DATA
 UWI .       490251029900:   UNIQUE WELL ID
 DICO. A2D Technologies, Inc.:   DIGITIZING COMPANY
~OTHER INFORMATION
~A   DEPT      SPR        ILD        ILM        LL8         GRD      CALD       CORR       RHOB       DPHI   
# ...
  109.0000   -63.7320     7.0355     7.7647     7.5228   113.8930     8.2700     0.0136     2.4669     0.1158
  109.5000   -63.7156     7.0379     7.9345     7.5270   114.2066     8.2716     0.0167     2.4685     0.1125
  110.0000   -63.6993     7.1384     7.9961     7.6367   114.8173     8.2732     0.0099     2.4611     0.1155
  110.5000   -63.6830     7.1904     8.2280     7.8566   115.5766     8.2749     0.0070     2.4596     0.1166
  111.0000   -63.6667     7.2930     8.4666     8.4272   115.1472     8.2765     0.0071     2.4620     0.1163
  111.5000   -63.5011     7.3971     8.4731     8.6097   111.4488     8.2781     0.0017     2.4666     0.1145
  112.0000   -63.4848     7.5027     8.5984     8.4955   107.4533     8.2946     0.0056     2.4749     0.1114
  112.5000   -63.3192     7.6626     8.7865     8.5002   105.3853     8.2962     0.0124     2.4825     0.1033
  113.0000   -63.1536     7.7720     8.9164     8.5049   105.4058     8.2979     0.0080     2.4841     0.0988
  113.5000   -63.1373     7.8829     9.2390     8.4506   103.9362     8.2995     0.0027     2.4737     0.1032
  114.0000   -63.1210     8.0509     9.5740     8.4577   102.4667     8.3011     0.0073     2.4730     0.1032
  114.5000   -63.1046     8.1658     9.9205     8.5223   101.5915     8.2879     0.0186     2.5129     0.0882
  115.0000   -63.3909     8.2253    10.0671     8.7037   101.0094     8.2747     0.0217     2.5326     0.0758
  115.5000   -63.5198     8.2281    10.1452     9.2331   102.5158     8.2463     0.0149     2.5356     0.0683
  116.0000   -63.5034     8.2309    10.0806    11.2212   109.6644     8.2483     0.0175     2.5342     0.0691
  116.5000   -63.6405     8.2338     9.9509    12.8709   113.8412     8.2796     0.0181     2.5050     0.0769
  117.0000   -63.6201     8.1235     9.6181    11.8803   114.7491     8.3109     0.0127     2.4735     0.1075
  117.5000   -63.6037     8.0147     9.0413     9.7110   114.3156     8.3125     0.0106     2.4600     0.1138
  118.0000   -63.7373     7.8529     8.7389     8.5859   114.6332     8.3142     0.0092     2.4586     0.1153
  118.5000   -63.7203     7.6275     8.3881     8.0850   114.7982     8.3158     0.0077     2.4625     0.1141
  119.0000   -64.0025     7.3843     8.2770     8.0421   114.9631     8.3174    -0.0005     2.4640     0.1119
  119.5000   -63.9862     7.2352     8.2259     8.0468   114.9795     8.3038     0.0003     2.4574     0.1128
  120.0000   -63.9699     7.1383     8.2440     8.0522   114.9629     8.3207     0.0041     2.4574     0.1125
  120.5000   -63.9536     7.0915     8.3542     8.0566   114.2685     8.3223     0.0086     2.4682     0.1100
  121.0000   -63.7880     7.1927     8.5369     7.8935   111.1956     8.3240     0.0124     2.4885     0.0995
  121.5000   -63.7717     7.3970     8.7962     8.0097   109.0415     8.3256     0.0125     2.4983     0.0934
  122.0000   -63.9046     7.6070     9.0630     8.8339   108.0465     8.3272     0.0110     2.4981     0.0946
  122.5000   -63.8881     7.8231     9.4560     9.0252   107.7927     8.3288     0.0005     2.4758     0.1006
  123.0000   -64.0212     8.0452     9.7854     9.0302   109.2123     8.3305    -0.0017     2.4752     0.1027
  123.5000   -64.3034     8.2167     9.9299     9.0352   111.6894     8.3469    -0.0054     2.4814     0.0999
  124.0000   -64.4363     8.4500    10.0642     9.1033   111.5314     8.3634     0.0007     2.4861     0.0960
  124.5000   -64.4200     8.5706    10.0719     9.3654   111.2757     8.3799     0.0037     2.4935     0.0939
  125.0000   -64.4030     8.6331    10.0794     9.5018   111.8129     8.3963     0.0023     2.4920     0.0941
  125.5000   -64.3582     8.6360     9.9477     9.5071   113.7592     8.3831     0.0008     2.4794     0.1028
  126.0000   -63.9192     8.5795     9.8757     9.3796   115.9317     8.3848     0.0016     2.4615     0.1103
  126.5000   -64.2054     8.5187     9.4794     9.1923   116.4170     8.3563     0.0032     2.4563     0.1157
  127.0000   -64.3343     8.3451     9.0895     9.0074   116.3189     8.3283     0.0032     2.4541     0.1160
  127.5000   -64.3180     8.0628     8.7950     8.7044   112.9196     8.3151     0.0078     2.4549     0.1153
  128.0000   -64.4550     7.8986     8.5516     8.4702   110.7312     8.3171     0.0131     2.4573     0.1123
  128.5000   -64.7331     7.7377     8.3238     8.1284   109.4749     8.3187     0.0154     2.4739     0.1066
  129.0000   -64.8701     7.5387     8.1664     8.0754   109.6612     8.3204     0.0154     2.4823     0.1019
  129.5000   -64.8497     7.3871     8.1236     7.9694   110.1229     8.3220     0.0162     2.4853     0.0989
  130.0000   -64.9867     7.3897     8.1300     7.9738   111.9318     8.3236     0.0163     2.4644     0.0977
  130.5000   -64.9663     7.4951     8.2503     7.9782   114.3151     8.3253     0.0013     2.4592     0.1145
  131.0000   -64.9500     7.6021     8.4382     8.0384   114.9059     8.3269     0.0013     2.4645     0.1125
  131.5000   -64.9337     7.7106     8.6752     8.1555   113.1214     8.3285     0.0013     2.4721     0.1082
  132.0000   -64.9173     7.8750     8.9343     8.3903   111.9138     8.3302     0.0006     2.4805     0.1075
  132.5000   -64.9010     7.9874     9.1932     8.8139   110.2001     8.3318    -0.0031     2.4655     0.1111
  133.0000   -64.7354     8.1014     9.4522     9.1946   111.5711     8.3334    -0.0047     2.4596     0.1120
  133.5000   -64.5699     8.2170     9.5254     9.3937   112.3299     8.3350     0.0030     2.4732     0.1093
  134.0000   -64.4043     8.2769     9.6663     9.3990   113.5821     8.3367     0.0038     2.4793     0.1002
  134.5000   -64.0894     8.3372     9.7482     8.9572   116.2708     8.3383     0.0091     2.4824     0.1005
  135.0000   -64.0731     8.3979     9.8167     8.8371   118.3210     8.3399     0.0017     2.4772     0.1038
  135.5000   -63.7583     8.4591     9.8243     8.7807   118.2649     8.3564     0.0017     2.4736     0.1064
  136.0000   -63.5927     8.5207     9.9068     9.0348   114.4477     8.3580     0.0048     2.4593     0.1127
  136.5000   -63.5764     8.5236    10.0468     9.3597   113.8971     8.3597     0.0078     2.4677     0.1121
  137.0000   -63.5601     8.5857    10.1247     9.6292   113.6163     8.3613     0.0109     2.4678     0.1105
  137.5000   -63.8423     8.6483    10.2032     9.7695   113.6330     8.3481     0.0132     2.4724     0.1057
  138.0000   -63.9752     8.7113    10.2110     9.8418   113.0075     8.3349     0.0110     2.4762     0.1027
  138.5000   -63.9589     8.7142    10.2188     9.6439   110.9455     8.3213     0.0140     2.4793     0.1005
  139.0000   -64.2418     8.7172    10.1556     9.5159   110.1156     8.3085     0.0094     2.4779     0.1014
  139.5000   -64.5238     8.6594    10.0181     9.9977   110.7475     8.3101     0.0050     2.4712     0.1086
  140.0000   -64.8054     8.6027     9.8190    10.2840   112.2486     8.2965     0.0066     2.4630     0.1104
  140.5000   -65.0876     8.5470     9.5571     9.7341   113.2946     8.2985     0.0067     2.4691     0.1085
  141.0000   -65.2209     8.4910     9.3059     9.4066   113.4500     8.3150     0.0052     2.4722     0.1097
  141.5000   -65.3538     8.3772     9.1172     9.1535   113.0206     8.3166     0.0090     2.4753     0.1088
  142.0000   -65.4866     8.2650     9.0016     8.8455   112.8883     8.3183     0.0113     2.4799     0.1069
  142.5000   -65.6194     8.1544     9.0086     8.7269   112.9049     8.3199     0.0069     2.4672     0.1126
  143.0000   -65.6030     8.1133     8.9529     8.6722   112.9213     8.3215     0.0039     2.4537     0.1174
  143.5000   -65.8852     7.9925     9.0224     8.7378   112.7826     8.3232     0.0009     2.4546     0.1180
  144.0000   -66.0181     7.9952     9.0293     8.9270   112.0326     8.3248     0.0002     2.4516     0.1173
  144.5000   -66.0015     7.9429     9.0362     8.9320   110.4441     8.3264     0.0010     2.4547     0.1152
  145.0000   -66.1347     7.9456     9.0431     8.9369   111.8129     8.3280     0.0026     2.4616     0.1137
