~VERSION INFORMATION
 VERS.                2.0:   CWLS LOG ASCII STANDARD - VERSION 2.0
 WRAP.                 NO:   ONE LINE PER DEPTH STEP
~WELL INFORMATION
#MNEM.UNIT      DATA TYPE    INFORMATION
#----------   ------------   ------------------------------
 STRT.F          100.0000:   START DEPTH
 STOP.F          812.0000:   STOP DEPTH
 STEP.F            0.5000:   STEP LENGTH
 NULL.          -999.2500:   NO VALUE
 COMP.               NAVY:   COMPANY
 WELL. RES 3 TEAPOT DOM #42S-11:   WELL
 FLD .             TEAPOT:   FIELD
 LOC .      S11 T38N R78W:   LOCATION
 CNTY.            NATRONA:   COUNTY
 STAT.            WYOMING:   STATE
 CTRY. UNITED STATES OF AMERICA:   COUNTRY
 SRVC.       Schlumberger:   SERVICE COMPANY
 DATE.        02-AUG-1961:   LOGDATE
 API .       490250636700:   API NUMBER
~CURVE INFORMATION
#MNEM.UNIT       API CODE    CURVE DESCRIPTION
#----------   ------------   ------------------------------
 DEPT.F                  :   
 SPR .MV     05 010 01 00:   SPONTANEOUS POTENTIAL FROM RES.
 ILD .OHMM   05 120 46 00:   INDUCTION LOG DEEP
 ASN .OHMM   05 041 16 00:   AMPLIFIED SHORT NORMAL 16"
 CILD.MMHO   05 110 46 00:   CONDUCTIVITY INDUCTION LOG DEEP
 GR  .GAPI   30 310 01 00:   GAMMA RAY
~PARAMETER INFORMATION
#MNEM.UNIT          VALUE    DESCRIPTION
#----------   ------------   ------------------------------
 PD  .                 GL:   PERMANENT DATUM
 EPD .F              5172:   ELEVATION PERMANENT DATUM
 LMF .                 KB:   LOG MEASURED FROM
 DAPD.F                 5:   FEET ABOVE PERMANENT DATUM
 DMF .                 KB:   DRILLING MEASURED FROM
 EKB .F              5177:   KELLING BUSHING
 EGL .F              5172:   GROUND LEVEL
 DATE.             8-2-61:   RUN DATE
 RUN .                  1:   RUN NUMBER
 DD  .F               810:   DEPTH DRILLER
 DL  .F               813:   DEPTH LOGGER
 BLI .F               812:   BOTTOM LOG INTERVAL
 TLI .F               100:   TOP LOG INTERVAL
 BS  .IN             6.75:   BIT SIZE
 BSD .F               810:   BIT SIZE AT DEPTH
 DFT .       OIL EMULSION:   DRILLING FLUID TYPE
 DFD .                9.2:   DRILLING FLUID DENSITY
 DFV .                 56:   DRILLING FLUID VISCOSITY
 MFSS.                  M:   MUD FILTRATE SAMPLE SOURCE
 MCSS.                  M:   MUD CAKE SAMPLE SOURCE
 RMB .OHMM            .70:   RESISTIVITY MUD AT BHT
 BHT .F                80:   BOTTOM HOLE TEMPERATURE
 TCS .HRS               1:   TIME CURCULATED STOPPED
 MRT .F                80:   MAXIMUM RECORDED TEMPERATURE
 LUN .               2552:   LOGGING UNIT NUMBER
 LUL .                RIV:   LOGGING UNIT LOCATION
 ENGI.             RANDLE:   RECORDING ENGINEER
 WITN.          VORGENSON:   WITNESSED BY
 CLNT.            A2DTECH:   CLIENT CODE
 ORIG.       2", 5" PRINT:   ORIGIN OF DATA
 UWI .       490250636700:   UNIQUE WELL ID
 DICO. A2D Technologies, Inc.:   DIGITIZING COMPANY
~OTHER INFORMATION
~A   DEPT      SPR        ILD        ASN        CILD        GR   
# ...
  649.0000   -32.3881     6.2760     8.7376   140.3467    57.8217
  649.5000   -32.3939     6.4237     8.6564   139.0804    57.2100
  650.0000   -32.3905     6.6125     8.5693   137.1770    55.7534
  650.5000   -32.3937     6.8123     8.6542   133.7700    54.3471
  651.0000   -32.3804     7.0067     8.8560   130.3629    54.6858
  651.5000   -32.2450     7.0570     9.0726   128.4372    55.7706
  652.0000   -32.1281     6.7637     9.1899   129.1457    56.8352
  652.5000   -31.9786     6.0573     9.1778   143.2161    57.9221
  653.0000   -32.0842     5.3201     9.0763   159.9987    58.4383
  653.5000   -32.5471     4.5909     8.8793   180.7389    58.5793
  654.0000   -32.7933     4.0192     8.4059   205.1597    58.6491
  654.5000   -32.4919     3.7631     7.2225   209.2740    61.4154
  655.0000   -32.2042     3.7413     6.4070   207.3773    63.4013
  655.5000   -32.1275     3.7510     6.2594   207.1273    58.3673
  656.0000   -32.0728     3.7360     6.3941   206.4117    54.5773
  656.5000   -32.0141     3.8472     6.5461   204.0227    55.5395
  657.0000   -31.9567     4.1762     8.3360   200.2142    61.4534
  657.5000   -31.8990     5.1506     9.0743   172.0101    65.7601
  658.0000   -31.8404     6.2560    10.1916   147.2192  -999.2500
  658.5000   -31.7844     7.4925    10.3612   128.9203  -999.2500
  659.0000   -31.7227     8.2606    10.6175   118.0904  -999.2500
  659.5000   -31.7566     8.5214    10.7188   113.0653  -999.2500
  660.0000   -31.8107     8.3686    10.8093   115.2261  -999.2500
  660.5000   -31.8724     8.1538    10.9005   118.0904  -999.2500
  661.0000   -31.9088     7.9370    10.9857   118.4657  -999.2500
  661.5000   -32.0004     7.9852    11.0706   118.8920  -999.2500
  662.0000   -32.2371     8.2254    11.1612   117.0162  -999.2500
  662.5000   -32.2768     8.6559    11.6799   112.0603  -999.2500
  663.0000   -32.3603     9.4381    12.3624   107.1397  -999.2500
  663.5000   -32.3920    10.3205    13.2053   100.6173  -999.2500
  664.0000   -32.4033    11.1830    13.9640    94.0950  -999.2500
  664.5000   -32.5018    12.0174    15.6106    87.5726  -999.2500
  665.0000   -32.5983    12.9501    17.0068    81.0502  -999.2500
  665.5000   -32.6916    14.2147    18.3662    74.5279  -999.2500
  666.0000   -32.7932    15.7199    19.7262    68.0055  -999.2500
  666.5000   -32.8594    17.3986    20.9637    60.8040  -999.2500
  667.0000   -32.9719    18.8822    21.5607    57.4137  -999.2500
  667.5000   -33.1028    19.6183    21.5596    53.7688  -999.2500
  668.0000   -33.2309    19.7841    21.8611    54.8703  -999.2500
  668.5000   -33.3541    19.7796    22.0950    55.7789  -999.2500
  669.0000   -33.4888    19.9887    22.1642    54.3246  -999.2500
  669.5000   -33.5140    20.2424    22.3645    52.8200  -999.2500
  670.0000   -33.5703    20.5597    22.7650    51.3154  -999.2500
  670.5000   -33.8361    20.5912    22.8655    51.2470    26.6572
  671.0000   -33.9865    20.5318    22.8676    52.0340    25.2844
  671.5000   -34.1275    20.0382    22.5725    52.7638    27.2177
  672.0000   -34.3783    19.1782    22.2930    54.1357    27.9324
  672.5000   -34.4194    18.4522    22.0136    55.4146    29.1634
  673.0000   -34.2452    17.6606    21.6413    58.5776    31.1301
  673.5000   -34.1108    16.8735    21.1507    60.9831    29.9164
  674.0000   -33.9619    16.2316    20.7090    62.7835    27.7976
  674.5000   -33.8205    15.6897    20.6162    64.5836    28.9447
  675.0000   -33.6738    15.3740    20.5496    66.3744    31.2380
  675.5000   -33.5393    15.0887    20.2384    68.1542    31.8745
  676.0000   -33.6034    14.7968    19.9065    69.8664    29.3137
  676.5000   -33.7040    14.7386    19.5740    69.8493    33.8734
  677.0000   -33.7996    14.7957    19.2465    69.8493    40.6075
  677.5000   -33.8927    14.8508    19.2925    68.8643    47.2189
  678.0000   -33.9996    15.3468    19.5500    66.8181    46.1645
  678.5000   -34.3068    16.1582    19.7945    64.7719    45.0632
  679.0000   -34.6768    16.8934    20.0700    62.7256    49.5320
  679.5000   -34.9097    17.6542    20.1728    60.5987    46.1532
  680.0000   -34.7705    18.4979    20.2337    58.4063    40.1532
  680.5000   -34.6255    19.0032    20.4453    56.1734    36.0720
  681.0000   -34.4102    19.3772    20.7514    53.9637    34.8475
  681.5000   -34.1015    19.7453    21.1516    52.7007    33.3889
  682.0000   -33.9476    19.7372    21.0735    53.1620    32.5405
  682.5000   -34.1268    19.2818    20.7021    54.1987    31.7365
  683.0000   -34.3902    18.8051    20.3358    55.2355    30.4960
  683.5000   -34.6230    18.3589    20.1589    56.2691    31.1142
  684.0000   -34.8640    17.8400    20.1211    57.4059    31.7188
  684.5000   -35.0919    17.4810    20.0082    58.6494    32.3290
  685.0000   -35.0310    17.3144    19.9101    59.8809    32.9417
  685.5000   -34.8871    16.9994    19.7938    61.1124    33.5540
  686.0000   -34.7397    16.7589    19.7372    62.3439    34.1651
  686.5000   -34.6435    16.3344    19.2416    63.5755    34.7696
  687.0000   -34.6545    15.8104    18.8189    64.8070    34.9056
  687.5000   -34.6554    15.2345    18.3627    66.0385    34.0939
  688.0000   -34.6120    14.8529    17.9937    67.2701    33.2991
  688.5000   -34.1973    14.7102    17.8348    68.5016    32.5039
  689.0000   -33.7991    14.5114    17.7526    69.8493    31.7080
  689.5000   -33.3459    14.3315    17.6730    70.5442    30.9122
  690.0000   -33.2915    14.1464    17.5861    71.3116    30.1154
  690.5000   -33.2192    13.9734    17.4045    72.0789    29.3203
  691.0000   -32.9807    14.0125    17.2068    72.8643    28.5260
  691.5000   -32.7837    14.1334    17.1013    71.8593    28.3025
  692.0000   -32.5239    14.2355    17.1767    71.8593    29.7908
  692.5000   -32.4072    14.3451    17.3348    71.8593    32.2896
  693.0000   -32.7178    14.4525    17.4825    70.8543    34.6967
  693.5000   -33.0238    14.5577    17.6257    69.7829    37.1039
  694.0000   -33.2836    14.6709    17.7853    68.7598    39.5793
  694.5000   -33.2824    14.8152    17.8703    67.8392    40.1953
  695.0000   -33.1433    15.0536    17.8734    66.9778    39.2889
  695.5000   -33.0124    15.4005    17.8518    65.7598    38.0196
  696.0000   -32.8587    15.6780    18.0489    64.5418    36.3525
  696.5000   -32.8872    15.9805    18.3764    63.3238    33.4196
  697.0000   -32.9822    16.2447    18.6143    62.8141    30.5107
  697.5000   -33.0656    16.2738    18.8553    62.8141    30.0296
  698.0000   -33.1455    16.2622    18.8214    62.8141    33.5832
  698.5000   -33.2491    16.1448    18.6987    62.8141    36.4868
  699.0000   -33.2672    15.9746    18.2712    62.8141    38.7679
  699.5000   -32.8473    15.7676    17.7068    63.2871    42.9612
  700.0000   -32.1282    15.4583    17.3036    64.9946    44.8634
  700.5000   -31.5212    15.1328    17.5538    66.7021    40.1410
  701.0000   -31.4935    14.8137    17.3373    68.4096    41.7930
  701.5000   -31.4789    14.5395    16.8575    69.8493    41.5858
  702.0000   -31.5114    14.2019    16.6458    71.2563    40.0376
  702.5000   -31.2854    13.8893    16.7483    72.7207    42.2528
  703.0000   -30.8757    13.5746    16.6828    74.1852    45.8942
  703.5000   -30.4956    13.2631    16.6416    75.6497    49.4517
  704.0000   -30.3506    12.9457    16.4472    77.1141    50.9422
  704.5000   -30.3626    12.6684    16.1888    78.3151    45.1697
  705.0000   -30.3761    12.5601    15.8695    79.2196    41.2632
  705.5000   -30.1963    12.4649    15.5138    80.1242    41.2267
  706.0000   -30.0955    12.5029    15.3491    80.9045    39.7201
  706.5000   -29.6271    12.6057    15.3743    80.3067    38.8360
  707.0000   -29.0091    12.6944    15.4131    79.7810    40.8102
  707.5000   -28.5253    12.7918    15.4307    79.2552    42.4164
  708.0000   -27.7329    12.8700    15.2231    78.7296    41.8948
  708.5000   -26.8911    12.9646    13.9866    78.2038    41.3757
  709.0000   -26.3035    13.0385    14.0647    77.6781    41.3295
  709.5000   -27.1421    13.1338    15.4886    77.1524    39.1842
