~VERSION INFORMATION
 VERS.                2.0:   CWLS LOG ASCII STANDARD - VERSION 2.0
 WRAP.                 NO:   ONE LINE PER DEPTH STEP
~WELL INFORMATION
#MNEM.UNIT      DATA TYPE    INFORMATION
#----------   ------------   ------------------------------
 STRT.F           29.0000:   START DEPTH
 STOP.F          720.0000:   STOP DEPTH
 STEP.F            0.5000:   STEP LENGTH
 NULL.          -999.2500:   NO VALUE
 COMP.    FENIX & SCISSON:   COMPANY
 WELL. RES 3 TEAPOT DOM #21-S-14:   WELL
 FLD .        TEAPOT DOME:   FIELD
 LOC .      S14 T38N R78W:   LOCATION
 CNTY.            NATRONA:   COUNTY
 STAT.            WYOMING:   STATE
 CTRY. UNITED STATES OF AMERICA:   COUNTRY
 SRVC.            Unknown:   SERVICE COMPANY
 DATE.        25-MAY-1978:   LOGDATE
 API .       490251063300:   API NUMBER
~CURVE INFORMATION
#MNEM.UNIT       API CODE    CURVE DESCRIPTION
#----------   ------------   ------------------------------
 DEPT.F                  :   
 CALD.IN     45 280 60 00:   CALIPER FROM DENSITY LOG
 CORR.G/C3   45 356 01 00:   DENSITY CORRECTION
 DPHI.DEC    45 890 12 00:   DENSITY POROSITY SANDSTONE
 GRD .GAPI   45 310 01 00:   GAMMA RAY FROM DENSITY LOG
 RHOB.G/C3   45 350 01 00:   BULK DENSITY
 ILD .OHMM   05 120 46 00:   INDUCTION LOG DEEP
 SN  .OHMM   05 040 16 00:   SHORT NORMAL 16"
 SPR .MV     05 010 01 00:   SPONTANEOUS POTENTIAL FROM RES.
~PARAMETER INFORMATION
#MNEM.UNIT          VALUE    DESCRIPTION
#----------   ------------   ------------------------------
 PD  .                 GL:   PERMANENT DATUM
 EPD .F              5232:   ELEVATION PERMANENT DATUM
 LMF .                 KB:   LOG MEASURED FROM
 DAPD.F                 4:   FEET ABOVE PERMANENT DATUM
 DMF .                 KB:   DRILLING MEASURED FROM
 EKB .F              5236:   KELLING BUSHING
 EGL .F              5232:   GROUND LEVEL
 DATE.        25-MAY-1978:   RUN DATE
 RUN .                  1:   RUN NUMBER
 DD  .F               716:   DEPTH DRILLER
 DL  .F               727:   DEPTH LOGGER
 BLI .F               720:   BOTTOM LOG INTERVAL
 TLI .F                44:   TOP LOG INTERVAL
 CS  .IN            8.625:   CASING SIZE
 CBD .F                40:   CASING BOTTOM DRILLER
 CBL .F                44:   CASING BOTTOM LOGGER
 BS  .IN            7.875:   BIT SIZE
 BSD .F               716:   BIT SIZE AT DEPTH
 DFT .                KCL:   DRILLING FLUID TYPE
 DFD .                8.6:   DRILLING FLUID DENSITY
 DFV .                 31:   DRILLING FLUID VISCOSITY
 DFPH.                9.5:   DRILLING FLUID PH
 DFL .               10.8:   DRILLING FLUID LOSS
 MSS .            MUD PIT:   MUD SAMPLE SOURCE
 RMS .OHMM           0.32:   RESISTIVITY MUD SAMPLE
 MST .F                82:   MUD SAMPLE TEMPERATURE
 RMF .OHMM           0.34:   RESISTIVITY MUD FILTRATE SAMPLE
 MFST.F                72:   MUD FILTRATE SAMPLE TEMPERATURE
 RMC .OHMM            0.8:   RESISTIVITY MUD CAKE
 MCST.F                72:   MUD CAKE SAMPLE TEMPERATURE
 MFSS.               MEAS:   MUD FILTRATE SAMPLE SOURCE
 RMB .OHMM           0.35:   RESISTIVITY MUD AT BHT
 BHT .F                74:   BOTTOM HOLE TEMPERATURE
 TCS .HRS               1:   TIME CURCULATED STOPPED
 MRT .F                74:   MAXIMUM RECORDED TEMPERATURE
 LUN .               2958:   LOGGING UNIT NUMBER
 LUL .               CASP:   LOGGING UNIT LOCATION
 ENGI.             MILLER:   RECORDING ENGINEER
 WITN.           MCGINLEY:   WITNESSED BY
 CLNT.            A2DTECH:   CLIENT CODE
 ORIG.           5" PRINT:   ORIGIN OF DATA
 UWI .       490251063300:   UNIQUE WELL ID
 DICO. A2D Technologies, Inc.:   DIGITIZING COMPANY
~OTHER INFORMATION
~A   DEPT     CALD       CORR       DPHI         GRD      RHOB        ILD         SN        SPR   
   29.0000  -999.2500  -999.2500  -999.2500    56.0034  -999.2500  -999.2500  -999.2500  -999.2500
   29.5000  -999.2500  -999.2500  -999.2500    56.0107  -999.2500  -999.2500  -999.2500  -999.2500
   30.0000  -999.2500  -999.2500  -999.2500    56.1677  -999.2500  -999.2500  -999.2500  -999.2500
   30.5000  -999.2500  -999.2500  -999.2500    56.4746  -999.2500  -999.2500  -999.2500  -999.2500
   31.0000  -999.2500  -999.2500  -999.2500    56.7828  -999.2500  -999.2500  -999.2500  -999.2500
   31.5000  -999.2500  -999.2500  -999.2500    57.8380  -999.2500  -999.2500  -999.2500  -999.2500
   32.0000  -999.2500  -999.2500  -999.2500    60.9890  -999.2500  -999.2500  -999.2500  -999.2500
   32.5000  -999.2500  -999.2500  -999.2500    60.3975  -999.2500  -999.2500  -999.2500  -999.2500
   33.0000  -999.2500  -999.2500  -999.2500    59.2053  -999.2500  -999.2500  -999.2500  -999.2500
   33.5000  -999.2500  -999.2500  -999.2500    58.7635  -999.2500  -999.2500  -999.2500  -999.2500
   34.0000  -999.2500  -999.2500  -999.2500    60.1199  -999.2500  -999.2500  -999.2500  -999.2500
   34.5000  -999.2500  -999.2500  -999.2500    61.6392  -999.2500  -999.2500  -999.2500  -999.2500
   35.0000  -999.2500  -999.2500  -999.2500    63.5030  -999.2500  -999.2500  -999.2500  -999.2500
   35.5000  -999.2500  -999.2500  -999.2500    65.0836  -999.2500  -999.2500  -999.2500  -999.2500
   36.0000  -999.2500  -999.2500  -999.2500    62.2466  -999.2500  -999.2500  -999.2500  -999.2500
   36.5000  -999.2500  -999.2500  -999.2500    54.9167  -999.2500  -999.2500  -999.2500  -999.2500
   37.0000  -999.2500  -999.2500  -999.2500    55.0755  -999.2500  -999.2500  -999.2500  -999.2500
   37.5000  -999.2500  -999.2500  -999.2500    56.1307  -999.2500  -999.2500  -999.2500  -999.2500
   38.0000  -999.2500  -999.2500  -999.2500    57.7847  -999.2500  -999.2500  -999.2500  -999.2500
   38.5000  -999.2500  -999.2500  -999.2500    57.9466  -999.2500  -999.2500  -999.2500  -999.2500
   39.0000  -999.2500  -999.2500  -999.2500    55.4940  -999.2500  -999.2500  -999.2500  -999.2500
   39.5000  -999.2500  -999.2500  -999.2500    49.2754  -999.2500  -999.2500  -999.2500  -999.2500
   40.0000  -999.2500  -999.2500  -999.2500    45.5401  -999.2500  -999.2500  -999.2500  -999.2500
   40.5000  -999.2500  -999.2500  -999.2500    41.2061  -999.2500  -999.2500  -999.2500  -999.2500
   41.0000  -999.2500  -999.2500  -999.2500    40.6127  -999.2500  -999.2500  -999.2500  -999.2500
   41.5000  -999.2500  -999.2500  -999.2500    42.2685  -999.2500  -999.2500  -999.2500  -999.2500
   42.0000  -999.2500  -999.2500  -999.2500    39.8806  -999.2500  -999.2500  -999.2500  -999.2500
   42.5000  -999.2500  -999.2500  -999.2500    37.7919  -999.2500  -999.2500  -999.2500  -999.2500
   43.0000  -999.2500  -999.2500  -999.2500    40.4192  -999.2500  -999.2500  -999.2500  -999.2500
   43.5000  -999.2500  -999.2500  -999.2500    44.8653  -999.2500  -999.2500  -999.2500  -999.2500
   44.0000     6.8137    -0.2952     0.1901    45.8995     1.6174  -999.2500  -999.2500  -999.2500
   44.5000     6.8606     0.0098     0.1880    54.2900     2.1934  -999.2500  -999.2500  -999.2500
   45.0000     6.9224     0.0232     0.1868    69.8662     2.3508  -999.2500  -999.2500  -999.2500
   45.5000     6.9543     0.0217     0.1850    72.2687     2.3680  -999.2500  -999.2500  -999.2500
   46.0000     7.0162     0.0277     0.1802    76.3178     2.3687  -999.2500  -999.2500  -999.2500
   46.5000     7.0648     0.0321     0.1699    76.9239     2.3763  -999.2500  -999.2500  -999.2500
   47.0000     7.1552     0.0321     0.1678    76.1827     2.3854  -999.2500  -999.2500  -999.2500
   47.5000     7.2171     0.0306     0.1705    73.1924     2.3907  -999.2500  -999.2500  -999.2500
   48.0000     7.3237     0.0291     0.1773    72.0166     2.3803  -999.2500  -999.2500  -999.2500
   48.5000     7.6546     0.0262     0.1880    70.9901     2.3752  -999.2500  -999.2500  -999.2500
   49.0000     7.9406     0.0245     0.1984    70.1128     2.3628  -999.2500  -999.2500  -999.2500
   49.5000     7.9744     0.0321     0.2038    69.3847     2.3425     4.6551  -999.2500  -999.2500
   50.0000     7.9148     0.0426     0.2217    70.2985     2.3171     4.4557     4.4706   -27.2321
   50.5000     7.8702     0.0277     0.2438    74.5353     2.2836     4.2563     4.3036   -28.7015
   51.0000     7.8147     0.0486     0.2497    77.1966     2.2620     4.0570     4.3679   -28.9821
   51.5000     7.7570     0.0590     0.2530    80.4946     2.2561     3.7995     4.2725   -29.5599
   52.0000     7.6693     0.0830     0.2517    84.9866     2.2547     3.4572     3.9186   -29.2407
   52.5000     7.5667     0.0875     0.2244    87.3891     2.2578     3.1150     3.8430   -28.9258
   53.0000     7.4641     0.0738     0.1936    87.2542     2.2800     2.9271     3.3503   -29.8014
   53.5000     7.3914     0.0615     0.1735    85.6224     2.3343     2.9310     3.4716   -30.5282
   54.0000     7.3031     0.0497     0.1825    78.5134     2.3733     2.9342     3.5725   -29.9157
   54.5000     7.1413     0.0409     0.1935    67.7488     2.3779     2.9163     3.5027   -29.0056
   55.0000     7.1135     0.0382     0.1991    65.8229     2.3525     2.9404     3.3361   -28.5417
   55.5000     7.1459     0.0414     0.2003    68.9717     2.3466     3.0052     3.1424   -28.3716
   56.0000     7.1479     0.0566     0.1620    71.6727     2.3467     3.2456     4.1479   -28.5074
   56.5000     7.1799     0.0643     0.1604    72.2841     2.3880     3.6805     4.2674   -28.6390
   57.0000     7.2118     0.0376     0.1661    73.2000     2.3995     4.0091     4.1552   -28.7706
   57.5000     7.2437     0.0213     0.1720    77.9478     2.3889     4.1179     4.7114   -28.6002
   58.0000     7.2760     0.0185     0.1762    78.7452     2.3815     4.1508     4.7549   -28.4341
   58.5000     7.3249     0.0188     0.1785    76.8229     2.3801     4.1552     4.6560   -28.4169
   59.0000     7.3699     0.0190     0.1794    76.0875     2.3757     4.1597     5.1354   -29.2882
   59.5000     7.4317     0.0195     0.1796    76.5532     2.3713     4.1641     5.3581   -29.5685
   60.0000     7.4636     0.0240     0.1900    76.1194     2.3640     4.1686     5.0401   -29.8532
   60.5000     7.4656     0.0242     0.1924    76.2866     2.3535     4.1731     4.8726   -29.8316
   61.0000     7.4677     0.0259     0.1945    76.7463     2.3507     4.1786     4.9125   -29.8144
   61.5000     7.4398     0.0291     0.1944    76.6109     2.3493     4.1532     5.1611   -30.0947
   62.0000     7.3964     0.0294     0.1991    76.4760     2.3471     3.9627     5.0917   -30.3751
   62.5000     7.4016     0.0311     0.2072    76.3412     2.3413     3.7799     4.5564   -30.5308
   63.0000     7.4464     0.0478     0.2089    76.3592     2.3301     3.5074     4.6360   -30.6382
   63.5000     7.4036     0.0695     0.1810    76.3736     2.3272     3.4156     4.6407   -30.6167
   64.0000     7.3010     0.0966     0.1715    76.2348     2.3408     3.4193     4.3352   -30.5994
   64.5000     7.2133     0.0410     0.1738    72.0134     2.4073     3.4230     3.9667   -30.5822
   65.0000     7.1849     0.0172     0.1953    66.5697     2.3814     3.4030     3.4582   -30.2673
   65.5000     7.2024     0.0130     0.2102    61.6587     2.3478     3.3832     3.3672   -30.2500
   66.0000     7.2651     0.0116     0.2320    59.8821     2.3203     3.3413     3.3244   -30.2321
   66.5000     7.3714     0.0224     0.2346    63.1801     2.2867     3.2764     3.3517   -30.5131
   67.0000     7.2539     0.0361     0.2367    66.3288     2.2793     3.2127     3.3319   -30.7935
   67.5000     6.9569     0.0438     0.2382    69.0348     2.2764     3.1721     3.1998   -30.7719
   68.0000     6.8538     0.0378     0.2414    71.0567     2.2697     3.0672     3.0730   -30.7547
   68.5000     6.8713     0.0293     0.2482    74.7339     2.2637     2.8608     2.9511   -30.7374
   69.0000     6.9481     0.0295     0.2592    77.7333     2.2528     2.6974     2.7952   -30.4226
