~VERSION INFORMATION
 VERS.                2.0:   CWLS LOG ASCII STANDARD - VERSION 2.0
 WRAP.                 NO:   ONE LINE PER DEPTH STEP
~WELL INFORMATION
#MNEM.UNIT      DATA TYPE    INFORMATION
#----------   ------------   ------------------------------
 STRT.F           32.0000:   START DEPTH
 STOP.F          662.0000:   STOP DEPTH
 STEP.F            0.5000:   STEP LENGTH
 NULL.          -999.2500:   NO VALUE
 COMP.    FENIX & SCISSON:   COMPANY
 WELL.   NPR 67SX34 #3-34:   WELL
 FLD .             TEAPOT:   FIELD
 LOC .      S34 T39N R78W:   LOCATION
 CNTY.            NATRONA:   COUNTY
 STAT.            WYOMING:   STATE
 CTRY. UNITED STATES OF AMERICA:   COUNTRY
 SRVC.            Unknown:   SERVICE COMPANY
 DATE.        03-SEP-1978:   LOGDATE
 API .       490251070500:   API NUMBER
~CURVE INFORMATION
#MNEM.UNIT       API CODE    CURVE DESCRIPTION
#----------   ------------   ------------------------------
 DEPT.F                  :   
 ILD .OHMM   05 120 46 00:   INDUCTION LOG DEEP
 SN  .OHMM   05 040 00 00:   SHORT NORMAL
 SPR .MV     05 010 01 00:   SPONTANEOUS POTENTIAL FROM RES.
 CALD.IN     45 280 60 00:   CALIPER FROM DENSITY LOG
 DEN .G/C3   45 350 01 00:   COMPENSATED BULK DENSTIY
 DPHI.DEC    45 890 12 00:   DENSITY POROSITY SANDSTONE
 DRHO.G/C3   45 356 01 00:   DENSITY CORRECTION
 GRD .GAPI   45 310 01 00:   GAMMA RAY FROM DENSITY LOG
~PARAMETER INFORMATION
#MNEM.UNIT          VALUE    DESCRIPTION
#----------   ------------   ------------------------------
 PD  .                 GL:   PERMANENT DATUM
 EPD .F              5076:   ELEVATION PERMANENT DATUM
 LMF .                 KB:   LOG MEASURED FROM
 DAPD.F                 4:   FEET ABOVE PERMANENT DATUM
 DMF .                 KB:   DRILLING MEASURED FROM
 EKB .F              5080:   KELLING BUSHING
 EGL .F              5076:   GROUND LEVEL
 DATE.        03-SEP-1978:   RUN DATE
 RUN .                  1:   RUN NUMBER
 DD  .F               660:   DEPTH DRILLER
 DL  .F               662:   DEPTH LOGGER
 BLI .F               662:   BOTTOM LOG INTERVAL
 TLI .F                40:   TOP LOG INTERVAL
 CS  .IN            8.625:   CASING SIZE
 CBD .F                40:   CASING BOTTOM DRILLER
 BS  .IN            7.875:   BIT SIZE
 BSD .F               660:   BIT SIZE AT DEPTH
 DFT .                KCL:   DRILLING FLUID TYPE
 DFD .                9.0:   DRILLING FLUID DENSITY
 DFV .                 34:   DRILLING FLUID VISCOSITY
 MSS .           FLOWLINE:   MUD SAMPLE SOURCE
 RMS .OHMM            1.4:   RESISTIVITY MUD SAMPLE
 MST .F                65:   MUD SAMPLE TEMPERATURE
 RMF .OHMM            3.2:   RESISTIVITY MUD FILTRATE SAMPLE
 MFST.F                77:   MUD FILTRATE SAMPLE TEMPERATURE
 RMC .OHMM            2.1:   RESISTIVITY MUD CAKE
 MCST.F                78:   MUD CAKE SAMPLE TEMPERATURE
 MFSS.               MEAS:   MUD FILTRATE SAMPLE SOURCE
 TCS .HRS               1:   TIME CURCULATED STOPPED
 LUN .               3006:   LOGGING UNIT NUMBER
 LUL .               CASP:   LOGGING UNIT LOCATION
 ENGI.             MILLER:   RECORDING ENGINEER
 WITN.           MCGINLEY:   WITNESSED BY
 CLNT.            A2DTECH:   CLIENT CODE
 ORIG.        2" 5" PRINT:   ORIGIN OF DATA
 UWI .       490251070500:   UNIQUE WELL ID
 DICO. A2D Technologies, Inc.:   DIGITIZING COMPANY
~OTHER INFORMATION
~A   DEPT      ILD         SN        SPR       CALD        DEN       DPHI       DRHO         GRD  
# ...
  558.5000    13.1174    13.9152    -3.7081     7.4204     2.5397     0.1288     0.0881    54.8963
  559.0000    13.0270    13.4427    -3.7053     7.4206     2.5041     0.1498     0.0655    53.4372
  559.5000    12.9918    12.8968    -3.7017     7.4357     2.4773     0.1683     0.0520    54.0363
  560.0000    12.9372    12.4474    -3.6988     7.4358     2.4375     0.2074     0.0488    56.2746
  560.5000    12.7595    12.1192    -3.6960     7.4509     2.4067     0.2149     0.0339    59.4071
  561.0000    12.6716    12.0358    -3.6931     7.4660     2.3797     0.2152     0.0204    62.6887
  561.5000    12.4976    12.1192    -3.5398     7.4810     2.3504     0.2164     0.0218    63.0402
  562.0000    12.3259    12.3754    -3.6874     7.4961     2.3459     0.2203     0.0233    61.1885
  562.5000    12.2340    12.5453    -3.6838     7.5112     2.3444     0.2218     0.0278    60.4619
  563.0000    11.9897    12.4589    -3.8320     7.5412     2.3429     0.2187     0.0338    60.7635
  563.5000    11.8250    12.2879    -3.8284     7.5563     2.3444     0.2062     0.0367    61.5116
  564.0000    11.6626    11.9529    -4.1263     7.5564     2.3564     0.1981     0.0384    62.4086
  564.5000    11.5024    11.6156    -4.4242     7.5715     2.3744     0.1945     0.0397    63.6038
  565.0000    11.3445    11.3886    -4.7214     7.6015     2.3767     0.1955     0.0381    64.9479
  565.5000    11.1887    11.0781    -5.0200     7.6166     2.3781     0.1976     0.0351    67.1947
  566.0000    11.0350    10.9261    -5.1675     7.6167     2.3759     0.2184     0.0306    67.7853
  566.5000    10.8834    10.7019    -5.4647     7.6467     2.3648     0.2231     0.0245    65.4044
  567.0000    10.7315    10.5975    -5.7626     7.6618     2.3391     0.2132     0.0290    63.4699
  567.5000    10.6600    10.4824    -6.0598     7.6918     2.3518     0.2006     0.0337    62.8759
  568.0000    10.5136    10.4102    -6.3576     7.7218     2.3744     0.1739     0.0395    64.0717
  568.5000    10.4411    10.3385    -6.6555     7.7369     2.4164     0.1634     0.0259    66.3101
  569.0000    10.4411    10.2673    -6.8031     7.7370     2.4284     0.1634     0.0169    67.2072
  569.5000    10.3692    10.3385    -6.9506     7.7819     2.4292     0.1618     0.0108    66.4461
  570.0000    10.4411    10.3385    -6.7966     7.7522     2.4284     0.1547     0.0093    66.0207
  570.5000    10.4411    10.4102    -6.6434     7.7226     2.4316     0.1535     0.0108    66.1733
  571.0000    10.3692    10.3385    -6.7910     7.7078     2.4434     0.1538     0.0123    67.2194
  571.5000    10.3692    10.3385    -6.9384     7.6930     2.4426     0.1535     0.0122    68.4145
  572.0000    10.3692    10.3385    -7.0859     7.6782     2.4426     0.1532     0.0122    63.9465
  572.5000    10.3692    10.3167    -7.0823     7.6634     2.4434     0.1502     0.0152    62.8962
  573.0000    10.3692    10.2673    -7.0795     7.6337     2.4448     0.1490     0.0151    63.8192
  573.5000    10.3692    10.2616    -6.9262     7.6339     2.4456     0.1516     0.0136    64.4029
  574.0000    10.3692    10.1966    -6.7729     7.6341     2.4478     0.1563     0.0121    64.5548
  574.5000    10.3692    10.1966    -6.7694     7.6640     2.4456     0.1554     0.0105    64.4080
  575.0000    10.3692    10.2673    -6.9177     7.6642     2.4433     0.1518     0.0120    64.7096
  575.5000    10.3692    10.2673    -7.2148     7.6345     2.4411     0.1455     0.0150    65.1596
  576.0000    10.3692    10.1966    -7.5127     7.6197     2.4463     0.1392     0.0180    68.1431
  576.5000    10.3692    10.2673    -7.6602     7.6049     2.4598     0.1419     0.0209    69.6364
  577.0000    10.2977    10.2673    -8.1078     7.6200     2.4629     0.1407     0.0194    69.4902
  577.5000    10.2977    10.1966    -8.4057     7.6649     2.4575     0.1354     0.0194    69.4938
  578.0000    10.2268    10.1966    -8.4028     7.6651     2.4616     0.1392     0.0268    69.7947
  578.5000    10.2268    10.1264    -8.5504     7.6652     2.4703     0.1452     0.0236    70.5427
  579.0000    10.2268    10.1264    -8.8482     7.6654     2.4575     0.1521     0.0178    70.8437
  579.5000    10.2268    10.1264    -8.8782     7.6655     2.4508     0.1539     0.0102    70.5485
  580.0000    10.2268    10.1264    -9.2929     7.6657     2.4455     0.1500     0.0087    69.4983
  580.5000    10.2268    10.0567    -9.4411     7.6808     2.4477     0.1455     0.0102    69.3620
  581.0000    10.1563    10.1264    -9.7383     7.6958     2.4515     0.1421     0.0132    69.5146
  581.5000    10.0863    10.0567    -9.8858     7.6960     2.4567     0.1365     0.0146    70.1136
  582.0000    10.0863    10.0567   -10.0333     7.6961     2.4620     0.1371     0.0146    71.6068
  582.5000    10.0168    10.0503   -10.0298     7.6664     2.4672     0.1399     0.0131    73.1000
  583.0000     9.9478     9.9874    -9.8765     7.6367     2.4657     0.1438     0.0115    73.8481
  583.5000     9.9478     9.9874    -9.8737     7.6070     2.4605     0.1483     0.0085    74.4679
  584.0000     9.8792     9.9187    -9.7197     7.6370     2.4522     0.1492     0.0070    77.5803
  584.5000     9.9478     9.9174    -9.7168     7.6670     2.4507     0.1492     0.0084    79.0735
  585.0000     9.8792     9.8504    -9.8651     7.7269     2.4507     0.1489     0.0084    78.6293
  585.5000     9.8792     9.8504    -9.8615     7.7569     2.4514     0.1471     0.0099    75.5025
  586.0000     9.8792     9.8504   -10.0090     7.7719     2.4522     0.1453     0.0128    69.8415
  586.5000     9.8112     9.8504   -10.0054     7.7422     2.4552     0.1426     0.0143    69.9941
  587.0000     9.8112     9.8504   -10.0026     7.7424     2.4604     0.1384     0.0128    70.1500
  587.5000     9.8112     9.8504    -9.9997     7.7575     2.4672     0.1348     0.0128    71.2666
  588.0000     9.7436     9.7826   -10.1479     7.7875     2.4709     0.1390     0.0142    73.2822
  588.5000     9.6764     9.7826   -10.3692     7.8026     2.4694     0.1435     0.0157    75.0734
  589.0000     9.6764     9.7152   -10.5926     7.7878     2.4671     0.1453     0.0157    75.9705
  589.5000     9.6764     9.7152   -10.8898     7.7879     2.4634     0.1381     0.0201    76.4205
  590.0000     9.6097     9.6483   -11.0380     7.7881     2.4649     0.1402     0.0261    76.4431
  590.5000     9.5435     9.6483   -11.1855     7.7733     2.4679     0.1435     0.0231    73.5907
  591.0000     9.4778     9.5819   -11.3323     7.7585     2.4633     0.1466     0.0186    71.8091
  591.5000     9.3476     9.3853   -11.6302     7.7587     2.4573     0.1445     0.0140    71.9618
  592.0000     9.2832     9.3207   -12.0778     7.7588     2.4543     0.1385     0.0140    75.9885
  592.5000     9.1557     9.2565   -12.3757     7.7590     2.4551     0.1342     0.0185    78.5249
  593.0000     9.0926     9.1295   -12.5239     7.7591     2.4632     0.1286     0.0229    79.5710
  593.5000     9.0299     9.0605   -12.8211     7.7742     2.4716     0.1235     0.0304    79.2758
  594.0000     8.8445     8.8806   -13.1182     7.7893     2.4726     0.1082     0.0410    77.4903
  594.5000     8.7836     8.8194   -13.2665     7.7735     2.4926     0.1133     0.0499    76.8783
  595.0000     8.6630     8.6984   -13.4140     7.7597     2.5061     0.1175     0.0453    76.4536
  595.5000     8.5440     8.6385   -13.5615     7.7599     2.5046     0.1169     0.0408    76.3074
  596.0000     8.3686     8.5200   -13.7083     7.7600     2.4993     0.1181     0.0378    74.9690
  596.5000     8.2536     8.4486   -13.8558     7.7602     2.4986     0.1248     0.0377    73.9287
  597.0000     8.0824     8.2877   -14.0033     7.7603     2.4955     0.1238     0.0407    71.9942
  597.5000     7.9182     8.1177   -13.9997     7.7903     2.4888     0.1211     0.0422    69.4635
  598.0000     7.6491     7.9453   -13.9969     7.8070     2.4919     0.1238     0.0422    72.8946
  598.5000     7.3383     7.6283   -14.1444     7.8055     2.4933     0.1265     0.0406    80.6471
