~VERSION INFORMATION
 VERS.                2.0:   CWLS LOG ASCII STANDARD - VERSION 2.0
 WRAP.                 NO:   ONE LINE PER DEPTH STEP
~WELL INFORMATION
#MNEM.UNIT      DATA TYPE    INFORMATION
#----------   ------------   ------------------------------
 STRT.F          283.5000:   START DEPTH
 STOP.F         3026.0000:   STOP DEPTH
 STEP.F            0.5000:   STEP LENGTH
 NULL.          -999.2500:   NO VALUE
 COMP. DEPARTMENT OF ENERGY:   COMPANY
 WELL. RES 3 TEAPOT DOM "AX" #62-29:   WELL
 FLD .        TEAPOT DOME:   FIELD
 LOC .      S29 T39N R78W:   LOCATION
 CNTY.            NATRONA:   COUNTY
 STAT.            WYOMING:   STATE
 CTRY. UNITED STATES OF AMERICA:   COUNTRY
 SRVC.       Schlumberger:   SERVICE COMPANY
 DATE.        27-JUL-1971:   LOGDATE
 API .       490250659800:   API NUMBER
~CURVE INFORMATION
#MNEM.UNIT       API CODE    CURVE DESCRIPTION
#----------   ------------   ------------------------------
 DEPT.F                  :   
 GRD .GAPI   45 310 01 00:   GAMMA RAY FROM DENSITY LOG
 CALD.IN     45 280 60 00:   CALIPER FROM DENSITY LOG
 RHOB.G/C3   45 350 01 00:   BULK DENSITY
 DPHI.DEC    45 890 12 00:   DENSITY POROSITY SANDSTONE
 CORR.G/C3   45 356 01 00:   DENSITY CORRECTION
 SPR .MV     05 010 01 00:   SPONTANEOUS POTENTIAL FROM RES.
 ASN .OHMM   05 041 16 00:   AMPLIFIED SHORT NORMAL 16"
 ILD .OHMM   05 120 46 00:   INDUCTION LOG DEEP
 CILD.MMHO   05 110 46 00:   CONDUCTIVITY INDUCTION LOG DEEP
~PARAMETER INFORMATION
#MNEM.UNIT          VALUE    DESCRIPTION
#----------   ------------   ------------------------------
 PD  .                 GL:   PERMANENT DATUM
 EPD .F              4998:   ELEVATION PERMANENT DATUM
 LMF .                 KB:   LOG MEASURED FROM
 DAPD.F                11:   FEET ABOVE PERMANENT DATUM
 DMF .                 KB:   DRILLING MEASURED FROM
 EKB .F              5009:   KELLING BUSHING
 EGL .F              4998:   GROUND LEVEL
 DATE.            7-27-71:   RUN DATE
 RUN .                  1:   RUN NUMBER
 DD  .F              3023:   DEPTH DRILLER
 DL  .F              3024:   DEPTH LOGGER
 BLI .F              3023:   BOTTOM LOG INTERVAL
 TLI .F               286:   TOP LOG INTERVAL
 CS  .IN            10.75:   CASING SIZE
 CBD .F               287:   CASING BOTTOM DRILLER
 CBL .F               286:   CASING BOTTOM LOGGER
 BS  .IN                9:   BIT SIZE
 BSD .F              3023:   BIT SIZE AT DEPTH
 DFT .      FRESH GEL MUD:   DRILLING FLUID TYPE
 DFD .                 10:   DRILLING FLUID DENSITY
 DFV .                 90:   DRILLING FLUID VISCOSITY
 DFPH.                7.6:   DRILLING FLUID PH
 DFL .                5.8:   DRILLING FLUID LOSS
 MSS .          FLOW LINE:   MUD SAMPLE SOURCE
 RMS .OHMM           1.74:   RESISTIVITY MUD SAMPLE
 MST .F                75:   MUD SAMPLE TEMPERATURE
 RMF .OHMM            1.5:   RESISTIVITY MUD FILTRATE SAMPLE
 MFST.F                75:   MUD FILTRATE SAMPLE TEMPERATURE
 MFSS.                  C:   MUD FILTRATE SAMPLE SOURCE
 RMB .OHMM           1.12:   RESISTIVITY MUD AT BHT
 BHT .F               116:   BOTTOM HOLE TEMPERATURE
 TCS .HRS               5:   TIME CURCULATED STOPPED
 MRT .F               116:   MAXIMUM RECORDED TEMPERATURE
 LUN .               7041:   LOGGING UNIT NUMBER
 LUL .               CSPR:   LOGGING UNIT LOCATION
 ENGI.             KNOBEL:   RECORDING ENGINEER
 WITN.                MAY:   WITNESSED BY
 CLNT.            A2DTECH:   CLIENT CODE
 ORIG.     1", 2.5" PRINT:   ORIGIN OF DATA
 UWI .       490250659800:   UNIQUE WELL ID
 DICO. A2D Technologies, Inc.:   DIGITIZING COMPANY
~OTHER INFORMATION
~A   DEPT      GRD       CALD       RHOB       DPHI       CORR        SPR        ASN        ILD       CILD   
# ...
 2692.5000   157.3683    10.5390     2.5625     0.0549     0.0828   -27.5327     4.2132     3.0544   301.9802
 2693.0000   159.6454    10.5544     2.5624     0.0525     0.1347   -27.5744     4.1205     3.0549   300.0000
 2693.5000   156.1174    10.5688     2.5548     0.0720     0.1197   -27.6677     4.2608     3.1372   293.5446
 2694.0000   143.7478    10.5875     2.5154     0.0978     0.0803   -27.8097     4.5770     3.3244   288.1188
 2694.5000   135.3394    10.5390     2.4675     0.1111     0.0432   -27.9657     5.0199     3.6171   263.6266
 2695.0000   121.6518    10.3991     2.4847     0.1029     0.0323   -28.1199     5.5298     4.0059   236.2659
 2695.5000   118.9235    10.3911     2.5489     0.0778     0.0383   -28.2837     6.0093     4.4753   210.8911
 2696.0000   117.8693    10.3882     2.5886     0.0398     0.0502   -28.4479     6.3787     4.9674   192.4554
 2696.5000   117.7548    10.3904     2.5771     0.0443     0.0615   -28.5861     6.6283     5.3602   169.3069
 2697.0000   118.3347    10.3901     2.5742     0.0501     0.0631   -28.7140     6.7823     5.5420   166.0990
 2697.5000   119.7670    10.3829     2.5840     0.0433     0.0608   -28.8805     6.8498     5.5278   163.3663
 2698.0000   121.8201    10.3654     2.5956     0.0393     0.0609   -29.0788     6.8363     5.4508   166.7796
 2698.5000   121.9112    10.3485     2.5828     0.0343     0.0599   -29.2316     6.7578     5.4122   169.1441
 2699.0000   123.7835    10.3316     2.5868     0.0430     0.0604   -29.2963     6.6299     5.4004   171.5086
 2699.5000   125.8260    10.3145     2.5964     0.0295     0.0798   -29.3228     6.4700     5.3664   173.8731
 2700.0000   126.6952    10.2975     2.6031     0.0350     0.0649   -29.3765     6.3209     5.3039   176.2376
 2700.5000   125.6658    10.2804     2.5271     0.0621     0.0272   -29.4545     6.2369     5.2369   178.6021
 2701.0000   127.7660    10.2633     2.5328     0.0731     0.0329   -29.5145     6.2364     5.1880   180.9666
 2701.5000   130.1544    10.2463     2.5460     0.0660     0.0480   -29.5466     6.2836     5.1665   183.3311
 2702.0000   127.1239    10.2322     2.5756     0.0438     0.0583   -29.5786     6.3321     5.1313   185.6956
 2702.5000   122.2120    10.2376     2.5539     0.0498     0.0483   -29.6308     6.3692     4.9942   189.1089
 2703.0000   119.4733    10.2527     2.5412     0.0683     0.0387   -29.6959     6.3861     4.7337   196.3960
 2703.5000   120.9940    10.2677     2.5506     0.0641     0.0541   -29.7584     6.3319     4.4408   209.4917
 2704.0000   123.5186    10.2828     2.5600     0.0519     0.0671   -29.8187     6.1444     4.1884   222.5875
 2704.5000   132.7567    10.2978     2.5626     0.0552     0.0794   -29.8859     5.8280     3.9238   235.6832
 2705.0000   140.5044    10.3128     2.5520     0.0636     0.0754   -29.9503     5.4497     3.6015   248.7789
 2705.5000   151.4282    10.3279     2.5529     0.0615     0.0901   -29.9776     5.0639     3.3320   267.8885
 2706.0000   154.4491    10.3429     2.5562     0.0564     0.1100   -29.9445     4.6959     3.2580   270.8761
 2706.5000   159.8468    10.3580     2.5417     0.0643     0.1303   -29.8657     4.4011     3.3313   274.0801
 2707.0000   161.2915    10.3731     2.5306     0.0738     0.1614   -29.7782     4.2727     3.3820   274.6603
 2707.5000   156.9931    10.3882     2.5166     0.0832     0.1548   -29.7027     4.3691     3.3904   272.4006
 2708.0000   151.1082    10.3868     2.4895     0.0990     0.1203   -29.6340     4.6675     3.5150   264.4590
 2708.5000   144.4908    10.3344     2.4564     0.1158     0.0900   -29.5615     5.0882     3.8313   241.4590
 2709.0000   135.4880    10.3094     2.4773     0.1063     0.0565   -29.4846     5.5309     4.2224   225.3461
 2709.5000   127.7952    10.3113     2.5287     0.0882     0.0616   -29.4096     5.9086     4.5856   210.0282
 2710.0000   127.1820    10.3111     2.5496     0.0686     0.0745   -29.3388     6.1954     4.9680   193.9070
 2710.5000   125.2825    10.3109     2.5241     0.0765     0.0578   -29.2673     6.4321     5.3964   178.4336
 2711.0000   123.5914    10.3111     2.5086     0.0905     0.0367   -29.1903     6.6600     5.7395   167.3217
 2711.5000   121.4114    10.3110     2.5275     0.0774     0.0369   -29.1127     6.8700     5.8768   165.0071
 2712.0000   120.6891    10.3110     2.5421     0.0620     0.0450   -29.0447     7.0367     5.8880   161.6045
 2712.5000   120.7498    10.3110     2.5404     0.0691     0.0494   -28.9784     7.1683     5.9404   157.6563
 2713.0000   119.6296    10.3110     2.5412     0.0645     0.0485   -28.8935     7.2947     6.0703   154.2865
 2713.5000   118.0013    10.3110     2.5508     0.0588     0.0542   -28.8074     7.4294     6.1965   150.6852
 2714.0000   117.8296    10.3110     2.5539     0.0620     0.0644   -28.7894     7.5671     6.2819   145.5446
 2714.5000   119.5677    10.3110     2.5638     0.0552     0.0756   -28.8828     7.7014     6.3656   144.7412
 2715.0000   117.7242    10.3110     2.5718     0.0438     0.0806   -29.0340     7.8282     6.4706   143.3380
 2715.5000   113.9914    10.3110     2.5658     0.0525     0.0706   -29.1461     7.9406     6.5723   141.5842
 2716.0000   111.5395    10.3110     2.5770     0.0482     0.0687   -29.1827     8.0349     6.6631   141.5842
 2716.5000   113.9369    10.3110     2.5773     0.0446     0.0702   -29.1740     8.1168     6.7986   138.7327
 2717.0000   118.0094    10.3110     2.5765     0.0488     0.0620   -29.1711     8.2012     7.0399   135.7106
 2717.5000   122.0684    10.3110     2.5622     0.0562     0.0554   -29.2384     8.3004     7.3517   132.6885
 2718.0000   122.4024    10.3110     2.5414     0.0636     0.0506   -29.4046     8.4129     7.5885   129.6664
 2718.5000   119.4748    10.3110     2.5399     0.0691     0.0523   -29.5508     8.5211     7.6212   125.7426
 2719.0000   117.1137    10.3110     2.5571     0.0565     0.0658   -29.4604     8.6067     7.4650   125.7426
 2719.5000   115.5550    10.3111     2.5754     0.0454     0.0800   -29.0971     8.6516     7.2438   125.7426
 2720.0000   114.3011    10.3106     2.5747     0.0501     0.0840   -28.7403     8.6223     7.0541   129.1089
 2720.5000   115.4235    10.3153     2.5754     0.0454     0.0730   -28.7081     8.4788     6.8923   134.0198
 2721.0000   116.6944    10.3255     2.5660     0.0501     0.0611   -29.0054     8.2193     6.7005   138.9307
 2721.5000   117.9763    10.3352     2.5534     0.0609     0.0464   -29.3564     7.9001     6.4306   143.5644
 2722.0000   119.8945    10.3449     2.5353     0.0718     0.0325   -29.5317     7.5644     6.0634   154.8053
 2722.5000   123.4500    10.3548     2.5219     0.0802     0.0214   -29.5225     7.2024     5.5937   169.3069
 2723.0000   127.0559    10.3645     2.5224     0.0802     0.0308   -29.4375     6.8182     5.0356   181.0396
 2723.5000   130.5506    10.3741     2.5152     0.0866     0.0273   -29.3567     6.4711     4.4586   199.4554
 2724.0000   134.7289    10.3844     2.4842     0.0992     0.0186   -29.2915     6.1671     3.9862   217.8713
 2724.5000   142.8949    10.3908     2.4914     0.0961     0.0325   -29.2193     5.7987     3.7087   236.2871
 2725.0000   148.9227    10.3889     2.5122     0.0848     0.0594   -29.1297     5.3162     3.6130   258.4158
 2725.5000   153.8443    10.3902     2.5316     0.0667     0.0806   -29.0487     4.8642     3.6314   260.3960
 2726.0000   171.1886    10.3949     2.5419     0.0685     0.1161   -28.9952     4.6207     3.7237   250.6535
 2726.5000   182.6735    10.4480     2.5450     0.0723     0.1499   -28.9267     4.6357     3.8828   240.8317
 2727.0000   171.3037    10.4942     2.4896     0.0886     0.1104   -28.8124     4.9597     4.1075   231.0099
 2727.5000   151.0443    10.4538     2.4966     0.1040     0.0579   -28.7735     5.6374     4.4138   224.7525
 2728.0000   140.0725    10.3795     2.5014     0.0881     0.0368   -29.0107     6.8105     4.8520   193.9644
 2728.5000   105.2809    10.3024     2.5902     0.0358     0.0663   -29.4988     7.8639     5.4700   171.3743
