~VERSION INFORMATION
 VERS.                2.0:   CWLS LOG ASCII STANDARD - VERSION 2.0
 WRAP.                 NO:   ONE LINE PER DEPTH STEP
~WELL INFORMATION
#MNEM.UNIT      DATA TYPE    INFORMATION
#----------   ------------   ------------------------------
 STRT.F            0.0000:   START DEPTH
 STOP.F          612.5000:   STOP DEPTH
 STEP.F            0.5000:   STEP LENGTH
 NULL.          -999.2500:   NO VALUE
 COMP.   FLUOR DANIEL INC:   COMPANY
 WELL. NAVAL PETROLEUM RESERVE 3 SX-3 82 #2-3:   WELL
 FLD .             TEAPOT:   FIELD
 LOC .       S3 T38N R78W:   LOCATION
 CNTY.            NATRONA:   COUNTY
 STAT.            WYOMING:   STATE
 CTRY. UNITED STATES OF AMERICA:   COUNTRY
 SRVC.      Western Atlas:   SERVICE COMPANY
 DATE.        28-JUL-1995:   LOGDATE
 API .       490252274000:   API NUMBER
~CURVE INFORMATION
#MNEM.UNIT       API CODE    CURVE DESCRIPTION
#----------   ------------   ------------------------------
 DEPT.F                  :   
 GRR .GAPI   07 310 01 00:   GAMMA RAY FROM RES. LOG.
 RILD.OHMM   07 120 46 00:   INDUCTION LOG DEEP RESISTIVITY
 RILM.OHMM   07 120 44 00:   INDUCTION LOG MEDIUM RESISTIVITY
~PARAMETER INFORMATION
#MNEM.UNIT          VALUE    DESCRIPTION
#----------   ------------   ------------------------------
 PD  .                 GL:   PERMANENT DATUM
 EPD .F              5123:   ELEVATION PERMANENT DATUM
 LMF .                 KB:   LOG MEASURED FROM
 DAPD.F                10:   FEET ABOVE PERMANENT DATUM
 DMF .                 KB:   DRILLING MEASURED FROM
 EKB .F              5133:   KELLING BUSHING
 EDF .F              5132:   DRILLING FLOOR
 EGL .F              5123:   GROUND LEVEL
 DATE.            7-28-95:   RUN DATE
 RUN .                  1:   RUN NUMBER
 DD  .F               620:   DEPTH DRILLER
 DL  .F               620:   DEPTH LOGGER
 BLI .F               612:   BOTTOM LOG INTERVAL
 TLI .F                54:   TOP LOG INTERVAL
 CS  .IN            9.625:   CASING SIZE
 CBD .F                53:   CASING BOTTOM DRILLER
 CBL .F                54:   CASING BOTTOM LOGGER
 BS  .IN             8.75:   BIT SIZE
 BSD .F               620:   BIT SIZE AT DEPTH
 DFT .                AIR:   DRILLING FLUID TYPE
 BHT .F                91:   BOTTOM HOLE TEMPERATURE
 MRT .F                91:   MAXIMUM RECORDED TEMPERATURE
 LUN .            HL 6530:   LOGGING UNIT NUMBER
 LUL .             CASPER:   LOGGING UNIT LOCATION
 ENGI.          RASMUSSEN:   RECORDING ENGINEER
 WITN.              HARDY:   WITNESSED BY
 CLNT.            A2DTECH:   CLIENT CODE
 ORIG.       2", 5" PRINT:   ORIGIN OF DATA
 UWI .       490252274000:   UNIQUE WELL ID
 DICO. A2D Technologies, Inc.:   DIGITIZING COMPANY
~OTHER INFORMATION
~A    DEPT      GRR      RILD       RILM   
# ...
  273.0000   111.4332     9.3680     9.7816
  273.5000   111.9552     9.2627     9.5826
  274.0000   113.0599     9.0165     9.2697
  274.5000   112.8479     8.7255     8.9704
  275.0000   112.6653     8.4439     8.6809
  275.5000   113.5310     8.1711     8.4007
  276.0000   115.9747     7.9072     8.1295
  276.5000   118.1967     7.6520     7.8671
  277.0000   120.0261     7.5241     7.7437
  277.5000   121.4832     7.4513     7.6888
  278.0000   121.1935     7.3791     7.6242
  278.5000   119.8204     7.2804     7.6667
  279.0000   116.8199     7.3084     7.7194
  279.5000   113.9034     7.3762     7.7725
  280.0000   113.4746     7.4448     7.8259
  280.5000   114.4273     7.5142     7.8797
  281.0000   115.9675     7.6258     7.9262
  281.5000   117.5519     7.6224     7.9952
  282.0000   119.1509     7.6931     8.0648
  282.5000   120.6514     7.7948     8.1351
  283.0000   120.7017     7.8771     8.2059
  283.5000   120.0385     7.9603     8.2774
  284.0000   119.0782     8.0444     8.3494
  284.5000   119.6418     8.0585     8.4221
  285.0000   120.2639     8.0892     8.4955
  285.5000   119.2202     8.1596     8.5694
  286.0000   116.3178     8.2308     8.6440
  286.5000   114.8871     8.2845     8.7193
  287.0000   118.2709     8.2845     8.7952
  287.5000   121.2295     8.2845     8.8373
  288.0000   121.5301     8.2496     8.6878
  288.5000   121.9258     8.2089     8.6233
  289.0000   124.0343     8.1683     8.5592
  289.5000   126.7106     8.1279     8.4956
  290.0000   130.2034     8.0878     8.4325
  290.5000   133.4617     8.0582     8.3698
  291.0000   132.1775     8.0514     8.3594
  291.5000   128.3685     8.0450     8.3524
  292.0000   125.0553     8.0386     8.3454
  292.5000   124.3255     8.0322     8.3384
  293.0000   124.4196     8.0258     8.3314
  293.5000   124.5535     8.0194     8.3244
  294.0000   124.7104     8.0130     8.3174
  294.5000   123.3176     8.0066     8.3104
  295.0000   121.3097     8.0003     8.3035
  295.5000   121.1677     7.9938     8.2964
  296.0000   124.6873     7.9875     8.2900
  296.5000   128.4654     7.9692     8.2662
  297.0000   129.5678     7.9167     8.2008
  297.5000   127.1150     7.8646     8.1358
  298.0000   126.1619     7.8128     8.0715
  298.5000   127.8918     7.7614     8.0078
  299.0000   130.8741     7.7103     7.9443
  299.5000   133.4556     7.6595     7.8812
  300.0000   131.6562     7.6242     7.8373
  300.5000   128.4451     7.5221     7.7322
  301.0000   125.5215     7.4304     7.6375
  301.5000   125.1533     7.3478     7.5523
  302.0000   125.9756     7.0596     7.2565
  302.5000   127.1338     6.8048     6.9954
  303.0000   126.0208     6.5591     6.7431
  303.5000   118.5081     6.3223     6.4995
  304.0000   113.1236     5.9977     6.2811
  304.5000   116.8004     6.0052     6.1114
  305.0000   120.2900     6.0215     6.0002
  305.5000   119.8600     6.0378     6.1286
  306.0000   118.9532     6.0533     6.2903
  306.5000   118.9107     6.1082     6.4569
  307.0000   118.7434     6.1733     6.6288
  307.5000   118.0087     6.2925     6.8063
  308.0000   117.5177     6.5885     6.9910
  308.5000   119.5270     6.8882     7.1809
  309.0000   121.5434     6.9538     7.2135
  309.5000   124.1942     7.0165     7.2135
  310.0000   124.3615     7.0675     7.2660
  310.5000   122.6671     7.1175     7.3173
  311.0000   119.9431     7.1475     7.3481
  311.5000   118.2219     7.1306     7.3308
  312.0000   120.2795     7.1101     7.3100
  312.5000   122.6139     7.0897     7.2892
  313.0000   122.6957     7.0602     7.2592
  313.5000   122.6995     6.9529     7.1490
  314.0000   123.3109     6.8524     7.0454
  314.5000   126.6124     6.6660     6.8528
  315.0000   127.2311     6.4847     6.6647
  315.5000   128.5727     6.2949     6.5204
  316.0000   129.0605     6.0499     6.5775
  316.5000   126.7075     5.8145     6.0783
  317.0000   124.8420     5.5882     5.7811
  317.5000   124.1828     5.3196     5.4955
  318.0000   123.5182     5.3689     5.2674
  318.5000   123.8653     5.3689     5.4299
  319.0000   124.9241     5.3675     5.6403
  319.5000   127.0335     5.4101     5.8581
  320.0000   128.2194     5.5357     6.0835
  320.5000   130.4752     5.6730     6.3176
  321.0000   131.5656     5.9357     6.5775
  321.5000   129.6544     6.2296     6.7560
  322.0000   127.1319     6.5376     6.9528
  322.5000   126.1403     6.8882     7.1554
  323.0000   127.8348     6.9586     7.2479
  323.5000   127.6219     7.0080     7.3155
  324.0000   127.2829     7.0571     7.3820
  324.5000   127.7958     7.0814     7.4493
  325.0000   129.1344     7.1554     7.5288
  325.5000   130.2646     7.2381     7.6831
  326.0000   129.1171     7.3216     7.8392
  326.5000   127.9215     7.4164     7.9842
  327.0000   126.4731     7.4156     7.9842
  327.5000   125.0529     7.4937     7.9842
  328.0000   124.6233     7.5547     7.9842
  328.5000   125.2779     7.6162     7.9842
  329.0000   127.3289     7.6242     7.9842
  329.5000   130.0295     7.6274     7.9842
  330.0000   131.0627     7.6394     8.0011
  330.5000   130.0690     7.6516     8.0663
  331.0000   126.9461     7.6637     8.1320
  331.5000   125.5383     7.6759     8.2084
  332.0000   124.9143     7.6878     8.1476
  332.5000   123.8588     7.6947     8.0545
  333.0000   123.2760     7.6948     7.9842
  333.5000   125.7856     7.6947     7.9589
  334.0000   128.2271     7.6948     7.9346
  334.5000   129.6895     7.6953     7.9109
  335.0000   130.6360     7.6620     7.7874
  335.5000   131.5630     7.6301     7.6692
  336.0000   133.1602     7.5107     7.5529
  336.5000   135.7965     7.3739     7.4386
  337.0000   138.6687     7.2396     7.3248
  337.5000   136.4405     6.9777     7.1981
  338.0000   133.2130     6.6033     6.8023
  338.5000   131.3458     6.2490     6.4282
  339.0000   130.9565     5.9426     6.1128
  339.5000   129.7061     5.4267     5.8382
  340.0000   126.9965     4.8328     5.2853
  340.5000   124.3830     4.3685     4.6046
  341.0000   124.8530     3.8336     4.0116
  341.5000   128.2056     3.3642     3.4949
  342.0000   128.5980     2.9522     3.0448
  342.5000   126.1485     2.7241     2.8005
  343.0000   123.0764     2.5991     2.6721
  343.5000   119.9859     2.5079     2.5783
  344.0000   116.8905     2.4502     2.5190
  344.5000   113.9365     2.4807     2.5944
  345.0000   115.3817     2.5709     2.8401
  345.5000   122.1313     2.7504     3.1999
  346.0000   129.1703     3.1127     3.6330
  346.5000   135.0851     3.5227     4.1247
  347.0000   137.6942     3.9867     4.6830
  347.5000   136.7610     4.5118     5.1496
  348.0000   132.4144     5.0918     5.5937
  348.5000   128.4951     5.6746     5.8339
  349.0000   126.9101     5.7947     5.9574
  349.5000   126.3408     5.9294     6.0959
  350.0000   127.9498     5.9977     6.1661
  350.5000   131.2321     5.9971     6.1655
  351.0000   134.6888     5.9206     6.0868
  351.5000   134.6130     5.7727     5.9348
  352.0000   133.8825     5.6338     5.7864
  352.5000   134.1097     5.3102     5.4185
  353.0000   138.1263     4.9868     5.0736
  353.5000   142.1709     4.8288     4.9644
  354.0000   145.2272     4.6772     4.8085
  354.5000   147.3689     4.5303     4.6574
  355.0000   149.5265     4.3824     4.5054
  355.5000   149.0970     4.3421     4.5054
  356.0000   144.3708     4.3796     4.6688
  356.5000   134.6614     4.4824     4.8506
  357.0000   130.0160     4.6333     5.0624
  357.5000   129.1081     4.8667     5.2885
  358.0000   132.1642     5.1119     5.5247
  358.5000   139.1584     5.3695     5.7714
  359.0000   143.0906     5.6400     6.0292
  359.5000   143.6785     5.9241     6.2984
  360.0000   140.1328     6.2226     6.5171
  360.5000   136.0960     6.3723     6.5512
  361.0000   136.9792     6.5219     6.7050
  361.5000   139.5790     6.6751     6.8625
  362.0000   139.1404     6.8249     7.0181
  362.5000   136.4147     6.7943     6.9876
  363.0000   134.4057     6.7471     6.9407
  363.5000   134.7070     6.7003     6.8944
