~VERSION INFORMATION
 VERS.                2.0:   CWLS LOG ASCII STANDARD - VERSION 2.0
 WRAP.                 NO:   ONE LINE PER DEPTH STEP
~WELL INFORMATION
#MNEM.UNIT      DATA TYPE    INFORMATION
#----------   ------------   ------------------------------
 STRT.F            0.0000:   START DEPTH
 STOP.F          556.0000:   STOP DEPTH
 STEP.F            0.5000:   STEP LENGTH
 NULL.          -999.2500:   NO VALUE
 COMP.       F D SERV INC:   COMPANY
 WELL. NAVAL PETROLEUM RESERVE NPR #3 #86-3 SX 3:   WELL
 FLD .             TEAPOT:   FIELD
 LOC .       S3 T38N R78W:   LOCATION
 CNTY.            NATRONA:   COUNTY
 STAT.            WYOMING:   STATE
 CTRY. UNITED STATES OF AMERICA:   COUNTRY
 SRVC.      Western Atlas:   SERVICE COMPANY
 DATE.        24-OCT-1992:   LOGDATE
 API .       490252255300:   API NUMBER
~CURVE INFORMATION
#MNEM.UNIT       API CODE    CURVE DESCRIPTION
#----------   ------------   ------------------------------
 DEPT.F                  :   
 GRR .GAPI   07 310 01 00:   GAMMA RAY
 RILD.OHMM   07 120 46 00:   INDUCTION LOG DEEP RESISTIVITY
 RILM.OHMM   07 120 44 00:   RESITIVITY LONG MEDIUM
~PARAMETER INFORMATION
#MNEM.UNIT          VALUE    DESCRIPTION
#----------   ------------   ------------------------------
 PD  .                 GL:   PERMANENT DATUM
 EPD .F              5157:   ELEVATION PERMANENT DATUM
 LMF .                 KB:   LOG MEASURED FROM
 DAPD.F                10:   FEET ABOVE PERMANENT DATUM
 DMF .                 KB:   DRILLING MEASURED FROM
 EKB .F              5167:   KELLING BUSHING
 EDF .F              5166:   DRILLING FLOOR
 EGL .F              5157:   GROUND LEVEL
 DATE.        24-OCT-1992:   RUN DATE
 RUN .                  1:   RUN NUMBER
 DD  .F               565:   DEPTH DRILLER
 DL  .F               564:   DEPTH LOGGER
 BLI .F               564:   BOTTOM LOG INTERVAL
 TLI .F                 0:   TOP LOG INTERVAL
 CS  .IN            8.625:   CASING SIZE
 CBD .F                85:   CASING BOTTOM DRILLER
 CBL .F                56:   CASING BOTTOM LOGGER
 BS  .IN            7.875:   BIT SIZE
 BSD .F               565:   BIT SIZE AT DEPTH
 DFT .           AIR FOAM:   DRILLING FLUID TYPE
 DFD .                   :   DRILLING FLUID DENSITY
 DFV .                   :   DRILLING FLUID VISCOSITY
 DFPH.                   :   DRILLING FLUID PH
 DFL .                   :   DRILLING FLUID LOSS
 MSS .                   :   MUD SAMPLE SOURCE
 RMS .OHMM               :   RESISTIVITY MUD SAMPLE
 MST .F                  :   MUD SAMPLE TEMPERATURE
 RMF .OHMM               :   RESISTIVITY MUD FILTRATE SAMPLE
 MFST.F                  :   MUD FILTRATE SAMPLE TEMPERATURE
 RMC .OHMM               :   RESISTIVITY MUD CAKE
 MCST.F                  :   MUD CAKE SAMPLE TEMPERATURE
 MFSS.                   :   MUD FILTRATE SAMPLE SOURCE
 MCSS.                   :   MUD CAKE SAMPLE SOURCE
 RMB .OHMM               :   RESISTIVITY MUD AT BHT
 BHT .F                  :   BOTTOM HOLE TEMPERATURE
 TCS .HRS               1:   TIME CURCULATED STOPPED
 TLAB.HRS                :   TIME LOGGER AT BOTTOM
 MRT .F                76:   MAXIMUM RECORDED TEMPERATURE
 LUN .            HL-6274:   LOGGING UNIT NUMBER
 LUL .             CASPER:   LOGGING UNIT LOCATION
 ENGI.             RAUTIO:   RECORDING ENGINEER
 WITN.        GARY STRONG:   WITNESSED BY
 CLNT.            A2DTECH:   CLIENT CODE
 ORIG.           5" PRINT:   ORIGIN OF DATA
 UWI .       490252255300:   UNIQUE WELL ID
 DICO. A2D Technologies, Inc.:   DIGITIZING COMPANY
 OS  .                   :   OTHER SERVICES
 PWI .                   :   PRIMARY WELL IDENTIFIER
 R1  .                   :   REMARKS 1
 R2  .                   :   REMARKS 2
 LSRV.                   :   LOG MNEMONIC
~OTHER INFORMATION
~A    DEPT      GRR      RILD       RILM   
# ...
  364.0000    78.1963    37.2867    33.0660
  364.5000    76.6776    39.1155    34.4989
  365.0000    76.9743    39.9396    36.1927
  365.5000    77.8761    40.2170    37.4722
  366.0000    78.1729    40.2136    38.7969
  366.5000    79.0732    40.2109    39.3388
  367.0000    80.8828    39.3759    39.3355
  367.5000    82.0887    38.2903    38.7890
  368.0000    81.1737    36.6647    37.4526
  368.5000    80.8452    34.7241    35.3577
  369.0000    81.4846    33.5321    32.3597
  369.5000    82.9701    31.9327    29.9721
  370.0000    85.0822    30.6223    28.5446
  370.5000    83.5635    29.3657    27.9527
  371.0000    81.4397    27.9650    27.1832
  371.5000    81.4338    26.6312    25.8886
  372.0000    83.5460    25.5217    24.8186
  372.5000    85.3555    24.4900    23.8101
  373.0000    86.6001    23.6493    22.6761
  373.5000    90.1835    22.9973    21.8988
  374.0000    92.5982    22.2079    21.2960
  374.5000    94.7104    21.4456    20.8544
  375.0000    96.2174    20.8544    20.5647
  375.5000    96.2115    20.5642    20.1383
  376.0000    94.0876    20.2780    19.9972
  376.5000    93.1740    20.1354    19.9956
  377.0000    94.6796    19.9942    19.7178
  377.5000    95.5815    19.8539    19.7164
  378.0000    93.7602    19.8526    19.5783
  378.5000    91.6363    19.8512    19.4412
  379.0000    93.1433    19.9891    19.4399
  379.5000    95.2555    19.9874    19.3037
  380.0000    97.3676    19.9861    19.2845
  380.5000    98.9551    20.1246    19.1669
  381.0000   100.6842    20.1229    19.2998
  381.5000    98.2563    20.1215    19.4333
  382.0000    93.1067    20.1201    19.4317
  382.5000    92.4957    20.2599    19.5664
  383.0000    93.7002    20.2582    19.5648
  383.5000    96.4175    20.2568    19.5635
  384.0000    98.2270    20.2554    19.4264
  384.5000    97.6146    20.2537    19.4248
  385.0000    97.3061    20.2523    19.4235
  385.5000    97.9054    20.2510    19.5582
  386.0000    99.1099    20.2496    19.6935
  386.5000    99.1040    20.1075    19.8294
  387.0000    98.4930    19.9665    19.8281
  387.5000    97.8820    19.9651    19.8153
  388.0000    97.5734    19.9638    19.6875
  388.5000    97.8703    19.8237    19.5496
  389.0000    97.8630    19.8221    19.5483
  389.5000    98.1611    19.6830    19.4114
  390.0000    99.6667    19.4091    19.4101
  390.5000   100.2674    19.1391    19.1404
  391.0000    97.2344    18.8728    18.8745
  391.5000    95.4131    18.4809    18.4831
  392.0000    96.3135    18.3512    18.3534
  392.5000    99.0308    18.2224    18.2248
  393.0000   100.2367    18.2209    18.2236
  393.5000    99.3217    18.2197    18.3499
  394.0000    96.5927    18.3459    18.4769
  394.5000    94.1662    18.3447    18.3472
  395.0000    94.1604    18.4718    18.2186
  395.5000    95.4452    18.3422    18.0910
  396.0000    99.5935    18.2135    17.9640
  396.5000   100.4953    18.0857    17.9628
  397.0000   100.7935    17.9586    17.9616
  397.5000    98.6682    17.9574    17.8358
  398.0000    97.4520    17.8314    17.8346
  398.5000    97.7488    17.9552    17.8334
  399.0000    98.3681    17.9537    17.7084
  399.5000    98.6448    18.0782    17.8310
  400.0000    99.5452    18.2034    18.0798
  400.5000   101.0522    18.0744    17.5831
  401.0000   100.7499    17.9459    17.4612
  401.5000    98.3264    17.6950    17.4612
  402.0000    94.9951    17.5697    17.3400
  402.5000    93.1775    17.3241    17.0904
  403.0000    96.8047    16.8453    16.4007
  403.5000   100.7362    16.3688    15.7297
  404.0000   101.9426    15.9266    15.2978
  404.5000    97.7030    15.5949    15.1916
  405.0000    94.9769    15.2700    15.1916
  405.5000    94.6721    15.0565    15.1916
  406.0000    97.0891    15.0545    15.0862
  406.5000    97.9938    15.1578    14.9816
  407.0000    97.3838    15.2618    14.9816
  407.5000    94.8714    15.2593    14.9816
  408.0000    93.1432    15.2575    14.9816
  408.5000    93.1403    15.2552    14.9816
  409.0000    93.7425    15.1472    14.8776
  409.5000    94.3447    15.0399    14.6719
  410.0000    95.5521    14.8158    14.4691
  410.5000    97.0650    14.5202    14.2690
  411.0000    98.9672    14.3172    14.0717
  411.5000   100.3845    14.2159    13.9741
  412.0000   100.0783    14.1152    13.7809
  412.5000    99.7728    14.0152    13.6853
  413.0000   100.9801    13.9160    13.5903
  413.5000   104.6081    13.8170    13.4960
  414.0000   103.6815    13.6238    13.4024
  414.5000    98.8059    13.5273    13.4024
  415.0000    97.6394    13.4316    13.3094
  415.5000   100.6622    13.3364    13.2171
  416.0000   110.6442    13.3346    13.1254
  416.5000   113.0626    13.2398    13.0343
  417.0000   111.8486    13.2380    13.1254
  417.5000   107.8921    13.2362    13.1254
  418.0000   104.1816    13.3275    13.2171
  418.5000   101.8543    13.4189    13.2171
  419.0000   103.0616    13.5106    13.3094
  419.5000   105.4793    13.6137    13.4024
  420.0000   106.0815    13.6966    13.4960
  420.5000   103.9606    13.7906    13.5903
  421.0000   101.5310    13.7883    13.7809
  421.5000   102.8432    13.7864    13.7809
  422.0000   105.1621    13.7846    13.6853
  422.5000   103.9482    13.7779    13.6773
  423.0000   101.2221    13.5896    13.4960
  423.5000    99.1012    13.2140    13.3094
  424.0000    99.7034    12.8489    13.0343
  424.5000   103.6623    12.5812    12.7649
  425.0000   107.8670    12.2336    12.5011
  425.5000   105.7453    12.1469    12.2427
  426.0000   102.7167    11.9771    11.9786
  426.5000   100.2932    11.9751    11.9065
  427.0000   101.1980    11.9735    11.9065
  427.5000   103.0105    11.9719    11.9065
  428.0000   104.8311    12.0544    11.9897
  428.5000   105.4252    12.1368    12.0734
  429.0000   105.7242    12.2200    12.1578
  429.5000   106.6290    12.3895    12.3283
  430.0000   107.8371    12.4750    12.5011
  430.5000   107.8334    12.7365    12.7649
  431.0000   107.2253    13.0950    13.2171
  431.5000   104.4719    14.0387    14.2690
  432.0000    96.6287    15.7082    15.8396
  432.5000    89.0615    18.2919    17.5022
  433.0000    88.1509    20.8801    20.3511
  433.5000    87.2403    23.5045    22.7491
  434.0000    84.8168    26.0924    25.6072
  434.5000    82.6958    28.7639    28.2286
  435.0000    83.6107    31.0525    30.2638
  435.5000    86.0176    33.8162    33.1306
  436.0000    86.9231    35.1941    34.7851
  436.5000    85.4066    34.4610    34.5437
  437.0000    81.1676    33.7431    34.0661
  437.5000    78.4416    33.0402    33.8298
  438.0000    77.8335    32.1272    32.6725
  438.5000    78.1442    31.6640    29.6383
  439.0000    79.6424    30.8016    27.6452
  439.5000    81.1523    30.1600    27.6452
  440.0000    82.6622    29.7384    27.6452
  440.5000    84.1722    29.1189    27.8383
  441.0000    83.8667    28.5123    27.8383
  441.5000    80.8380    27.9184    27.4534
  442.0000    79.6248    27.7205    27.0738
  442.5000    81.1340    27.5234    26.5142
  443.0000    83.2491    27.3285    26.3303
  443.5000    86.2719    26.9465    26.1476
  444.0000    89.5973    26.3852    25.7861
  444.5000    93.2252    26.0163    25.2531
  445.0000    92.3146    25.4743    24.7312
  445.5000    87.7338    25.1174    24.5596
  446.0000    85.3489    25.1140    24.3892
  446.5000    87.1614    25.2872    24.3892
  447.0000    88.9739    25.2829    24.5596
  447.5000    91.6941    25.2796    24.5596
  448.0000    92.5996    25.1005    24.7312
  448.5000    91.0831    25.0963    24.5596
  449.0000    90.1584    24.7455    24.5539
  449.5000    88.9586    24.5703    24.2200
  450.0000    88.6531    24.0582    24.0512
  450.5000    89.8607    23.8878    23.8795
  451.0000    93.7912    23.2276    23.5445
  451.5000    94.6959    22.7437    23.3764
  452.0000    92.1512    22.1152    22.8886
  452.5000    89.8482    21.6545    22.5676
  453.0000    91.3581    21.3517    22.2427
  453.5000    95.2886    21.0312    21.7865
  454.0000   100.7319    20.4707    21.3310
  454.5000   100.4264    20.1845    20.8859
