~VERSION INFORMATION
 VERS.                2.0:   CWLS LOG ASCII STANDARD - VERSION 2.0
 WRAP.                 NO:   ONE LINE PER DEPTH STEP
~WELL INFORMATION
#MNEM.UNIT      DATA TYPE    INFORMATION
#----------   ------------   ------------------------------
 STRT.F            0.0000:   START DEPTH
 STOP.F          795.0000:   STOP DEPTH
 STEP.F            0.5000:   STEP LENGTH
 NULL.          -999.2500:   NO VALUE
 COMP. BROWN JOHN E&C INC:   COMPANY
 WELL. NPR 3 SX-11 #41-11:   WELL
 FLD .             TEAPOT:   FIELD
 LOC .      S11 T38N R78W:   LOCATION
 CNTY.            NATRONA:   COUNTY
 STAT.            WYOMING:   STATE
 CTRY. UNITED STATES OF AMERICA:   COUNTRY
 SRVC.           Gearhart:   SERVICE COMPANY
 DATE.        19-AUG-1988:   LOGDATE
 API .       490251125300:   API NUMBER
~CURVE INFORMATION
#MNEM.UNIT       API CODE    CURVE DESCRIPTION
#----------   ------------   ------------------------------
 DEPT.F                  :   
 ILD .OHMM   07 120 46 00:   INDUCTION LOG DEEP
 ILM .OHMM   07 120 44 00:   INDUCTION LOG MEDIUM
 GRR .GAPI   07 310 01 00:   GAMMA RAY FROM RES. LOG.
~PARAMETER INFORMATION
#MNEM.UNIT          VALUE    DESCRIPTION
#----------   ------------   ------------------------------
 PD  .                 GL:   PERMANENT DATUM
 EPD .F              5093:   ELEVATION PERMANENT DATUM
 LMF .                 KB:   LOG MEASURED FROM
 DAPD.F                10:   FEET ABOVE PERMANENT DATUM
 DMF .                 KB:   DRILLING MEASURED FROM
 EKB .F              5103:   KELLING BUSHING
 EGL .F              5093:   GROUND LEVEL
 DATE.            8-19-88:   RUN DATE
 RUN .                  1:   RUN NUMBER
 DD  .F               800:   DEPTH DRILLER
 DL  .F             802.5:   DEPTH LOGGER
 BLI .F               794:   BOTTOM LOG INTERVAL
 CS  .IN            9.625:   CASING SIZE
 CBD .F                48:   CASING BOTTOM DRILLER
 CBL .F                48:   CASING BOTTOM LOGGER
 BS  .IN             8.75:   BIT SIZE
 BSD .F               800:   BIT SIZE AT DEPTH
 DFT .                AIR:   DRILLING FLUID TYPE
 TCS .HRS            1900:   TIME CURCULATED STOPPED
 TLAB.HRS            2000:   TIME LOGGER AT BOTTOM
 MRT .F                70:   MAXIMUM RECORDED TEMPERATURE
 LUN .               7597:   LOGGING UNIT NUMBER
 LUL .           GILLETTE:   LOGGING UNIT LOCATION
 ENGI.          HUCKFELDT:   RECORDING ENGINEER
 WITN.             STRONG:   WITNESSED BY
 CLNT.            A2DTECH:   CLIENT CODE
 ORIG.        2" 5" PRINT:   ORIGIN OF DATA
 UWI .       490251125300:   UNIQUE WELL ID
 DICO. A2D Technologies, Inc.:   DIGITIZING COMPANY
~OTHER INFORMATION
~A    DEPT     ILD        ILM         GRR  
# ...
   91.0000     3.8821     3.2300   123.1828
   91.5000     3.8821     3.3713   122.3537
   92.0000     4.0442     3.6110   119.2661
   92.5000     4.2484     3.8677   116.0898
   93.0000     4.4721     4.1426   115.3948
   93.5000     4.7091     4.4025   113.3212
   94.0000     4.9710     4.5992   110.5356
   94.5000     5.0746     4.8047   110.9129
   95.0000     5.1185     4.9009   114.0055
   95.5000     5.1377     4.9593   117.1860
   96.0000     5.1144     5.0426   117.5489
   96.5000     5.0542     5.0370   117.3167
   97.0000     4.9948     5.0090   118.5171
   97.5000     4.9360     4.9812   118.0380
   98.0000     4.8779     4.9535   115.8728
   98.5000     4.6583     4.8027   113.7124
   99.0000     4.3670     4.6351   111.5536
   99.5000     3.9691     4.4734   109.9415
  100.0000     3.4881     4.0772   108.5190
  100.5000     3.1040     3.6239   105.4009
  101.0000     2.8403     3.2149   104.6963
  101.5000     2.6790     2.7346   105.5106
  102.0000     2.5498     2.3261   110.6101
  102.5000     2.5498     2.1777   115.9903
  103.0000     2.6145     2.1153   117.7550
  103.5000     2.6830     2.2306   112.8849
  104.0000     2.8864     2.4406   107.7296
  104.5000     3.1420     2.7089   104.5532
  105.0000     3.4203     3.0361   104.3606
  105.5000     3.7232     3.4016   105.8994
  106.0000     4.0299     3.8108   107.4852
  106.5000     4.3316     4.0509   109.0595
  107.0000     4.4913     4.1974   110.6333
  107.5000     4.5906     4.3491   112.1796
  108.0000     4.6795     4.4461   112.8635
  108.5000     4.6795     4.4885   111.1054
  109.0000     4.6467     4.5084   107.4933
  109.5000     4.6121     4.5016   105.0933
  110.0000     4.5778     4.4617   106.4176
  110.5000     4.5296     4.4221   109.1119
  111.0000     4.4244     4.3833   109.5898
  111.5000     4.1828     4.2408   109.5849
  112.0000     3.9561     4.1040   110.1198
  112.5000     3.7417     3.9460   110.7599
  113.0000     3.4976     3.7635   111.1842
  113.5000     3.2492     3.4898   110.0287
  114.0000     3.0184     3.1912   108.8924
  114.5000     2.8170     2.8637   108.7799
  115.0000     2.7348     2.5660   110.1482
  115.5000     2.6968     2.3653   111.6712
  116.0000     2.7136     2.2427   113.1868
  116.5000     2.8318     2.1972   111.9375
  117.0000     2.9664     2.4763   108.8432
  117.5000     3.1636     2.7594   105.7835
  118.0000     3.3749     3.0922   105.0392
  118.5000     3.7328     3.4644   108.1275
  119.0000     4.1285     3.8815   111.1941
  119.5000     4.5657     4.2805   112.5063
  120.0000     4.8454     4.7064   112.5061
  120.5000     5.1045     4.8919   110.2151
  121.0000     5.1377     4.9965   106.9382
  121.5000     5.1377     4.9957   103.4979
  122.0000     5.1859     4.9957   102.2508
  122.5000     4.9568     4.9957   104.3934
  123.0000     4.7634     4.9497   107.2695
  123.5000     4.4323     4.6377   110.5913
  124.0000     4.1231     4.2868   113.9258
  124.5000     3.8352     3.9212   115.4921
  125.0000     3.5690     3.5867   116.5193
  125.5000     3.5131     3.2723   118.6191
  126.0000     3.4704     2.9565   120.6605
  126.5000     3.4703     2.9060   120.9100
  127.0000     3.4698     3.0404   116.2695
  127.5000     3.5366     3.1753   111.7709
  128.0000     3.7394     3.3607   110.7959
  128.5000     3.9403     3.5797   109.8295
  129.0000     4.1521     3.8120   108.0381
  129.5000     4.3483     4.0484   104.9058
  130.0000     4.4948     4.1789   103.5000
  130.5000     4.6129     4.3170   104.4966
  131.0000     4.6708     4.4592   108.6458
  131.5000     4.7293     4.5798   112.8959
  132.0000     4.7886     4.6596   113.0730
  132.5000     4.8125     4.7240   112.0439
  133.0000     4.7808     4.7244   110.9670
  133.5000     4.7059     4.6316   110.4736
  134.0000     4.6322     4.5250   111.5923
  134.5000     4.4929     4.3689   113.0268
  135.0000     4.2866     4.1670   114.4486
  135.5000     4.0879     3.9749   113.7615
  136.0000     3.9119     3.7910   110.8687
  136.5000     3.7566     3.6157   108.0502
  137.0000     3.6056     3.4484   106.7710
  137.5000     3.5407     3.2562   107.5643
  138.0000     3.5028     3.1315   110.0429
  138.5000     3.4653     3.1655   110.7179
  139.0000     3.4282     3.2261   108.1946
  139.5000     3.3828     3.2516   105.5248
  140.0000     3.3250     3.2516   102.8199
  140.5000     3.2553     3.1641   101.8293
  141.0000     3.1451     3.0803   103.2529
  141.5000     3.0450     2.9995   105.4302
  142.0000     2.8160     2.8688   107.6117
  142.5000     2.6402     2.7294   108.9827
  143.0000     2.5331     2.5808   107.9556
  143.5000     2.4302     2.4332   106.9403
  144.0000     2.3442     2.2434   107.4796
  144.5000     2.4048     2.1654   109.0602
  145.0000     2.5211     2.1552   111.5647
  145.5000     2.6437     2.1932   113.6120
  146.0000     2.7730     2.3853   112.9176
  146.5000     2.9460     2.6640   108.2910
  147.0000     3.1427     2.9471   104.1725
  147.5000     3.4014     3.2527   101.9094
  148.0000     3.6850     3.5415    99.8423
  148.5000     3.8821     3.7748    99.6736
  149.0000     4.0055     3.8813   101.2359
  149.5000     4.0677     3.9553   102.8793
  150.0000     3.9894     3.9553   107.5548
  150.5000     3.8353     3.7238   110.8694
  151.0000     3.6805     3.5249   110.8030
  151.5000     3.4869     3.3366   110.8233
  152.0000     3.3036     3.1584   113.6025
  152.5000     3.1299     2.9897   117.9654
  153.0000     2.9613     2.8257   120.7530
  153.5000     2.8367     2.6900   121.7294
  154.0000     2.7145     2.5570   121.3914
  154.5000     2.5962     2.4292   121.0614
  155.0000     2.6521     2.3000   121.4510
  155.5000     2.7448     2.2794   121.9778
  156.0000     2.8848     2.3884   121.7545
  156.5000     3.0863     2.6734   118.7215
  157.0000     3.3055     2.9857   112.7853
  157.5000     3.5681     3.3386   109.0569
  158.0000     3.9575     3.6767   107.0426
  158.5000     4.3655     3.9817   108.2427
  159.0000     4.5409     4.2751   109.3758
  159.5000     4.7287     4.5527   110.4968
  160.0000     4.9242     4.5502   110.7293
  160.5000     5.1367     4.7413   109.3092
  161.0000     5.3030     4.9158   108.7847
  161.5000     5.4845     5.0968   109.2997
  162.0000     5.6703     5.3219   112.0486
  162.5000     5.8664     5.5687   114.3348
  163.0000     6.0695     5.8270   114.1923
  163.5000     6.2796     6.0975   112.6325
  164.0000     6.4891     6.3690   112.4481
  164.5000     6.5563     6.4098   112.4629
  165.0000     6.6219     6.4495   111.6543
  165.5000     6.6883     6.4893   109.5092
  166.0000     6.7360     6.5295   107.3214
  166.5000     6.7368     6.5500   106.3918
  167.0000     6.6817     6.4825   107.7271
  167.5000     6.6453     6.4376   109.4880
  168.0000     6.6092     6.3930   111.1837
  168.5000     6.5729     6.3488   111.5652
  169.0000     6.5502     6.3048   112.0917
  169.5000     6.5499     6.2611   113.6830
  170.0000     6.5500     6.2511   115.2679
  170.5000     6.5500     6.2511   115.4684
  171.0000     6.5498     6.2511   112.5306
  171.5000     6.5500     6.2511   109.8632
  172.0000     6.4996     6.2518   109.2307
  172.5000     6.4384     6.1962   109.8819
  173.0000     6.3778     6.1431   110.5255
  173.5000     6.3690     6.1354   111.1022
  174.0000     6.4984     6.2268   112.7962
  174.5000     6.6224     6.3340   116.0446
  175.0000     6.7488     6.4430   118.5304
  175.5000     6.8776     6.5539   118.5652
  176.0000     7.0050     6.6667   115.4118
  176.5000     7.1065     6.7813   114.1448
  177.0000     7.2094     6.8982   111.8430
  177.5000     7.3139     7.0142   109.6696
  178.0000     7.4199     7.1312   107.5007
  178.5000     7.5017     7.2502   105.1336
  179.0000     7.5991     7.3711   103.2762
  179.5000     7.6773     7.3957   102.8441
  180.0000     7.5656     7.2834   104.4415
  180.5000     7.4563     7.2044   105.5167
  181.0000     7.3957     7.1914   105.1126
  181.5000     7.3957     7.2356   104.7174
