~VERSION INFORMATION
 VERS.                2.0:   CWLS LOG ASCII STANDARD - VERSION 2.0
 WRAP.                 NO:   ONE LINE PER DEPTH STEP
~WELL INFORMATION
#MNEM.UNIT      DATA TYPE    INFORMATION
#----------   ------------   ------------------------------
 STRT.F            3.0000:   START DEPTH
 STOP.F          600.0000:   STOP DEPTH
 STEP.F            0.5000:   STEP LENGTH
 NULL.          -999.2500:   NO VALUE
 COMP. FENIX & SCISSON INC:   COMPANY
 WELL.     NPR-3 #83SX4-4:   WELL
 FLD .             TEAPOT:   FIELD
 LOC .       S4 T38N R78W:   LOCATION
 CNTY.            NATRONA:   COUNTY
 STAT.            WYOMING:   STATE
 CTRY. UNITED STATES OF AMERICA:   COUNTRY
 SRVC.           BIRDWELL:   SERVICE COMPANY
 DATE.        02-AUG-1978:   LOGDATE
 API .       490251067700:   API NUMBER
~CURVE INFORMATION
#MNEM.UNIT       API CODE    CURVE DESCRIPTION
#----------   ------------   ------------------------------
 DEPT.F                  :   
 GRD .GAPI   45 310 01 00:   GAMMA RAY FROM DENSITY LOG
 CORR.G/C3   45 356 01 00:   DENSITY CORRECTION
 RHOB.G/C3   45 350 01 00:   BULK DENSITY
 DPHI.DEC    45 890 12 00:   DENSITY POROSITY SANDSTONE
 SPR .MV     05 010 01 00:   SPONTANEOUS POTENTIAL
 ILD .OHMM   05 120 46 00:   INDUCTION LOG DEEP
 SN  .OHMM   05 040 00 00:   SHORT NORMAL
~PARAMETER INFORMATION
#MNEM.UNIT          VALUE    DESCRIPTION
#----------   ------------   ------------------------------
 PD  .                 GL:   PERMANENT DATUM
 EPD .F              5204:   ELEVATION PERMANENT DATUM
 LMF .                 KB:   LOG MEASURED FROM
 DAPD.F                 4:   FEET ABOVE PERMANENT DATUM
 DMF .                 KB:   DRILLING MEASURED FROM
 EKB .F              5204:   KELLING BUSHING
 EGL .F              5200:   GROUND LEVEL
 DATE.        02-AUG-1978:   RUN DATE
 RUN .                  1:   RUN NUMBER
 DD  .F               590:   DEPTH DRILLER
 DL  .F               606:   DEPTH LOGGER
 BLI .F               590:   BOTTOM LOG INTERVAL
 TLI .F                30:   TOP LOG INTERVAL
 CS  .IN            8.625:   CASING SIZE
 CBD .F                40:   CASING BOTTOM DRILLER
 BS  .IN            7.875:   BIT SIZE
 BSD .F               590:   BIT SIZE AT DEPTH
 DFT .                KCL:   DRILLING FLUID TYPE
 DFD .                8.7:   DRILLING FLUID DENSITY
 DFV .                 32:   DRILLING FLUID VISCOSITY
 DFPH.                  9:   DRILLING FLUID PH
 DFL .                 12:   DRILLING FLUID LOSS
 MSS .           FLOWLINE:   MUD SAMPLE SOURCE
 RMS .OHMM             .4:   RESISTIVITY MUD SAMPLE
 MST .F                61:   MUD SAMPLE TEMPERATURE
 RMF .OHMM             .5:   RESISTIVITY MUD FILTRATE SAMPLE
 MFST.F                50:   MUD FILTRATE SAMPLE TEMPERATURE
 RMC .OHMM            .65:   RESISTIVITY MUD CAKE
 MCST.F                66:   MUD CAKE SAMPLE TEMPERATURE
 MFSS.               MEAS:   MUD FILTRATE SAMPLE SOURCE
 BHT .F                78:   BOTTOM HOLE TEMPERATURE
 TCS .HRS            0300:   TIME CURCULATED STOPPED
 MRT .F                78:   MAXIMUM RECORDED TEMPERATURE
 LUN .               3006:   LOGGING UNIT NUMBER
 LUL .               CASP:   LOGGING UNIT LOCATION
 ENGI.             MILLER:   RECORDING ENGINEER
 WITN.              AMEND:   WITNESSED BY
 CLNT.            A2DTECH:   CLIENT CODE
 ORIG.           5" PRINT:   ORIGIN OF DATA
 UWI .       490251067700:   UNIQUE WELL ID
 DICO. A2D Technologies, Inc.:   DIGITIZING COMPANY
~OTHER INFORMATION
~A    DEPT     GRD       CORR       RHOB       DPHI        SPR        ILD         SN   
# ...
  185.0000    58.9061     0.0260     2.4924     0.1164   -13.8960     8.6959     9.3478
  185.5000    59.9501     0.0244     2.4887     0.1167   -13.8832     8.6409     9.3510
  186.0000    63.0942     0.0244     2.4894     0.1155   -14.0247     8.5874     9.3542
  186.5000    64.1394     0.0261     2.4894     0.1167   -14.0118     8.5921     9.2923
  187.0000    64.4588     0.0227     2.4894     0.1173   -14.0015     8.5967     9.2317
  187.5000    65.7789     0.0167     2.4818     0.1191   -13.9913     8.6014     9.1715
  188.0000    72.3713     0.0196     2.4766     0.1242   -13.9810     8.6060     9.1754
  188.5000    75.9652     0.0241     2.4766     0.1263   -13.9707     8.6107     9.1785
  189.0000    74.1618     0.0255     2.4810     0.1239   -13.9604     8.6153     9.1185
  189.5000    70.5271     0.0254     2.4794     0.1209   -13.8008     8.6200     9.1217
  190.0000    67.5554     0.0254     2.4757     0.1248   -13.6413     8.6247     9.1248
  190.5000    67.7010     0.0268     2.4765     0.1254   -13.6310     8.6293     9.1279
  191.0000    70.5452     0.0268     2.4817     0.1218   -13.6207     8.5743     9.1311
  191.5000    74.2891     0.0267     2.4877     0.1191   -13.6104     8.5801     9.1348
  192.0000    73.5351     0.0281     2.4846     0.1200   -13.6000     8.5848     9.1379
  192.5000    72.3013     0.0311     2.4839     0.1218   -13.5896     8.5894     9.1410
  193.0000    71.2765     0.0310     2.4868     0.1204   -13.7288     8.5941     9.1441
  193.5000    71.2722     0.0309     2.5003     0.1101   -13.7159     8.5987     9.1472
  194.0000    68.7192     0.0309     2.4890     0.1113   -13.7056     8.6034     9.1503
  194.5000    66.6159     0.0308     2.4928     0.1134   -13.8446     8.5488     9.1534
  195.0000    66.4617     0.0278     2.4905     0.1167   -13.8343     8.5536     9.1565
  195.5000    66.7731     0.0247     2.4833     0.1197   -13.8240     8.4995     9.1596
  196.0000    70.7998     0.0232     2.4740     0.1219   -13.8137     8.5042     9.1627
  196.5000    71.2464     0.0261     2.4799     0.1230   -13.8034     8.4503     9.1658
  197.0000    70.0416     0.0276     2.4792     0.1215   -13.7931     8.4560     9.1689
  197.5000    65.8394     0.0320     2.4769     0.1215   -13.7828     8.4606     9.1720
  198.0000    63.7361     0.0334     2.4963     0.1186   -13.7725     8.4059     9.1752
  198.5000    63.7536     0.0319     2.5024     0.1096   -13.9115     8.4116     9.1783
  199.0000    68.9749     0.0348     2.5045     0.1036   -13.9012     8.4161     9.1821
  199.5000    68.5669     0.0422     2.5195     0.0946   -13.8909     8.4207     9.1852
  200.0000    66.7657     0.0406     2.5584     0.0868   -13.8806     8.3793     9.1879
  200.5000    64.9644     0.0128     2.5404     0.1129   -14.0151     8.2000     9.1925
  201.0000    65.2602     0.0166     2.4999     0.1114   -14.0000     8.1481     9.0712
  201.5000    66.7511     0.0316     2.4953     0.1165   -13.9642     8.2100     9.0130
  202.0000    70.0396     0.0331     2.4887     0.1188   -13.8209     8.2145     9.0175
  202.5000    74.3761     0.0315     2.4902     0.1165   -13.6539     8.2190     8.9598
  203.0000    76.6168     0.0315     2.4917     0.1150   -13.6391     8.2234     8.9642
  203.5000    75.2146     0.0315     2.4887     0.1141   -13.6244     8.2279     8.9739
  204.0000    74.2118     0.0329     2.4849     0.1168   -13.7626     8.2324     9.0348
  204.5000    75.2537     0.0329     2.4812     0.1207   -13.7441     8.2369     9.0400
  205.0000    76.8955     0.0314     2.4804     0.1231   -13.8823     8.2414     9.0443
  205.5000    79.1362     0.0313     2.4826     0.1210   -13.8639     8.2458     9.1111
  206.0000    75.3888     0.0343     2.4819     0.1225   -13.8491     8.2503     9.1784
  206.5000    69.2462     0.0358     2.4811     0.1222   -13.9873     8.2548     9.1827
  207.0000    67.4450     0.0387     2.4818     0.1216   -14.1181     8.2594     9.1871
  207.5000    67.4401     0.0417     2.4856     0.1172   -14.1034     8.2639     9.1915
  208.0000    68.3832     0.0432     2.5013     0.1103   -14.2379     8.2685     9.0701
  208.5000    75.8124     0.0431     2.5050     0.1082   -14.2231     8.3302     9.0744
  209.0000    79.1010     0.0416     2.5128     0.0977   -14.3576     8.3933     9.0787
  209.5000    78.1979     0.0401     2.5364     0.0893   -14.3429     8.5144     9.1458
  210.0000    73.5524     0.0371     2.5439     0.0977   -14.3281     8.5779     9.2133
  210.5000    74.8948     0.0340     2.5132     0.1010   -14.3134     8.5826     9.2177
  211.0000    76.8361     0.0355     2.5124     0.1032   -14.1493     8.5271     9.2220
  211.5000    77.4468     0.0400     2.5124     0.1040   -14.1234     8.5329     9.2265
  212.0000    73.3832     0.0384     2.5131     0.1022   -14.1015     8.4778     9.2309
  212.5000    68.5046     0.0324     2.5124     0.0993   -13.9552     8.4242     9.1718
  213.0000    66.0370     0.0279     2.4986     0.1124   -13.9374     8.4299     9.1132
  213.5000    64.2357     0.0294     2.5003     0.1097   -13.9226     8.4345     9.0550
  214.0000    61.0872     0.0323     2.5026     0.1103   -13.7586     8.4391     9.0604
  214.5000    60.4835     0.0338     2.4951     0.1136   -13.7439     8.3846     9.0014
  215.0000    63.3229     0.0368     2.4981     0.1107   -13.8821     8.3325     9.0068
  215.5000    71.1025     0.0397     2.4980     0.1107   -13.8636     8.3372     9.0111
  216.0000    79.7803     0.0397     2.5055     0.1065   -14.0018     8.2844     8.8921
  216.5000    83.6677     0.0382     2.5100     0.1044   -13.9834     8.1195     8.8963
  217.0000    82.9640     0.0336     2.5085     0.1050   -13.6689     8.0109     8.8384
  217.5000    76.6208     0.0291     2.5070     0.1131   -13.5049     7.9074     8.8437
  218.0000    71.6758     0.0261     2.4860     0.1215   -13.4901     7.8574     8.9090
  218.5000    70.0243     0.0261     2.4867     0.1167   -13.4754     7.8619     8.9748
  219.0000    70.3188     0.0275     2.4785     0.1230   -13.4606     7.9214     8.9174
  219.5000    71.9607     0.0290     2.4747     0.1272   -13.4459     7.9257     8.9217
  220.0000    72.7055     0.0335     2.4807     0.1224   -13.4311     8.0400     8.8647
  220.5000    72.9989     0.0394     2.4882     0.1194   -13.5693     8.1560     8.8690
  221.0000    74.6407     0.0469     2.5061     0.1074   -13.5509     8.2737     8.9346
  221.5000    69.7565     0.0513     2.5113     0.1030   -13.6891     8.3930     8.9397
  222.0000    66.3024     0.0496     2.5121     0.1039   -13.8199     8.5729     9.0679
  222.5000    66.1467     0.0483     2.5106     0.1060   -13.8051     8.6966     9.1349
  223.0000    66.1409     0.0497     2.5075     0.1082   -13.7904     8.8220     9.2659
  223.5000    64.8816     0.0512     2.5015     0.1108   -13.7756     8.8879     9.3988
  224.0000    59.5311     0.0512     2.5099     0.1048   -13.7608     8.8927     9.4683
  224.5000    56.8267     0.0467     2.5150     0.1066   -13.8955     8.8975     9.6704
  225.0000    57.1207     0.0421     2.5067     0.1090   -13.8806     8.9024     9.6750
  225.5000    58.3143     0.0376     2.5037     0.1099   -13.8657     8.9072     9.8138
  226.0000    61.6069     0.0391     2.5082     0.1084   -13.8507     8.9737     9.8184
  226.5000    65.0493     0.0376     2.5089     0.1042   -13.8358     9.0406     9.8910
  227.0000    65.6432     0.0330     2.5052     0.1053   -13.8209     9.1081     9.9640
  227.5000    65.3362     0.0315     2.4939     0.1159   -13.8031     9.1132     9.9687
  228.0000    64.8806     0.0315     2.4948     0.1141   -13.7884     9.1180     9.9735
  228.5000    64.5749     0.0330     2.4939     0.1156   -13.9266     9.0492     9.9783
  229.0000    64.5691     0.0376     2.4969     0.1132   -14.2103     9.0030     9.9831
  229.5000    64.8632     0.0404     2.4999     0.1090   -14.3448     8.9461     9.9889
  230.0000    65.6070     0.0418     2.4998     0.1099   -14.1771     8.9522     9.9936
