~VERSION INFORMATION
 VERS.                2.0:   CWLS LOG ASCII STANDARD - VERSION 2.0
 WRAP.                 NO:   ONE LINE PER DEPTH STEP
~WELL INFORMATION
#MNEM.UNIT      DATA TYPE    INFORMATION
#----------   ------------   ------------------------------
 STRT.F           30.0000:   START DEPTH
 STOP.F          637.0000:   STOP DEPTH
 STEP.F            0.5000:   STEP LENGTH
 NULL.          -999.2500:   NO VALUE
 COMP.    FENIX & SCISSON:   COMPANY
 WELL.        NPR #82-S-3:   WELL
 FLD .             TEAPOT:   FIELD
 LOC .       S3 T38N R78W:   LOCATION
 CNTY.            NATRONA:   COUNTY
 STAT.            WYOMING:   STATE
 CTRY. UNITED STATES OF AMERICA:   COUNTRY
 SRVC.              Welex:   SERVICE COMPANY
 DATE.        08-MAY-1977:   LOGDATE
 API .       490251035100:   API NUMBER
~CURVE INFORMATION
#MNEM.UNIT       API CODE    CURVE DESCRIPTION
#----------   ------------   ------------------------------
 DEPT.F                  :   
 SPR .MV     07 010 01 00:   SPONTANEOUS POTENTIAL FROM RES.
 ILD .OHMM   07 120 46 00:   INDUCTION LOG DEEP
 ILM .OHMM   07 120 44 00:   INDUCTION LOG MEDIUM
 SGRD.OHMM   07 220 05 00:   SHALLOW GUARD RESISTIVITY
 GRD .GAPI   45 310 01 00:   GAMMA RAY FROM DENSITY LOG
 CALD.IN     45 280 60 00:   CALIPER FROM DENSITY LOG
 CORR.G/C3   45 356 01 00:   DENSITY CORRECTION
 RHOB.G/C3   45 350 01 00:   BULK DENSITY
 DPHI.DEC    45 890 12 00:   DENSITY POROSITY SANDSTONE
~PARAMETER INFORMATION
#MNEM.UNIT          VALUE    DESCRIPTION
#----------   ------------   ------------------------------
 PD  .                 GL:   PERMANENT DATUM
 EPD .F              5100:   ELEVATION PERMANENT DATUM
 LMF .                 GL:   LOG MEASURED FROM
 DMF .                 GL:   DRILLING MEASURED FROM
 EGL .F              5100:   GROUND LEVEL
 DATE.        08-MAY-1977:   RUN DATE
 RUN .                  1:   RUN NUMBER
 DD  .F               635:   DEPTH DRILLER
 DL  .F               640:   DEPTH LOGGER
 BLI .F               638:   BOTTOM LOG INTERVAL
 TLI .F                30:   TOP LOG INTERVAL
 CS  .IN            8.625:   CASING SIZE
 CBD .F                40:   CASING BOTTOM DRILLER
 CBL .F                38:   CASING BOTTOM LOGGER
 BS  .IN            7.875:   BIT SIZE
 BSD .F               635:   BIT SIZE AT DEPTH
 DFT .            KCL MUD:   DRILLING FLUID TYPE
 DFD .                8.8:   DRILLING FLUID DENSITY
 DFV .                 32:   DRILLING FLUID VISCOSITY
 DFPH.                7.5:   DRILLING FLUID PH
 MSS .           FLOWLINE:   MUD SAMPLE SOURCE
 RMS .OHMM            .25:   RESISTIVITY MUD SAMPLE
 MST .F                80:   MUD SAMPLE TEMPERATURE
 RMF .OHMM            .22:   RESISTIVITY MUD FILTRATE SAMPLE
 MFST.F                80:   MUD FILTRATE SAMPLE TEMPERATURE
 RMC .OHMM            .31:   RESISTIVITY MUD CAKE
 MCST.F                80:   MUD CAKE SAMPLE TEMPERATURE
 MFSS.               MEAS:   MUD FILTRATE SAMPLE SOURCE
 MCSS.               MEAS:   MUD CAKE SAMPLE SOURCE
 RMB .OHMM            .23:   RESISTIVITY MUD AT BHT
 BHT .F                87:   BOTTOM HOLE TEMPERATURE
 TCS .HRS            0130:   TIME CURCULATED STOPPED
 MRT .F                87:   MAXIMUM RECORDED TEMPERATURE
 LUN .               8611:   LOGGING UNIT NUMBER
 LUL .             CASPER:   LOGGING UNIT LOCATION
 ENGI.            C. DOAK:   RECORDING ENGINEER
 WITN.            R. LYON:   WITNESSED BY
 CLNT.            A2DTECH:   CLIENT CODE
 ORIG.           5" PRINT:   ORIGIN OF DATA
 UWI .       490251035100:   UNIQUE WELL ID
 DICO. A2D Technologies, Inc.:   DIGITIZING COMPANY
~OTHER INFORMATION
~A   DEPT      SPR        ILD        ILM       SGRD         GRD      CALD        CORR        RHOB     DPHI   
# ...
  504.5000   -41.4196    11.5459    15.1367    17.2927    94.5421     7.8858     0.0382     2.4472     0.1321
  505.0000   -40.8116    11.3973    15.0453    17.3047    96.8110     7.8873     0.0368     2.4562     0.1309
  505.5000   -40.2035    11.2592    14.8549    17.3166    99.4743     7.8888     0.0369     2.4571     0.1335
  506.0000   -39.0037    11.1128    14.7621    17.2092   100.0893     7.8750     0.0370     2.4444     0.1407
  506.5000   -37.6560    10.9684    14.6729    17.2214   102.5480     7.8769     0.0371     2.4482     0.1332
  507.0000   -36.7521    10.9006    14.9949    17.2334   105.3372     7.8784     0.0373     2.4550     0.1296
  507.5000   -36.1441    10.8333    15.7488    17.2453   105.3495     7.8799     0.0388     2.4603     0.1275
  508.0000   -35.3881    10.7654    16.0910    17.2572   104.1546     7.8665     0.0404     2.4641     0.1257
  508.5000   -34.9280    10.6998    16.2157    17.3886   103.8918     7.8680     0.0404     2.4687     0.1236
  509.0000   -34.6158    10.6337    16.0071    17.4006   104.0953     7.8695     0.0405     2.4717     0.1214
  509.5000   -34.4515    10.6411    16.4646    17.5331   105.2780     7.8710     0.0406     2.4710     0.1211
  510.0000   -34.2872    10.5753    16.1413    17.5452   102.5894     7.8576     0.0392     2.4606     0.1295
  510.5000   -34.4188    10.5827    17.3104    17.8011    99.7799     7.8591     0.0363     2.4600     0.1292
  511.0000   -34.6983    10.7369    16.5092    17.9366    98.9371     7.8754     0.0364     2.4608     0.1273
  511.5000   -34.8340    11.0446    15.8539    18.3241    99.9981     7.8769     0.0380     2.4661     0.1258
  512.0000   -34.8136    11.7591    15.5393    18.8495    94.3331     7.8635     0.0411     2.4632     0.1306
  512.5000   -34.6493    12.6936    17.8533    19.5240    89.0752     7.6715     0.0442     2.4528     0.1368
  513.0000   -33.7454    13.7024    18.7509    20.6453    84.1657     7.8219     0.0473     2.4416     0.1413
  513.5000   -32.8415    14.8935    20.1048    21.9821    79.3125     7.9122     0.0533     2.4305     0.1461
  514.0000   -32.5326    16.6405    22.4662    25.4239    71.4401     7.8546     0.0565     2.4291     0.1487
  514.5000   -32.3683    18.4648    32.1709    42.0829    67.9286     7.8561     0.0595     2.4209     0.1424
  515.0000   -32.0562    20.6307    48.6778    61.5285    67.5442     7.8423     0.0628     2.4471     0.1346
  515.5000   -31.8697    23.0506    52.9058    76.2282    70.8992     7.8290     0.0687     2.4547     0.1301
  516.0000   -31.4123    26.1117    31.3747    48.4046    73.9126     7.8306     0.0672     2.4510     0.1391
  516.5000   -31.1026    28.9742    21.0580    33.3818    75.9686     7.8338     0.0638     2.4137     0.1699
  517.0000   -30.6450    31.2768    19.2702    32.0513    78.4549     7.8798     0.0507     2.3540     0.1893
  517.5000   -30.3477    30.4425    19.4162    32.0735    84.8413     7.9242     0.0387     2.3295     0.2072
  518.0000   -30.1834    29.0345    18.7738    34.1501    83.9582     7.9257     0.0272     2.3355     0.1994
  518.5000   -30.3153    28.3486    19.5828    33.7058    81.9291     7.9123     0.0273     2.3415     0.1988
  519.0000   -30.4469    27.6031    19.0515    32.5806    80.6270     7.8971     0.0274     2.3446     0.1967
  519.5000   -30.4305    26.7864    18.4357    37.9492    79.2874     7.8836     0.0291     2.3477     0.1850
  520.0000   -30.7101    26.0764    19.9038    38.2316    77.9462     7.8871     0.0307     2.3574     0.1856
  520.5000   -31.1375    25.3853    19.2401    40.7069    76.0297     7.8886     0.0338     2.3694     0.1739
  521.0000   -31.2692    24.8833    20.0829    39.6271    74.4523     7.8901     0.0369     2.4009     0.1541
  521.5000   -31.2528    24.7253    21.8226    37.7928    74.8328     7.8766     0.0415     2.4323     0.1341
  522.0000   -31.2364    24.9177    21.2471    68.8952    76.4902     7.8782     0.0461     2.4533     0.1311
  522.5000   -31.2201    22.7990    19.5776    41.1091    79.1292     7.8797     0.0489     2.4571     0.1295
  523.0000   -31.0558    24.2741    18.1640    31.6567    82.6436     7.8811     0.0520     2.4430     0.1388
  523.5000   -31.0395    23.4685    20.4377    30.1809    87.6557     7.8826     0.0519     2.4147     0.1609
  524.0000   -30.8752    22.6896    20.1749    32.1351    87.9814     7.8692     0.0492     2.3946     0.1672
  524.5000   -30.8589    22.2370    18.4620    29.8140    84.8552     7.8707     0.0461     2.3991     0.1638
  525.0000   -30.6946    21.7973    17.3666    29.6245    82.4901     7.8871     0.0432     2.3895     0.1743
  525.5000   -30.5303    21.2232    17.8666    30.0618    81.7894     7.8911     0.0375     2.3739     0.1799
  526.0000   -30.4852    20.8035    18.7649    30.7112    83.7955     7.9198     0.0316     2.3724     0.1811
  526.5000   -30.5017    20.2521    19.5730    30.3116    85.6278     7.9239     0.0317     2.3740     0.1805
  527.0000   -30.4813    18.9170    18.7961    30.1189    87.4347     7.9376     0.0333     2.3703     0.1823
  527.5000   -30.3170    18.0389    18.6787    31.1968    88.7673     7.9391     0.0349     2.3652     0.1861
  528.0000   -30.3007    17.6791    19.7575    29.7527    89.5040     7.9406     0.0380     2.3622     0.1834
  528.5000   -30.1364    17.9855    20.3222    28.7645    89.9701     7.9420     0.0410     2.3743     0.1801
  529.0000   -29.8242    18.8592    19.5155    28.1952    88.9187     7.9258     0.0393     2.3743     0.1792
  529.5000   -29.5120    18.9798    19.9438    27.2587    90.4261     7.8826     0.0382     2.3744     0.1756
  530.0000   -29.4957    18.6040    19.5521    27.0855    86.8789     7.8424     0.0368     2.3849     0.1702
  530.5000   -29.3314    18.4751    20.2541    28.6460    84.5172     7.8443     0.0354     2.3910     0.1705
  531.0000   -29.3151    18.1121    21.1264    28.0790    83.4949     7.8606     0.0340     2.3880     0.1719
  531.5000   -29.2987    17.8878    20.9944    27.1464    82.6214     7.8770     0.0341     2.3844     0.1740
  532.0000   -29.4344    17.7709    21.4551    27.7328    83.0871     7.9082     0.0342     2.3792     0.1761
  532.5000   -29.5619    17.6635    22.2255    28.9190    85.4874     7.9097     0.0343     2.3808     0.1743
  533.0000   -29.6976    17.4378    21.4908    26.2810    88.9294     7.8959     0.0374     2.3883     0.1701
  533.5000   -29.8292    17.2111    20.9241    27.2215    90.4368     7.8978     0.0390     2.3936     0.1674
  534.0000   -29.9608    16.9873    19.9556    27.4241    91.2002     7.8840     0.0391     2.3996     0.1661
  534.5000   -30.0923    16.6515    19.5597    25.4433    91.5171     7.8562     0.0406     2.3885     0.1706
  535.0000   -30.2239    16.5484    21.4144    26.3538    91.8341     7.8131     0.0452     2.4065     0.1619
  535.5000   -30.2035    16.2213    20.7066    24.2781    91.4070     7.6957     0.0498     2.4193     0.1529
  536.0000   -30.1872    16.0105    19.0795    23.4677    89.6406     7.8160     0.0514     2.4163     0.1544
  536.5000   -30.3228    15.8023    18.0715    23.8141    87.1301     7.8621     0.0470     2.4164     0.1559
  537.0000   -30.3024    15.9226    19.5104    24.4968    85.6565     7.8784     0.0411     2.4068     0.1591
  537.5000   -30.2861    16.2663    19.7975    23.5204    88.3593     7.8799     0.0397     2.4023     0.1618
  538.0000   -30.2697    16.6175    20.7928    24.5307    90.7596     7.8963     0.0413     2.4009     0.1639
  538.5000   -30.2534    16.9762    24.3788    25.5843    92.1182     7.8977     0.0428     2.3920     0.1680
  539.0000   -30.2371    17.2237    21.5705    25.7791    91.9887     7.9141     0.0399     2.3831     0.1728
  539.5000   -30.2207    17.3547    19.2379    25.4437    89.7759     7.9156     0.0356     2.3817     0.1734
  540.0000   -30.2044    16.8947    17.0346    25.4578    92.3250     7.9319     0.0341     2.3848     0.1731
  540.5000   -30.1880    16.4441    17.3857    25.6507    90.5586     7.9182     0.0342     2.3916     0.1712
