~VERSION INFORMATION
 VERS.                2.0:   CWLS LOG ASCII STANDARD - VERSION 2.0
 WRAP.                 NO:   ONE LINE PER DEPTH STEP
~WELL INFORMATION
#MNEM.UNIT      DATA TYPE    INFORMATION
#----------   ------------   ------------------------------
 STRT.F           14.0000:   START DEPTH
 STOP.F          432.0000:   STOP DEPTH
 STEP.F            0.5000:   STEP LENGTH
 NULL.          -999.2500:   NO VALUE
 COMP.    FENIX & SCISSON:   COMPANY
 WELL.   NPR-3 #63SX10-10:   WELL
 FLD .             TEAPOT:   FIELD
 LOC .      S10 T38N R78W:   LOCATION
 CNTY.            NATRONA:   COUNTY
 STAT.            WYOMING:   STATE
 CTRY. UNITED STATES OF AMERICA:   COUNTRY
 SRVC.           BIRDWELL:   SERVICE COMPANY
 DATE.        10-FEB-1978:   LOGDATE
 API .       490251066800:   API NUMBER
~CURVE INFORMATION
#MNEM.UNIT       API CODE    CURVE DESCRIPTION
#----------   ------------   ------------------------------
 DEPT.F                  :   
 CALD.IN     45 280 60 00:   CALIPER FROM DENSITY LOG
 CORR.G/C3   45 356 01 00:   DENSITY CORRECTION
 DPHI.DEC    45 890 12 00:   DENSITY POROSITY SANDSTONE
 GRD .GAPI   45 310 01 00:   GAMMA RAY FROM DENSITY LOG
 RHOB.G/C3   45 350 01 00:   BULK DENSITY
 ILD .OHMM   05 120 46 00:   INDUCTION LOG DEEP
 SN  .OHMM   05 040 16 00:   SHORT NORMAL 16"
 SPR .MV     05 010 01 00:   SPONTANEOUS POTENTIAL FROM RES.
~PARAMETER INFORMATION
#MNEM.UNIT          VALUE    DESCRIPTION
#----------   ------------   ------------------------------
 PD  .                 GL:   PERMANENT DATUM
 EPD .F              5186:   ELEVATION PERMANENT DATUM
 LMF .                 KB:   LOG MEASURED FROM
 DAPD.F                 4:   FEET ABOVE PERMANENT DATUM
 DMF .                 KB:   DRILLING MEASURED FROM
 EKB .F              5190:   KELLING BUSHING
 EGL .F              5186:   GROUND LEVEL
 DATE.        10-FEB-1978:   RUN DATE
 RUN .                  1:   RUN NUMBER
 DD  .F               429:   DEPTH DRILLER
 DL  .F               432:   DEPTH LOGGER
 BLI .F               424:   BOTTOM LOG INTERVAL
 TLI .F                20:   TOP LOG INTERVAL
 CS  .IN            8.625:   CASING SIZE
 CBD .F                29:   CASING BOTTOM DRILLER
 CBL .F                29:   CASING BOTTOM LOGGER
 BS  .IN            7.875:   BIT SIZE
 BSD .F               429:   BIT SIZE AT DEPTH
 DFT .    LIGNO SULF/FULL:   DRILLING FLUID TYPE
 DFD .                8.6:   DRILLING FLUID DENSITY
 DFV .                 34:   DRILLING FLUID VISCOSITY
 DFPH.                9.8:   DRILLING FLUID PH
 DFL .                5.6:   DRILLING FLUID LOSS
 MSS .           FLOWLINE:   MUD SAMPLE SOURCE
 RMS .OHMM            1.2:   RESISTIVITY MUD SAMPLE
 MST .F                62:   MUD SAMPLE TEMPERATURE
 RMF .OHMM            1.4:   RESISTIVITY MUD FILTRATE SAMPLE
 MFST.F                62:   MUD FILTRATE SAMPLE TEMPERATURE
 RMC .OHMM            1.0:   RESISTIVITY MUD CAKE
 MCST.F                62:   MUD CAKE SAMPLE TEMPERATURE
 MFSS.               MEAS:   MUD FILTRATE SAMPLE SOURCE
 RMB .OHMM            1.2:   RESISTIVITY MUD AT BHT
 BHT .F                62:   BOTTOM HOLE TEMPERATURE
 TCS .HRS               4:   TIME CURCULATED STOPPED
 MRT .F                62:   MAXIMUM RECORDED TEMPERATURE
 LUN .               2958:   LOGGING UNIT NUMBER
 LUL .                CAS:   LOGGING UNIT LOCATION
 ENGI.            POINTER:   RECORDING ENGINEER
 WITN.          MC GINLEY:   WITNESSED BY
 CLNT.            A2DTECH:   CLIENT CODE
 ORIG.           5" PRINT:   ORIGIN OF DATA
 UWI .       490251066800:   UNIQUE WELL ID
 DICO. A2D Technologies, Inc.:   DIGITIZING COMPANY
~OTHER INFORMATION
~A   DEPT     CALD       CORR       DPHI         GRD      RHOB        ILD         SN        SPR   
# ...
  297.5000     7.7616     0.1063     0.1647    67.6787     2.3749    20.7685    19.5035   -38.0166
  298.0000     7.7471     0.1018     0.1641    63.9008     2.3773    20.4847    19.2477   -37.8640
  298.5000     7.7325     0.0854     0.1689    61.7871     2.3780    20.2045    18.9847   -37.4101
  299.0000     7.7179     0.0825     0.1682    62.5369     2.3750    19.9284    18.8547   -37.2579
  299.5000     7.7186     0.0825     0.1676    62.6981     2.3713    19.9297    18.8562   -36.9548
  300.0000     7.7039     0.0796     0.1637    63.3132     2.3871    20.0694    18.9885   -37.2547
  300.5000     7.6893     0.0781     0.1465    64.9897     2.3954    20.2130    18.9948   -37.4421
  301.0000     7.6749     0.0752     0.1420    66.0586     2.3976    20.2255    18.9998   -37.4406
  301.5000     7.6604     0.0718     0.1365    66.8249     2.4097    20.3624    19.1368   -36.9877
  302.0000     7.6762     0.0512     0.1374    65.5602     2.4089    20.5079    19.1418   -36.9863
  302.5000     7.7070     0.0423     0.1178    62.6112     2.4097    20.6544    18.7535   -36.9848
  303.0000     7.7229     0.0498     0.1064    60.0493     2.4255    20.6585    18.7379   -36.9834
  303.5000     7.7687     0.0559     0.1010    58.2437     2.4915    20.6625    18.5067   -36.9819
  304.0000     7.8297     0.0529     0.1046    58.8613     2.5141    20.5241    18.2572   -36.8301
  304.5000     7.8907     0.0485     0.1081    63.7123     2.5231    20.2460    18.1361   -36.6780
  305.0000     7.9063     0.0500     0.1135    65.3864     2.4871    19.8340    17.8915   -36.5261
  305.5000     7.9070     0.0636     0.1312    68.3167     2.4549    19.2973    17.6503   -36.3743
  306.0000     7.9076     0.0696     0.1306    71.9139     2.4369    18.5060    17.1741   -36.2225
  306.5000     7.8931     0.0727     0.1342    72.3752     2.4392    17.0449    16.8257   -36.2351
  307.0000     7.8938     0.0712     0.1357    70.2696     2.4354    16.2422    16.7130   -36.5200
  307.5000     7.8641     0.0728     0.1369    63.1715     2.4257    15.6929    16.4886   -36.8197
  308.0000     7.8647     0.0863     0.1399    60.1557     2.4212    15.4795    16.3793   -37.1187
  308.5000     7.8653     0.1014     0.1426    59.7093     2.4242    15.4834    16.2707   -36.9667
  309.0000     7.8507     0.1123     0.1431    62.1423     2.4250    15.7030    16.0523   -36.9653
  309.5000     7.8514     0.1225     0.1422    66.5419     2.4168    15.8152    15.9448   -36.8135
  310.0000     7.8369     0.1285     0.1388    69.2750     2.4145    15.8183    15.8399   -36.2005
  310.5000     7.7923     0.1346     0.1341    70.3439     2.4184    15.7116    15.6200   -35.7576
  311.0000     7.7928     0.1361     0.1305    69.4070     2.4266    15.3926    15.4168   -35.7562
  311.5000     7.7781     0.1362     0.1272    67.4917     2.4334    15.2902    15.3135   -35.7548
  312.0000     7.7709     0.1347     0.1269    66.1401     2.4379    15.2932    15.1070   -35.7533
  312.5000     7.7643     0.1318     0.1284    65.3935     2.4402    15.2963    15.1120   -35.3008
  313.0000     7.7650     0.1243     0.1316    64.7983     2.4387    15.2993    15.0117   -34.9982
  313.5000     7.7505     0.1213     0.1340    65.4158     2.4335    14.9879    15.0167   -34.9968
  314.0000     7.7512     0.1184     0.1307    67.3925     2.4290    14.4818    14.9161   -35.1457
  314.5000     7.7365     0.1184     0.1220    70.7414     2.4335    14.1864    14.8172   -35.1444
  315.0000     7.7372     0.1125     0.1160    72.5585     2.4560    14.0913    14.8218   -35.1428
  315.5000     7.7378     0.1005     0.1154    72.7197     2.4636    14.0948    14.8260   -35.4421
  316.0000     7.7232     0.0945     0.1166    72.1244     2.4628    13.8080    14.8308   -35.5911
  316.5000     7.7087     0.0884     0.1175    69.5431     2.4584    13.7154    14.7315   -35.5893
  317.0000     7.7094     0.0826     0.1183    69.7261     2.4554    13.7188    14.7364   -35.7383
  317.5000     7.6948     0.0781     0.1189    70.3412     2.4562    13.9128    14.7402   -35.7368
  318.0000     7.6956     0.0737     0.1207    70.3511     2.4562    14.2074    14.7441   -35.7353
  318.5000     7.6961     0.0647     0.1267    68.2455     2.4554    14.5083    14.7482   -35.7338
  319.0000     7.6816     0.0588     0.1306    67.3452     2.4539    14.8301    14.9585   -35.7323
  319.5000     7.6823     0.0528     0.1309    66.9037     2.4495    15.1301    15.1710   -35.5803
  320.0000     7.6676     0.0453     0.1327    65.6934     2.4390    15.3440    15.1750   -35.5789
  320.5000     7.6532     0.0379     0.1351    64.8080     2.4338    15.4536    15.1790   -35.4271
  321.0000     7.6387     0.0379     0.1354    65.2717     2.4300    15.4567    15.1831   -35.1245
  321.5000     7.6241     0.0395     0.1356    66.0381     2.4278    15.4598    15.1880   -35.1231
  322.0000     7.6248     0.0410     0.1329    69.0762     2.4278    15.3561    15.0862   -35.4228
  322.5000     7.6254     0.0441     0.1293    71.9605     2.4301    15.2533    15.0912   -35.5717
  323.0000     7.6261     0.0456     0.1263    73.4833     2.4355    15.0473    14.9910   -35.4195
  323.5000     7.6267     0.0472     0.1248    73.9470     2.4444    15.0503    14.7802   -35.1012
  324.0000     7.6423     0.0472     0.1257    70.3286     2.4512    14.9386    14.4890   -34.5140
  324.5000     7.6731     0.0473     0.1266    68.2205     2.4527    14.6460    14.3928   -34.2118
  325.0000     7.6889     0.0473     0.1269    67.7765     2.4520    14.5478    14.2980   -34.0600
  325.5000     7.6895     0.0443     0.1268    68.6098     2.4468    14.3507    14.2033   -34.2090
  326.0000     7.7052     0.0504     0.1232    71.2784     2.4423    14.2545    14.2073   -34.2075
  326.5000     7.7361     0.0640     0.1136    72.4986     2.4438    14.1591    14.2119   -34.3561
  327.0000     7.7517     0.0775     0.1127    73.2649     2.4521    14.1626    14.3144   -34.3547
  327.5000     7.7825     0.0896     0.1097    73.5798     2.4709    14.1654    14.4176   -34.3532
  328.0000     7.8133     0.1016     0.1100    73.4360     2.4709    14.3657    14.7239   -34.3518
  328.5000     7.8140     0.1017     0.1289    72.9920     2.4687    14.8743    15.2505   -34.5008
  329.0000     7.8146     0.1017     0.1532    71.1679     2.4589    15.6398    16.5718   -34.9744
  329.5000     7.8000     0.1018     0.1997    66.0577     2.4304    17.0898    18.0114   -35.5501
  330.0000     7.8006     0.1048     0.2081    59.1084     2.4065    18.3179    19.5761   -36.3006
  330.5000     7.7709     0.1079     0.2080    54.1259     2.3667    20.3254    21.7229   -37.3518
  331.0000     7.7565     0.1094     0.2119    50.9612     2.3315    22.7096    23.6100   -38.4030
  331.5000     7.7571     0.1187     0.2140    50.6661     2.3019    25.5903    25.6627   -38.8667
  332.0000     7.7426     0.1260     0.2038    52.1913     2.2978    28.5480    27.5087   -39.1520
  332.5000     7.7282     0.1291     0.1972    53.8654     2.3008    30.8120    29.4875   -38.6991
  333.0000     7.7135     0.1306     0.1939    55.5419     2.3128    32.5723    30.7457   -38.3969
  333.5000     7.7142     0.1231     0.1912    57.8211     2.3250    33.2621    32.0575   -38.0947
  334.0000     7.7149     0.1037     0.1879    58.5875     2.3301    33.4998    32.5463   -37.9429
  334.5000     7.7155     0.0902     0.1914    57.5250     2.3324    33.5080    32.9768   -37.9411
  335.0000     7.7009     0.0842     0.1785    56.9431     2.3362    33.2819    33.2146   -37.7893
  335.5000     7.7016     0.0678     0.1863    56.1991     2.3497    33.2901    33.2234   -37.6374
  336.0000     7.7022     0.0618     0.2001    53.3345     2.3415    33.0654    33.2321   -37.4856
  336.5000     7.7028     0.0618     0.2011    52.2879     2.3265    32.8456    33.2412   -37.3338
  337.0000     7.7033     0.0664     0.2067    52.4491     2.3212    32.8537    33.0204   -37.3323
  337.5000     7.7040     0.0710     0.2049    55.4847     2.3145    32.8602    32.8013   -37.3306
