~VERSION INFORMATION
 VERS.                2.0:   CWLS LOG ASCII STANDARD - VERSION 2.0
 WRAP.                 NO:   ONE LINE PER DEPTH STEP
~WELL INFORMATION
#MNEM.UNIT      DATA TYPE    INFORMATION
#----------   ------------   ------------------------------
 STRT.F           30.0000:   START DEPTH
 STOP.F          502.0000:   STOP DEPTH
 STEP.F            0.5000:   STEP LENGTH
 NULL.          -999.2500:   NO VALUE
 COMP.   FLUOR DANIEL INC:   COMPANY
 WELL. NPR 3  74-66 SX-1 #66-10:   WELL
 FLD .             TEAPOT:   FIELD
 LOC .      S10 T38N R78W:   LOCATION
 CNTY.            NATRONA:   COUNTY
 STAT.            WYOMING:   STATE
 CTRY. UNITED STATES OF AMERICA:   COUNTRY
 SRVC.           Gearhart:   SERVICE COMPANY
 DATE.        19-JUL-1987:   LOGDATE
 API .       490251114700:   API NUMBER
~CURVE INFORMATION
#MNEM.UNIT       API CODE    CURVE DESCRIPTION
#----------   ------------   ------------------------------
 DEPT.F                  :   
 RLL .OHMM   07 220 00 00:   LATEROLOG RESISTIVITY
 RILD.OHMM   07 120 46 00:   INDUCTION LOG DEEP RESISTIVITY
 RILM.OHMM   07 120 44 00:   INDUCTION LOG MEDIUM RESISTIVITY
 GRR .GAPI   07 310 01 00:   GAMMA RAY FROM RES. LOG
 SPR .MV     07 010 01 00:   SPONTANEOUS POTENTIAL FROM RES. LOG
~PARAMETER INFORMATION
#MNEM.UNIT          VALUE    DESCRIPTION
#----------   ------------   ------------------------------
 PD  .                 GL:   PERMANENT DATUM
 EPD .F              5163:   ELEVATION PERMANENT DATUM
 LMF .                 KB:   LOG MEASURED FROM
 DAPD.F                 8:   FEET ABOVE PERMANENT DATUM
 DMF .                 KB:   DRILLING MEASURED FROM
 EKB .F              5171:   KELLING BUSHING
 EDF .F              5169:   DRILLING FLOOR
 EGL .F              5163:   GROUND LEVEL
 DATE.            7-19-87:   RUN DATE
 RUN .                  1:   RUN NUMBER
 DD  .F               500:   DEPTH DRILLER
 DL  .F               502:   DEPTH LOGGER
 BLI .F               500:   BOTTOM LOG INTERVAL
 TLI .F                30:   TOP LOG INTERVAL
 CS  .IN            8.625:   CASING SIZE
 CBD .F                40:   CASING BOTTOM DRILLER
 CBL .F                48:   CASING BOTTOM LOGGER
 BS  .IN            7.875:   BIT SIZE
 BSD .F               500:   BIT SIZE AT DEPTH
 DFT .                MUD:   DRILLING FLUID TYPE
 DFD .                8.9:   DRILLING FLUID DENSITY
 DFV .                 40:   DRILLING FLUID VISCOSITY
 MSS .            MUD PIT:   MUD SAMPLE SOURCE
 RMS .OHMM             .4:   RESISTIVITY MUD SAMPLE
 MST .F                70:   MUD SAMPLE TEMPERATURE
 RMF .OHMM             .3:   RESISTIVITY MUD FILTRATE SAMPLE
 MFST.F                70:   MUD FILTRATE SAMPLE TEMPERATURE
 RMC .OHMM            .32:   RESISTIVITY MUD CAKE
 MCST.F                70:   MUD CAKE SAMPLE TEMPERATURE
 MFSS.              CHART:   MUD FILTRATE SAMPLE SOURCE
 MCSS.              CHART:   MUD CAKE SAMPLE SOURCE
 RMB .OHMM            .35:   RESISTIVITY MUD AT BHT
 BHT .F                80:   BOTTOM HOLE TEMPERATURE
 TCS .HRS            2230:   TIME CURCULATED STOPPED
 TLAB.HRS            2330:   TIME LOGGER AT BOTTOM
 MRT .F                80:   MAXIMUM RECORDED TEMPERATURE
 LUN .               7597:   LOGGING UNIT NUMBER
 LUL .           GILLETTE:   LOGGING UNIT LOCATION
 ENGI.         WEATHERMON:   RECORDING ENGINEER
 WITN.             STRONG:   WITNESSED BY
 CLNT.            A2DTECH:   CLIENT CODE
 ORIG.       2", 5" PRINT:   ORIGIN OF DATA
 UWI .       490251114700:   UNIQUE WELL ID
 DICO. A2D Technologies, Inc.:   DIGITIZING COMPANY
~OTHER INFORMATION
~A   DEPT      RLL       RILD       RILM         GRR       SPR   
# ...
  152.0000    10.8820     8.4477     7.6077   102.6739   -79.6526
  152.5000    10.2427     8.8282     7.6147   103.6435   -80.3969
  153.0000    10.2075     8.8274     7.6295   103.9768   -80.7244
  153.5000    10.1583     8.9055     7.6442   103.9053   -80.0835
  154.0000     9.8031     8.9573     7.6590   103.7522   -79.6871
  154.5000     9.2507     9.0094     7.6739   104.0768   -79.9475
  155.0000     8.8951     9.0618     7.6787   108.3524   -80.2548
  155.5000     8.5777     9.0845     7.5924   111.7259   -80.5624
  156.0000     9.3316     9.1077     7.5347   112.5039   -80.5310
  156.5000    10.4281     9.1309     7.4774   111.0476   -80.0004
  157.0000    10.9963     9.1541     7.4676   109.4876   -79.4893
  157.5000    11.4553     9.2282     7.6988   107.9315   -78.3598
  158.0000    11.7750     9.3279     7.8633   106.3785   -77.2575
  158.5000    10.8949     9.4286     7.9801   104.7983   -76.0586
  159.0000    10.0541     9.5088     8.0412   103.3742   -77.8791
  159.5000    11.0333     9.4358     8.1028   102.0437   -79.2952
  160.0000    10.5323     9.3760     8.1949   102.0477   -78.2872
  160.5000    11.0035     9.3165     8.1325   104.9595   -78.5372
  161.0000    11.7016     9.2575     8.0138   108.3149   -78.6821
  161.5000    11.9959     9.1988     7.8967   111.2145   -78.6736
  162.0000    11.3045     9.1405     7.7812   112.7676   -79.4728
  162.5000    11.2403     9.0770     7.6782   112.8131   -79.3861
  163.0000    10.3341     9.0848     7.6784   112.0216   -79.2402
  163.5000     9.1617     9.0934     7.7646   111.2972   -78.0877
  164.0000     9.6002     9.1020     7.8304   111.4918   -77.9698
  164.5000    10.0833     9.1106     7.8965   111.6676   -78.0872
  165.0000    10.6361     9.1193     7.9696   110.6522   -77.7500
  165.5000    10.2427     9.1279     7.8873   108.1005   -77.0603
  166.0000    11.1467     9.1366     7.8244   105.5633   -76.8563
  166.5000    12.0070     9.1453     7.7613   102.9581   -78.2599
  167.0000    12.1079     9.1546     7.6990   101.8764   -79.6796
  167.5000    10.9312     9.1621     7.6372   102.6638   -74.4637
  168.0000    11.5868     9.0511     7.5759   105.6804   -70.8933
  168.5000    12.2209     8.9501     7.5152   107.3291   -77.4830
  169.0000    11.9333     8.8508     7.4670   107.2373   -80.6825
  169.5000    11.6660     8.7526     7.4882   105.7782   -80.3108
  170.0000    12.6838     8.6641     7.5131   102.8797   -81.1793
  170.5000    11.8768     8.5806     7.5383   102.2805   -81.6803
  171.0000    11.1759     8.5038     7.5636   101.7593   -81.5678
  171.5000    10.5317     8.4280     7.5884   101.2319   -81.3758
  172.0000    10.1087     8.3529     7.6073   101.0620   -80.3163
  172.5000     9.7097     8.2714     7.4936   104.2494   -81.3615
  173.0000     9.3264     8.1042     7.4036   109.7410   -82.7393
  173.5000     9.1617     7.8751     7.3147   112.9984   -82.7175
  174.0000     9.2362     7.6523     7.2263   111.3406   -82.3917
  174.5000     9.3002     7.4356     7.0500   109.0886   -81.9587
  175.0000     9.3647     7.2248     6.8071   108.1067   -82.3372
  175.5000     9.4208     7.0219     6.4703   107.6230   -83.0940
  176.0000     9.2789     6.9305     6.1194   106.1518   -82.3544
  176.5000     8.7734     6.9596     5.9193   104.7928   -82.3610
  177.0000     8.3017     6.9829     5.9193   104.8862   -83.1547
  177.5000     7.3305     7.0062     5.9193   107.7251   -83.1288
  178.0000     7.5608     7.0296     6.1836   112.1280   -83.1466
  178.5000     8.0446     7.0531     6.3647   115.2513   -82.9003
  179.0000     8.7411     7.1935     6.4507   115.7540   -82.4988
  179.5000     8.6648     7.4229     6.5379   112.9069   -82.0829
  180.0000     9.5976     7.6775     6.6177   109.7745   -81.6734
  180.5000     9.4186     7.7901     6.6810   109.4848   -81.2537
  181.0000     9.0833     7.9262     6.8046   109.2358   -80.8602
  181.5000     8.8274     8.0006     6.9304   108.1836   -80.2615
  182.0000     9.0770     8.0786     7.0588   107.0903   -80.0868
  182.5000     8.6628     8.1192     7.1901   107.2882   -80.7178
  183.0000     8.7912     8.1192     7.3314   108.7928   -82.1969
  183.5000     9.1279     8.1191     7.3294   110.0539   -83.7239
  184.0000     9.3371     8.1192     7.3304   110.1198   -83.2132
  184.5000     9.1387     8.1197     7.3300   108.5379   -80.1604
  185.0000     8.9930     8.1182     7.2961   104.5222   -81.5052
  185.5000     9.0761     8.1191     7.2051   102.2599   -83.7460
  186.0000     8.2932     7.7378     7.0331   101.1957   -85.9195
  186.5000     7.8916     7.6787     6.9221   101.4769   -87.1803
  187.0000     7.9670     7.6787     6.8964   102.6617   -83.3176
  187.5000     7.7641     7.3511     6.8684   103.6019   -82.1715
  188.0000     7.2593     7.0542     6.6470   103.1611   -81.9575
  188.5000     7.2594     6.7694     6.4104   103.1643   -82.1965
  189.0000     7.3259     6.4958     6.1593   104.3703   -82.4387
  189.5000     7.3805     6.2327     5.9032   105.4784   -82.6767
  190.0000     7.9696     5.9834     5.6577   106.5814   -82.9027
  190.5000     7.6993     5.8654     5.4224   109.1320   -83.4000
  191.0000     7.1950     5.9107     5.1970   110.4667   -83.8923
  191.5000     7.3860     5.9414     4.9809   109.9059   -84.3862
  192.0000     7.7177     5.9721     4.8247   106.2589   -84.4342
  192.5000     7.8958     6.0032     5.1634   102.1972   -84.2041
  193.0000     7.4676     6.0659     5.5758   101.3783   -83.6570
  193.5000     7.7605     6.3366     5.9193   103.3081   -83.0816
  194.0000     7.8958     6.6193     5.9820   107.6502   -82.8053
  194.5000     7.5408     6.9146     6.1530   111.7443   -82.2197
  195.0000     7.2610     7.2231     6.3172   112.7306   -81.7118
  195.5000     7.4755     7.5454     6.6028   113.0947   -81.8133
  196.0000     7.7879     7.8211     6.8879   113.0444   -81.9086
  196.5000     8.0440     7.8713     6.9418   110.7926   -81.7247
  197.0000     8.2160     7.9552     6.9962   109.0497   -81.4843
  197.5000     8.4289     8.0390     7.0509   108.0628   -81.3374
  198.0000     8.6473     8.1239     7.1061   108.0769   -81.4371
  198.5000     8.7614     8.2097     7.1617   108.4756   -81.5186
  199.0000     8.7895     8.2964     7.2489   109.1772   -81.4561
  199.5000     8.8177     8.3840     7.3839   109.8579   -81.3814
  200.0000     8.8460     8.4725     7.5215   111.6364   -81.3119
  200.5000     8.8744     8.5620     7.6616   113.8613   -81.2053
  201.0000     8.9029     8.6524     7.8043   116.0578   -80.8837
  201.5000     8.9900     8.7458     7.9043   117.2736   -80.7876
  202.0000     9.1340     8.8321     7.9274   116.0127   -80.8376
  202.5000     9.2803     8.9212     7.9506   111.4722   -81.5733
  203.0000     9.3564     9.0112     7.9738   109.1365   -82.2996
  203.5000     9.3922     9.0770     7.9971   111.1730   -82.4516
  204.0000     9.4281     9.0402     8.0205   112.4315   -82.3197
  204.5000     9.4641     9.0062     8.0440   109.5245   -82.2173
  205.0000     9.5003     8.9724     8.0675   107.5894   -82.0829
  205.5000     9.5960     8.9387     8.0912   109.4513   -81.8597
  206.0000     9.7111     8.9053     8.1191   111.7638   -81.6383
  206.5000     9.7776     8.8723     8.0628   111.3097   -81.5378
  207.0000     9.7575     8.8383     7.9945   107.7161   -81.5903
  207.5000     9.7434     8.6671     7.9267   104.1920   -81.6422
  208.0000     9.7293     8.4975     7.8595   101.1340   -81.6930
  208.5000     9.7153     8.4715     7.7928   102.8022   -81.9444
  209.0000     9.7013     8.4467     7.7504   105.3980   -82.3476
  209.5000     9.6872     8.4110     7.7758   108.0384   -82.7555
  210.0000     9.2786     8.3266     7.7976   110.4793   -83.1262
  210.5000     8.8850     8.2435     7.8228   109.6274   -82.9448
  211.0000     8.7984     8.1611     7.6143   108.4504   -82.1247
  211.5000     8.7544     7.9342     7.3761   108.6889   -81.3586
  212.0000     8.7106     7.5642     7.1285   110.2607   -82.0449
  212.5000     8.6648     7.2131     6.6941   111.1423   -83.7797
