~VERSION INFORMATION
 VERS.                2.0:   CWLS LOG ASCII STANDARD - VERSION 2.0
 WRAP.                 NO:   ONE LINE PER DEPTH STEP
~WELL INFORMATION
#MNEM.UNIT      DATA TYPE    INFORMATION
#----------   ------------   ------------------------------
 STRT.F           80.0000:   START DEPTH
 STOP.F          964.0000:   STOP DEPTH
 STEP.F            0.5000:   STEP LENGTH
 NULL.          -999.2500:   NO VALUE
 COMP. U S NAVY-INTEX OIL:   COMPANY
 WELL. N.P.R. #3` #57-S-2:   WELL
 FLD .        TEAPOT DOME:   FIELD
 LOC .       S2 T38N R78W:   LOCATION
 CNTY.            NATRONA:   COUNTY
 STAT.            WYOMING:   STATE
 CTRY. UNITED STATES OF AMERICA:   COUNTRY
 SRVC.       Schlumberger:   SERVICE COMPANY
 DATE.        04-AUG-1961:   LOGDATE
 API .       490250640500:   API NUMBER
~CURVE INFORMATION
#MNEM.UNIT       API CODE    CURVE DESCRIPTION
#----------   ------------   ------------------------------
 DEPT.F                  :   
 GR  .GAPI   30 310 01 00:   GAMMA RAY
 ASN .OHMM   05 041 16 00:   AMPLIFIED SHORT NORMAL 16"
 CILD.MMHO   05 110 46 00:   CONDUCTIVITY INDUCTION LOG DEEP
 ILD .OHMM   05 120 46 00:   INDUCTION LOG DEEP
 SPR .MV     05 010 01 00:   SPONTANEOUS POTENTIAL FROM RES.
~PARAMETER INFORMATION
#MNEM.UNIT          VALUE    DESCRIPTION
#----------   ------------   ------------------------------
 LMF .                 KB:   LOG MEASURED FROM
 DMF .                 KB:   DRILLING MEASURED FROM
 EKB .F              5205:   KELLING BUSHING
 EGL .F              5200:   GROUND LEVEL
 DATE.        04-AUG-1961:   RUN DATE
 RUN .                  1:   RUN NUMBER
 DD  .F               965:   DEPTH DRILLER
 DL  .F               965:   DEPTH LOGGER
 BLI .F               954:   BOTTOM LOG INTERVAL
 TLI .F               150:   TOP LOG INTERVAL
 BS  .IN             6.75:   BIT SIZE
 BSD .F               965:   BIT SIZE AT DEPTH
 DFT .       OIL EMULSION:   DRILLING FLUID TYPE
 DFD .                9.4:   DRILLING FLUID DENSITY
 DFV .                 65:   DRILLING FLUID VISCOSITY
 MSS .           FLOWLINE:   MUD SAMPLE SOURCE
 RMS .OHMM            1.0:   RESISTIVITY MUD SAMPLE
 MST .F                80:   MUD SAMPLE TEMPERATURE
 TCS .HRS               1:   TIME CURCULATED STOPPED
 LUN .               2544:   LOGGING UNIT NUMBER
 LUL .                 NC:   LOGGING UNIT LOCATION
 ENGI.            EARNEST:   RECORDING ENGINEER
 WITN.          JORGENSEN:   WITNESSED BY
 CLNT.            A2DTECH:   CLIENT CODE
 ORIG.        2" 5" PRINT:   ORIGIN OF DATA
 UWI .       490250640500:   UNIQUE WELL ID
 DICO. A2D Technologies, Inc.:   DIGITIZING COMPANY
~OTHER INFORMATION
~A   DEPT       GR        ASN       CILD        ILD        SPR   
# ...
  568.0000  -999.2500     8.8072   127.5676     8.3375   -66.2196
  568.5000  -999.2500     8.8256   127.5410     8.3389   -65.9657
  569.0000  -999.2500     8.8500   129.5196     8.3404   -65.7352
  569.5000  -999.2500     8.8894   132.0038     8.3421   -65.8363
  570.0000  -999.2500     8.9163   134.3344     8.2430   -65.9613
  570.5000  -999.2500     8.9035   136.7418     8.1943   -66.3147
  571.0000  -999.2500     8.8229   137.9429     8.0778   -66.5544
  571.5000  -999.2500     8.7184   137.9204     8.0329   -66.9421
  572.0000  -999.2500     8.7045   137.8979     7.8978   -67.2151
  572.5000  -999.2500     8.6939   136.8870     7.8991   -67.4441
  573.0000  -999.2500     8.6794   134.8499     7.9006   -67.5917
  573.5000  -999.2500     8.6634   133.3244     7.9021   -67.4411
  574.0000  -999.2500     8.6502   132.5327     7.9036   -67.1413
  574.5000  -999.2500     8.6943   130.0799     7.9052   -66.9461
  575.0000  -999.2500     8.7706   128.7503     7.9066   -66.8405
  575.5000  -999.2500     8.8244   127.2297     7.9922   -66.6108
  576.0000  -999.2500     8.8949   127.2070     8.0605   -66.5176
  576.5000  -999.2500     8.9661   127.1847     8.0617   -66.2397
  577.0000  -999.2500     9.0067   127.1622     8.1386   -66.1823
  577.5000  -999.2500     9.0564   127.1374     8.1401   -65.9389
  578.0000  -999.2500     9.1036   127.1171     8.1416   -65.8470
  578.5000  -999.2500     9.1521   127.0946     8.1432   -65.7869
  579.0000  -999.2500     9.1921   127.0678     8.2199   -65.7852
  579.5000  -999.2500     9.1365   127.0495     8.2214   -65.8512
  580.0000  -999.2500     9.0284   128.5276     8.2229   -65.9315
  580.5000  -999.2500     9.0138   128.5060     8.2244   -65.9297
  581.0000  -999.2500     9.0324   128.4835     8.1507   -66.1217
  581.5000  -999.2500     9.0445   128.4580     8.0379   -66.2250
  582.0000  -999.2500     9.0663   128.4384     7.9177   -66.3726
  582.5000  -999.2500     9.0907   129.9551     7.8539   -66.5202
  583.0000  -999.2500     9.1054   131.3964     7.7801   -66.8165
  583.5000  -999.2500     9.1206   131.3739     7.7816   -66.8706
  584.0000  -999.2500     9.0763   131.3497     7.7379   -66.9627
  584.5000  -999.2500     9.0325   131.3288     7.7091   -66.8716
  585.0000  -999.2500     8.9836   131.3063     7.6357   -66.6294
  585.5000  -999.2500     8.9130   131.2801     7.6370   -66.5110
  586.0000  -999.2500     8.8254   138.7706     8.2425   -65.7377
  586.5000  -999.2500     8.7978   138.7403     8.1642   -65.2922
  587.0000  -999.2500     8.8722   140.2100     8.1613   -64.9973
  587.5000  -999.2500     8.9318   140.1799     8.1584   -64.8503
  588.0000  -999.2500     8.9163   140.3700     8.1554   -64.7039
  588.5000  -999.2500     8.8709   141.6207     8.0777   -64.7076
  589.0000  -999.2500     8.7955   141.5838     8.0747   -65.0090
  589.5000  -999.2500     8.7500   141.5543     7.9969   -65.6090
  590.0000  -999.2500     8.6746   141.5248     7.8443   -65.6119
  590.5000  -999.2500     8.6592   141.4953     7.7665   -65.4656
  591.0000  -999.2500     8.6588   142.9724     7.7635   -65.6185
  591.5000  -999.2500     8.6733   142.9355     7.6851   -66.2184
  592.0000  -999.2500     8.6879   144.4126     7.6073   -66.2213
  592.5000  -999.2500     8.6874   145.8824     7.5295   -66.0743
  593.0000  -999.2500     8.6569   147.3521     7.6022   -66.2272
  593.5000  -999.2500     8.5665   147.3152     7.5236   -66.0809
  594.0000  -999.2500     8.4911   147.2857     7.5207   -65.9338
  594.5000  -999.2500     8.4157   147.2562     7.6675   -65.9375
  595.0000  -999.2500     8.4152   147.2264     7.7394   -65.9404
  595.5000  -999.2500     8.4148   145.6972     7.8862   -65.6448
  596.0000  -999.2500     8.4295   144.1679     8.0329   -65.3492
  596.5000  -999.2500     8.4739   141.1337     8.0299   -65.3522
  597.0000  -999.2500     8.5184   139.6049     8.0269   -65.6543
  597.5000  -999.2500     8.5780   138.0762     8.0234   -65.9558
  598.0000  -999.2500     8.6529   138.0466     8.0961   -66.1079
  598.5000  -999.2500     8.7598   135.0186     8.1680   -65.9609
  599.0000  -999.2500     8.8791   134.9891     8.2399   -65.9645
  599.5000  -999.2500     8.9509   134.9596     8.3118   -65.9675
  600.0000  -999.2500     9.0404   134.9301     8.3081   -66.2689
  600.5000  -999.2500     9.1000   134.9006     8.3052   -66.4211
  601.0000  -999.2500     9.0545   134.8710     8.2274   -66.5733
  601.5000  -999.2500     9.0241   134.8415     8.2245   -66.5762
  602.0000  -999.2500     9.0687   136.3112     8.2216   -66.5791
  602.5000  -999.2500     9.0833   136.2817     8.2186   -66.7313
  603.0000  -999.2500     9.0677   137.7515     8.0659   -66.5850
  603.5000  -999.2500     9.0073   139.2212     7.9126   -66.2901
  604.0000  -999.2500     8.9319   140.6909     7.9097   -65.8453
  604.5000  -999.2500     8.8557   143.6599     7.7571   -65.5497
  605.0000  -999.2500     8.7791   145.1297     7.6793   -65.2534
  605.5000  -999.2500     8.6756   148.0912     7.6015   -65.1071
  606.0000  -999.2500     8.5552   151.0602     7.5237   -65.1107
  606.5000  -999.2500     8.4648   152.5374     7.4459   -65.2629
  607.0000  -999.2500     8.3145   155.5063     7.2933   -65.4151
  607.5000  -999.2500     8.1941   158.4679     7.1407   -65.7165
  608.0000  -999.2500     8.0737   158.4384     7.0629   -65.5701
  608.5000  -999.2500     7.9833   158.4089     6.9850   -65.4239
  609.0000  -999.2500     7.9379   156.8801     6.9820   -65.7413
  609.5000  -999.2500     7.9375   156.8506     6.9785   -66.0267
  610.0000  -999.2500     7.9670   156.8211     6.9756   -65.7319
  610.5000  -999.2500     7.9968   155.2923     6.9726   -65.4363
  611.0000  -999.2500     8.0425   153.7631     7.1201   -65.2892
  611.5000  -999.2500     8.0882   152.2339     7.2662   -64.8451
  612.0000  -999.2500     8.1600   150.7047     7.3381   -64.5488
  612.5000  -999.2500     8.2196   149.1699     7.4100   -64.2533
  613.0000  -999.2500     8.2641   146.1419     7.5568   -64.2569
  613.5000  -999.2500     8.3236   144.6131     7.7035   -63.9612
  614.0000  -999.2500     8.3532   143.0843     7.8503   -63.5165
  614.5000  -999.2500     8.3377   143.0548     7.9222   -63.3702
  615.0000  -999.2500     8.3674   140.0268     7.9192   -63.3731
  615.5000  -999.2500     8.4268   138.4980     8.0653   -63.3761
  616.0000  -999.2500     8.4863   136.9693     8.1380   -63.5289
  616.5000  -999.2500     8.5459   135.4405     8.1343   -63.5318
  617.0000  -999.2500     8.6062   135.4110     8.2070   -63.5348
  617.5000  -999.2500     8.6669   135.3814     8.2033   -63.6870
  618.0000  -999.2500     8.7095   138.3504     8.1255   -63.6899
  618.5000  -999.2500     8.6939   139.8202     8.1226   -63.9913
  619.0000  -999.2500     8.6335   142.8987     8.1196   -64.2928
  619.5000  -999.2500     8.5281   145.7581     7.9670   -64.5942
  620.0000  -999.2500     8.5127   145.7212     7.9641   -64.8956
  620.5000  -999.2500     8.5123   147.1983     7.9611   -64.7493
  621.0000  -999.2500     8.5118   147.1614     7.9581   -64.3045
  621.5000  -999.2500     8.4814   147.1319     7.9545   -63.8438
  622.0000  -999.2500     8.4660   145.6032     7.9516   -63.4148
  622.5000  -999.2500     8.4655   144.0744     8.0243   -63.7170
  623.0000  -999.2500     8.4501   142.5456     8.0962   -64.0184
  623.5000  -999.2500     8.4960   141.0169     8.1681   -63.7221
  624.0000  -999.2500     8.5743   139.4881     8.2400   -63.7257
  624.5000  -999.2500     8.7185   136.4601     8.3860   -63.7287
  625.0000  -999.2500     9.0029   133.4321     8.4581   -64.0301
  625.5000  -999.2500     9.3623   131.9033     8.6796   -64.3315
  626.0000  -999.2500     9.5868   128.8753     8.8263   -64.7822
  626.5000  -999.2500     9.8472   125.8471     8.9731   -65.3822
  627.0000  -999.2500    10.0206   124.1884     9.1199   -65.5343
  627.5000  -999.2500    10.0202   121.0648     9.2659   -65.6866
  628.0000  -999.2500    10.0197   118.2551     9.4127   -65.6677
  628.5000  -999.2500    10.0944   115.2270     9.5602   -65.5431
