~VERSION INFORMATION
 VERS.                2.0:   CWLS LOG ASCII STANDARD - VERSION 2.0
 WRAP.                 NO:   ONE LINE PER DEPTH STEP
~WELL INFORMATION
#MNEM.UNIT      DATA TYPE    INFORMATION
#----------   ------------   ------------------------------
 STRT.F            8.0000:   START DEPTH
 STOP.F         2320.0000:   STOP DEPTH
 STEP.F            0.5000:   STEP LENGTH
 NULL.          -999.2500:   NO VALUE
 COMP.    FENIX & SCISSON:   COMPANY
 WELL. N.P.R #3 #77-SHX-10:   WELL
 FLD .             TEAPOT:   FIELD
 LOC .      S10 T38N R78W:   LOCATION
 CNTY.            NATRONA:   COUNTY
 STAT.            WYOMING:   STATE
 CTRY. UNITED STATES OF AMERICA:   COUNTRY
 SRVC.              Welex:   SERVICE COMPANY
 DATE.        05-JUN-1980:   LOGDATE
 API .       490251064900:   API NUMBER
~CURVE INFORMATION
#MNEM.UNIT       API CODE    CURVE DESCRIPTION
#----------   ------------   ------------------------------
 DEPT.F                  :   
 GRD .GAPI   45 310 01 00:   GAMMA RAY FROM DENSITY LOG
 CALD.IN     45 280 60 00:   CALIPER FROM DENSITY LOG
 RHOB.G/C3   45 350 01 00:   BULK DENSITY
 DPHI.DEC    45 890 12 00:   DENSITY POROSITY SANDSTONE
 ILD .OHMM   05 120 46 00:   INDUCTION LOG DEEP
 CORR.G/C3   45 356 01 00:   DENSITY CORRECTION
~PARAMETER INFORMATION
#MNEM.UNIT          VALUE    DESCRIPTION
#----------   ------------   ------------------------------
 PD  .                 GL:   PERMANENT DATUM
 EPD .F              5210:   ELEVATION PERMANENT DATUM
 LMF .                 KB:   LOG MEASURED FROM
 DAPD.F                10:   FEET ABOVE PERMANENT DATUM
 DMF .                 KB:   DRILLING MEASURED FROM
 EKB .F              5220:   KELLING BUSHING
 EGL .F              5210:   GROUND LEVEL
 DATE.        05-JUN-1980:   RUN DATE
 RUN .                  1:   RUN NUMBER
 DD  .F              2358:   DEPTH DRILLER
 DL  .F              2322:   DEPTH LOGGER
 BLI .F              2320:   BOTTOM LOG INTERVAL
 TLI .F               900:   TOP LOG INTERVAL
 CS  .IN                7:   CASING SIZE
 BS  .IN             6.25:   BIT SIZE
 BSD .F              2358:   BIT SIZE AT DEPTH
 DFT .        AIR DRILLED:   DRILLING FLUID TYPE
 MRT .F               107:   MAXIMUM RECORDED TEMPERATURE
 ENGI.               REIN:   RECORDING ENGINEER
 WITN.              AMEND:   WITNESSED BY
 CLNT.            A2DTECH:   CLIENT CODE
 ORIG.           5" PRINT:   ORIGIN OF DATA
 UWI .       490251064900:   UNIQUE WELL ID
 DICO. A2D Technologies, Inc.:   DIGITIZING COMPANY
~OTHER INFORMATION
~A    DEPT      GRD      CALD       RHOB       DPHI        ILD       CORR   
# ...
 2140.0000   108.0298     6.7123     2.5099     0.0306  -999.2500     0.1690
 2140.5000   107.0878     6.7267     2.4892     0.0385  -999.2500     0.1449
 2141.0000   106.8239     6.7261     2.4558     0.0541  -999.2500     0.1162
 2141.5000   106.9665     6.7552     2.4437     0.0727  -999.2500     0.1025
 2142.0000   108.0056     6.7697     2.4301     0.0817  -999.2500     0.0934
 2142.5000   108.5970     6.7988     2.4196     0.0869  -999.2500     0.0871
 2143.0000   107.7758     6.8578     2.4135     0.0893  -999.2500     0.0796
 2143.5000   107.0916     6.8880     2.4060     0.0938  -999.2500     0.0735
 2144.0000   107.9815     6.9310     2.3984     0.0971  -999.2500     0.0704
 2144.5000   108.5742     6.9305     2.4021     0.0989  -999.2500     0.0764
 2145.0000   109.1641     6.9299     2.4156     0.0950  -999.2500     0.0856
 2145.5000   109.1570     6.9293     2.4283     0.0861  -999.2500     0.1019
 2146.0000   108.5543     6.9437     2.4399     0.0728  -999.2500     0.1094
 2146.5000   107.2054     6.9580     2.4365     0.0762  -999.2500     0.1048
 2147.0000   106.7519     6.9723     2.4034     0.0939  -999.2500     0.0835
 2147.5000   106.7462     6.8375     2.3914     0.0993  -999.2500     0.0683
 2148.0000   106.8898     6.7177     2.4011     0.0972  -999.2500     0.0638
 2148.5000   106.7335     6.7022     2.4102     0.0933  -999.2500     0.0893
 2149.0000   106.5785     6.7462     2.4138     0.0910  -999.2500     0.0983
 2149.5000   105.5281     6.8202     2.3964     0.1048  -999.2500     0.0922
 2150.0000   104.3284     6.9388     2.3859     0.1081  -999.2500     0.0861
 2150.5000   103.4257     7.0277     2.3911     0.0928  -999.2500     0.1177
 2151.0000   103.2708     7.0579     2.4477     0.0741  -999.2500     0.1418
 2151.5000   103.3111     7.0862     2.4758     0.0565  -999.2500     0.1629
 2152.0000   103.7086     7.0557     2.4675     0.0604  -999.2500     0.1704
 2152.5000   104.3034     6.8614     2.4615     0.0586  -999.2500     0.1582
 2153.0000   105.0377     6.6969     2.4577     0.0629  -999.2500     0.1612
 2153.5000   105.3305     6.6357     2.4441     0.0691  -999.2500     0.1641
 2154.0000   105.4755     6.5913     2.4193     0.0836  -999.2500     0.1414
 2154.5000   105.3192     6.5907     2.4185     0.0821  -999.2500     0.1323
 2155.0000   104.7164     6.5901     2.4267     0.0764  -999.2500     0.1427
 2155.5000   104.8600     6.6773     2.4446     0.0701  -999.2500     0.1504
 2156.0000   105.1514     6.7511     2.4498     0.0683  -999.2500     0.1668
 2156.5000   106.1905     6.8398     2.4483     0.0723  -999.2500     0.1788
 2157.0000   106.7819     6.9155     2.4272     0.0786  -999.2500     0.1817
 2157.5000   107.0820     6.9425     2.4129     0.0840  -999.2500     0.1635
 2158.0000   104.6795     6.9569     2.4091     0.0876  -999.2500     0.1650
 2158.5000   104.2261     6.9711     2.4173     0.0857  -999.2500     0.1865
 2159.0000   104.2204     6.9702     2.4390     0.0779  -999.2500     0.2001
 2159.5000   104.6625     6.8314     2.4600     0.0698  -999.2500     0.2136
 2160.0000   105.2636     6.6854     2.4719     0.0581  -999.2500     0.2272
 2160.5000   105.6959     6.5506     2.4588     0.0563  -999.2500     0.2060
 2161.0000   106.2858     6.4903     2.4553     0.0626  -999.2500     0.2090
 2161.5000   106.8772     6.4150     2.4725     0.0494  -999.2500     0.2135
 2162.0000   107.0209     6.4183     2.4897     0.0467  -999.2500     0.2164
 2162.5000   106.5672     6.5178     2.4664     0.0582  -999.2500     0.2116
 2163.0000   106.2617     6.6065     2.4572     0.0612  -999.2500     0.1997
 2163.5000   105.8082     6.7250     2.4490     0.0622  -999.2500     0.1936
 2164.0000   105.2055     6.7541     2.4400     0.0700  -999.2500     0.1785
 2164.5000   104.4536     6.7086     2.4226     0.0784  -999.2500     0.1467
 2165.0000   103.8213     6.6780     2.4121     0.0898  -999.2500     0.1331
 2165.5000   102.6498     6.7518     2.4060     0.0923  -999.2500     0.1421
 2166.0000   102.3472     6.9448     2.4022     0.0881  -999.2500     0.1556
 2166.5000   105.1759     7.0335     2.4104     0.0908  -999.2500     0.1722
 2167.0000   106.0657     7.1073     2.4201     0.0887  -999.2500     0.1843
 2167.5000   105.6108     7.0021     2.4306     0.0857  -999.2500     0.1904
 2168.0000   104.4111     6.8524     2.4382     0.0743  -999.2500     0.1978
 2168.5000   103.0621     6.7026     2.4492     0.0695  -999.2500     0.1917
 2169.0000   102.1609     6.6125     2.4582     0.0666  -999.2500     0.1886
 2169.5000   102.3051     6.5522     2.4694     0.0597  -999.2500     0.1961
 2170.0000   104.0884     6.7897     2.4914     0.0399  -999.2500     0.1991
 2170.5000   105.5753     6.8934     2.4788     0.0492  -999.2500     0.1870
 2171.0000   106.4651     6.9374     2.4625     0.0520  -999.2500     0.1794
 2171.5000   106.9086     6.9516     2.4429     0.0589  -999.2500     0.1733
 2172.0000   107.0508     6.9508     2.4609     0.0577  -999.2500     0.1687
 2172.5000   107.3421     6.9501     2.4679     0.0583  -999.2500     0.1687
 2173.0000   108.0827     6.9493     2.4493     0.0619  -999.2500     0.1626
 2173.5000   109.2710     6.9336     2.4315     0.0680  -999.2500     0.1504
 2174.0000   107.6236     6.9425     2.4494     0.0638  -999.2500     0.1428
 2174.5000   106.1253     6.9620     2.4704     0.0557  -999.2500     0.1685
 2175.0000   103.7302     6.9935     2.4906     0.0461  -999.2500     0.1775
 2175.5000   102.8289     7.0053     2.4718     0.0482  -999.2500     0.1638
 2176.0000   103.2710     7.0193     2.5085     0.0349  -999.2500     0.1789
 2176.5000   105.3549     7.0186     2.5152     0.0248  -999.2500     0.1894
 2177.0000   106.2447     7.0328     2.5092     0.0237  -999.2500     0.1909
 2177.5000   106.8360     6.9425     2.4776     0.0384  -999.2500     0.1712
 2178.0000   106.3812     6.8673     2.5061     0.0375  -999.2500     0.1908
 2178.5000   105.6292     6.8666     2.5165     0.0227  -999.2500     0.2013
 2179.0000   104.5787     6.8957     2.5014     0.0295  -999.2500     0.1998
 2179.5000   103.9760     6.9406     2.4714     0.0469  -999.2500     0.1771
 2180.0000   103.6515     6.9688     2.4473     0.0628  -999.2500     0.1378
 2180.5000   102.7692     6.9830     2.4397     0.0682  -999.2500     0.1302
 2181.0000   102.3158     6.9821     2.4547     0.0612  -999.2500     0.1437
 2181.5000   101.7130     6.9814     2.4757     0.0509  -999.2500     0.1618
 2182.0000   101.8566     6.9339     2.4921     0.0404  -999.2500     0.1678
 2182.5000   102.4652     6.8456     2.4876     0.0413  -999.2500     0.1677
 2183.0000   102.5915     6.8300     2.4785     0.0455  -999.2500     0.1632
 2183.5000   102.2859     6.8740     2.4619     0.0519  -999.2500     0.1556
 2184.0000   101.5339     6.9329     2.4476     0.0600  -999.2500     0.1480
 2184.5000   100.7820     7.0107     2.4558     0.0633  -999.2500     0.1418
 2185.0000   100.1491     7.0656     2.4453     0.0681  -999.2500     0.1313
 2185.5000    99.1274     7.0946     2.4174     0.0769  -999.2500     0.1237
 2186.0000    99.7187     7.0938     2.4310     0.0811  -999.2500     0.1100
 2186.5000   101.0563     7.1080     2.4166     0.0826  -999.2500     0.1221
 2187.0000   102.3939     7.1222     2.3933     0.0931  -999.2500     0.1158
 2187.5000   103.3024     7.0915     2.3985     0.1016  -999.2500     0.0978
 2188.0000   104.4706     7.0461     2.4329     0.0872  -999.2500     0.1431
 2188.5000   105.3604     7.0007     2.4568     0.0620  -999.2500     0.1551
 2189.0000   106.1010     6.9851     2.4448     0.0614  -999.2500     0.1566
 2189.5000   105.0506     6.9694     2.4628     0.0599  -999.2500     0.1505
 2190.0000   102.4672     6.9686     2.4710     0.0554  -999.2500     0.1610
 2190.5000   100.8587     6.9232     2.4537     0.0630  -999.2500     0.1564
 2191.0000   100.4052     6.8181     2.4557     0.0645  -999.2500     0.1504
 2191.5000   100.3995     6.8015     2.4656     0.0570  -999.2500     0.1413
