~VERSION INFORMATION
 VERS.                2.0:   CWLS LOG ASCII STANDARD - VERSION 2.0
 WRAP.                 NO:   ONE LINE PER DEPTH STEP
~WELL INFORMATION
#MNEM.UNIT      DATA TYPE    INFORMATION
#----------   ------------   ------------------------------
 STRT.F            0.0000:   START DEPTH
 STOP.F          825.0000:   STOP DEPTH
 STEP.F            0.5000:   STEP LENGTH
 NULL.          -999.2500:   NO VALUE
 COMP. BROWN JOHN E&C INC:   COMPANY
 WELL. NAVAL PETROLEUM RESERVE 3 SHX- #21-1-2:   WELL
 FLD .             TEAPOT:   FIELD
 LOC .       S2 T38N R78W:   LOCATION
 CNTY.            NATRONA:   COUNTY
 STAT.            WYOMING:   STATE
 CTRY. UNITED STATES OF AMERICA:   COUNTRY
 SRVC.     Atlas Wireline:   SERVICE COMPANY
 DATE.        11-NOV-1991:   LOGDATE
 API .       490252247600:   API NUMBER
~CURVE INFORMATION
#MNEM.UNIT       API CODE    CURVE DESCRIPTION
#----------   ------------   ------------------------------
 DEPT.F                  :   
 GRR .GAPI   07 310 01 00:   GAMMA RAY
 RFOC.OHMM   07 220 04 00:   RESISTIVITY FOCUSED LOG
 RILD.OHMM   07 120 46 00:   INDUCTION LOG DEEP RESISTIVITY
 RILM.OHMM   07 120 44 00:   INDUCTION LOG MEDIUM RESISTIVITY
 SPR .MV     07 010 01 00:   SPONTANEOUS POTENTIAL
~PARAMETER INFORMATION
#MNEM.UNIT          VALUE    DESCRIPTION
#----------   ------------   ------------------------------
 PD  .                 GL:   PERMANENT DATUM
 EPD .F              5110:   ELEVATION PERMANENT DATUM
 LMF .                 KB:   LOG MEASURED FROM
 DAPD.F                10:   FEET ABOVE PERMANENT DATUM
 DMF .                 KB:   DRILLING MEASURED FROM
 EKB .F              5120:   KELLING BUSHING
 EGL .F              5110:   GROUND LEVEL
 DATE.        11-NOV-1991:   RUN DATE
 RUN .                  1:   RUN NUMBER
 DD  .F               830:   DEPTH DRILLER
 DL  .F               527:   DEPTH LOGGER
 BLI .F               525:   BOTTOM LOG INTERVAL
 CS  .IN            9.625:   CASING SIZE
 CBD .F                58:   CASING BOTTOM DRILLER
 CBL .F                58:   CASING BOTTOM LOGGER
 BS  .IN             8.75:   BIT SIZE
 BSD .F               830:   BIT SIZE AT DEPTH
 DFT .          KCL WATER:   DRILLING FLUID TYPE
 RMS .OHMM          0.248:   RESISTIVITY MUD SAMPLE
 MST .F                93:   MUD SAMPLE TEMPERATURE
 BHT .F               104:   BOTTOM HOLE TEMPERATURE
 TCS .HRS               2:   TIME CURCULATED STOPPED
 MRT .F               104:   MAXIMUM RECORDED TEMPERATURE
 LUN .            HL 6274:   LOGGING UNIT NUMBER
 LUL .             CASPER:   LOGGING UNIT LOCATION
 ENGI.       P. RASMUSSEN:   RECORDING ENGINEER
 WITN.        GARY STRONG:   WITNESSED BY
 CLNT.            A2DTECH:   CLIENT CODE
 ORIG.           5" PRINT:   ORIGIN OF DATA
 UWI .       490252247600:   UNIQUE WELL ID
 DICO. A2D Technologies, Inc.:   DIGITIZING COMPANY
~OTHER INFORMATION
~A    DEPT       GRR     RFOC       RILD       RILM        SPR   
# ...
  122.0000    97.2086     3.2249     2.4478     2.2050   -64.2799
  122.5000   101.6910     2.7878     2.4305     2.1126   -64.7526
  123.0000   105.2751     2.5296     2.4300     2.0846   -64.9055
  123.5000   107.3622     2.4597     2.4486     2.1573   -64.9091
  124.0000   106.7187     2.4759     2.5144     2.3434   -65.0619
  124.5000    98.3605     2.6936     2.6206     2.6171   -64.9142
  125.0000    96.2560     3.4507     2.7693     2.8826   -64.4680
  125.5000    97.7443     4.5470     3.2468     3.2643   -62.3720
  126.0000    98.9332     4.3607     3.8067     3.8032   -60.8756
  126.5000    99.5233     4.0677     4.6847     3.9324   -61.1884
  127.0000   100.7122     4.0105     4.8488     4.0134   -61.6318
  127.5000   101.0030     4.0932     4.9154     4.0965   -61.7846
  128.0000    98.8424     4.1489     4.9486     4.1809   -61.0379
  128.5000    97.3927     4.1475     4.9819     4.2083   -60.4411
  129.0000    99.1782     4.1749     4.9463     4.2062   -60.1441
  129.5000    99.7705     4.1732     4.9112     4.1466   -60.1470
  130.0000    97.3644     4.1718     4.7104     4.0312   -60.4498
  130.5000    96.4597     4.1416     4.4556     3.8388   -60.9625
  131.0000   103.3350     4.1117     4.0738     3.6303   -63.0050
  131.5000   107.5179     3.9431     3.7559     2.8670   -63.9075
  132.0000   105.9481     3.6529     3.1495     2.5474   -64.2102
  132.5000   103.9077     3.2811     2.9382     2.3924   -64.2131
  133.0000   105.6932     2.6005     2.7986     2.3749   -64.2160
  133.5000   108.0797     2.5112     2.6656     2.5175   -64.0690
  134.0000   108.3726     2.6168     2.7023     2.7067   -63.7721
  134.5000   106.5653     2.9425     2.7776     2.8598   -63.4751
  135.0000   101.7662     3.8527     2.8749     2.9801   -63.1782
  135.5000    99.3623     3.9871     2.9774     3.1487   -62.7320
  136.0000    99.4252     3.8222     3.1443     3.3039   -62.4351
  136.5000   100.8397     3.6629     3.3925     3.4428   -63.0377
  137.0000   101.7292     3.6150     3.8156     3.5903   -63.6403
  137.5000   103.5169     3.7152     4.2324     3.7379   -64.0929
  138.0000   104.4085     3.8714     4.3806     3.7889   -63.6262
  138.5000   103.7989     4.0063     4.4102     3.7870   -62.7502
  139.0000    98.9997     4.0331     4.4399     3.7855   -62.4532
  139.5000    94.4940     4.0036     4.4060     3.7840   -62.0063
  140.0000    93.5931     3.9729     4.2869     3.7304   -61.5595
  140.5000   104.0613     3.9184     4.1979     3.6776   -62.1621
  141.0000   103.7532     3.8102     4.1681     3.6001   -62.9146
  141.5000   101.6486     3.6794     4.1672     3.5003   -63.0674
  142.0000   100.4445     3.4801     4.0807     3.3797   -62.3207
  142.5000   103.1282     3.4074     3.9139     3.2407   -62.4742
  143.0000   102.5207     3.5019     3.5515     3.0647   -63.5266
  143.5000   100.3982     3.6239     3.1742     2.7420   -64.4291
  144.0000    96.6826     3.6479     3.0272     2.5569   -65.3315
  144.5000    95.0074     3.2193     3.0057     2.4494   -65.4844
  145.0000    96.7951     2.6331     3.0472     2.4852   -65.4873
  145.5000   101.2774     2.5781     3.0254     2.6258   -65.6402
  146.0000    99.7717     2.6313     2.9832     2.7173   -65.6437
  146.5000    93.7750     3.1272     2.8811     2.6974   -65.1968
  147.0000    92.8403     3.4681     2.7824     2.6409   -65.0491
  147.5000    94.0570     3.5397     2.8012     2.5499   -64.7521
  148.0000    94.0479     3.2467     2.8594     2.4771   -64.7558
  148.5000    93.4386     2.9140     2.8390     2.3770   -65.0585
  149.0000    93.7293     2.6624     2.7418     2.2793   -65.5212
  149.5000    95.5170     2.6434     2.4368     2.1555   -65.9646
  150.0000    97.9035     2.7543     2.2421     1.9827   -65.2179
  150.5000    96.0984     2.7917     2.0916     1.8620   -65.3707
  151.0000    94.2932     2.7716     1.9648     1.7609   -65.8234
  151.5000    96.4082     2.5973     1.9786     1.7003   -66.2761
  152.0000    98.7668     2.1291     2.0192     1.8214   -66.7287
  152.5000    97.5583     2.0560     2.0611     1.9648   -66.8816
  153.0000    97.2502     2.0840     2.1481     2.1344   -66.7345
  153.5000    96.9421     2.2952     2.3017     2.4338   -66.5875
  154.0000    95.7358     3.1466     2.5006     2.6807   -65.9914
  154.5000    93.9307     3.9372     2.8125     2.9322   -65.2447
  155.0000    94.2216     3.9638     3.2974     3.1428   -64.3481
  155.5000    93.5958     3.5718     3.4377     3.2546   -63.9005
  156.0000    93.9024     3.9889     3.5324     3.2949   -63.6042
  156.5000    95.6901     3.9603     3.5808     3.2479   -63.3073
  157.0000    97.1784     3.8511     3.5553     3.1360   -63.3003
  157.5000    98.3673     3.7192     3.4815     3.0071   -63.1634
  158.0000   101.3526     3.5179     3.3624     2.9035   -63.3169
  158.5000   104.2869     3.3507     3.2026     2.7841   -63.3198
  159.0000   108.7662     3.1646     3.1145     2.6650   -64.0723
  159.5000   114.4671     2.9943     3.0286     2.5070   -67.2237
  160.0000   116.8267     2.9150     2.9197     2.4039   -67.6764
  160.5000   112.6205     2.9143     2.5462     2.3211   -68.1291
  161.0000   108.7167     2.8934     2.2805     2.0339   -68.2820
  161.5000   107.5074     2.8332     2.0123     1.7577   -68.2849
  162.0000   107.4957     2.7361     1.9429     1.7209   -67.5182
  162.5000   106.8853     2.5349     1.9420     1.7573   -64.9925
  163.0000   105.9754     2.1316     1.9411     1.8175   -62.4473
  163.5000   106.2631     1.8556     1.9825     1.9069   -61.7006
  164.0000   109.8443     1.9087     2.0925     2.1296   -60.5041
  164.5000   108.7387     2.2264     2.2727     2.5315   -60.2065
  165.0000   103.8300     3.1806     2.6091     2.9269   -60.9598
  165.5000   103.5189     4.2817     2.9953     3.3375   -61.5624
  166.0000    99.9145     4.3106     3.3446     3.7294   -62.0151
  166.5000    95.1124     4.1626     3.8932     3.9652   -62.1679
  167.0000    94.5048     4.0479     4.4080     4.1034   -63.2304
  167.5000    96.8855     4.0189     4.9222     4.2464   -63.5231
  168.0000   101.0654     4.0178     4.9540     4.3943   -62.1774
  168.5000   101.0537     4.0727     4.7779     4.6109   -62.0297
  169.0000   100.1118     4.1283     4.7473     4.7716   -62.3332
  169.5000    98.2874     4.1588     4.8447     4.9378   -62.3362
  170.0000    99.8182     4.3606     5.0829     5.1145   -61.5894
  170.5000   102.2018     4.6396     5.4073     5.2874   -60.0931
  171.0000   100.3937     4.9707     5.7923     5.3590   -58.4469
  171.5000    97.9868     5.1443     6.0351     5.4694   -57.1005
  172.0000    98.8734     5.2872     6.0743     5.5058   -56.3438
  172.5000   103.6521     5.3594     5.9878     5.5418   -55.5822
  173.0000   104.5389     5.3210     5.9436     5.5008   -55.0103
  173.5000   102.7226     5.2103     5.8999     5.4606   -55.0140
  174.0000   100.6231     5.0318     5.9381     5.4579   -56.5161
  174.5000   104.8001     4.9612     5.9346     5.4180   -58.6180
  175.0000   105.3902     4.9599     5.9318     5.4158   -59.9703
  175.5000    99.0882     4.9930     5.9293     5.3763   -59.3735
  176.0000    97.2830     5.0960     5.9681     5.3370   -58.6267
  176.5000   100.2625     5.1304     5.9645     5.3348   -59.0795
  177.0000   103.5442     5.0233     5.9206     5.2958   -59.5422
  177.5000   107.1254     4.9529     5.8870     5.2932   -59.8351
  178.0000   105.3173     4.9516     5.8287     5.2911   -59.5388
  178.5000   104.4072     4.9161     5.7500     5.2889   -58.7921
  179.0000   105.5904     4.9148     5.6682     5.2868   -58.0454
  179.5000   106.7793     4.9134     5.6264     5.3585   -57.7477
  180.0000   106.4653     4.9121     5.6238     5.4311   -57.6007
  180.5000   104.9566     4.9449     5.6211     5.5048   -57.4537
  181.0000   105.5467     5.0121     5.6185     5.5626   -57.4574
  181.5000   105.8344     5.0809     5.6549     5.6158   -57.7601
  182.0000   101.3288     5.1857     5.6915     5.7309   -58.3728
  182.5000   101.0178     5.3298     5.7302     5.8085   -59.4903
