~VERSION INFORMATION
 VERS.                2.0:   CWLS LOG ASCII STANDARD - VERSION 2.0
 WRAP.                 NO:   ONE LINE PER DEPTH STEP
~WELL INFORMATION
#MNEM.UNIT      DATA TYPE    INFORMATION
#----------   ------------   ------------------------------
 STRT.F           23.0000:   START DEPTH
 STOP.F         1106.0000:   STOP DEPTH
 STEP.F            0.5000:   STEP LENGTH
 NULL.          -999.2500:   NO VALUE
 COMP. FENIX & SCISSON INC:   COMPANY
 WELL.       NPR-3 #67-11:   WELL
 FLD . TEAPOT DOME NPR #3:   FIELD
 LOC .      S11 T38N R78W:   LOCATION
 CNTY.            NATRONA:   COUNTY
 STAT.            WYOMING:   STATE
 CTRY. UNITED STATES OF AMERICA:   COUNTRY
 SRVC.            Unknown:   SERVICE COMPANY
 DATE.        06-MAR-1978:   LOGDATE
 API .       490251059100:   API NUMBER
~CURVE INFORMATION
#MNEM.UNIT       API CODE    CURVE DESCRIPTION
#----------   ------------   ------------------------------
 DEPT.F                  :   
 ILD .OHMM   05 120 46 00:   INDUCTION LOG DEEP
 SN  .OHMM   05 040 16 00:   SHORT NORMAL 16"
 SPR .MV     05 010 01 00:   SPONTANEOUS POTENTIAL FROM RES.
 CALD.IN     45 280 60 00:   CALIPER
 GRD .GAPI   45 310 01 00:   GAMMA RAY FROM DENSITY LOG
 CORR.G/C3   45 356 01 00:   DENSITY CORRECTION
 DPHI.DEC    45 890 12 00:   DENSITY POROSITY SANDSTONE
 RHOB.G/C3   45 350 01 00:   BULK DENSITY
~PARAMETER INFORMATION
#MNEM.UNIT          VALUE    DESCRIPTION
#----------   ------------   ------------------------------
 PD  .                 GL:   PERMANENT DATUM
 EPD .F              5243:   ELEVATION PERMANENT DATUM
 LMF .                 KB:   LOG MEASURED FROM
 DAPD.F                 4:   FEET ABOVE PERMANENT DATUM
 DMF .                 KB:   DRILLING MEASURED FROM
 EKB .F              5247:   KELLING BUSHING
 EGL .F              5243:   GROUND LEVEL
 DATE.           3-6-1978:   RUN DATE
 RUN .                  1:   RUN NUMBER
 DD  .F              1104:   DEPTH DRILLER
 DL  .F              1108:   DEPTH LOGGER
 BLI .F              1102:   BOTTOM LOG INTERVAL
 TLI .F                40:   TOP LOG INTERVAL
 CS  .IN            8.625:   CASING SIZE
 CBD .F                40:   CASING BOTTOM DRILLER
 CBL .F                40:   CASING BOTTOM LOGGER
 BS  .IN            7.875:   BIT SIZE
 BSD .F              1104:   BIT SIZE AT DEPTH
 DFT .         LIGNO/SULF:   DRILLING FLUID TYPE
 DFD .                8.6:   DRILLING FLUID DENSITY
 DFV .                 31:   DRILLING FLUID VISCOSITY
 DFL .                  8:   DRILLING FLUID LOSS
 MSS .            MUD PIT:   MUD SAMPLE SOURCE
 RMS .OHMM              2:   RESISTIVITY MUD SAMPLE
 MST .F                58:   MUD SAMPLE TEMPERATURE
 RMF .OHMM            1.2:   RESISTIVITY MUD FILTRATE SAMPLE
 MFST.F                64:   MUD FILTRATE SAMPLE TEMPERATURE
 RMC .OHMM              3:   RESISTIVITY MUD CAKE
 MCST.F                64:   MUD CAKE SAMPLE TEMPERATURE
 MFSS.               MEAS:   MUD FILTRATE SAMPLE SOURCE
 RMB .OHMM            1.5:   RESISTIVITY MUD AT BHT
 BHT .F                78:   BOTTOM HOLE TEMPERATURE
 TCS .HRS               4:   TIME CURCULATED STOPPED
 MRT .F                78:   MAXIMUM RECORDED TEMPERATURE
 LUN .               2959:   LOGGING UNIT NUMBER
 LUL .               CASP:   LOGGING UNIT LOCATION
 ENGI.             MILLER:   RECORDING ENGINEER
 WITN.           MCGINLEY:   WITNESSED BY
 CLNT.            A2DTECH:   CLIENT CODE
 ORIG.       2", 5" PRINT:   ORIGIN OF DATA
 UWI .       490251059100:   UNIQUE WELL ID
 DICO. A2D Technologies, Inc.:   DIGITIZING COMPANY
~OTHER INFORMATION
~A   DEPT      ILD         SN        SPR       CALD         GRD      CORR       DPHI       RHOB   
# ...
  225.5000     6.8867     7.2683   -25.8552     7.8140    86.1317     0.0351     0.1472     2.4204
  226.0000     6.8397     7.2047   -25.0064     7.8130    81.7861     0.0264     0.1482     2.4144
  226.5000     6.7931     7.1729   -24.9169     7.8120    77.4756     0.0255     0.1431     2.4185
  227.0000     6.7468     7.1729   -24.8067     7.8110    76.7952     0.0269     0.1414     2.4247
  227.5000     6.7171     7.1729   -24.8594     7.8100    77.3518     0.0283     0.1404     2.4301
  228.0000     6.6949     7.1729   -24.9266     7.8090    78.0136     0.0297     0.1394     2.4326
  228.5000     6.6729     7.1729   -24.9980     7.8080    81.4478     0.0311     0.1368     2.4351
  229.0000     6.6508     7.1711   -25.1630     7.8070    87.4998     0.0270     0.1342     2.4376
  229.5000     6.6288     7.1641   -25.3507     7.8060    87.4083     0.0223     0.1342     2.4401
  230.0000     6.6008     7.1574   -25.3419     7.8051    85.1816     0.0176     0.1362     2.4401
  230.5000     6.6289     7.1506   -25.2655     7.8041    83.3466     0.0142     0.1404     2.4338
  231.0000     6.6701     7.1439   -25.2110     7.8031    83.6477     0.0116     0.1447     2.4304
  231.5000     6.7240     7.1371   -25.5265     7.8021    85.0990     0.0055     0.1481     2.4299
  232.0000     6.7106     7.1304   -26.5168     7.8011    86.1545    -0.0005     0.1490     2.4176
  232.5000     6.6840     7.1238   -25.2625     7.8001    86.4974     0.0040     0.1499     2.4109
  233.0000     6.6575     7.1169   -25.5241     7.7991    86.8546     0.0096     0.1506     2.4122
  233.5000     6.6312     7.1107   -25.7757     7.7982    87.2323     0.0155     0.1454     2.4116
  234.0000     6.6050     7.0953   -26.0905     7.7974    86.6909     0.0213     0.1456     2.4164
  234.5000     6.5789     7.0569   -26.0629     7.7965    85.0092     0.0276     0.1460     2.4227
  235.0000     6.5529     7.0187   -25.6678     7.7957    85.0296     0.0287     0.1446     2.4225
  235.5000     6.5238     6.9806   -25.2464     7.7949    86.0405     0.0283     0.1468     2.4225
  236.0000     6.4916     6.9428   -25.4858     7.7940    87.0509     0.0279     0.1506     2.4202
  236.5000     6.4595     6.9052   -25.5201     7.7932    87.2104     0.0275     0.1530     2.4128
  237.0000     6.4276     6.8678   -25.3649     7.7924    85.8656     0.0270     0.1470     2.4128
  237.5000     6.3959     6.8492   -25.1946     7.7915    83.5553     0.0308     0.1402     2.4138
  238.0000     6.3612     6.8489   -25.7534     7.7907    82.1043     0.0360     0.1411     2.4281
  238.5000     6.3706     6.8491   -26.5581     7.7899    81.2801     0.0338     0.1420     2.4293
  239.0000     6.3812     6.8491   -26.4943     7.7890    80.8585     0.0295     0.1426     2.4289
  239.5000     6.3917     6.8491   -25.7295     7.7882    80.8206     0.0252     0.1404     2.4285
  240.0000     6.4023     6.8491   -25.1540     7.7874    81.3817     0.0210     0.1405     2.4309
  240.5000     6.4128     6.8491   -25.0299     7.7865    82.7687     0.0167     0.1510     2.4318
  241.0000     6.4202     6.8490   -25.0584     7.7857    86.0080     0.0124     0.1498     2.4216
  241.5000     6.4546     6.8486   -25.3123     7.7848    89.3839     0.0103     0.1478     2.4115
  242.0000     6.4861     6.8490   -26.7082     7.7840    90.4504     0.0182     0.1458     2.4093
  242.5000     6.5178     6.9534   -24.8666     7.7832    88.8229     0.0260     0.1438     2.4216
  243.0000     6.5401     7.0711   -24.7595     7.7823    86.4754     0.0293     0.1408     2.4284
  243.5000     6.5400     7.1907   -24.6727     7.7815    81.1202     0.0300     0.1398     2.4306
  244.0000     6.5399     7.3739   -24.5047     7.7807    74.0668     0.0306     0.1415     2.4358
  244.5000     6.5399     7.3526   -25.0158     7.7798    73.4535     0.0305     0.1407     2.4328
  245.0000     6.5399     7.3104   -26.2810     7.7790    74.2622     0.0294     0.1406     2.4296
  245.5000     6.5935     7.2682   -26.1236     7.7782    75.4193     0.0282     0.1433     2.4327
  246.0000     6.7018     7.2395   -26.0557     7.7773    81.3715     0.0271     0.1454     2.4323
  246.5000     6.8120     7.3316   -26.4004     7.7765    82.3582     0.0259     0.1452     2.4219
  247.0000     6.9127     7.4032   -25.7237     7.7757    82.9058     0.0248     0.1451     2.4167
  247.5000     6.9768     7.4755   -25.1383     7.7748    83.1377     0.0236     0.1474     2.4226
  248.0000     6.9768     7.6232   -25.1020     7.7740    82.6331     0.0225     0.1461     2.4241
  248.5000     6.9764     7.8506   -25.3818     7.7731    81.9184     0.0213     0.1439     2.4232
  249.0000     7.0201     8.0138   -25.2850     7.7723    81.1865     0.0222     0.1408     2.4214
  249.5000     7.1070     8.0488   -25.1969     7.7715    80.4365     0.0239     0.1376     2.4166
  250.0000     7.1950     8.0879   -25.1099     7.7706    82.2472     0.0257     0.1346     2.4287
  250.5000     7.3414     8.1271   -25.0221     7.7698    84.3791     0.0274     0.1319     2.4425
  251.0000     7.5514     8.1632   -24.9357     7.7690    86.2936     0.0290     0.1292     2.4467
  251.5000     7.7673     8.4256   -24.8500     7.7681    86.1715     0.0287     0.1265     2.4471
  252.0000     7.7948     8.6748   -24.9741     7.7673    85.4607     0.0283     0.1258     2.4474
  252.5000     7.7948     8.4250   -25.3411     7.7664    84.5134     0.0280     0.1271     2.4514
  253.0000     7.7948     8.3155   -25.4821     7.7656    80.3090     0.0277     0.1297     2.4533
  253.5000     7.7658     8.7512   -25.5815     7.7648    78.4934     0.0274     0.1337     2.4480
  254.0000     7.7231     8.9533   -25.6795     7.7639    79.1955     0.0270     0.1377     2.4432
  254.5000     7.6622     8.5473   -25.7668     7.7631    79.5254     0.0270     0.1417     2.4285
  255.0000     7.4848     8.2390   -26.1402     7.7623    79.0717     0.0272     0.1397     2.4283
  255.5000     7.2874     8.2065   -26.1069     7.7614    78.8362     0.0311     0.1369     2.4321
  256.0000     7.1607     8.1516   -26.3902     7.7606    79.8922     0.0350     0.1341     2.4396
  256.5000     7.1310     8.0972   -26.4052     7.7598    83.1106     0.0366     0.1352     2.4483
  257.0000     7.1013     7.9588   -25.7399     7.7590    82.8841     0.0356     0.1402     2.4463
  257.5000     7.0718     7.7489   -25.6014     7.7590    80.7037     0.0346     0.1432     2.4368
  258.0000     7.0424     7.5796   -25.5948     7.7590    79.4892     0.0336     0.1451     2.4275
  258.5000     7.0131     7.6534   -25.5940     7.7590    82.5937     0.0327     0.1465     2.4241
  259.0000     6.9840     7.5298   -25.4266     7.7590    87.0078     0.0317     0.1486     2.4226
  259.5000     6.9167     7.3072   -25.3296     7.7590    87.2115     0.0310     0.1498     2.4191
  260.0000     6.7481     7.2564   -25.8665     7.7590    84.0336     0.0313     0.1362     2.4204
  260.5000     6.5821     7.2024   -25.7033     7.7590    80.7674     0.0315     0.1391     2.4323
  261.0000     6.4524     7.1491   -25.7569     7.7590    79.3969     0.0318     0.1403     2.4315
  261.5000     6.2936     7.0965   -26.6025     7.7590    81.5743     0.0320     0.1392     2.4292
  262.0000     6.1873     7.0442   -26.9417     7.7590    79.7314     0.0322     0.1382     2.4273
  262.5000     6.1816     6.9923   -26.9361     7.7590    76.9921     0.0325     0.1406     2.4336
  263.0000     6.1735     6.9624   -26.8514     7.7590    81.7718     0.0327     0.1420     2.4313
  263.5000     6.1654     6.9135   -26.7640     7.7590    88.0228     0.0329     0.1426     2.4285
  264.0000     6.1574     6.8649   -26.6764     7.7590    88.0235     0.0346     0.1430     2.4285
  264.5000     6.1493     6.8491   -26.6024     7.7590    84.2185     0.0364     0.1367     2.4288
  265.0000     6.1412     6.8490   -26.8629     7.7590    84.0324     0.0384     0.1334     2.4348
  265.5000     6.1332     6.8491   -27.1553     7.7590    84.3862     0.0375     0.1423     2.4406
