~VERSION INFORMATION
 VERS.                2.0:   CWLS LOG ASCII STANDARD - VERSION 2.0
 WRAP.                 NO:   ONE LINE PER DEPTH STEP
~WELL INFORMATION
#MNEM.UNIT      DATA TYPE    INFORMATION
#----------   ------------   ------------------------------
 STRT.F          648.0000:   START DEPTH
 STOP.F         2443.0000:   STOP DEPTH
 STEP.F            0.5000:   STEP LENGTH
 NULL.          -999.2500:   NO VALUE
 COMP.    FENIX & SCISSON:   COMPANY
 WELL.  NPR #3 SHX-11 #22:   WELL
 FLD .             TEAPOT:   FIELD
 LOC .      S11 T38N R78W:   LOCATION
 CNTY.            NATRONA:   COUNTY
 STAT.            WYOMING:   STATE
 CTRY. UNITED STATES OF AMERICA:   COUNTRY
 SRVC.           BIRDWELL:   SERVICE COMPANY
 DATE.        23-APR-1978:   LOGDATE
 API .       490251061300:   API NUMBER
~CURVE INFORMATION
#MNEM.UNIT       API CODE    CURVE DESCRIPTION
#----------   ------------   ------------------------------
 DEPT.F                  :   
 CALD.IN     45 280 60 00:   CALIPER FROM DENSITY LOG
 CORR.G/C3   45 356 01 00:   DENSITY CORRECTION
 DPHI.DEC    45 890 12 00:   DENSITY POROSITY SANDSTONE
 GRD .GAPI   45 310 01 00:   GAMMA RAY FROM DENSITY LOG
 RHOB.G/C3   45 350 01 00:   BULK DENSITY
~PARAMETER INFORMATION
#MNEM.UNIT          VALUE    DESCRIPTION
#----------   ------------   ------------------------------
 PD  .                 GL:   PERMANENT DATUM
 EPD .F              5166:   ELEVATION PERMANENT DATUM
 LMF .                 KB:   LOG MEASURED FROM
 DMF .                 KB:   DRILLING MEASURED FROM
 EKB .F              5176:   KELLING BUSHING
 EGL .F              5166:   GROUND LEVEL
 DATE.        23-APR-1978:   RUN DATE
 RUN .                  1:   RUN NUMBER
 DD  .F              2450:   DEPTH DRILLER
 DL  .F              2450:   DEPTH LOGGER
 BLI .F              2443:   BOTTOM LOG INTERVAL
 TLI .F               670:   TOP LOG INTERVAL
 CS  .IN            9.625:   CASING SIZE
 CBD .F               660:   CASING BOTTOM DRILLER
 CBL .F               670:   CASING BOTTOM LOGGER
 BS  .IN             8.75:   BIT SIZE
 BSD .F              2450:   BIT SIZE AT DEPTH
 DFT .               MIST:   DRILLING FLUID TYPE
 LUN .               2958:   LOGGING UNIT NUMBER
 LUL .             CASPER:   LOGGING UNIT LOCATION
 ENGI.             MILLER:   RECORDING ENGINEER
 WITN.          MC GINLEY:   WITNESSED BY
 CLNT.            A2DTECH:   CLIENT CODE
 ORIG.           5" PRINT:   ORIGIN OF DATA
 UWI .       490251061300:   UNIQUE WELL ID
 DICO. A2D Technologies, Inc.:   DIGITIZING COMPANY
~OTHER INFORMATION
~A   DEPT     CALD       CORR       DPHI        GRD       RHOB   
# ...
 1014.0000    11.2317     0.0344     0.0406   102.0220     2.4988
 1014.5000    11.2169     0.0329     0.0430   102.2090     2.4898
 1015.0000    11.2021     0.0343     0.0480   102.8045     2.4838
 1015.5000    11.2023     0.0343     0.0514   102.6475     2.4733
 1016.0000    11.1874     0.0344     0.0499   101.4063     2.4658
 1016.5000    11.1876     0.0372     0.0545   101.1355     2.4621
 1017.0000    11.1877     0.0356     0.0527   102.1794     2.4583
 1017.5000    11.1729     0.0340     0.0414   104.2727     2.4553
 1018.0000    11.1731     0.0340     0.0456   105.1665     2.4689
 1018.5000    11.1882     0.0339     0.0516   104.4099     2.4779
 1019.0000    11.2183     0.0369     0.0492   103.9544     2.4757
 1019.5000    11.2484     0.0443     0.0426   104.2486     2.4614
 1020.0000    11.2785     0.0488     0.0414   104.3929     2.4697
 1020.5000    11.2936     0.0397     0.0402   103.6362     2.4810
 1021.0000    11.3387     0.0336     0.0378   103.1808     2.4840
 1021.5000    11.3089     0.0335     0.0393   102.1256     2.4841
 1022.0000    11.2791     0.0335     0.0468    98.6537     2.4909
 1022.5000    11.2493     0.0334     0.0450    97.7651     2.4849
 1023.0000    11.2181     0.0349     0.0384    98.6590     2.4781
 1023.5000    11.1598     0.0393     0.0375   100.1526     2.4766
 1024.0000    11.1150     0.0423     0.0374   102.8553     2.4872
 1024.5000    11.0552     0.0467     0.0192   107.4862     2.4925
 1025.0000    11.0105     0.0437     0.0255   110.7789     2.5000
 1025.5000    10.9657     0.0346     0.0361   111.5229     2.5128
 1026.0000    10.9359     0.0330     0.0336   111.6672     2.4963
 1026.5000    10.9361     0.0406     0.0322   109.8610     2.4850
 1027.0000    10.9512     0.0495     0.0292   107.5955     2.4843
 1027.5000    10.9683     0.0509     0.0262   103.4029     2.4906
 1028.0000    11.0114     0.0523     0.0249   100.8485     2.5024
 1028.5000    11.0415     0.0523     0.0202    99.0424     2.5122
 1029.0000    11.0865     0.0537     0.0250    99.7863     2.5062
 1029.5000    11.1172     0.0567     0.0241   100.6802     2.5032
 1030.0000    11.1487     0.0566     0.0229   101.4242     2.5100
 1030.5000    11.1618     0.0566     0.0223   103.9659     2.5153
 1031.0000    11.1770     0.0565     0.0229   105.6094     2.5115
 1031.5000    11.1992     0.0549     0.0226   106.0549     2.5116
 1032.0000    11.2372     0.0549     0.0253   103.1993     2.5153
 1032.5000    11.2523     0.0548     0.0313    99.8727     2.5176
 1033.0000    11.2823     0.0532     0.0346   101.5374     2.5116
 1033.5000    11.2917     0.0502     0.0391   102.5812     2.5019
 1034.0000    11.3132     0.0471     0.0458   102.2757     2.4914
 1034.5000    11.3427     0.0501     0.0500   102.1201     2.4794
 1035.0000    11.3578     0.0545     0.0485   103.4624     2.4704
 1035.5000    11.3579     0.0560     0.0458   104.3563     2.4614
 1036.0000    11.3581     0.0499     0.0449   104.8006     2.4704
 1036.5000    11.3583     0.0378     0.0482   106.1873     2.4750
 1037.0000    11.3434     0.0332     0.0491   105.0875     2.4720
 1037.5000    11.3136     0.0331     0.0479   103.5840     2.4728
 1038.0000    11.3287     0.0376     0.0458   106.8753     2.4578
 1038.5000    11.3289     0.0436     0.0420   108.8187     2.4698
 1039.0000    11.3291     0.0495     0.0383   108.3618     2.4743
 1039.5000    11.3142     0.0526     0.0353   106.2572     2.4759
 1040.0000    11.2994     0.0554     0.0359   104.7538     2.4844
 1040.5000    11.2692     0.0599     0.0362   108.8272     2.4909
 1041.0000    11.2249     0.0613     0.0356   109.5386     2.4917
 1041.5000    11.1950     0.0613     0.0347   109.6815     2.4940
 1042.0000    11.1802     0.0612     0.0335   110.8752     2.4917
 1042.5000    11.1804     0.0611     0.0314   111.4693     2.4910
 1043.0000    11.1506     0.0566     0.0299   104.7156     2.4941
 1043.5000    11.1208     0.0490     0.0309   101.2617     2.4978
 1044.0000    11.0910     0.0414     0.0387   101.7058     2.4978
 1044.5000    11.0313     0.0428     0.0348   102.2999     2.4941
 1045.0000    10.9855     0.0473     0.0351   104.0919     2.4889
 1045.5000    10.9418     0.0548     0.0258   105.2870     2.4897
 1046.0000    10.9269     0.0607     0.0204   104.2305     2.4966
 1046.5000    10.9271     0.0546     0.0255   103.6251     2.5077
 1047.0000    10.9272     0.0425     0.0291   103.4681     2.5175
 1047.5000    10.9424     0.0364     0.0297   103.3140     2.5025
 1048.0000    10.9425     0.0410     0.0315   103.7567     2.4965
 1048.5000    10.9576     0.0363     0.0399   105.7001     2.4973
 1049.0000    10.9728     0.0302     0.0444   113.6390     2.4981
 1049.5000    10.9879     0.0302     0.0447   124.4280     2.5034
 1050.0000    11.0187     0.0256     0.0456   126.6712     2.4793
 1050.5000    11.0686     0.0195     0.0451   126.8156     2.4734
 1051.0000    11.1228     0.0195     0.0406   126.8084     2.4734
 1051.5000    11.1677     0.0194     0.0358   125.6033     2.4807
 1052.0000    11.1826     0.0148     0.0388   122.2993     2.4912
 1052.5000    11.1677     0.0057     0.0433   112.8400     2.4896
 1053.0000    11.1228     0.0087     0.0388   106.2363     2.4851
 1053.5000    11.1078     0.0116     0.0337   105.1798     2.4790
 1054.0000    11.0928     0.0146     0.0310   105.6209     2.4790
 1054.5000    11.0778     0.0162     0.0274   105.7655     2.4887
 1055.0000    11.0629     0.0205     0.0244   104.5574     2.4999
 1055.5000    11.0587     0.0249     0.0205   101.6778     2.5059
 1056.0000    11.0479     0.0294     0.0169    99.8939     2.5096
 1056.5000    11.0329     0.0293     0.0145    97.9379     2.5156
 1057.0000    11.0180     0.0263     0.0148    97.3312     2.5215
 1057.5000    11.0030     0.0232     0.0181    96.7227     2.5253
 1058.0000    10.9880     0.0231     0.0196    96.1160     2.5237
 1058.5000    10.9581     0.0231     0.0196    95.5093     2.5214
 1059.0000    10.9431     0.0260     0.0184    94.5844     2.5206
 1059.5000    10.9281     0.0320     0.0169    93.3964     2.5206
 1060.0000    10.8982     0.0365     0.0163    96.6860     2.5228
 1060.5000    10.8683     0.0365     0.0197    99.6775     2.5250
 1061.0000    10.8499     0.0269     0.0257   101.4696     2.5204
 1061.5000    10.8234     0.0182     0.0293   101.4608     2.5114
 1062.0000    10.8084     0.0227     0.0287   100.2544     2.5023
 1062.5000    10.7934     0.0241     0.0275    99.6477     2.5030
 1063.0000    10.7784     0.0180     0.0266    99.6389     2.5022
 1063.5000    10.7784     0.0164     0.0314   100.2316     2.4999
 1064.0000    10.7635     0.0194     0.0386   101.5757     2.4991
 1064.5000    10.7635     0.0224     0.0440   100.1634     2.4938
 1065.0000    10.7635     0.0163     0.0428    99.4592     2.4780
 1065.5000    10.7485     0.0207     0.0401   101.4012     2.4719
 1066.0000    10.7485     0.0222     0.0362   108.7406     2.4862
 1066.5000    10.7485     0.0221     0.0314   107.3825     2.4891
 1067.0000    10.7566     0.0236     0.0215   103.6273     2.4883
 1067.5000    10.7635     0.0250     0.0179   101.9712     2.4965
 1068.0000    10.7635     0.0234     0.0185    99.1035     2.5198
 1068.5000    10.7485     0.0219     0.0200    98.3572     2.5137
 1069.0000    10.7485     0.0218     0.0223    97.9004     2.5107
 1069.5000    10.7485     0.0264     0.0252    97.8934     2.5144
 1070.0000    10.7335     0.0277     0.0270    98.7842     2.5106
 1070.5000    10.7186     0.0231     0.0282    99.5268     2.5105
 1071.0000    10.7036     0.0170     0.0294   100.7192     2.5082
 1071.5000    10.7036     0.0216     0.0270   102.0737     2.4894
 1072.0000    10.6886     0.0290     0.0294   103.4021     2.4939
 1072.5000    10.6737     0.0274     0.0324   104.2946     2.5052
 1073.0000    10.6587     0.0153     0.0428   104.4735     2.5036
 1073.5000    10.6437     0.0152     0.0483    99.4813     2.4780
 1074.0000    10.6287     0.0272     0.0327    99.4743     2.4621
 1074.5000    10.6138     0.0347     0.0234   101.2664     2.4742
