~VERSION INFORMATION
 VERS.                2.0:   CWLS LOG ASCII STANDARD - VERSION 2.0
 WRAP.                 NO:   ONE LINE PER DEPTH STEP
~WELL INFORMATION
#MNEM.UNIT      DATA TYPE    INFORMATION
#----------   ------------   ------------------------------
 STRT.F           80.0000:   START DEPTH
 STOP.F          930.0000:   STOP DEPTH
 STEP.F            0.5000:   STEP LENGTH
 NULL.          -999.2500:   NO VALUE
 COMP. U S NAVY-INTEX OIL:   COMPANY
 WELL. RES 3 TEAPOT DOM #56-S-2:   WELL
 FLD .             TEAPOT:   FIELD
 LOC .       S2 T38N R78W:   LOCATION
 CNTY.            NATRONA:   COUNTY
 STAT.            WYOMING:   STATE
 CTRY. UNITED STATES OF AMERICA:   COUNTRY
 SRVC.       Schlumberger:   SERVICE COMPANY
 DATE.        24-JUN-1962:   LOGDATE
 API .       490250641900:   API NUMBER
~CURVE INFORMATION
#MNEM.UNIT       API CODE    CURVE DESCRIPTION
#----------   ------------   ------------------------------
 DEPT.F                  :   
 ASN .OHMM   05 041 16 00:   AMPLIFIED SHORT NORMAL 16"
 ILD .OHMM   05 120 46 00:   INDUCTION LOG DEEP
 CILD.MMHO   05 110 46 00:   CONDUCTIVITY INDUCTION LOG DEEP
 SPR .MV     05 010 01 00:   SPONTANEOUS POTENTIAL FROM RES.
 GR  .GAPI   30 310 01 00:   GAMMA RAY
~PARAMETER INFORMATION
#MNEM.UNIT          VALUE    DESCRIPTION
#----------   ------------   ------------------------------
 PD  .                 KB:   PERMANENT DATUM
 LMF .                 KB:   LOG MEASURED FROM
 DMF .                 KB:   DRILLING MEASURED FROM
 EKB .F              5179:   KELLING BUSHING
 EGL .F              5174:   GROUND LEVEL
 DATE.        24-JUN-1962:   RUN DATE
 RUN .                  1:   RUN NUMBER
 DD  .F               942:   DEPTH DRILLER
 DL  .F               931:   DEPTH LOGGER
 BLI .F               930:   BOTTOM LOG INTERVAL
 TLI .F                80:   TOP LOG INTERVAL
 BS  .IN             6.75:   BIT SIZE
 BSD .F               942:   BIT SIZE AT DEPTH
 DFT .       OIL EMULSION:   DRILLING FLUID TYPE
 DFD .                9.9:   DRILLING FLUID DENSITY
 DFV .                 55:   DRILLING FLUID VISCOSITY
 DFL .                3.7:   DRILLING FLUID LOSS
 RMS .OHMM            4.2:   RESISTIVITY MUD SAMPLE
 MST .F                79:   MUD SAMPLE TEMPERATURE
 RMF .OHMM            3.7:   RESISTIVITY MUD FILTRATE SAMPLE
 MFST.F                79:   MUD FILTRATE SAMPLE TEMPERATURE
 RMC .OHMM            4.0:   RESISTIVITY MUD CAKE
 MCST.F                79:   MUD CAKE SAMPLE TEMPERATURE
 TCS .HRS               1:   TIME CURCULATED STOPPED
 LUN .               2503:   LOGGING UNIT NUMBER
 LUL .               CSPR:   LOGGING UNIT LOCATION
 ENGI.             DANNER:   RECORDING ENGINEER
 WITN.          JORGENSEN:   WITNESSED BY
 CLNT.            A2DTECH:   CLIENT CODE
 ORIG.           5" PRINT:   ORIGIN OF DATA
 UWI .       490250641900:   UNIQUE WELL ID
 DICO. A2D Technologies, Inc.:   DIGITIZING COMPANY
~OTHER INFORMATION
~A   DEPT        ASN        ILD      CILD       SPR         GR   
# ...
  324.0000     6.8233     7.5409   145.0472   -59.4200  -999.2500
  324.5000     6.9580     7.6182   144.3104   -59.4185  -999.2500
  325.0000     7.1076     7.6205   145.8021   -59.5665  -999.2500
  325.5000     7.1227     7.4726   147.2938   -59.4156  -999.2500
  326.0000     7.0332     7.3247   150.2848   -59.4141  -999.2500
  326.5000     6.8839     7.1768   156.2743   -59.4126  -999.2500
  327.0000     6.6598     7.0283   160.7645   -59.4111  -999.2500
  327.5000     6.4058     6.8059   166.0044   -59.4096  -999.2500
  328.0000     6.1430     6.5829   172.7435   -59.4081  -999.2500
  328.5000     5.7539     6.2098   183.2307   -59.2571  -999.2500
  329.0000     5.3648     5.8367   194.4676   -59.1061  -999.2500
  329.5000     5.0014     5.5386   202.7059   -59.1047  -999.2500
  330.0000     4.7922     5.2406   209.4450   -59.1032  -999.2500
  330.5000     4.7475     4.9425   219.9323   -58.9522  -999.2500
  331.0000     4.6431     4.7195   230.4195   -58.7892  -999.2500
  331.5000     4.4638     4.4215   237.1586   -58.5008  -999.2500
  332.0000     4.2996     4.1234   245.3969   -58.4993  -999.2500
  332.5000     4.0904     3.8254   258.5206   -58.3483  -999.2500
  333.0000     3.9262     3.6024   275.3889   -58.5122  -999.2500
  333.5000     3.7619     3.3789   296.1599   -58.8107  -999.2500
  334.0000     3.6425     3.1565   314.0723   -58.7743  -999.2500
  334.5000     3.4978     3.1587   338.7322   -58.4918  -999.2500
  335.0000     3.3707     3.1610   356.3470   -58.4903  -999.2500
  335.5000     3.2543     3.2383   360.0376   -58.4888  -999.2500
  336.0000     3.2516     3.3156   347.9463   -58.0388  -999.2500
  336.5000     3.5685     3.3929   335.8768   -57.8879  -999.2500
  337.0000     3.6161     3.5453   318.7549   -57.8864  -999.2500
  337.5000     3.6136     3.6977   300.0375   -58.0344  -999.2500
  338.0000     3.7034     4.1504   291.7841   -58.2082  -999.2500
  338.5000     4.1969     4.6031   261.0419   -59.3768  -999.2500
  339.0000     4.5707     5.1309   236.2968   -59.3752  -999.2500
  339.5000     4.7951     5.7337   209.3027   -59.3737  -999.2500
  340.0000     5.0045     6.1114   186.0569   -59.3719  -999.2500
  340.5000     5.1392     6.5641   176.3042   -59.3704  -999.2500
  341.0000     5.3037     6.8666   169.5500   -59.3689  -999.2500
  341.5000     5.5580     7.0941   166.5440   -59.3674  -999.2500
  342.0000     5.8272     7.3216   164.2876   -59.3659  -999.2500
  342.5000     6.0067     7.4740   161.2816   -59.3644  -999.2500
  343.0000     6.1713     7.6264   155.2771   -59.5124  -999.2500
  343.5000     6.4106     7.6286   147.0237   -59.3615  -999.2500
  344.0000     6.6499     7.7054   143.2680   -59.3600  -999.2500
  344.5000     6.6650     7.4824   144.7598   -59.3585  -999.2500
  345.0000     6.6203     7.3345   148.5004   -59.3570  -999.2500
  345.5000     6.5158     7.2617   152.2410   -59.3555  -999.2500
  346.0000     6.4861     7.1143   154.4823   -59.3540  -999.2500
  346.5000     6.5759     7.0409   155.9741   -59.3525  -999.2500
  347.0000     6.6508     6.9681   157.4677   -59.3510  -999.2500
  347.5000     6.6061     6.8959   159.7090   -59.4994  -999.2500
  348.0000     6.5016     6.8981   161.9485   -59.4975  -999.2500
  348.5000     6.3972     6.9003   162.6925   -59.6459  -999.2500
  349.0000     6.3226     6.9026   164.1823   -59.7938  -999.2500
  349.5000     6.2779     6.9048   165.6759   -59.7920  -999.2500
  350.0000     6.2780     6.8320   167.2242   -59.6414  -999.2500
  350.5000     6.2234     6.8343   167.5620   -59.7149  -999.2500
  351.0000     6.1301     6.6874   167.9482   -59.7818  -999.2500
  351.5000     6.0709     6.7662   166.4638   -59.9268  -999.2500
  352.0000     6.0567     6.7691   164.9793   -60.0719  -999.2500
  352.5000     6.1473     6.8472   163.4912   -60.0673  -999.2500
  353.0000     6.4321     7.0754   161.2609   -60.0628  -999.2500
  353.5000     6.6870     7.3036   159.7728   -60.2080  -999.2500
  354.0000     6.6877     7.4567   156.7928   -60.3519  -999.2500
  354.5000     6.7034     7.6849   148.5617   -60.1980  -999.2500
  355.0000     6.7837     7.9233   140.3307   -60.0440  -999.2500
  355.5000     6.8876     7.9831   133.5982   -60.0396  -999.2500
  356.0000     6.9596     8.0429   132.1140   -60.0351  -999.2500
  356.5000     6.9454     8.0721   132.8789   -60.0307  -999.2500
  357.0000     6.9462     7.9998   133.6434   -60.0262  -999.2500
  357.5000     6.9320     7.8534   134.4079   -60.0218  -999.2500
  358.0000     6.8431     7.7055   135.1924   -60.1679  -999.2500
  358.5000     6.6238     7.6334   136.7394   -60.1623  -999.2500
  359.0000     6.4408     7.4111   140.6197   -60.1579  -999.2500
  359.5000     6.2175     6.8893   153.1644   -60.1534  -999.2500
  360.0000     5.9791     5.7662   177.9640   -60.1490  -999.2500
  360.5000     5.5613     4.5679   216.9593   -60.1445  -999.2500
  361.0000     5.1286     3.2196   265.6998   -60.1400  -999.2500
  361.5000     4.4716     2.7721   338.4283   -59.9861  -999.2500
  362.0000     3.9343     2.3997   380.4221   -59.5332  -999.2500
  362.5000     3.4268     2.1023   420.1671   -59.5288  -999.2500
  363.0000     3.2930     2.0295   458.4128   -59.2254  -999.2500
  363.5000     3.1294     2.2584   459.9232   -58.9220  -999.2500
  364.0000     3.0701     2.4866   438.9522   -59.5154  -999.2500
  364.5000     3.1757     2.7899   412.7302   -59.8110  -999.2500
  365.0000     3.4455     3.0932   365.5186   -59.8055  -999.2500
  365.5000     3.6406     3.9971   307.8123   -59.8010  -999.2500
  366.0000     4.1643     5.0511   238.1120   -59.7965  -999.2500
  366.5000     5.4544     6.3303   193.1493   -59.9417  -999.2500
  367.0000     6.5277     8.0740   139.9408   -60.0867  -999.2500
  367.5000     7.3356    10.3405   107.7217   -61.7264  -999.2500
  368.0000     7.8147    10.9939    93.4936   -61.8714  -999.2500
  368.5000     8.1742    10.4494    96.5070   -61.2690  -999.2500
  369.0000     8.4290     9.9679   106.7117   -61.2627  -999.2500
  369.5000     8.3999     8.3009   116.8644   -60.9551  -999.2500
  370.0000     8.2960     7.3279   138.1297   -60.4982  -999.2500
  370.5000     7.9711     6.8804   150.2025   -60.0413  -999.2500
  371.0000     7.2085     6.4329   173.0441   -59.7519  -999.2500
  371.5000     6.5875     5.9104   182.8041   -59.5979  -999.2500
  372.0000     5.9990     5.8375   183.9970   -59.0932  -999.2500
  372.5000     5.6988     5.9163   185.0839   -57.9438  -999.2500
  373.0000     5.7299     6.0694   184.3454   -58.0899  -999.2500
  373.5000     5.8647     6.2976   182.1113   -58.9812  -999.2500
  374.0000     6.4484     6.8261   177.6321   -60.1726  -999.2500
  374.5000     7.2414     7.8051   146.1627   -60.6177  -999.2500
  375.0000     7.8102     8.7840   131.9346   -59.8647  -999.2500
  375.5000     8.6181    10.0633   119.2059   -60.0109  -999.2500
  376.0000     8.9178    10.7419   105.7274   -60.0053  -999.2500
  376.5000     9.1727    10.8951    95.9970   -60.7482  -999.2500
  377.0000     9.4425    11.0482    96.0120   -60.7438  -999.2500
  377.5000     9.8020    11.2013    95.2772   -60.7393  -999.2500
  378.0000    10.7076    11.4295    93.7928   -61.7812  -999.2500
  378.5000    11.0825    11.6577    91.3543   -62.5241  -999.2500
  379.0000    11.4574    11.8859    86.0577   -63.1176  -999.2500
  379.5000    11.8352    12.0390    82.5929   -63.1131  -999.2500
  380.0000    12.1325    12.1171    81.8581   -62.9603  -999.2500
  380.5000    12.1338    12.1952    81.8766   -63.5538  -999.2500
  381.0000    12.1353    12.2843    81.8914   -63.8471  -999.2500
  381.5000    12.2112    12.4264    81.9063   -64.2911  -999.2500
  382.0000    12.3619    12.5802    82.6707   -64.2867  -999.2500
  382.5000    12.4379    12.6582    82.6856   -64.1327  -999.2500
  383.0000    12.5138    12.6612    82.7004   -63.9788  -999.2500
  383.5000    12.5898    12.7392    82.7152   -63.8249  -999.2500
  384.0000    12.6658    12.8173    81.2308   -63.6709  -999.2500
  384.5000    12.7417    12.8953    81.2457   -63.5170  -999.2500
