~VERSION INFORMATION
 VERS.                2.0:   CWLS LOG ASCII STANDARD - VERSION 2.0
 WRAP.                 NO:   ONE LINE PER DEPTH STEP
~WELL INFORMATION
#MNEM.UNIT      DATA TYPE    INFORMATION
#----------   ------------   ------------------------------
 STRT.F           20.0000:   START DEPTH
 STOP.F          805.5000:   STOP DEPTH
 STEP.F            0.5000:   STEP LENGTH
 NULL.          -999.2500:   NO VALUE
 COMP. FENIX & SCISSON INC:   COMPANY
 WELL.    16-SX-14 #16-14:   WELL
 FLD .             TEAPOT:   FIELD
 LOC .      S14 T38N R78W:   LOCATION
 CNTY.            NATRONA:   COUNTY
 STAT.            WYOMING:   STATE
 CTRY. UNITED STATES OF AMERICA:   COUNTRY
 SRVC.            Unknown:   SERVICE COMPANY
 DATE.        23-MAY-1978:   LOGDATE
 API .       490251063200:   API NUMBER
~CURVE INFORMATION
#MNEM.UNIT       API CODE    CURVE DESCRIPTION
#----------   ------------   ------------------------------
 DEPT.F                  :   
 SN  .OHMM   05 040 16 00:   SHORT NORMAL 16"
 ILD .OHMM   05 120 46 00:   INDUCTION LOG DEEP
 SPR .MV     05 010 01 00:   SPONTANEOUS POTENTIAL FROM RES.
 RHOB.G/C3   45 350 01 00:   BULK DENSITY
 DPOR.DEC    45 890 12 00:   DENSITY POROSITY SANDSTONE
 CORR.G/C3   45 356 01 00:   DENSITY CORRECTION
 GRD .GAPI   45 310 01 00:   GAMMA RAY FROM DENSITY LOG
 CALD.IN     45 280 60 00:   CALIPER FROM DENSITY LOG
~PARAMETER INFORMATION
#MNEM.UNIT          VALUE    DESCRIPTION
#----------   ------------   ------------------------------
 PD  .                 GL:   PERMANENT DATUM
 EPD .F              5246:   ELEVATION PERMANENT DATUM
 LMF .                 KB:   LOG MEASURED FROM
 DAPD.F                 4:   FEET ABOVE PERMANENT DATUM
 DMF .                 KB:   DRILLING MEASURED FROM
 EKB .F              5250:   KELLING BUSHING
 EGL .F              5246:   GROUND LEVEL
 DATE.          5-23-1978:   RUN DATE
 RUN .                  1:   RUN NUMBER
 DD  .F               825:   DEPTH DRILLER
 DL  .F               812:   DEPTH LOGGER
 BLI .F               805:   BOTTOM LOG INTERVAL
 TLI .F                40:   TOP LOG INTERVAL
 CS  .IN            8.625:   CASING SIZE
 CBD .F                40:   CASING BOTTOM DRILLER
 BS  .IN            7.875:   BIT SIZE
 BSD .F               825:   BIT SIZE AT DEPTH
 DFT .                KCL:   DRILLING FLUID TYPE
 DFD .                8.6:   DRILLING FLUID DENSITY
 DFV .                 30:   DRILLING FLUID VISCOSITY
 DFPH.                 11:   DRILLING FLUID PH
 DFL .                 14:   DRILLING FLUID LOSS
 MSS .            MUD PIT:   MUD SAMPLE SOURCE
 RMS .OHMM            .32:   RESISTIVITY MUD SAMPLE
 MST .F                72:   MUD SAMPLE TEMPERATURE
 RMF .OHMM            .28:   RESISTIVITY MUD FILTRATE SAMPLE
 MFST.F                72:   MUD FILTRATE SAMPLE TEMPERATURE
 RMC .OHMM            .50:   RESISTIVITY MUD CAKE
 MCST.F                82:   MUD CAKE SAMPLE TEMPERATURE
 MFSS.               MEAS:   MUD FILTRATE SAMPLE SOURCE
 RMB .OHMM            .31:   RESISTIVITY MUD AT BHT
 BHT .F                75:   BOTTOM HOLE TEMPERATURE
 TCS .HRS               2:   TIME CURCULATED STOPPED
 MRT .F                75:   MAXIMUM RECORDED TEMPERATURE
 LUN .               2958:   LOGGING UNIT NUMBER
 LUL .              CSPR.:   LOGGING UNIT LOCATION
 ENGI.             MILLER:   RECORDING ENGINEER
 WITN.            RHOADES:   WITNESSED BY
 CLNT.            A2DTECH:   CLIENT CODE
 ORIG.    1" , 2.5" PRINT:   ORIGIN OF DATA
 UWI .       490251063200:   UNIQUE WELL ID
 DICO. A2D Technologies, Inc.:   DIGITIZING COMPANY
~OTHER INFORMATION
~A   DEPT       SN        ILD        SPR       RHOB       DPOR       CORR         GRD      CALD   
# ...
  708.5000    10.5933     9.9567   -20.2808     2.3760     0.1823     0.0973    66.6937     7.1047
  709.0000    10.4897     9.9239   -20.2814     2.3771     0.1722     0.1100    68.2721     7.2027
  709.5000    10.3808     9.8913   -20.2796     2.3920     0.1502     0.1083    68.9746     7.3030
  710.0000    10.2101     9.8413   -20.2810     2.4076     0.1522     0.0957    64.1750     7.4128
  710.5000    10.2641     9.8695   -20.2811     2.4190     0.1572     0.0832    62.6191     7.4043
  711.0000    10.3964     9.9416   -20.2723     2.4145     0.1618     0.0796    63.7664     7.3920
  711.5000    10.5305    10.0143   -20.3706     2.4086     0.1568     0.0845    65.6972     7.3747
  712.0000    10.6663    10.0875   -20.5947     2.4139     0.1475     0.0832    68.5639     7.3594
  712.5000    10.7902    10.2091   -20.8103     2.4285     0.1418     0.0682    68.5871     7.3413
  713.0000    10.6395    10.1843   -21.0245     2.4383     0.1457     0.0472    70.1254     7.3679
  713.5000    10.5041    10.0975   -21.2407     2.4326     0.1619     0.0395    73.6926     7.4362
  714.0000    10.3704    10.0113   -21.4613     2.4152     0.1609     0.0353    77.2462     7.4951
  714.5000    10.2383     9.9257   -21.6693     2.4131     0.1571     0.0407    78.4797     7.4500
  715.0000    10.1601     9.8408   -21.8729     2.4131     0.1532     0.0494    76.7110     7.4088
  715.5000    10.0966     9.7571   -21.7711     2.4160     0.1464     0.0607    74.0641     7.3622
  716.0000    10.0336     9.6741   -21.6641     2.4279     0.1373     0.0631    72.0069     7.3162
  716.5000     9.9710     9.5919   -21.5455     2.4411     0.1347     0.0537    72.2058     7.2748
  717.0000     9.9087     9.4848   -21.4330     2.4551     0.1372     0.0462    72.3061     7.2240
  717.5000     9.8408     9.5036   -21.3145     2.4566     0.1366     0.0463    71.7785     7.2621
  718.0000     9.9339     9.5676   -21.2084     2.4532     0.1348     0.0461    71.0518     7.3119
  718.5000    10.0381     9.6320   -21.1001     2.4518     0.1380     0.0495    70.7145     7.3642
  719.0000    10.1434     9.6968   -21.3084     2.4494     0.1407     0.0525    70.6973     7.4165
  719.5000    10.2499     9.7621   -21.5379     2.4421     0.1435     0.0535    70.6099     7.4615
  720.0000    10.3562     9.8279   -21.7856     2.4374     0.1440     0.0519    68.7713     7.5104
  720.5000    10.4644     9.8940   -22.0085     2.4385     0.1428     0.0504    67.1265     7.5566
  721.0000    10.5914     9.9606   -22.2695     2.4390     0.1433     0.0490    65.5022     7.5766
  721.5000    10.4775    10.0237   -22.2155     2.4390     0.1467     0.0474    63.6292     7.5573
  722.0000    10.3442     9.9245   -22.1376     2.4348     0.1443     0.0460    64.0865     7.5413
  722.5000    10.2128     9.8317   -22.0458     2.4349     0.1466     0.0445    64.7077     7.5256
  723.0000    10.0829     9.7400   -21.9620     2.4384     0.1502     0.0430    65.4473     7.5095
  723.5000    10.0200     9.6622   -21.8770     2.4311     0.1538     0.0423    66.1083     7.4925
  724.0000    10.0154     9.6622   -21.7892     2.4249     0.1574     0.0435    66.6512     7.4764
  724.5000    10.0107     9.6618   -21.7054     2.4202     0.1597     0.0446    65.1333     7.4636
  725.0000    10.0061     9.6615   -21.6197     2.4171     0.1585     0.0459    63.9391     7.4300
  725.5000    10.0015     9.6613   -21.5255     2.4188     0.1563     0.0439    65.7981     7.3709
  726.0000     9.9968     9.6612   -21.5221     2.4201     0.1543     0.0415    67.6149     7.3153
  726.5000     9.9921     9.6612   -21.6331     2.4217     0.1532     0.0387    69.6332     7.2571
  727.0000     9.9873     9.6612   -21.7345     2.4232     0.1532     0.0435    71.4287     7.2206
  727.5000     9.9824     9.6614   -21.8358     2.4247     0.1532     0.0520    72.7970     7.2274
  728.0000     9.9776     9.6616   -21.9396     2.4293     0.1474     0.0528    68.8874     7.3365
  728.5000     9.9728     9.6609   -22.0413     2.4351     0.1424     0.0510    66.3915     7.4343
  729.0000     9.9679     9.6611   -22.1437     2.4410     0.1399     0.0491    67.2076     7.5414
  729.5000     9.9631     9.6235   -22.2471     2.4447     0.1406     0.0477    68.0317     7.5878
  730.0000     9.9583     9.5729   -22.3465     2.4437     0.1413     0.0464    68.9568     7.5926
  730.5000     9.9535     9.5228   -22.4519     2.4427     0.1420     0.0527    66.4655     7.6004
  731.0000     9.9487     9.4732   -22.5565     2.4413     0.1341     0.0590    64.0060     7.6100
  731.5000     9.9438     9.4239   -22.6369     2.4459     0.1259     0.0589    62.2264     7.6161
  732.0000     9.9390     9.3748   -22.8964     2.4591     0.1220     0.0492    62.6622     7.6164
  732.5000     9.9342     9.3259   -23.2606     2.4724     0.1290     0.0400    63.5002     7.5543
  733.0000     9.9294     9.3042   -23.6037     2.4667     0.1333     0.0347    64.3091     7.5001
  733.5000     9.9246     9.2938   -23.9425     2.4573     0.1315     0.0367    64.9591     7.4406
  734.0000     9.9198     9.2835   -24.2824     2.4564     0.1292     0.0387    66.0055     7.4185
  734.5000     9.9150     9.2734   -24.6232     2.4560     0.1316     0.0410    66.8106     7.4199
  735.0000     9.9102     9.2629   -24.7216     2.4552     0.1340     0.0405    71.0403     7.4201
  735.5000     9.9054     9.2526   -24.7432     2.4549     0.1356     0.0359    70.0416     7.4209
  736.0000     9.9006     9.2422   -24.7639     2.4513     0.1404     0.0338    69.4818     7.3970
  736.5000     9.8958     9.2318   -24.7885     2.4463     0.1382     0.0340    69.5558     7.3226
  737.0000     9.8910     9.2215   -24.8110     2.4502     0.1314     0.0340    70.5450     7.2491
  737.5000     9.8862     9.2112   -24.8339     2.4608     0.1245     0.0347    68.3428     7.2183
  738.0000     9.8814     9.2009   -24.8570     2.4723     0.1250     0.0356    65.9817     7.2687
  738.5000     9.8766     9.1906   -24.8800     2.4737     0.1236     0.0366    67.5709     7.3316
  739.0000     9.8719     9.1802   -24.9032     2.4764     0.1199     0.0375    70.3519     7.3907
  739.5000     9.8671     9.1701   -24.9265     2.4806     0.1180     0.0387    72.9528     7.4561
  740.0000     9.8623     9.1597   -24.9496     2.4825     0.1199     0.0403    71.7188     7.4559
  740.5000     9.8575     9.1493   -24.9727     2.4801     0.1212     0.0417    69.9511     7.4507
  741.0000     9.8527     9.1434   -24.9962     2.4773     0.1172     0.0505    67.9589     7.4423
  741.5000     9.8480     9.1502   -25.0184     2.4813     0.1122     0.0529    67.1282     7.4365
  742.0000     9.8430     9.1567   -25.0427     2.4890     0.1076     0.0503    68.0287     7.4299
  742.5000     9.8406     9.1635   -25.0665     2.4965     0.1086     0.0479    69.8767     7.4197
  743.0000     9.8408     9.1703   -25.0825     2.4945     0.1117     0.0461    71.5705     7.4462
  743.5000     9.8408     9.1770   -25.1788     2.4913     0.1148     0.0460    73.0577     7.4914
  744.0000     9.8407     9.1838   -25.3480     2.4873     0.1145     0.0460    73.1047     7.5373
  744.5000     9.8408     9.1906   -25.5098     2.4891     0.1140     0.0460    73.1496     7.5287
  745.0000     9.8408     9.1974   -25.6704     2.4918     0.1144     0.0460    72.4557     7.5191
  745.5000     9.8408     9.2041   -25.8328     2.4922     0.1148     0.0460    71.6380     7.5068
  746.0000     9.8408     9.2109   -25.9958     2.4897     0.1143     0.0460    70.8341     7.4955
  746.5000     9.8408     9.2177   -26.1565     2.4907     0.1128     0.0462    72.0162     7.4841
  747.0000     9.8408     9.2245   -26.3025     2.4947     0.1113     0.0490    73.9488     7.4730
  747.5000     9.8408     9.2313   -26.3431     2.4981     0.1098     0.0535    76.7194     7.4608
  748.0000     9.8408     9.2381   -26.3806     2.5016     0.1084     0.0489    79.5357     7.4601
  748.5000     9.8408     9.2449   -26.4148     2.5059     0.1103     0.0425    79.8718     7.4598
