~VERSION INFORMATION
 VERS.                2.0:   CWLS LOG ASCII STANDARD - VERSION 2.0
 WRAP.                 NO:   ONE LINE PER DEPTH STEP
~WELL INFORMATION
#MNEM.UNIT      DATA TYPE    INFORMATION
#----------   ------------   ------------------------------
 STRT.F           38.0000:   START DEPTH
 STOP.F          517.0000:   STOP DEPTH
 STEP.F            0.5000:   STEP LENGTH
 NULL.          -999.2500:   NO VALUE
 COMP. FENIX & SCISSON U.S. NAVY:   COMPANY
 WELL.     NPR 3 #88 S -3:   WELL
 FLD .             TEAPOT:   FIELD
 LOC .       S3 T38N R78W:   LOCATION
 CNTY.            NATRONA:   COUNTY
 STAT.            WYOMING:   STATE
 CTRY. UNITED STATES OF AMERICA:   COUNTRY
 SRVC.              Welex:   SERVICE COMPANY
 DATE.        10-APR-1977:   LOGDATE
 API .       490251033000:   API NUMBER
~CURVE INFORMATION
#MNEM.UNIT       API CODE    CURVE DESCRIPTION
#----------   ------------   ------------------------------
 DEPT.F                  :   
 GRD .GAPI   45 310 01 00:   GAMMA RAY FROM DENSITY LOG
 CALD.IN     45 280 60 00:   CALIPER FROM DENSITY LOG
 CORR.G/C3   45 356 01 00:   DENSITY CORRECTION
 RHOB.G/C3   45 350 01 00:   BULK DENSITY
 DPHI.DEC    45 890 12 00:   DENSITY POROSITY SANDSTONE
 SPR .MV     07 010 01 00:   SPONTANEOUS POTENTIAL
 ILD .OHMM   07 120 46 00:   INDUCTION LOG DEEP
 ILM .OHMM   07 120 44 00:   INDUCTION LOG MEDIUM
 SGRD.OHMM   07 221 05 00:   SHALLOW SHORT GUARD RESISTIVITY
~PARAMETER INFORMATION
#MNEM.UNIT          VALUE    DESCRIPTION
#----------   ------------   ------------------------------
 PD  .                 GL:   PERMANENT DATUM
 EPD .F              5120:   ELEVATION PERMANENT DATUM
 LMF .                 GL:   LOG MEASURED FROM
 DMF .                 GL:   DRILLING MEASURED FROM
 EGL .F              5120:   GROUND LEVEL
 DATE.        10-APR-1977:   RUN DATE
 RUN .                  1:   RUN NUMBER
 DD  .F               520:   DEPTH DRILLER
 DL  .F               519:   DEPTH LOGGER
 BLI .F               517:   BOTTOM LOG INTERVAL
 TLI .F                40:   TOP LOG INTERVAL
 CS  .IN            8.625:   CASING SIZE
 CBD .F                40:   CASING BOTTOM DRILLER
 CBL .F                42:   CASING BOTTOM LOGGER
 BS  .IN            7.875:   BIT SIZE
 BSD .F               520:   BIT SIZE AT DEPTH
 DFT .           KCL- GEL:   DRILLING FLUID TYPE
 DFD .                8.8:   DRILLING FLUID DENSITY
 DFV .                 38:   DRILLING FLUID VISCOSITY
 DFPH.                8.0:   DRILLING FLUID PH
 DFL .                6.4:   DRILLING FLUID LOSS
 MSS .            MUD PIT:   MUD SAMPLE SOURCE
 RMS .OHMM            .28:   RESISTIVITY MUD SAMPLE
 MST .F                55:   MUD SAMPLE TEMPERATURE
 RMF .OHMM            .23:   RESISTIVITY MUD FILTRATE SAMPLE
 MFST.F                55:   MUD FILTRATE SAMPLE TEMPERATURE
 RMC .OHMM            .32:   RESISTIVITY MUD CAKE
 MCST.F                55:   MUD CAKE SAMPLE TEMPERATURE
 MFSS.               MEAS:   MUD FILTRATE SAMPLE SOURCE
 MCSS.               MEAS:   MUD CAKE SAMPLE SOURCE
 RMB .OHMM            .24:   RESISTIVITY MUD AT BHT
 BHT .F                65:   BOTTOM HOLE TEMPERATURE
 TCS .HRS            0300:   TIME CURCULATED STOPPED
 MRT .F                65:   MAXIMUM RECORDED TEMPERATURE
 LUN .               0716:   LOGGING UNIT NUMBER
 LUL .             VERNAL:   LOGGING UNIT LOCATION
 ENGI.        E. CALLAHAN:   RECORDING ENGINEER
 WITN.            R. LYON:   WITNESSED BY
 CLNT.            A2DTECH:   CLIENT CODE
 ORIG.           5" PRINT:   ORIGIN OF DATA
 UWI .       490251033000:   UNIQUE WELL ID
 DICO. A2D Technologies, Inc.:   DIGITIZING COMPANY
~OTHER INFORMATION
~A   DEPT       GRD        CALD     CORR         RHOB     DPHI        SPR        ILD        ILM       SGRD   
# ...
  111.0000   130.0607     7.9220     0.0187     2.4671     0.1079   -30.2683     7.0771     7.5682    11.6988
  111.5000   130.0756     7.9232     0.0128     2.4679     0.1118   -30.2818     7.1638     7.6161    11.9347
  112.0000   130.0904     7.9393     0.0055     2.4538     0.1162   -30.2953     7.2568     7.7143    12.1777
  112.5000   129.9525     7.9405    -0.0004     2.4440     0.1198   -30.3087     7.2508     7.8703    12.5126
  113.0000   129.5240     7.9566    -0.0047     2.4509     0.1216   -30.1716     7.2448     8.0295    12.8567
  113.5000   128.4956     7.9578    -0.0061     2.4464     0.1213   -30.0345     7.2910     8.1918    13.2103
  114.0000   125.8316     7.9590    -0.0029     2.4449     0.1197   -30.0482     7.3857     8.3575    13.2002
  114.5000   123.6110     7.9602     0.0032     2.4578     0.1170   -30.0618     7.4847     8.6462    13.0075
  115.0000   123.4768     7.9464     0.0078     2.4676     0.1143   -30.2259     7.6350     8.8210    12.9073
  115.5000   122.4484     7.9476     0.0094     2.4654     0.1140   -30.3900     7.7374     8.9389    12.9902
  116.0000   121.7181     7.9336     0.0051     2.4557     0.1169   -30.4036     7.8396     8.9916    13.1626
  116.5000   120.9878     7.9198    -0.0008     2.4430     0.1217   -30.4198     7.8879     8.9832    13.2446
  117.0000   120.5555     7.9213    -0.0052     2.4318     0.1262   -30.4333     7.9365     8.8509    13.2320
  117.5000   120.2723     7.9225    -0.0080     2.4281     0.1319   -30.4467     7.9283     8.7205    13.3170
  118.0000   119.6910     7.9237    -0.0109     2.4349     0.1307   -30.4602     7.9217     8.6521    13.3999
  118.5000   119.4004     7.9249    -0.0107     2.4320     0.1300   -30.4737     7.8601     8.5842    13.3872
  119.0000   119.5716     7.9261    -0.0106     2.4283     0.1321   -30.4871     7.7991     8.5765    13.2840
  119.5000   119.8845     7.9422    -0.0090     2.4276     0.1327   -30.6512     7.7926     8.6288    12.2085
  120.0000   120.1975     7.9282    -0.0028     2.4337     0.1279   -30.9659     7.7861     8.6208    12.4571
  120.5000   120.6594     7.9446     0.0033     2.4405     0.1245   -31.2805     7.7797     8.6130    12.8892
  121.0000   120.9723     7.9458     0.0064     2.4323     0.1278   -31.5952     7.7192     8.4845    13.0604
  121.5000   121.2852     7.9469     0.0081     2.4369     0.1269   -31.9099     7.7128     8.4180    12.9597
  122.0000   121.4491     7.9481     0.0097     2.4444     0.1227   -32.0740     7.6529     8.3520    12.5936
  122.5000   121.6129     7.9493     0.0098     2.4437     0.1232   -32.3886     7.7001     8.3445    12.3235
  123.0000   121.7768     7.9356     0.0084     2.4393     0.1247   -32.5493     7.6937     8.3370    12.5785
  123.5000   122.0897     7.9368     0.0086     2.4348     0.1280   -32.4122     7.8498     8.3296    12.9203
  124.0000   122.4026     7.9383     0.0087     2.4266     0.1292   -32.4290     8.0141     8.3822    12.9006
  124.5000   122.5665     7.9395     0.0089     2.4297     0.1270   -32.4425     8.1716     8.5498    12.5217
  125.0000   122.8794     7.9406     0.0075     2.4433     0.1225   -32.4559     8.2219     8.6620    12.3626
  125.5000   123.0433     7.9568     0.0076     2.4509     0.1201   -32.4694     8.3305     8.8372    13.5227
  126.0000   123.2071     7.9427     0.0078     2.4599     0.1183   -32.6335     8.4977     9.0790    13.8972
  126.5000   123.2220     7.9442     0.0079     2.4562     0.1152   -32.6469     8.6117     9.3273    13.8839
  127.0000   123.2368     7.9454     0.0081     2.4578     0.1131   -32.8110     8.7236     9.4498    13.9704
  127.5000   123.2517     7.9466     0.0097     2.4676     0.1110   -32.9751     8.9629     9.5739    14.1558
  128.0000   123.2628     7.9475     0.0113     2.4714     0.1077   -33.1391     9.1447     9.7675    15.5954
  128.5000   123.5757     7.9636     0.0130     2.4753     0.1052   -33.3032     9.4613     9.9650    15.8054
  129.0000   124.1867     7.9648     0.0146     2.4780     0.1036   -33.3167     9.7228    10.2376    15.7904
  129.5000   124.7976     7.9660     0.0162     2.4799     0.1027   -33.3301     9.7932    10.4446    15.7783
  130.0000   125.4086     7.9672     0.0179     2.4807     0.1018   -33.1928     9.9792    10.7304    15.7663
  130.5000   125.4234     7.9684     0.0203     2.4815     0.1007   -33.0558    10.2529    10.9474    16.1999
  131.0000   124.6931     7.9546     0.0211     2.4816     0.1006   -32.7681    10.3883    11.2469    17.6002
  131.5000   124.4099     7.9558     0.0212     2.4824     0.1003   -32.7816    10.5276    11.4743    18.2142
  132.0000   124.4247     7.9570     0.0192     2.4824     0.1006   -32.6385    10.8141    11.6260    17.2097
  132.5000   124.5905     7.9583     0.0185     2.4810     0.1008   -32.5073    11.0336    11.7816    16.8406
  133.0000   124.6053     7.9594     0.0157     2.4788     0.1029   -32.5211    11.1792    11.9323    17.0673
  133.5000   124.6201     7.9606     0.0121     2.4721     0.1092   -32.3836    11.1699    12.0050    17.6560
  134.0000   124.6349     7.9618     0.0077     2.4601     0.1173   -32.3971    11.2392    12.0781    18.1415
  134.5000   124.6499     7.9629     0.0041     2.4429     0.1233   -32.2600    11.3084    12.1517    18.0018
  135.0000   124.6646     7.9641     0.0012     2.4340     0.1250   -32.2768    11.3780    12.2257    17.9881
  135.5000   124.6796     7.9653     0.0005     2.4340     0.1250   -32.2903    11.3683    12.3002    18.1036
  136.0000   124.6944     7.9665     0.0037     2.4393     0.1238   -32.6049    11.4384    12.4618    17.8359
  136.5000   124.9328     7.9677     0.0061     2.4447     0.1214   -32.7690    11.4280    12.4478    17.5756
  137.0000   125.6927     7.9689     0.0077     2.4507     0.1198   -32.9331    11.3399    12.5264    17.5622
  137.5000   124.1427     7.9701     0.0086     2.4553     0.1177   -33.0971    11.3239    12.5124    17.5488
  138.0000   122.5201     7.9713     0.0110     2.4591     0.1162   -33.2612    11.1642    12.4143    17.4136
  138.5000   121.1937     7.9575     0.0111     2.4629     0.1153   -33.2747    11.0653    12.2314    17.1594
  139.0000   120.0163     7.9587     0.0113     2.4637     0.1155   -33.2881    10.9130    12.0512    16.9089
  139.5000   118.9879     7.9599     0.0099     2.4608     0.1164   -33.1510    10.9040    11.9567    16.5420
  140.0000   118.7047     7.9462     0.0056     2.4579     0.1167   -33.1644    10.8192    11.7805    15.8488
  140.5000   118.7195     7.9474     0.0027     2.4549     0.1164   -33.1779    10.8103    11.6070    15.6249
  141.0000   118.5853     7.9485     0.0028     2.4557     0.1151   -33.0374    10.7263    11.4360    16.2940
  141.5000   118.0040     7.9497     0.0075     2.4633     0.1145   -32.7530    10.7174    11.3463    16.5318
  142.0000   117.5718     7.9509     0.0091     2.4716     0.1145   -32.7665    10.7085    11.1791    16.8319
  142.5000   117.4376     7.9523     0.0077     2.4649     0.1163   -32.6260    10.6996    11.1691    16.2397
  143.0000   117.0053     7.9460     0.0019     2.4575     0.1187   -32.4889    10.6165    11.0046    16.0057
  143.5000   115.3808     7.9397    -0.0025     2.4493     0.1219   -32.2011    10.6077    10.8424    16.6768
  144.0000   113.9054     7.9558    -0.0039     2.4395     0.1258   -31.9167    10.5989    10.7574    16.4302
  144.5000   112.1318     7.9496    -0.0052     2.4336     0.1294   -31.6290    10.5901    10.5989    16.6514
  145.0000   111.1034     7.9358    -0.0036     2.4284     0.1324   -31.4885    10.5078    10.5894    16.5200
  145.5000   110.9693     7.9296    -0.0035     2.4255     0.1336   -31.3547    10.2818    10.5064    16.8564
  146.0000   110.9841     7.8561    -0.0003     2.4293     0.1326   -31.2142    10.1310    10.4969    17.8131
  146.5000   110.8499     7.7752     0.0028     2.4331     0.1287   -30.9298    10.0523    10.4876    17.0670
  147.0000   110.1196     7.7541     0.0059     2.4369     0.1269   -30.9433     9.9048    10.4779    15.4681
