~VERSION INFORMATION
 VERS.                2.0:   CWLS LOG ASCII STANDARD - VERSION 2.0
 WRAP.                 NO:   ONE LINE PER DEPTH STEP
~WELL INFORMATION
#MNEM.UNIT      DATA TYPE    INFORMATION
#----------   ------------   ------------------------------
 STRT.F           30.0000:   START DEPTH
 STOP.F          481.0000:   STOP DEPTH
 STEP.F            0.5000:   STEP LENGTH
 NULL.          -999.2500:   NO VALUE
 COMP. FENIX & SCISSON INC:   COMPANY
 WELL.       NPR-3 #47-10:   WELL
 FLD .             TEAPOT:   FIELD
 LOC .      S10 T38N R78W:   LOCATION
 CNTY.            NATRONA:   COUNTY
 STAT.            WYOMING:   STATE
 CTRY. UNITED STATES OF AMERICA:   COUNTRY
 SRVC.           BIRDWELL:   SERVICE COMPANY
 DATE.        16-JUN-1978:   LOGDATE
 API .       490251064800:   API NUMBER
~CURVE INFORMATION
#MNEM.UNIT       API CODE    CURVE DESCRIPTION
#----------   ------------   ------------------------------
 DEPT.F                  :   
 SPR .MV     05 010 01 00:   SPONTANEOUS POTENTIAL FROM RES.
 SN  .OHMM   05 040 16 00:   SHORT NORMAL 16"
 ILD .OHMM   05 120 46 00:   INDUCTION LOG DEEP
 CALD.IN     45 280 60 00:   CALIPER FROM DENSITY LOG
 GRD .GAPI   45 310 01 00:   GAMMA RAY FROM DENSITY LOG
 CORR.G/C3   45 356 01 00:   DENSITY CORRECTION
 DPHI.DEC    45 890 12 00:   DENSITY POROSITY SANDSTONE
 DEN .G/C3   45 350 01 00:   COMPENSATED BULK DENSITY
~PARAMETER INFORMATION
#MNEM.UNIT          VALUE    DESCRIPTION
#----------   ------------   ------------------------------
 PD  .                 GL:   PERMANENT DATUM
 EPD .F              5200:   ELEVATION PERMANENT DATUM
 LMF .                 KB:   LOG MEASURED FROM
 DAPD.F                 4:   FEET ABOVE PERMANENT DATUM
 DMF .                 KB:   DRILLING MEASURED FROM
 EKB .F              5204:   KELLING BUSHING
 EGL .F              5200:   GROUND LEVEL
 DATE.        16-JUN-1978:   RUN DATE
 RUN .                  1:   RUN NUMBER
 DD  .F               513:   DEPTH DRILLER
 DL  .F               481:   DEPTH LOGGER
 BLI .F               475:   BOTTOM LOG INTERVAL
 TLI .F                40:   TOP LOG INTERVAL
 CS  .IN            8.625:   CASING SIZE
 CBD .F                40:   CASING BOTTOM DRILLER
 CBL .F                40:   CASING BOTTOM LOGGER
 BS  .IN            7.875:   BIT SIZE
 BSD .F               513:   BIT SIZE AT DEPTH
 DFT .                KCL:   DRILLING FLUID TYPE
 DFD .                8.6:   DRILLING FLUID DENSITY
 DFV .                 30:   DRILLING FLUID VISCOSITY
 DFPH.                 10:   DRILLING FLUID PH
 DFL .                 16:   DRILLING FLUID LOSS
 MSS .           FLOWLINE:   MUD SAMPLE SOURCE
 RMS .OHMM            .36:   RESISTIVITY MUD SAMPLE
 MST .F                72:   MUD SAMPLE TEMPERATURE
 RMF .OHMM            .34:   RESISTIVITY MUD FILTRATE SAMPLE
 MFST.F                70:   MUD FILTRATE SAMPLE TEMPERATURE
 RMC .OHMM            .52:   RESISTIVITY MUD CAKE
 MCST.F                72:   MUD CAKE SAMPLE TEMPERATURE
 MFSS.               MEAS:   MUD FILTRATE SAMPLE SOURCE
 MCSS.               MEAS:   MUD CAKE SAMPLE SOURCE
 RMB .OHMM            .32:   RESISTIVITY MUD AT BHT
 BHT .F                82:   BOTTOM HOLE TEMPERATURE
 TCS .HRS            0400:   TIME CURCULATED STOPPED
 MRT .F                82:   MAXIMUM RECORDED TEMPERATURE
 LUN .               2958:   LOGGING UNIT NUMBER
 LUL .               CASP:   LOGGING UNIT LOCATION
 ENGI.           REYNOLDS:   RECORDING ENGINEER
 WITN.           MCGINLEY:   WITNESSED BY
 CLNT.            A2DTECH:   CLIENT CODE
 ORIG.           5" PRINT:   ORIGIN OF DATA
 UWI .       490251064800:   UNIQUE WELL ID
 DICO. A2D Technologies, Inc.:   DIGITIZING COMPANY
~OTHER INFORMATION
~A   DEPT      SPR         SN        ILD       CALD         GRD      CORR       DPHI        DEN   
# ...
  192.0000   -52.3563    10.4561     9.2231     7.0174    95.9829     0.0103     0.1111     2.4906
  192.5000   -52.4850    10.3813     9.2212     7.0336    92.4184     0.0105     0.1126     2.4907
  193.0000   -52.5185    10.3070     9.2193     7.0498    91.5363     0.0106     0.1114     2.4907
  193.5000   -52.6450    10.1627     9.2174     7.0363    93.5610     0.0137     0.1149     2.4908
  194.0000   -52.7997    10.1599     9.2155     7.0376    99.6117     0.0169     0.1140     2.4909
  194.5000   -52.9543    10.1571     9.2136     7.0240   101.4483     0.0199     0.1089     2.4932
  195.0000   -52.9588    10.1543     9.2117     6.9956   101.4659     0.0157     0.1086     2.4955
  195.5000   -52.9633    10.1515     9.2098     6.9820   101.6328     0.0128     0.1082     2.4971
  196.0000   -52.9678    10.2191     9.1445     6.9833   102.3966     0.0115     0.1079     2.4918
  196.5000   -53.1224    10.2163     9.0172     6.9697   102.7127     0.0100     0.1076     2.4881
  197.0000   -53.4272    10.2844     8.8916     6.9562   102.4274     0.0088     0.1114     2.4853
  197.5000   -53.5819    10.2815     8.7074     6.9277   102.0016     0.0105     0.1135     2.4854
  198.0000   -53.5864    10.2786     8.7056     6.8698   100.0789     0.0121     0.1125     2.4833
  198.5000   -53.5909    10.2051     8.6439     6.7521    99.1966     0.0122     0.1185     2.4803
  199.0000   -53.5954    10.1320     8.5826     6.7981   100.2633     0.0139     0.1194     2.4812
  199.5000   -53.5999    10.0595     8.5217     6.8440   101.1870     0.0170     0.1169     2.4760
  200.0000   -53.5798    10.1264     8.4613     6.8751    99.2537     0.0188     0.1160     2.4707
  200.5000   -53.2987    10.1048     8.3603     6.8958    99.4588     0.0202     0.1258     2.4704
  201.0000   -53.0177    10.0832     8.2592     6.9071    99.1320     0.0129     0.1267     2.4710
  201.5000   -52.8571    10.0615     8.2254     6.9086    94.3691     0.0160     0.1201     2.4718
  202.0000   -53.0091    10.0482     8.2237     6.9395    94.5316     0.0191     0.1309     2.4688
  202.5000   -53.1608     9.7723     8.2220     7.0746    98.7239     0.0207     0.1279     2.4681
  203.0000   -53.3124     9.7030     8.2203     7.2543   101.5831     0.0252     0.1261     2.4697
  203.5000   -53.3139     9.7684     8.2186     7.1364   101.2482     0.0283     0.1249     2.4697
  204.0000   -53.4655     9.7663     8.1603     7.1224    99.5098     0.0344     0.1258     2.4690
  204.5000   -53.4670     9.6302     8.0467     7.0941   101.4666     0.0390     0.1260     2.4683
  205.0000   -53.4685     9.4961     7.8257     7.0801   101.1780     0.0405     0.1287     2.4668
  205.5000   -53.3198     9.2354     7.7702     7.0667    98.5079     0.0362     0.1323     2.4662
  206.0000   -53.3214     9.1699     7.7152     7.0976    95.2376     0.0348     0.1302     2.4670
  206.5000   -53.3229     9.1680     7.7136     7.1286    96.1463     0.0319     0.1299     2.4671
  207.0000   -53.3244     9.1661     7.7120     7.1297    99.2939     0.0305     0.1296     2.4686
  207.5000   -53.3259     9.1642     7.6573     7.1309    99.4563     0.0262     0.1292     2.4694
  208.0000   -53.3274     9.0992     7.6557     7.0133    99.6188     0.0218     0.1238     2.4747
  208.5000   -53.3288     9.0973     7.6541     7.1335    99.0350     0.0219     0.1214     2.4755
  209.0000   -53.3303     9.1585     7.6526     7.2091    98.0034     0.0220     0.1265     2.4681
  209.5000   -53.4820     9.1566     7.6510     7.1359    98.6137     0.0206     0.1250     2.4681
  210.0000   -53.4835     9.1548     7.7024     7.0180   102.0597     0.0207     0.1262     2.4674
  210.5000   -53.4850     9.1529     7.6962     7.0192   103.7149     0.0193     0.1238     2.4675
  211.0000   -53.6366     9.0879     7.6405     7.0799   104.0268     0.0165     0.1256     2.4656
  211.5000   -53.6381     9.0234     7.5397     7.0661   104.3415     0.0151     0.1291     2.4601
  212.0000   -53.7898     8.9594     7.4280     6.9929   102.5603     0.0137     0.1297     2.4602
  212.5000   -53.7913     8.8959     7.2452     6.9345   102.8753     0.0108     0.1312     2.4587
  213.0000   -53.7928     8.7608     7.0624     6.9060   101.2468     0.0064     0.1345     2.4573
  213.5000   -53.9444     8.4137     6.8860     6.8922    99.6182     0.0125     0.1347     2.4543
  214.0000   -53.9460     8.0148     6.7433     6.8934    99.1803     0.0156     0.1392     2.4559
  214.5000   -53.9475     7.7411     6.7419     6.8949   102.3312     0.0157     0.1365     2.4589
  215.0000   -53.9490     7.5807     6.7406     6.9109   103.8369     0.0158     0.1356     2.4612
  215.5000   -53.9505     7.5273     6.7392     6.8674   100.5666     0.0159     0.1350     2.4643
  216.0000   -53.8017     7.5779     6.7845     6.8534    99.2332     0.0175     0.1320     2.4688
  216.5000   -53.6534     7.6289     6.8778     6.8549   100.7422     0.0161     0.1284     2.4718
  217.0000   -53.6549     7.7335     7.0201     6.8561   100.1584     0.0177     0.1245     2.4726
  217.5000   -53.5063     7.7855     7.1167     6.8721   100.0224     0.0178     0.1283     2.4727
  218.0000   -53.5078     7.8922     7.1645     6.8882    99.8863     0.0179     0.1274     2.4735
  218.5000   -53.5093     7.9453     7.2127     6.9042   100.6165     0.0180     0.1250     2.4735
  219.0000   -53.5108     7.8885     7.2108     6.9203   103.7967     0.0196     0.1265     2.4758
  219.5000   -53.3617     7.8869     7.2597     6.9661   103.9591     0.0212     0.1247     2.4766
  220.0000   -53.5138     7.8310     7.2579     6.9821   102.0321     0.0213     0.1227     2.4812
  220.5000   -53.5153     7.8841     7.2564     7.0301   101.5942     0.0229     0.1211     2.4805
  221.0000   -53.5168     7.8820     7.2549     7.0592   103.5510     0.0230     0.1235     2.4820
  221.5000   -53.5181     7.9354     7.2534     7.0749   104.1579     0.0231     0.1175     2.4866
  222.0000   -53.5196     7.9884     7.3025     7.0463   100.5924     0.0098     0.1124     2.4888
  222.5000   -53.5211     8.0979     7.4022     7.0031   101.2026    -0.0005     0.1102     2.4896
  223.0000   -53.5226     8.3808     7.5041     6.8704   103.4546    -0.0034     0.1222     2.4753
  223.5000   -53.5241     8.5546     7.5021     6.7823   103.9156    -0.0048     0.1297     2.4644
  224.0000   -53.5256     8.6723     7.4489     6.7983   104.0781    -0.0047     0.1290     2.4629
  224.5000   -53.5271     8.6700     7.3961     6.8441   104.3898    -0.0031     0.1293     2.4615
  225.0000   -53.5286     8.6683     7.2931     6.8750   104.4030     0.0000     0.1305     2.4615
  225.5000   -53.5302     8.6665     7.1420     6.9209   104.4164     0.0120     0.1320     2.4616
  226.0000   -53.5317     8.6647     7.0914     6.9369   104.5791     0.0196     0.1332     2.4654
  226.5000   -53.3827     8.6629     7.0899     6.9827   104.1474     0.0272     0.1310     2.4729
  227.0000   -53.3845     8.6611     7.0885     7.0157   103.8588     0.0332     0.1253     2.4744
  227.5000   -53.3860     8.6593     7.0870     7.0598   103.5768     0.0378     0.1257     2.4752
  228.0000   -53.3875     8.6574     7.0855     7.0460   103.5900     0.0409     0.1268     2.4768
  228.5000   -53.3890     8.6558     7.1333     6.9874   105.2450     0.0246     0.1214     2.4799
  229.0000   -53.3905     8.6540     7.1317     7.0335    99.2881     0.0068     0.1187     2.4821
  229.5000   -53.5422     8.5926     7.1798     7.0942    97.6595     0.0069     0.1172     2.4739
  230.0000   -53.5437     8.4146     7.1782     7.1251    98.8668     0.0100     0.1280     2.4665
  230.5000   -53.5452     8.1835     7.1767     7.1858   103.0591     0.0116     0.1327     2.4681
  231.0000   -53.5467     8.1818     7.1752     7.2019   107.5499     0.0132     0.1303     2.4696
  231.5000   -53.6983     8.1238     7.1738     7.2328   107.8616     0.0163     0.1288     2.4719
  232.0000   -53.6998     8.0662     7.1229     7.2488   106.3823     0.0165     0.1237     2.4779
