~VERSION INFORMATION
 VERS.                2.0:   CWLS LOG ASCII STANDARD - VERSION 2.0
 WRAP.                 NO:   ONE LINE PER DEPTH STEP
~WELL INFORMATION
#MNEM.UNIT      DATA TYPE    INFORMATION
#----------   ------------   ------------------------------
 STRT.F           20.0000:   START DEPTH
 STOP.F          744.0000:   STOP DEPTH
 STEP.F            0.5000:   STEP LENGTH
 NULL.          -999.2500:   NO VALUE
 COMP. FENIX & SCISSON INCORP.:   COMPANY
 WELL.          SX #53-15:   WELL
 FLD .             TEAPOT:   FIELD
 LOC .      S15 T38N R78W:   LOCATION
 CNTY.            NATRONA:   COUNTY
 STAT.            WYOMING:   STATE
 CTRY. UNITED STATES OF AMERICA:   COUNTRY
 SRVC.              Welex:   SERVICE COMPANY
 DATE.        02-MAR-1977:   LOGDATE
 API .       490251030000:   API NUMBER
~CURVE INFORMATION
#MNEM.UNIT       API CODE    CURVE DESCRIPTION
#----------   ------------   ------------------------------
 DEPT.F                  :   
 SGRD.OHMM   07 220 05 00:   SHALLOW RESISTIVITY
 ILD .OHMM   07 120 46 00:   INDUCTION LOG DEEP
 ILM .OHMM   07 120 44 00:   INDUCTION LOG MEDIUM
 SPR .MV     07 010 01 00:   SPONTANEOUS POTENTIAL
 GRD .GAPI   45 310 01 00:   GAMMA RAY FROM DENSITY LOG
 CALD.IN     45 280 60 00:   CALIPER
 RHOB.G/C3   45 350 01 00:   BULK DENSITY
 DPHI.DEC    45 890 10 00:   DENSITY POROSITY SANDSTONE
 CORR.G/C3   45 356 01 00:   DENSITY CORRECTION
~PARAMETER INFORMATION
#MNEM.UNIT          VALUE    DESCRIPTION
#----------   ------------   ------------------------------
 PD  .                 GL:   PERMANENT DATUM
 EPD .F              5253:   ELEVATION PERMANENT DATUM
 LMF .                 GL:   LOG MEASURED FROM
 DMF .                 GL:   DRILLING MEASURED FROM
 EGL .F              5253:   GROUND LEVEL
 DATE.             3-2-77:   RUN DATE
 RUN .                  1:   RUN NUMBER
 DD  .F               750:   DEPTH DRILLER
 DL  .F               747:   DEPTH LOGGER
 BLI .F               745:   BOTTOM LOG INTERVAL
 TLI .F                44:   TOP LOG INTERVAL
 CS  .IN            8.625:   CASING SIZE
 CBD .F                40:   CASING BOTTOM DRILLER
 CBL .F                44:   CASING BOTTOM LOGGER
 BS  .IN            7.875:   BIT SIZE
 BSD .F               750:   BIT SIZE AT DEPTH
 DFT .           CHEM-GEL:   DRILLING FLUID TYPE
 MSS .          FLOW LINE:   MUD SAMPLE SOURCE
 RMS .OHMM           .425:   RESISTIVITY MUD SAMPLE
 MST .F                56:   MUD SAMPLE TEMPERATURE
 RMF .OHMM           .436:   RESISTIVITY MUD FILTRATE SAMPLE
 MFST.F                56:   MUD FILTRATE SAMPLE TEMPERATURE
 RMC .OHMM           .712:   RESISTIVITY MUD CAKE
 MCST.F                56:   MUD CAKE SAMPLE TEMPERATURE
 MFSS.           MEASURED:   MUD FILTRATE SAMPLE SOURCE
 MCSS.           MEASURED:   MUD CAKE SAMPLE SOURCE
 RMB .OHMM            .35:   RESISTIVITY MUD AT BHT
 BHT .F                68:   BOTTOM HOLE TEMPERATURE
 TCS .HRS               2:   TIME CURCULATED STOPPED
 MRT .F                68:   MAXIMUM RECORDED TEMPERATURE
 LUN .               8611:   LOGGING UNIT NUMBER
 LUL .           GILLETTE:   LOGGING UNIT LOCATION
 ENGI.          D. LAWSON:   RECORDING ENGINEER
 WITN.           S. BURKE:   WITNESSED BY
 CLNT.            A2DTECH:   CLIENT CODE
 ORIG.        2" 5" PRINT:   ORIGIN OF DATA
 UWI .       490251030000:   UNIQUE WELL ID
 DICO. A2D Technologies, Inc.:   DIGITIZING COMPANY
~OTHER INFORMATION
~A   DEPT     SGRD        ILD        ILM        SPR         GRD      CALD         RHOB       DPHI      CORR  
# ...
  312.0000    11.5223     7.9914     9.5562   -28.8019   128.9993     8.4739     2.4898     0.0936     0.0635
  312.5000    11.4559     7.9470     9.4212   -28.8053   128.8863     8.4651     2.4843     0.0974     0.0653
  313.0000    11.4561     7.9028     9.2884   -28.8086   128.3706     8.4563     2.4845     0.0963     0.0670
  313.5000    11.6682     7.8588     9.1846   -28.8120   126.2348     8.4475     2.4869     0.0953     0.0688
  314.0000    11.5576     7.8151     9.3131   -28.8153   126.3658     8.4387     2.4892     0.0942     0.0705
  314.5000    11.4665     7.7807     9.4213   -28.8187   126.8619     8.4301     2.4851     0.0943     0.0714
  315.0000    11.3760     7.8186     9.5308   -28.8221   127.5683     8.4270     2.4771     0.0983     0.0688
  315.5000    11.2862     7.8562     9.6416   -28.8254   129.1679     8.4241     2.4691     0.1023     0.0662
  316.0000    11.1971     7.8940     9.7537   -28.8288   130.7552     8.4211     2.4627     0.1063     0.0637
  316.5000    11.1087     7.9318     9.8671   -28.8322   132.0876     8.4181     2.4589     0.1104     0.0611
  317.0000    11.0415     7.9698     9.9818   -28.8355   130.5909     8.4152     2.4578     0.1150     0.0586
  317.5000    11.2869     8.0080    10.0979   -28.8389   126.9250     8.4122     2.4587     0.1132     0.0561
  318.0000    11.4891     8.0464    10.2153   -28.8423   123.1856     8.4093     2.4666     0.1100     0.0539
  318.5000    11.6947     8.0850    10.3340   -28.8456   121.3801     8.4063     2.4764     0.1056     0.0554
  319.0000    11.9052     8.1238    10.4544   -28.8490   121.3397     8.4034     2.4877     0.0988     0.0571
  319.5000    12.1068     8.1627    10.5759   -28.8524   122.1087     8.4004     2.4913     0.0930     0.0587
  320.0000    13.1635     8.2019    10.6429   -28.8557   123.0935     8.3975     2.4944     0.0920     0.0597
  320.5000    14.2494     8.2412    10.5301   -28.8591   124.7391     8.3945     2.4989     0.0887     0.0573
  321.0000    15.1018     8.2807    10.4479   -28.8624   126.3754     8.3916     2.5026     0.0862     0.0550
  321.5000    11.1437     8.3204    10.6935   -28.8658   129.9711     8.3933     2.4935     0.0908     0.0527
  322.0000    11.8147     8.3603    10.9287   -28.8692   133.0225     8.4001     2.4852     0.0951     0.0504
  322.5000    12.4483     8.4004    11.1691   -28.8725   131.5283     8.4069     2.4850     0.0977     0.0481
  323.0000    12.3842     8.4534    11.2705   -28.8759   130.0419     8.4137     2.4853     0.0985     0.0458
  323.5000    12.2584     8.4123    11.3053   -28.8792   130.9051     8.4206     2.4789     0.1014     0.0435
  324.0000    12.1326     8.3526    11.3509   -28.8826   132.4946     8.4276     2.4717     0.1048     0.0411
  324.5000    11.9958     8.2934    11.0990   -28.8860   133.5728     8.4416     2.4689     0.1082     0.0388
  325.0000    12.3319     8.2346    10.7456   -28.8893   133.8019     8.4701     2.4845     0.0997     0.0402
  325.5000    12.6752     8.1763    10.4034   -28.8927   135.1222     8.4985     2.4966     0.0916     0.0440
  326.0000    12.3533     8.1183    10.0721   -28.8961   139.4639     8.5215     2.5087     0.0834     0.0478
  326.5000    12.1075     8.0608     9.8824   -28.8994   138.4971     8.5408     2.5199     0.0762     0.0516
  327.0000    11.8673     8.0037     9.7493   -28.9028   136.7316     8.5602     2.5234     0.0738     0.0554
  327.5000    11.6324     7.9469     9.6184   -28.9062   134.7743     8.5796     2.5264     0.0717     0.0586
  328.0000    11.4021     7.8906     9.4892   -28.9095   132.8077     8.5990     2.5297     0.0702     0.0606
  328.5000    11.1773     7.7765     9.3617   -28.9129   131.5917     8.6184     2.5307     0.0687     0.0625
  329.0000    10.8363     7.5473     9.2359   -28.9163   131.3357     8.6378     2.5317     0.0687     0.0645
  329.5000    10.8423     7.3249     9.1117   -28.9196   128.6928     8.6573     2.5329     0.0686     0.0662
  330.0000    10.8400     7.0963     8.9892   -28.9230   126.1574     8.6768     2.5342     0.0681     0.0674
  330.5000    10.8400     7.2748     8.9235   -28.9263   125.1543     8.6957     2.5365     0.0667     0.0686
  331.0000    10.8400     7.4695     8.8938   -28.9297   128.3805     8.6977     2.5286     0.0698     0.0697
  331.5000    10.8936     7.6486     8.8642   -28.9331   129.6205     8.6464     2.5158     0.0772     0.0692
  332.0000    11.0480     7.7132     8.8347   -28.9364   130.4131     8.5968     2.5038     0.0832     0.0684
  332.5000    11.2046     7.7783     8.8053   -28.9398   128.2322     8.5477     2.5022     0.0851     0.0676
  333.0000    11.3633     7.8440     8.7760   -28.9432   124.8461     8.5096     2.5029     0.0859     0.0668
  333.5000    11.5619     7.9102     8.7468   -28.9465   123.3947     8.5138     2.5036     0.0847     0.0661
  334.0000    11.1086     7.9770     8.7177   -28.9499   123.1203     8.5170     2.5044     0.0834     0.0653
  334.5000    10.6442     8.0443     8.6887   -28.9533   123.5571     8.5200     2.5056     0.0840     0.0645
  335.0000    11.3483     8.1122     8.6598   -28.9566   124.1983     8.5231     2.5085     0.0833     0.0640
  335.5000    11.0426     8.1807     8.6310   -28.9600   125.8962     8.5263     2.5100     0.0817     0.0645
  336.0000    11.2995     8.2230     8.6023   -28.9633   128.2665     8.5294     2.5043     0.0840     0.0650
  336.5000    11.7769     8.2067     8.5737   -28.9667   129.5967     8.5261     2.4987     0.0910     0.0654
  337.0000    11.7025     8.1950     8.5452   -28.9701   130.1931     8.5028     2.4931     0.0935     0.0661
  337.5000    11.5774     8.1833     8.5167   -28.9734   130.7903     8.4794     2.4872     0.0960     0.0676
  338.0000    11.4572     8.1716     8.4884   -28.9768   130.6785     8.4556     2.4921     0.0934     0.0692
  338.5000    11.6589     8.1599     8.4602   -28.9802   129.9910     8.4501     2.5000     0.0890     0.0707
  339.0000    11.7752     8.1482     8.4320   -28.9835   129.2925     8.4499     2.5069     0.0847     0.0722
  339.5000    11.3250     8.1366     8.4040   -28.9869   129.4572     8.4500     2.5062     0.0840     0.0737
  340.0000    11.0151     8.1250     8.3759   -28.9902   129.5380     8.4503     2.5027     0.0848     0.0752
  340.5000    10.8400     8.1134     8.3479   -28.9936   128.4412     8.4515     2.4991     0.0867     0.0767
  341.0000    11.3268     8.1018     8.3204   -28.9970   127.7723     8.4527     2.4955     0.0885     0.0772
  341.5000    11.6659     8.0902     8.2991   -29.0003   127.5967     8.4538     2.4920     0.0904     0.0744
  342.0000    11.3071     8.0786     8.5271   -29.0037   127.5894     8.4550     2.4908     0.0923     0.0718
  342.5000    11.0437     8.0671     8.7169   -29.0071   127.9281     8.4562     2.4929     0.0944     0.0691
  343.0000    11.3414     8.0556     8.9110   -29.0104   127.1914     8.4573     2.4873     0.0966     0.0664
  343.5000    11.5871     8.0441     9.0998   -29.0138   124.7220     8.4585     2.4818     0.0989     0.0637
  344.0000    11.7769     8.0325     9.1004   -29.0172   123.4222     8.4597     2.4762     0.1011     0.0611
  344.5000    11.4412     8.0210     9.1008   -29.0205   123.8047     8.4608     2.4739     0.1033     0.0584
  345.0000    11.1437     8.0097     9.0966   -29.0239   124.1819     8.4620     2.4733     0.1036     0.0582
  345.5000    11.5961     7.9989     9.4355   -29.0273   124.5843     8.4632     2.4777     0.1013     0.0585
  346.0000    11.9963     8.2902     9.7673   -29.0306   123.8553     8.4643     2.4822     0.0989     0.0588
  346.5000    12.3865     8.5737    10.1092   -29.0340   121.6487     8.4655     2.4865     0.0965     0.0592
  347.0000    12.6774     8.7209    10.4628   -29.0373   120.3412     8.4667     2.4884     0.0949     0.0595
  347.5000    12.6774     8.8492    10.8288   -29.0407   119.4832     8.4678     2.4904     0.0940     0.0598
  348.0000    12.8443     8.9794    11.2075   -29.0441   120.1201     8.4690     2.4915     0.0947     0.0584
