~VERSION INFORMATION
 VERS.                2.0:   CWLS LOG ASCII STANDARD - VERSION 2.0
 WRAP.                 NO:   ONE LINE PER DEPTH STEP
~WELL INFORMATION
#MNEM.UNIT      DATA TYPE    INFORMATION
#----------   ------------   ------------------------------
 STRT.F           98.5000:   START DEPTH
 STOP.F          716.5000:   STOP DEPTH
 STEP.F            0.5000:   STEP LENGTH
 NULL.          -999.2500:   NO VALUE
 COMP. U S NAVY-INTEX OIL:   COMPANY
 WELL. RES 3 TEAPOT DOM #32S-11:   WELL
 FLD .             TEAPOT:   FIELD
 LOC .      S11 T38N R78W:   LOCATION
 CNTY.            NATRONA:   COUNTY
 STAT.            WYOMING:   STATE
 CTRY. UNITED STATES OF AMERICA:   COUNTRY
 SRVC.       Schlumberger:   SERVICE COMPANY
 DATE.        13-JUL-1962:   LOGDATE
 API .       490250636500:   API NUMBER
~CURVE INFORMATION
#MNEM.UNIT       API CODE    CURVE DESCRIPTION
#----------   ------------   ------------------------------
 DEPT.F                  :   
 SPR .MV     05 010 01 00:   SPONTANEOUS POTENTIAL FROM RES.
 CILD.MMHO   05 110 46 00:   CONDUCTIVITY INDUCTION LOG DEEP
 ASN .OHMM   05 040 16 00:   AMPLIFIED SHORT NORMAL 16"
 ILD .OHMM   05 120 46 00:   INDUCTION LOG DEEP
 GR  .GAPI   30 310 01 00:   GAMMA RAY
~PARAMETER INFORMATION
#MNEM.UNIT          VALUE    DESCRIPTION
#----------   ------------   ------------------------------
 PD  .                 GL:   PERMANENT DATUM
 EPD .F              5161:   ELEVATION PERMANENT DATUM
 LMF .                 KB:   LOG MEASURED FROM
 DAPD.F                 5:   FEET ABOVE PERMANENT DATUM
 DMF .                 KB:   DRILLING MEASURED FROM
 EKB .F              5166:   KELLING BUSHING
 EGL .F              5161:   GROUND LEVEL
 DATE.            7-13-62:   RUN DATE
 RUN .                  1:   RUN NUMBER
 DD  .F               716:   DEPTH DRILLER
 DL  .F               717:   DEPTH LOGGER
 BLI .F               716:   BOTTOM LOG INTERVAL
 TLI .F               100:   TOP LOG INTERVAL
 CBD .F                10:   CASING BOTTOM DRILLER
 BS  .IN             6.75:   BIT SIZE
 BSD .F               716:   BIT SIZE AT DEPTH
 DFT .           OIL EMUL:   DRILLING FLUID TYPE
 DFD .               10.2:   DRILLING FLUID DENSITY
 DFV .                 43:   DRILLING FLUID VISCOSITY
 RMS .OHMM              5:   RESISTIVITY MUD SAMPLE
 MST .F                70:   MUD SAMPLE TEMPERATURE
 RMF .OHMM            5.5:   RESISTIVITY MUD FILTRATE SAMPLE
 MFST.F                70:   MUD FILTRATE SAMPLE TEMPERATURE
 RMC .OHMM              6:   RESISTIVITY MUD CAKE
 MCST.F                70:   MUD CAKE SAMPLE TEMPERATURE
 TCS .HRS              .5:   TIME CURCULATED STOPPED
 LUN .               2503:   LOGGING UNIT NUMBER
 LUL .               CSPR:   LOGGING UNIT LOCATION
 ENGI.           ELLERMAN:   RECORDING ENGINEER
 WITN.          JORGENSON:   WITNESSED BY
 CLNT.            A2DTECH:   CLIENT CODE
 ORIG.       2", 5" PRINT:   ORIGIN OF DATA
 UWI .       490250636500:   UNIQUE WELL ID
 DICO. A2D Technologies, Inc.:   DIGITIZING COMPANY
~OTHER INFORMATION
~A   DEPT      SPR       CILD        ASN        ILD         GR   
   98.5000   -54.5363  -999.2500  -999.2500  -999.2500  -999.2500
   99.0000   -54.6322  -999.2500  -999.2500  -999.2500  -999.2500
   99.5000   -54.7211  -999.2500  -999.2500  -999.2500  -999.2500
  100.0000   -54.7922  -999.2500  -999.2500     3.6028  -999.2500
  100.5000   -54.8810   326.1089     3.4281     3.4629  -999.2500
  101.0000   -54.9702   337.7032     3.3957     3.3550  -999.2500
  101.5000   -55.0606   349.8465     3.3626     3.2111  -999.2500
  102.0000   -55.1325   363.4266     3.2677     3.0711  -999.2500
  102.5000   -54.9550   390.9829     3.1782     2.9312  -999.2500
  103.0000   -54.7774   418.6897     3.0889     2.7911  -999.2500
  103.5000   -54.6031   446.0685     3.0059     2.6514  -999.2500
  104.0000   -54.2951   494.4557     2.9334     2.5094  -999.2500
  104.5000   -53.9135   506.9355     2.8618     2.4990  -999.2500
  105.0000   -53.7955   509.0323     2.8113     2.5475  -999.2500
  105.5000   -54.2797   492.0766     2.8348     2.5984  -999.2500
  106.0000   -54.7654   460.0034     2.9736     2.6464  -999.2500
  106.5000   -55.6290   435.7594     3.1900     2.8369  -999.2500
  107.0000   -56.5868   409.3733     3.1355     3.0970  -999.2500
  107.5000   -55.9364   374.7312     3.1139     3.3599  -999.2500
  108.0000   -54.6245   340.2218     3.3256     3.6235  -999.2500
  108.5000   -54.1498   281.7540     3.8825     3.8856  -999.2500
  109.0000   -54.3824   248.7298     4.2780     4.1486  -999.2500
  109.5000   -54.6294   228.2863     4.4795     4.4077  -999.2500
  110.0000   -54.7629   214.1849     4.5963     4.5824  -999.2500
  110.5000   -54.8126   208.1711     4.7115     4.7013  -999.2500
  111.0000   -54.8601   204.5323     4.8276     4.8297  -999.2500
  111.5000   -54.9082   201.3750     4.9408     4.9570  -999.2500
  112.0000   -55.0037   198.0847     5.0455     5.0842  -999.2500
  112.5000   -55.1957   192.0751     5.2167     5.2118  -999.2500
  113.0000   -55.3486   185.8010     5.4343     5.3386  -999.2500
  113.5000   -55.4110   179.5270     5.6417     5.4988  -999.2500
  114.0000   -55.4771   173.2529     5.8226     5.6726  -999.2500
  114.5000   -55.5428   166.8347     5.9968     5.8477  -999.2500
  115.0000   -55.6082   165.6922     6.1707     6.0241  -999.2500
  115.5000   -55.6748   164.5228     6.2582     6.1046  -999.2500
  116.0000   -55.7419   163.3535     6.3206     6.1347  -999.2500
  116.5000   -56.0257   163.2661     6.3209     6.1637  -999.2500
  117.0000   -56.5543   164.2097     6.3140     6.1816  -999.2500
  117.5000   -57.0700   165.2621     6.3035     6.1442  -999.2500
  118.0000   -57.3776   166.3145     6.2525     6.1079  -999.2500
  118.5000   -57.0632   167.5950     6.1963     6.0717  -999.2500
  119.0000   -56.6452   169.0985     6.1558     6.0354  -999.2500
  119.5000   -56.2221   170.6020     6.1475     5.9991  -999.2500
  120.0000   -55.8009   172.3118     6.1386     5.9708  -999.2500
  120.5000   -55.7785   174.0659     6.1237     5.9469  -999.2500
  121.0000   -55.8494   175.4424     6.1089     5.9231  -999.2500
  121.5000   -55.9198   176.4416     6.0942     5.8992  -999.2500
  122.0000   -55.8989   177.4550     6.0795     5.8753  -999.2500
  122.5000   -55.7813   178.4662     6.0648     5.8514  -999.2500
  123.0000   -55.6608   179.4781     6.0501     5.8273  -999.2500
  123.5000   -55.5596   179.9395     6.0354     5.8035  -999.2500
  124.0000   -56.0992   179.2906     6.0196     5.8033  -999.2500
  124.5000   -56.6728   177.6462     6.0395     5.9109  -999.2500
  125.0000   -57.0880   176.0018     6.0923     6.0160  -999.2500
  125.5000   -57.5668   173.7433     6.2363     6.1211  -999.2500
  126.0000   -57.9869   170.2352     6.3808     6.2262  -999.2500
  126.5000   -57.5674   165.7715     6.4443     6.3311  -999.2500
  127.0000   -56.6174   160.6848     6.4846     6.4360  -999.2500
  127.5000   -55.9676   155.5981     6.5586     6.5408  -999.2500
  128.0000   -56.3603   150.5114     6.6699     6.7135  -999.2500
  128.5000   -56.8148   145.4173     6.6940     6.9436  -999.2500
  129.0000   -57.1576   140.3333     6.7206     7.1725  -999.2500
  129.5000   -56.8134   137.9678     6.7419     7.2785  -999.2500
  130.0000   -56.2779   136.0612     6.7016     7.2455  -999.2500
  130.5000   -55.7527   135.5847     6.6223     7.2140  -999.2500
  131.0000   -55.2221   136.3160     6.5131     7.1886  -999.2500
  131.5000   -54.9679   139.6204     6.4040     7.0491  -999.2500
  132.0000   -54.9943   143.7537     6.2944     6.8927  -999.2500
  132.5000   -55.1882   154.6580     6.1863     6.2619  -999.2500
  133.0000   -55.3505   185.1008     5.9288     5.5741  -999.2500
  133.5000   -55.0131   221.6734     5.5786     4.8865  -999.2500
  134.0000   -54.4689   269.6573     5.0299     4.1966  -999.2500
  134.5000   -54.2272   349.4607     4.4597     3.4933  -999.2500
  135.0000   -54.1303   422.8011     3.8916     3.0158  -999.2500
  135.5000   -53.9479   494.4557     3.3409     2.5342  -999.2500
  136.0000   -53.4841   567.2933     3.1028     2.2808  -999.2500
  136.5000   -53.0295   632.6815     2.9362     2.1492  -999.2500
  137.0000   -52.6954   661.9988     2.7975     2.0616  -999.2500
  137.5000   -52.6304   668.8508     2.7910     2.0980  -999.2500
  138.0000   -52.5670   618.7115     2.8764     2.1317  -999.2500
  138.5000   -52.7852   548.8691     3.0246     2.1727  -999.2500
  139.0000   -53.9537   457.1573     3.1752     2.7253  -999.2500
  139.5000   -55.0737   397.4398     3.3409     3.2711  -999.2500
  140.0000   -56.0710   312.8557     3.9458     4.0697  -999.2500
  140.5000   -56.3548   226.7418     5.1925     5.3534  -999.2500
  141.0000   -55.8453   164.8790     6.5960     6.8694  -999.2500
  141.5000   -55.0972   112.4440     7.5887     8.6434  -999.2500
  142.0000   -54.8500    91.9803     8.2803    10.4072  -999.2500
  142.5000   -54.7316    79.1331     8.8576    11.9137  -999.2500
  143.0000   -54.6163    77.1169     9.0948    11.7380  -999.2500
  143.5000   -54.4996    88.5837     9.2240    10.5926  -999.2500
  144.0000   -54.3826   105.7863     9.0514     9.4069  -999.2500
  144.5000   -54.2677   126.8347     8.6789     8.1770  -999.2500
  145.0000   -54.1538   148.1855     8.0324     6.9632  -999.2500
  145.5000   -54.0400   169.7122     7.3289     6.2981  -999.2500
  146.0000   -53.9262   187.3051     6.5385     5.7386  -999.2500
  146.5000   -53.8119   198.2240     5.8708     5.3718  -999.2500
  147.0000   -53.6982   204.0087     5.6815     5.3383  -999.2500
  147.5000   -53.5847   208.2011     5.5279     5.2994  -999.2500
  148.0000   -53.8457   207.2354     5.6607     5.2739  -999.2500
  148.5000   -54.4788   197.9078     6.3658     5.6411  -999.2500
  149.0000   -55.0998   177.7876     6.9519     6.1273  -999.2500
  149.5000   -55.4771   157.6567     7.5385     6.5596  -999.2500
  150.0000   -55.2915   137.5384     8.1268     7.3773  -999.2500
  150.5000   -55.1187   117.4270     8.7236     8.2961  -999.2500
  151.0000   -54.9419   102.3186     9.0032     8.8276  -999.2500
  151.5000   -54.7635   100.1152     9.1879     9.0700  -999.2500
  152.0000   -54.7450    97.8687     9.4839     9.3046  -999.2500
  152.5000   -55.1662    95.6221     9.7927     9.5453  -999.2500
  153.0000   -56.0485    93.2460    10.1636     9.8236  -999.2500
  153.5000   -56.8844    90.3404    10.3356    10.1262  -999.2500
  154.0000   -57.5739    87.2569    10.6880    10.4278  -999.2500
  154.5000   -58.1046    84.1734    10.9553    10.7329  -999.2500
  155.0000   -58.4265    82.5238    11.2271    10.8662  -999.2500
  155.5000   -58.7843    81.5707    11.2550    10.9284  -999.2500
  156.0000   -58.6898    81.4974    11.2937    10.9876  -999.2500
  156.5000   -58.1556    82.4505    11.3336    11.0498  -999.2500
  157.0000   -57.6304    83.0015    11.3733    11.1154  -999.2500
  157.5000   -57.1512    82.3463    11.4161    11.0896  -999.2500
  158.0000   -56.9797    81.6910    11.5163    11.1865  -999.2500
  158.5000   -56.8184    80.9914    11.6451    11.2877  -999.2500
  159.0000   -56.7082    80.0798    11.7766    11.3897  -999.2500
