~VERSION INFORMATION
 VERS.                2.0:   CWLS LOG ASCII STANDARD - VERSION 2.0
 WRAP.                 NO:   ONE LINE PER DEPTH STEP
~WELL INFORMATION
#MNEM.UNIT      DATA TYPE    INFORMATION
#----------   ------------   ------------------------------
 STRT.F           52.5000:   START DEPTH
 STOP.F         2929.0000:   STOP DEPTH
 STEP.F            0.5000:   STEP LENGTH
 NULL.          -999.2500:   NO VALUE
 COMP.   FLUOR DANIEL INC:   COMPANY
 WELL. NAVAL PETROLEUM RESERVE 3 X-23 #52-23:   WELL
 FLD .            WILDCAT:   FIELD
 LOC .      S23 T38N R78W:   LOCATION
 CNTY.            NATRONA:   COUNTY
 STAT.            WYOMING:   STATE
 CTRY. UNITED STATES OF AMERICA:   COUNTRY
 SRVC.            Unknown:   SERVICE COMPANY
 DATE.        23-APR-1995:   LOGDATE
 API .       490252271500:   API NUMBER
~CURVE INFORMATION
#MNEM.UNIT       API CODE    CURVE DESCRIPTION
#----------   ------------   ------------------------------
 DEPT.F                  :   
 ROP .MIN/FT 91 810 01 00:   RAT OF DRILLING PENETRATION
 TGAS.UNITS  91 830 01 00:   TOTAL GAS FROM HOTWIRE
~PARAMETER INFORMATION
#MNEM.UNIT          VALUE    DESCRIPTION
#----------   ------------   ------------------------------
 EKB .F              5344:   KELLING BUSHING
 EGL .F              5334:   GROUND LEVEL
 DATE.            4-23-95:   RUN DATE
 DD  .F              2929:   DEPTH DRILLER
 CS  .IN            9.625:   CASING SIZE
 CBD .F                53:   CASING BOTTOM DRILLER
 BS  .IN             8.75:   BIT SIZE
 BSD .F              2929:   BIT SIZE AT DEPTH
 ENGI.              TOWER:   RECORDING ENGINEER
 WITN.               HUSK:   WITNESSED BY
 CLNT.            A2DTECH:   CLIENT CODE
 ORIG.           5" PRINT:   ORIGIN OF DATA
 UWI .       490252271500:   UNIQUE WELL ID
 DICO. A2D Technologies, Inc.:   DIGITIZING COMPANY
~OTHER INFORMATION
~A   DEPT        ROP     TGAS   
# ...
  781.5000     0.4619     2.0620
  782.0000     0.4624     2.0428
  782.5000     0.4629     2.0236
  783.0000     0.4634     2.0045
  783.5000     0.4639     1.9853
  784.0000     0.4644     1.9661
  784.5000     0.4650     1.9470
  785.0000     0.4656     1.9418
  785.5000     0.4661     1.9723
  786.0000     0.7906     2.0028
  786.5000     0.7899     2.0334
  787.0000     0.7892     2.0639
  787.5000     0.7885     2.0944
  788.0000     0.7879     2.1250
  788.5000     0.7872     2.1454
  789.0000     0.7865     2.1348
  789.5000     0.7858     2.1243
  790.0000     0.7851     2.1137
  790.5000     0.6399     2.1032
  791.0000     0.6436     2.0926
  791.5000     0.6473     2.0821
  792.0000     0.6511     2.0715
  792.5000     0.6548     2.0610
  793.0000     0.6585     2.0504
  793.5000     0.6623     2.0399
  794.0000     0.6660     2.0293
  794.5000     0.6697     2.0188
  795.0000     0.6735     2.0082
  795.5000     0.6772     1.9977
  796.0000     0.6809     1.9871
  796.5000     0.6847     1.9766
  797.0000     0.6884     1.9660
  797.5000     0.6921     1.9555
  798.0000     0.6958     1.9449
  798.5000     0.6996     1.9332
  799.0000     0.7033     1.9400
  799.5000     0.7070     1.9478
  800.0000     0.7114     1.9555
  800.5000     0.5664     1.9633
  801.0000     0.5685     1.9710
  801.5000     0.5706     1.9788
  802.0000     0.5727     1.9865
  802.5000     0.5749     1.9942
  803.0000     0.5770     2.0020
  803.5000     0.5791     2.0097
  804.0000     0.5812     2.0175
  804.5000     0.5833     2.0252
  805.0000     0.5854     2.0330
  805.5000     0.5875     2.0407
  806.0000     0.5896     2.0485
  806.5000     0.5917     2.0562
  807.0000     0.5938     2.0639
  807.5000     0.5962     2.0717
  808.0000     0.4611     2.0794
  808.5000     0.4624     2.0872
  809.0000     0.4637     2.0949
  809.5000     0.4650     2.1027
  810.0000     0.4663     2.1104
  810.5000     0.4676     2.1182
  811.0000     0.4689     2.1259
  811.5000     0.4702     2.1336
  812.0000     0.7104     2.1414
  812.5000     0.7085     2.1589
  813.0000     0.7066     2.2314
  813.5000     0.7047     2.3040
  814.0000     0.7027     2.3766
  814.5000     0.7008     2.4492
  815.0000     0.6989     2.5217
  815.5000     0.6970     2.6010
  816.0000     0.6951     2.5902
  816.5000     0.6932     2.5782
  817.0000     0.6912     2.5663
  817.5000     0.6893     2.5543
  818.0000     0.6874     2.5424
  818.5000     0.6855     2.5304
  819.0000     0.6836     2.5185
  819.5000     0.6817     2.5065
  820.0000     0.6799     2.4945
  820.5000     0.6796     2.4826
  821.0000     0.6794     2.4706
  821.5000     0.6791     2.4587
  822.0000     0.6789     2.4467
  822.5000     0.6786     2.4347
  823.0000     0.6783     2.4228
  823.5000     0.6781     2.4108
  824.0000     0.6778     2.3989
  824.5000     0.6775     2.3869
  825.0000     0.6773     2.3750
  825.5000     0.6770     2.3700
  826.0000     0.6768     2.3692
  826.5000     0.6765     2.3683
  827.0000     0.6762     2.3674
  827.5000     0.6760     2.3666
  828.0000     0.6757     2.3657
  828.5000     0.6755     2.3648
  829.0000     0.6752     2.3640
  829.5000     0.6749     2.3631
  830.0000     0.6747     2.3539
  830.5000     0.6744     2.3394
  831.0000     0.6742     2.3249
  831.5000     0.6739     2.3103
  832.0000     0.6736     2.2958
  832.5000     0.6734     2.2813
  833.0000     0.6731     2.2668
  833.5000     0.6728     2.2523
  834.0000     0.6726     2.2378
  834.5000     0.6723     2.2233
  835.0000     0.6721     2.2088
  835.5000     0.6718     2.1943
  836.0000     0.6715     2.1798
  836.5000     0.6713     2.1653
  837.0000     0.6710     2.1480
  837.5000     0.6708     2.1679
  838.0000     0.6705     2.1925
  838.5000     0.6702     2.2172
  839.0000     0.6700     2.2419
  839.5000     0.5860     2.2665
  840.0000     0.5335     2.2912
  840.5000     0.5957     2.3158
  841.0000     0.5952     2.3405
  841.5000     0.5947     2.3651
  842.0000     0.5942     2.3898
  842.5000     0.5937     2.4145
  843.0000     0.5932     2.4391
  843.5000     0.5927     2.4638
  844.0000     0.5922     2.4884
  844.5000     0.5917     2.5131
  845.0000     0.5912     2.5377
  845.5000     0.5907     2.5624
  846.0000     0.5902     2.5657
  846.5000     0.5897     2.5350
  847.0000     0.5892     2.5042
  847.5000     0.5887     2.4734
  848.0000     0.5882     2.4427
  848.5000     0.5877     2.4119
  849.0000     0.5872     2.3811
  849.5000     0.5867     2.3628
  850.0000     0.5862     2.3628
  850.5000     0.5962     2.3628
  851.0000     0.6276     2.3628
  851.5000     0.6590     2.3628
  852.0000     0.6590     2.3628
  852.5000     0.6590     2.3628
  853.0000     0.6590     2.3628
  853.5000     0.6590     2.3628
  854.0000     0.6590     2.3628
  854.5000     0.6485     2.3628
  855.0000     0.6485     2.3628
  855.5000     0.6485     2.3628
  856.0000     0.6485     2.3628
  856.5000     0.6485     2.3628
  857.0000     0.6485     2.3628
  857.5000     0.6485     2.3628
  858.0000     0.6485     2.3628
  858.5000     0.6485     2.3628
  859.0000     0.6485     2.3628
  859.5000     0.6381     2.3628
  860.0000     0.6381     2.3628
  860.5000     0.6184     2.3708
  861.0000     0.6206     2.3931
  861.5000     0.6228     2.4154
  862.0000     0.6251     2.4378
  862.5000     0.6273     2.4601
  863.0000     0.6295     2.4824
  863.5000     0.6317     2.5048
  864.0000     0.6340     2.5271
  864.5000     0.6362     2.5494
  865.0000     0.6384     2.5717
  865.5000     0.6407     2.5941
  866.0000     0.6429     2.6164
  866.5000     0.6451     2.6387
  867.0000     0.6473     2.6611
  867.5000     0.6500     2.6834
  868.0000     0.8912     2.7057
  868.5000     0.8920     2.7281
  869.0000     0.8928     2.7504
  869.5000     0.8936     2.7727
  870.0000     0.8944     2.7924
  870.5000     0.8951     2.6545
  871.0000     0.8959     2.5315
  871.5000     0.8967     2.4084
  872.0000     0.8975     2.2854
  872.5000     0.8983     2.1624
  873.0000     0.8991     2.0393
  873.5000     0.8680     1.9163
  874.0000     0.7437     1.7823
  874.5000     0.7436     1.7985
  875.0000     0.7435     1.8162
  875.5000     0.7434     1.8340
  876.0000     0.7433     1.8517
  876.5000     0.7431     1.8695
  877.0000     0.7430     1.8872
  877.5000     0.7429     1.9049
  878.0000     0.7428     1.9227
  878.5000     0.7427     1.9404
  879.0000     0.7426     1.9581
  879.5000     0.7425     1.9759
  880.0000     0.7321     1.9936
  880.5000     0.7313     2.0114
  881.0000     0.7305     2.0291
  881.5000     0.7297     2.0468
  882.0000     0.7289     2.0646
  882.5000     0.7282     2.0823
  883.0000     0.7274     2.1000
  883.5000     0.7266     2.1472
  884.0000     0.7258     2.2571
  884.5000     0.7250     2.3669
  885.0000     0.7242     2.4767
  885.5000     0.7234     2.5865
  886.0000     0.7226     2.6964
  886.5000     0.7219     2.8062
  887.0000     0.7211     2.9160
  887.5000     0.7203     3.0089
  888.0000     0.7195     3.0189
  888.5000     0.7187     3.0290
  889.0000     0.7179     3.0391
  889.5000     0.7171     3.0492
  890.0000     0.7164     3.0592
  890.5000     0.7156     3.0693
  891.0000     0.7148     3.0794
  891.5000     0.7140     3.0895
  892.0000     0.7132     3.0995
  892.5000     0.7124     3.1096
  893.0000     0.7116     3.1197
  893.5000     0.7108     3.1298
  894.0000     0.7101     3.1398
  894.5000     0.7093     3.1499
  895.0000     0.7085     3.1600
  895.5000     0.7077     3.1701
  896.0000     0.7069     3.1801
  896.5000     0.7061     3.1902
  897.0000     0.7053     3.2003
  897.5000     0.7045     3.2103
  898.0000     0.7038     3.2220
  898.5000     0.7030     3.1860
  899.0000     0.7022     3.1437
  899.5000     0.7014     3.1013
  900.0000     0.7025     3.0590
  900.5000     0.7085     3.0166
  901.0000     0.7145     2.9742
  901.5000     0.7205     2.9319
  902.0000     0.7265     2.8895
  902.5000     0.7324     2.8471
