~VERSION INFORMATION
 VERS.                2.0:   CWLS LOG ASCII STANDARD - VERSION 2.0
 WRAP.                 NO:   ONE LINE PER DEPTH STEP
~WELL INFORMATION
#MNEM.UNIT      DATA TYPE    INFORMATION
#----------   ------------   ------------------------------
 STRT.F            0.0000:   START DEPTH
 STOP.F         1283.5000:   STOP DEPTH
 STEP.F            0.5000:   STEP LENGTH
 NULL.          -999.2500:   NO VALUE
 COMP.      U.S. NAVY NPR:   COMPANY
 WELL. NAVAL PETROLEUM RESERVE 3 ST-11 #88-11:   WELL
 FLD .             TEAPOT:   FIELD
 LOC .      S11 T38N R78W:   LOCATION
 CNTY.            NATRONA:   COUNTY
 STAT.            WYOMING:   STATE
 CTRY. UNITED STATES OF AMERICA:   COUNTRY
 SRVC.       Schlumberger:   SERVICE COMPANY
 DATE.        01-NOV-1958:   LOGDATE
 API .       490250632600:   API NUMBER
~CURVE INFORMATION
#MNEM.UNIT       API CODE    CURVE DESCRIPTION
#----------   ------------   ------------------------------
 DEPT.F                  :   
 GRN .GAPI   35 310 01 00:   GAMMA RAY
 NEUT.NAPI   35 330 01 00:   NEUTRON
 ASN .OHMM   01 041 16 00:   AMPLIFIED SHORT NORMAL
 LAT .OHMM   01 070 18 00:   LATERAL 18"
 LN  .OHMM   01 060 64 00:   LONG NORMAL 64"
 SPR .MV     01 010 01 00:   SPONTANEOUS POTENTIAL
 CALM.IN     15 280 01 00:   CALIPER FROM MICRO LOG
~PARAMETER INFORMATION
#MNEM.UNIT          VALUE    DESCRIPTION
#----------   ------------   ------------------------------
 LMF .                 KB:   LOG MEASURED FROM
 DMF .                 KB:   DRILLING MEASURED FROM
 EKB .F              5289:   KELLING BUSHING
 EGL .F              5279:   GROUND LEVEL
 DATE.        01-NOV-1958:   RUN DATE
 RUN .                  1:   RUN NUMBER
 DD  .F              1280:   DEPTH DRILLER
 DL  .F              1283:   DEPTH LOGGER
 BLI .F              1282:   BOTTOM LOG INTERVAL
 TLI .F               150:   TOP LOG INTERVAL
 CBD .F                45:   CASING BOTTOM DRILLER
 BS  .IN            7.875:   BIT SIZE
 BSD .F              1280:   BIT SIZE AT DEPTH
 DFT .                GEL:   DRILLING FLUID TYPE
 DFD .                9.1:   DRILLING FLUID DENSITY
 DFV .                 63:   DRILLING FLUID VISCOSITY
 DFL .                2.1:   DRILLING FLUID LOSS
 RMS .OHMM            2.4:   RESISTIVITY MUD SAMPLE
 MST .F                56:   MUD SAMPLE TEMPERATURE
 RMF .OHMM           1.45:   RESISTIVITY MUD FILTRATE SAMPLE
 MFST.F                79:   MUD FILTRATE SAMPLE TEMPERATURE
 RMC .OHMM            1.7:   RESISTIVITY MUD CAKE
 MCST.F                79:   MUD CAKE SAMPLE TEMPERATURE
 MFSS.               MEAS:   MUD FILTRATE SAMPLE SOURCE
 MCSS.               MEAS:   MUD CAKE SAMPLE SOURCE
 RMB .OHMM            1.6:   RESISTIVITY MUD AT BHT
 BHT .F                79:   BOTTOM HOLE TEMPERATURE
 TCS .HRS               1:   TIME CURCULATED STOPPED
 MRT .F                79:   MAXIMUM RECORDED TEMPERATURE
 LUN .               2544:   LOGGING UNIT NUMBER
 LUL .                 NC:   LOGGING UNIT LOCATION
 ENGI.            EARNEST:   RECORDING ENGINEER
 WITN.             MARTIN:   WITNESSED BY
 CLNT.            A2DTECH:   CLIENT CODE
 ORIG.         2.5" PRINT:   ORIGIN OF DATA
 UWI .       490250632600:   UNIQUE WELL ID
 DICO. A2D Technologies, Inc.:   DIGITIZING COMPANY
~OTHER INFORMATION
~A    DEPT       GRN     NEUT        ASN        LAT         LN        SPR       CALM   
# ...
  227.5000     5.3795   333.0123     6.3539     6.6576     5.7236   -12.2074     8.2684
  228.0000     5.2376   303.1154     6.3504     6.5177     5.7263   -12.6055     8.2692
  228.5000     5.1522   305.3111     6.3275     6.3778     5.7290   -12.7409     8.2427
  229.0000     5.1163   297.0580     6.3008     6.2670     5.7317   -12.7340     8.2321
  229.5000     5.1952   276.0219     6.2740     6.2670     5.7344   -12.7258     8.2043
  230.0000     4.9780   274.5812     6.2472     6.2670     5.7372   -12.1720     8.1909
  230.5000     4.8931   289.7199     6.2569     6.3070     5.7399   -11.6182     8.1918
  231.0000     5.0784   301.8478     6.3127     6.4033     5.7431   -11.0644     8.1927
  231.5000     5.1792   306.5440     6.3798     6.5145     5.6094   -10.7841     8.1935
  232.0000     5.0494   302.7690     6.4638     6.5165     5.4761   -11.0517     8.1943
  232.5000     5.0283   313.8242     6.5883     6.5185     5.3433   -11.3184     8.1951
  233.0000     5.2073   311.5976     6.7405     6.6564     5.3459   -11.3111     8.1959
  233.5000     5.2142   308.0487     6.8091     6.6584     5.4846   -11.5783     8.1967
  234.0000     5.1576   305.5594     6.8484     6.6604     5.7591   -11.5712     8.1975
  234.5000     5.3041   304.5633     6.7402     6.6624     5.7618   -11.5645     8.1983
  235.0000     5.1630   316.8344     6.7406     6.5285     5.9004   -11.5578     8.1719
  235.5000     5.4219   318.8637     6.7138     6.3946     5.9031   -11.5509     8.1727
  236.0000     5.3016   327.0302     6.4696     6.2608     6.0417   -11.5441     8.1735
  236.5000     5.2598   341.1674     6.4156     6.1269     6.0444   -11.5372     8.1744
  237.0000     5.3707   321.5064     6.4704     5.9930     6.0471   -11.5769     8.1752
  237.5000     5.2650   315.7051     6.4742     5.9669     6.0498   -11.7978     8.1487
  238.0000     5.0985   320.2800     6.4712     5.8612     6.0526   -12.0647     8.1496
  238.5000     4.9842   311.0999     6.4444     5.7273     6.0553   -12.3315     8.1504
  239.0000     5.2140   307.3655     6.3905     5.7296     6.0580   -12.5983     8.1378
  239.5000     5.2199   309.5612     6.3086     5.5954     6.1967   -12.6894     8.1100
  240.0000     5.1719   305.7263     6.2264     5.5978     6.1994   -12.8585     8.0985
  240.5000     5.0508   308.4219     6.1715     5.5999     6.2021   -12.4568     8.0994
  241.0000     5.0897   298.9608     6.1126     5.6019     6.2048   -12.2964     8.1002
  241.5000     5.0687   284.7371     6.0343     5.6039     6.2076   -12.2895     8.1010
  242.0000     5.1276   298.8743     5.9462     5.6060     6.2103   -12.0091     8.0746
  242.5000     5.0828   313.7578     5.8700     5.6080     6.0465   -12.0023     8.0754
  243.0000     4.9989   319.6852     5.8150     5.7459     5.9438   -11.7206     8.0762
  243.5000     4.9244   321.1358     5.7872     5.8842     5.8754   -11.7139     8.0770
  244.0000     5.0034   302.3726     5.7695     5.8862     5.8133   -11.4337     8.0778
  244.5000     5.0223   293.4316     5.7588     6.0240     5.6806   -11.7014     8.0786
  245.0000     4.9610   293.8347     5.7677     6.0260     5.6833   -11.6938     8.0795
  245.5000     4.9703   298.4719     5.9060     6.1639     5.6859   -11.6871     8.0803
  246.0000     4.9586   307.2740     6.0730     6.3018     5.6886   -11.9539     8.0811
  246.5000     4.8175   330.6665     6.2796     6.3038     5.6913   -11.9472     8.0819
  247.0000     4.7365   332.1866     6.3971     6.4416     5.6939   -11.9405     8.0827
  247.5000     4.7354   318.1716     6.4518     6.4436     5.8326   -12.2074     8.0835
  248.0000     4.7544   324.4943     6.5066     6.5815     5.9712   -12.2007     8.0844
  248.5000     4.7533   340.8312     6.5885     6.5836     6.1098   -12.4815     8.0714
  249.0000     4.7722   349.7440     6.6433     6.5856     6.1125   -12.7343     8.0588
  249.5000     4.7711   357.1641     6.6708     6.5702     6.2511   -12.7272     8.0598
  250.0000     4.7000   343.6866     6.7256     6.4312     6.2538   -12.7660     8.0606
  250.5000     4.6289   336.9263     6.7260     6.2921     6.3924   -12.9878     8.0613
  251.0000     4.7456   332.4049     6.6720     6.1859     6.3952   -12.7067     8.0621
  251.5000     5.0543   332.3616     6.5366     6.1882     6.4128   -12.6998     8.0901
  252.0000     5.1147   335.6196     6.4554     6.1902     6.5366   -12.6930     8.0909
  252.5000     5.1455   340.4848     6.4008     6.1923     6.6197   -12.4126     8.0917
  253.0000     5.4832   341.5457     6.3747     6.3302     6.6779   -12.1322     8.0925
  253.5000     5.7021   344.0746     6.4350     6.3913     6.8166   -12.0064     8.0933
  254.0000     5.8012   349.0490     6.5190     6.4701     6.8193   -11.7155     8.0941
  254.5000     5.6800   359.8100     6.6302     6.6080     6.8221   -11.4246     8.0950
  255.0000     5.5389   356.9625     6.7473     6.6101     6.8248   -11.2842     8.0958
  255.5000     5.7779   344.0000     6.8798     6.6920     6.8275   -11.2774     8.0966
  256.0000     5.6304   341.4015     7.0261     6.8862     6.8302   -11.5441     8.0974
  256.5000     5.2157   365.4923     7.1837     7.0241     6.8329   -11.5361     8.0982
  257.0000     5.2747   367.6926     7.3321     7.0261     6.8356   -11.8030     8.0990
  257.5000     5.1562   375.8545     7.4986     7.1640     6.8384   -11.7962     8.0998
  258.0000     4.7999   379.5429     7.6531     7.1660     6.8411   -12.0638     8.1007
  258.5000     4.7313   383.9777     7.7511     7.1680     6.8443   -12.6035     8.1015
  259.0000     4.7485   376.5065     7.8069     7.1700     6.7110   -12.5968     8.1024
  259.5000     5.0148   355.0544     7.9204     7.3078     6.7137   -12.5901     8.1032
  260.0000     5.3480   335.3312     8.0653     7.3098     6.7164   -12.5834     8.1040
  260.5000     5.1467   345.8091     7.9842     7.3118     6.7190   -12.8503     8.1048
  261.0000     5.0257   358.3855     7.7944     7.1780     6.7217   -12.8435     8.1056
  261.5000     4.8846   345.4850     7.6045     7.1800     6.7242   -12.8366     8.1064
  262.0000     4.7235   348.1134     7.4691     7.1821     6.7269   -12.8298     8.1072
  262.5000     4.6225   354.1701     7.3336     7.0481     6.7296   -12.5494     8.1080
  263.0000     4.7656   344.0102     7.1981     7.0503     6.7323   -12.2690     8.1103
  263.5000     5.0166   335.0108     7.1406     7.0523     6.7351   -12.2622     8.1368
  264.0000     5.2027   337.2065     7.2533     7.0543     6.7378   -11.9161     8.1376
  264.5000     5.2430   349.8510     7.3352     6.9202     6.7405   -11.4278     8.1385
  265.0000     5.2897   355.7784     7.3899     6.8795     6.7432   -11.4210     8.1393
  265.5000     5.3361   352.0034     7.3892     6.7884     6.7459   -11.6889     8.1401
  266.0000     5.2396   334.0177     7.2500     6.6545     6.7486   -11.6809     8.1409
  266.5000     5.0524   332.5100     7.0816     6.5211     6.7514   -11.6740     8.1417
  267.0000     5.0124   330.5049     6.8061     6.4592     6.7541   -11.7957     8.1425
  267.5000     5.1113   322.8675     6.5944     6.3893     6.6205   -12.0729     8.1288
  268.0000     5.3955   312.8414     6.5170     6.3913     6.6236   -12.2006     8.1170
  268.5000     5.2892   315.0854     6.4688     6.3933     6.6263   -12.4673     8.1179
  269.0000     5.1481   324.3974     6.4693     6.3958     6.6290   -12.4592     8.1459
  269.5000     4.7871   319.1842     6.4786     6.3978     6.6317   -12.7272     8.1194
  270.0000     4.3440   314.0852     6.6558     6.5356     6.6344   -12.7194     8.1203
  270.5000     4.2850   325.4268     6.9713     6.5376     6.5687   -12.9862     8.1211
  271.0000     4.7485   329.8616     7.2920     6.6755     6.5039   -12.9795     8.1219
  271.5000     5.0525   327.6250     7.6489     6.6775     6.5066   -12.6992     8.1227
  272.0000     4.9064   320.0760     7.9272     6.8154     6.5099   -12.6925     8.1235
  272.5000     4.5213   323.6889     8.0634     6.9532     6.5126   -12.4122     8.1243
