~VERSION INFORMATION
 VERS.                2.0:   CWLS LOG ASCII STANDARD - VERSION 2.0
 WRAP.                 NO:   ONE LINE PER DEPTH STEP
~WELL INFORMATION
#MNEM.UNIT      DATA TYPE    INFORMATION
#----------   ------------   ------------------------------
 STRT.F           28.0000:   START DEPTH
 STOP.F          461.0000:   STOP DEPTH
 STEP.F            0.5000:   STEP LENGTH
 NULL.          -999.2500:   NO VALUE
 COMP. FENIX & SCISSON INC:   COMPANY
 WELL.       NPR-3 #47S-3:   WELL
 FLD .             TEAPOT:   FIELD
 LOC .       S3 T38N R78W:   LOCATION
 CNTY.            NATRONA:   COUNTY
 STAT.            WYOMING:   STATE
 CTRY. UNITED STATES OF AMERICA:   COUNTRY
 SRVC.            Unknown:   SERVICE COMPANY
 DATE.        06-JUL-1978:   LOGDATE
 API .       490251066400:   API NUMBER
~CURVE INFORMATION
#MNEM.UNIT       API CODE    CURVE DESCRIPTION
#----------   ------------   ------------------------------
 DEPT.F                  :   
 SPR .MV     05 010 01 00:   SPONTANEOUS POTENTIAL FROM RES.
 ILD .OHMM   05 120 46 00:   INDUCTION LOG DEEP
 SN  .OHMM   05 040 16 00:   SHORT NORMAL 16"
 GRD .GAPI   45 310 01 00:   GAMMA RAY FROM DENSITY LOG
 CALD.IN     45 280 60 00:   CALIPER FROM DENSITY LOG
 CORR.G/C3   45 356 01 00:   DENSITY CORRECTION
 DEN .G/C3   45 350 01 00:   DENSTIY
 DPHI.DEC    45 890 12 00:   DENSITY POROSITY SANDSTONE
~PARAMETER INFORMATION
#MNEM.UNIT          VALUE    DESCRIPTION
#----------   ------------   ------------------------------
 PD  .                 GL:   PERMANENT DATUM
 EPD .F              5202:   ELEVATION PERMANENT DATUM
 LMF .                 KB:   LOG MEASURED FROM
 DAPD.F                 4:   FEET ABOVE PERMANENT DATUM
 DMF .                 KB:   DRILLING MEASURED FROM
 EKB .F              5206:   KELLING BUSHING
 EGL .F              5202:   GROUND LEVEL
 DATE.        06-JUL-1978:   RUN DATE
 RUN .                  1:   RUN NUMBER
 DD  .F               460:   DEPTH DRILLER
 DL  .F               461:   DEPTH LOGGER
 BLI .F               461:   BOTTOM LOG INTERVAL
 TLI .F                40:   TOP LOG INTERVAL
 CS  .IN            8.625:   CASING SIZE
 CBD .F                40:   CASING BOTTOM DRILLER
 CBL .F                40:   CASING BOTTOM LOGGER
 BS  .IN            7.875:   BIT SIZE
 BSD .F               460:   BIT SIZE AT DEPTH
 DFT .                KCL:   DRILLING FLUID TYPE
 DFD .                8.6:   DRILLING FLUID DENSITY
 DFV .                 33:   DRILLING FLUID VISCOSITY
 DFPH.                9.5:   DRILLING FLUID PH
 MSS .           FLOWLINE:   MUD SAMPLE SOURCE
 TCS .HRS               1:   TIME CURCULATED STOPPED
 LUN .               2858:   LOGGING UNIT NUMBER
 LUL .               CASP:   LOGGING UNIT LOCATION
 ENGI.           REYNOLDS:   RECORDING ENGINEER
 WITN.           MCGENLEY:   WITNESSED BY
 CLNT.            A2DTECH:   CLIENT CODE
 ORIG.           5" PRINT:   ORIGIN OF DATA
 UWI .       490251066400:   UNIQUE WELL ID
 DICO. A2D Technologies, Inc.:   DIGITIZING COMPANY
~OTHER INFORMATION
~A   DEPT      SPR        ILD         SN         GRD      CALD       CORR        DEN       DPHI   
# ...
  190.0000   -66.8158     8.0603     9.9802   103.1243     7.7579     0.0260     2.4885     0.1166
  190.5000   -66.7932     8.0116     9.7828   105.4380     7.7594     0.0231     2.4794     0.1209
  191.0000   -66.7668     7.9075     9.6539   104.9730     7.7609     0.0217     2.4740     0.1229
  191.5000   -66.8993     7.7511     9.3996   104.3932     7.7624     0.0219     2.4671     0.1292
  192.0000   -66.8720     7.6503     9.3398   105.0193     7.7639     0.0220     2.4556     0.1332
  192.5000   -66.8502     7.6042     9.2820   106.2579     7.7654     0.0236     2.4472     0.1372
  193.0000   -66.8284     7.5571     9.1627   105.9651     7.7669     0.0252     2.4449     0.1393
  193.5000   -66.9609     7.3568     9.0435   105.0564     7.7684     0.0269     2.4442     0.1411
  194.0000   -66.9337     7.2113     8.9875   105.8389     7.7699     0.0299     2.4443     0.1346
  194.5000   -67.0607     7.0675     8.9333   104.3210     7.7560     0.0330     2.4444     0.1411
  195.0000   -67.0387     6.8341     8.4589   103.7186     7.7579     0.0332     2.4390     0.1412
  195.5000   -67.1659     6.6530     8.3489   103.4288     7.7747     0.0348     2.4345     0.1435
  196.0000   -67.1386     6.3007     8.1851   103.7489     7.7762     0.0364     2.4298     0.1592
  196.5000   -67.1168     5.8840     7.8592   104.3935     7.7624     0.0365     2.4168     0.1614
  197.0000   -67.0951     5.4898     7.2910   105.5058     7.7639     0.0396     2.3991     0.1646
  197.5000   -67.0733     5.0314     6.8576   105.0179     7.7654     0.0397     2.3915     0.1811
  198.0000   -67.0515     4.3872     6.4499   104.4155     7.7669     0.0413     2.3660     0.1975
  198.5000   -67.0297     3.6205     6.0646   104.2758     7.7684     0.0429     2.3383     0.2110
  199.0000   -67.0079     3.2675     5.7751   105.2115     7.7699     0.0460     2.3105     0.2194
  199.5000   -66.9861     3.0946     5.3677   105.0685     7.7718     0.0551     2.2859     0.2295
  200.0000   -66.9643     2.9919     5.1435   104.9288     7.7729     0.0716     2.2697     0.2404
  200.5000   -66.9501     2.9122     4.8812   104.3323     7.7697     0.0882     2.2690     0.2360
  201.0000   -66.9371     2.9150     4.8180   103.8916     7.7668     0.0943     2.2729     0.2183
  201.5000   -66.9240     2.9171     4.8216   100.3843     7.7639     0.0974     2.3171     0.1945
  202.0000   -66.9107     2.9395     4.8921    97.9491     7.7608     0.0646     2.3975     0.1626
  202.5000   -66.8973     3.2650     5.0707    97.3478     7.7615     0.0633     2.3813     0.1431
  203.0000   -66.8815     3.7469     5.3307   103.0326     7.7623     0.0694     2.4162     0.1422
  203.5000   -66.8685     4.8368     5.8650   107.3355     7.7630     0.0561     2.4441     0.1279
  204.0000   -66.8554     5.2573     6.2876   109.5109     7.7638     0.0443     2.4650     0.1158
  204.5000   -66.8423     5.4830     6.7407   108.8316     7.7647     0.0384     2.4751     0.1146
  205.0000   -66.8293     5.7580     7.2763   107.3842     7.7655     0.0340     2.4743     0.1180
  205.5000   -66.8162     6.1305     7.6412   107.8586     7.7662     0.0297     2.4730     0.1195
  206.0000   -66.8031     6.3499     7.8604   111.0895     7.7670     0.0283     2.4722     0.1188
  206.5000   -66.7901     6.4427     7.9753   109.8793     7.7677     0.0269     2.4715     0.1179
  207.0000   -66.9258     6.4021     7.9812   109.5843     7.7685     0.0270     2.4701     0.1200
  207.5000   -66.9122     6.2771     8.0423   110.0624     7.7692     0.0272     2.4686     0.1218
  208.0000   -66.8964     6.0692     8.0483   109.7711     7.7546     0.0273     2.4663     0.1237
  208.5000   -67.0354     6.0320     8.0542   108.7141     7.7554     0.0274     2.4656     0.1236
  209.0000   -67.0191     6.0366     8.0603   111.3325     7.7561     0.0275     2.4657     0.1240
  209.5000   -67.1548     5.9535     8.0109   112.4328     7.7569     0.0262     2.4573     0.1415
  210.0000   -67.1418     5.6057     7.9087   113.0679     7.7578     0.0248     2.4403     0.1538
  210.5000   -67.1287     5.4942     7.7528   113.5251     7.7586     0.0294     2.4170     0.1628
  211.0000   -67.1156     5.4993     7.4447   114.1526     7.7593     0.0370     2.4093     0.1538
  211.5000   -67.1026     5.4646     7.2465   114.6233     7.7601     0.0445     2.4274     0.1414
  212.0000   -67.0893     5.3579     7.2532   112.9575     7.7608     0.0476     2.4391     0.1321
  212.5000   -67.0759     5.2162     7.2586   111.1348     7.7615     0.0493     2.4515     0.1271
  213.0000   -67.0601     5.1478     7.3142   109.4652     7.7470     0.0479     2.4670     0.1259
  213.5000   -67.0470     5.2240     7.4724   108.5614     7.7477     0.0465     2.4764     0.1246
  214.0000   -67.0340     5.5238     7.7398   109.3420     7.7485     0.0404     2.4726     0.1209
  214.5000   -67.0209     5.9219     7.8529   110.4290     7.7492     0.0348     2.4742     0.1193
  215.0000   -67.0078     6.3050     7.9677   110.7504     7.7501     0.0320     2.4781     0.1177
  215.5000   -66.9948     6.5798     8.0842   110.9189     7.7509     0.0321     2.4805     0.1158
  216.0000   -66.9817     6.8697     8.2093   111.2434     7.7516     0.0322     2.4814     0.1152
  216.5000   -66.9686     7.1049     8.4974   112.1772     7.7524     0.0308     2.4782     0.1176
  217.0000   -66.9554     7.1593     8.8015   112.6516     7.7531     0.0309     2.4761     0.1198
  217.5000   -67.0913     7.2141     9.1165   111.7477     7.7539     0.0295     2.4769     0.1185
  218.0000   -67.0750     7.4210     9.3136   111.2995     7.7546     0.0312     2.4793     0.1151
  218.5000   -67.0619     7.6339     9.3849   111.1614     7.7554     0.0328     2.4763     0.1194
  219.0000   -67.0489     7.6395     9.2635   110.2613     7.7561     0.0344     2.4756     0.1187
  219.5000   -67.0358     7.5928     9.2051   109.0511     7.7569     0.0360     2.4757     0.1177
  220.0000   -67.0227     7.4945     9.2772   109.3724     7.7578     0.0376     2.4757     0.1193
  220.5000   -67.0097     7.3975     9.2841   110.4630     7.7586     0.0392     2.4743     0.1208
  221.0000   -66.9966     7.3521     9.2271   111.2578     7.7593     0.0378     2.4743     0.1198
  221.5000   -66.9835     7.4085     8.9834   111.5613     7.7754     0.0365     2.4736     0.1183
  222.0000   -66.9702     7.3632     8.9260   111.1206     7.7762     0.0366     2.4737     0.1201
  222.5000   -66.9568     7.2679     8.8737   110.6724     7.7922     0.0367     2.4738     0.1207
  223.0000   -66.9411     7.1246     8.8210   111.6099     7.7930     0.0353     2.4731     0.1191
  223.5000   -66.9280     7.0810     8.7670   112.8500     7.7937     0.0355     2.4731     0.1197
  224.0000   -66.9149     6.9907     8.5942   113.3207     7.7945     0.0371     2.4701     0.1222
  224.5000   -66.9019     6.7128     8.3670   112.5737     7.7952     0.0387     2.4625     0.1268
  225.0000   -66.8888     6.2279     8.1458   112.5887     7.7960     0.0403     2.4579     0.1326
  225.5000   -67.0278     6.0622     7.9305   112.6037     7.7969     0.0434     2.4502     0.1360
  226.0000   -67.0115     5.8223     7.7208   112.6187     7.7977     0.0438     2.4441     0.1415
  226.5000   -67.1473     5.5898     7.6736   112.7871     7.7829     0.0481     2.4372     0.1452
  227.0000   -67.2830     5.7909     7.7323   113.1117     7.7838     0.0512     2.4341     0.1478
  227.5000   -67.2693     5.8756     7.7381   113.2799     7.7846     0.0529     2.4320     0.1362
  228.0000   -67.2536     5.8800     7.7438   112.2229     7.8007     0.0380     2.4560     0.1306
  228.5000   -67.2405     5.8859     7.9113   111.0127     7.7861     0.0351     2.4599     0.1299
  229.0000   -67.2274     6.0117     8.0952   110.1089     7.8022     0.0383     2.4631     0.1216
  229.5000   -67.2144     6.2279     8.6069   111.5021     7.8029     0.0399     2.4763     0.1178
  230.0000   -67.2013     6.9582     8.9149   112.7384     7.8037     0.0430     2.4841     0.1153
