~VERSION INFORMATION
 VERS.                2.0:   CWLS LOG ASCII STANDARD - VERSION 2.0
 WRAP.                 NO:   ONE LINE PER DEPTH STEP
~WELL INFORMATION
#MNEM.UNIT      DATA TYPE    INFORMATION
#----------   ------------   ------------------------------
 STRT.F            0.0000:   START DEPTH
 STOP.F          533.0000:   STOP DEPTH
 STEP.F            0.5000:   STEP LENGTH
 NULL.          -999.2500:   NO VALUE
 COMP. LAWRENCE/ALLISON INC:   COMPANY
 WELL. NAVAL PETROLEUM RESERVE 3 SX-1 #56-66-SX-10:   WELL
 FLD .             TEAPOT:   FIELD
 LOC .      S10 T38N R78W:   LOCATION
 CNTY.            NATRONA:   COUNTY
 STAT.            WYOMING:   STATE
 CTRY. UNITED STATES OF AMERICA:   COUNTRY
 SRVC.           Gearhart:   SERVICE COMPANY
 DATE.        28-JUN-1987:   LOGDATE
 API .       490251114300:   API NUMBER
~CURVE INFORMATION
#MNEM.UNIT       API CODE    CURVE DESCRIPTION
#----------   ------------   ------------------------------
 DEPT.F                  :   
 RLL .OHMM   07 220 00 00:   LATEROLOG RESISTIVITY
 RILM.OHMM   07 120 44 00:   INDUCTION LOG MEDIUM RESISTIVITY
 RILD.OHMM   07 120 46 00:   INDUCTION LOG DEEP RESISTIVITY
 GRR .GAPI   07 310 01 00:   GAMMA RAY FROM RES. LOG.
 SPR .MV     07 010 01 00:   SPONTANEOUS POTENTIAL
~PARAMETER INFORMATION
#MNEM.UNIT          VALUE    DESCRIPTION
#----------   ------------   ------------------------------
 PD  .                 GL:   PERMANENT DATUM
 EPD .F              5198:   ELEVATION PERMANENT DATUM
 LMF .                 KB:   LOG MEASURED FROM
 DAPD.F                 8:   FEET ABOVE PERMANENT DATUM
 DMF .                 KB:   DRILLING MEASURED FROM
 EKB .F              5206:   KELLING BUSHING
 EDF .F              5204:   DRILLING FLOOR
 EGL .F              5198:   GROUND LEVEL
 DATE.            6-28-87:   RUN DATE
 RUN .                  1:   RUN NUMBER
 DD  .F               535:   DEPTH DRILLER
 DL  .F               536:   DEPTH LOGGER
 BLI .F               533:   BOTTOM LOG INTERVAL
 BS  .IN             7.87:   BIT SIZE
 BSD .F               535:   BIT SIZE AT DEPTH
 DFT .                MUD:   DRILLING FLUID TYPE
 RMS .OHMM            .84:   RESISTIVITY MUD SAMPLE
 MST .F                57:   MUD SAMPLE TEMPERATURE
 RMF .OHMM            .63:   RESISTIVITY MUD FILTRATE SAMPLE
 MFST.F                57:   MUD FILTRATE SAMPLE TEMPERATURE
 RMC .OHMM           1.05:   RESISTIVITY MUD CAKE
 MCST.F                57:   MUD CAKE SAMPLE TEMPERATURE
 MFSS.               CALC:   MUD FILTRATE SAMPLE SOURCE
 MCSS.               CALC:   MUD CAKE SAMPLE SOURCE
 RMB .OHMM            .59:   RESISTIVITY MUD AT BHT
 BHT .F                80:   BOTTOM HOLE TEMPERATURE
 TCS .HRS            1200:   TIME CURCULATED STOPPED
 TLAB.HRS            1322:   TIME LOGGER AT BOTTOM
 MRT .F                80:   MAXIMUM RECORDED TEMPERATURE
 LUN .               7650:   LOGGING UNIT NUMBER
 LUL .           GILLETTE:   LOGGING UNIT LOCATION
 ENGI. JOHNSTON/HUCKFELDT:   RECORDING ENGINEER
 WITN.             STRONG:   WITNESSED BY
 CLNT.            A2DTECH:   CLIENT CODE
 ORIG.       2", 5" PRINT:   ORIGIN OF DATA
 UWI .       490251114300:   UNIQUE WELL ID
 DICO. A2D Technologies, Inc.:   DIGITIZING COMPANY
~OTHER INFORMATION
~A    DEPT     RLL         RILM       RILD       GRR       SPR   
# ...
  122.0000    10.7029    10.5842    10.9150    79.2291   -52.2908
  122.5000     9.9363    10.4032    10.7747    80.0920   -52.2031
  123.0000     9.4394    10.2253    10.6363    82.1115   -52.1153
  123.5000     8.9673    10.0505    10.4996    84.1823   -52.0275
  124.0000     8.5553     9.8787    10.3647    85.9689   -51.9397
  124.5000     8.5553     9.7098    10.2315    85.7652   -51.8520
  125.0000     8.6200     9.6077    10.1000    85.3421   -51.7646
  125.5000     8.7141     9.5347     9.9702    84.3758   -51.6784
  126.0000     8.7999     9.4623     9.9031    85.5849   -51.5798
  126.5000     8.7998     9.3904     9.8451    87.2367   -51.2769
  127.0000     8.5431     9.3190     9.7873    88.8883   -50.9693
  127.5000     8.3543     9.2483     9.7300    90.5405   -50.6638
  128.0000     8.1715     9.1777     9.6729    90.7569   -50.3954
  128.5000     8.0887     9.1119     9.6163    89.1768   -50.4580
  129.0000     8.0995     9.0517     9.5599    87.5683   -50.5280
  129.5000     8.1059     8.9924     9.5040    87.6090   -50.5896
  130.0000     8.1124     8.9334     9.4392    90.0408   -50.8118
  130.5000     8.1189     8.8748     9.3684    92.4398   -50.8772
  131.0000     8.1253     8.8165     9.2982    92.4820   -50.9359
  131.5000     8.1318     8.7586     9.2285    90.9988   -50.9837
  132.0000     8.1383     8.7012     9.1593    89.4527   -51.3840
  132.5000     8.1448     8.6441     9.1177    89.3558   -51.6782
  133.0000     8.1513     8.5873     9.0933    90.5189   -51.9710
  133.5000     8.1579     8.5423     9.0688    91.6792   -52.2606
  134.0000     8.1646     8.5122     9.0445    91.2968   -52.4269
  134.5000     8.1451     8.4822     9.0202    89.4583   -52.4340
  135.0000     8.1211     8.4523     8.9960    88.4898   -52.0778
  135.5000     8.0973     8.4226     8.9719    89.1768   -51.6685
  136.0000     8.0735     8.3930     8.9021    89.0740   -51.2654
  136.5000     8.0498     8.3634     8.8107    88.6428   -51.0003
  137.0000     8.0262     8.3354     8.7202    88.0820   -50.6988
  137.5000     7.9646     8.2393     8.6306    89.9998   -50.3938
  138.0000     7.7999     8.0840     8.5420    91.7695   -50.0752
  138.5000     7.6385     7.9306     8.4542    93.5839   -50.2661
  139.0000     7.4805     7.7801     8.3674    95.4064   -50.7833
  139.5000     7.3258     7.6330     8.2815    97.3484   -50.7881
  140.0000     7.1638     7.5041     8.2030    96.3757   -50.6003
  140.5000     7.1660     7.4910     8.1310    93.8634   -50.4135
  141.0000     7.1652     7.4762     8.0591    93.2780   -50.2283
  141.5000     7.1757     7.4615     8.0137    93.3795   -50.0365
  142.0000     7.1834     7.4469     8.0141    93.5517   -50.1665
  142.5000     7.1910     7.4378     8.0143    93.7217   -50.4581
  143.0000     7.1987     7.4516     8.0143    93.8907   -50.7407
  143.5000     7.2064     7.4616     8.0143    94.0666   -51.0213
  144.0000     7.2141     7.4716     8.0144    93.7758   -50.8823
  144.5000     7.2218     7.4818     8.0142    93.1980   -50.5589
  145.0000     7.2296     7.4910     8.0150    92.6147   -50.2400
  145.5000     7.2324     7.4972     8.0121    92.0316   -49.9043
  146.0000     7.2325     7.4416     8.1602    91.4552   -50.2327
  146.5000     7.2325     7.5384     8.2642    90.7864   -50.7296
  147.0000     7.2316     7.6191     8.3695    91.4740   -51.2301
  147.5000     7.2298     7.7017     8.4761    92.9483   -51.6271
  148.0000     7.3280     7.7851     8.5620    94.0692   -51.6153
  148.5000     7.4394     7.8695     8.5872    92.2778   -51.6176
  149.0000     7.5533     7.9548     8.6125    90.8505   -51.6124
  149.5000     7.6688     8.0409     8.6356    92.9906   -51.4779
  150.0000     7.7860     8.1281     8.6439    96.4925   -50.9575
  150.5000     7.9051     8.2414     8.6516    98.0320   -50.4514
  151.0000     7.9399     8.1868     8.6592    99.2037   -49.9424
  151.5000     7.8761     8.1105     8.6669   100.2944   -49.3737
  152.0000     7.8193     8.0344     8.6746   100.9764   -49.4120
  152.5000     7.7629     7.9399     8.6823    97.3522   -49.5845
  153.0000     7.7070     7.9545     8.6900    93.3955   -49.7880
  153.5000     7.6490     7.9742     8.6978    89.5960   -49.9922
  154.0000     7.5741     7.9940     8.7054    88.3992   -49.9632
  154.5000     7.5992     8.0143     8.7159    88.3346   -49.8946
  155.0000     7.6146     8.0143     8.6870    88.1124   -49.8254
  155.5000     7.6302     8.0143     8.6361    88.9034   -49.8486
  156.0000     7.6459     8.0151     8.5855    91.3559   -49.9328
  156.5000     7.6496     7.9945     8.5352    93.8150   -50.0064
  157.0000     7.6116     7.9459     8.4851    96.2710   -49.8180
  157.5000     7.5505     7.8972     8.4354    98.7092   -49.5907
  158.0000     7.4899     7.8489     8.3860   100.6743   -49.3611
  158.5000     7.4297     7.8009     8.3368    99.1060   -49.2104
  159.0000     7.3701     7.7531     8.2738    96.7712   -49.8076
  159.5000     7.3109     7.7057     8.2034    94.4862   -50.4107
  160.0000     7.2292     7.6586     8.1335    93.8278   -51.0168
  160.5000     7.3033     7.6117     8.0642    95.8770   -51.2009
  161.0000     7.3026     7.5778     8.0143    97.8431   -51.1635
  161.5000     7.3004     7.5784     7.9696    98.4779   -51.1237
  162.0000     7.3003     7.5785     7.9279    95.8298   -51.0845
  162.5000     7.3004     7.5231     7.8867    94.1055   -51.0471
  163.0000     7.3005     7.4722     7.8454    94.1116   -51.0062
  163.5000     7.1930     7.4378     7.8046    93.8414   -50.5906
  164.0000     7.0300     7.2792     7.6900    92.2325   -50.1096
  164.5000     6.9080     7.1100     7.4454    90.8480   -50.0008
  165.0000     6.6941     6.9340     7.2085    94.1292   -49.9986
  165.5000     6.4773     6.6979     6.9675    97.4492   -49.9997
  166.0000     6.2675     6.4697     6.9675    98.6476   -49.9998
  166.5000     6.0574     6.2494     6.9028    98.7517   -49.9982
  167.0000     6.0011     6.0574     6.9028    98.8683   -50.0881
  167.5000     6.1199     6.0559     6.9025    98.9786   -50.1956
  168.0000     6.2769     6.3326     6.9019    98.6225   -50.1098
  168.5000     6.4378     6.5261     6.9017    97.6421   -50.0133
  169.0000     6.6030     6.7244     7.0828    96.6711   -49.9175
  169.5000     6.7723     6.9287     7.2370    95.6868   -49.8218
  170.0000     6.8615     7.0049     7.3949    94.6186   -49.7265
  170.5000     6.8989     7.0662     7.5560    94.6329   -49.6322
  171.0000     6.9364     7.1280     7.7207    94.8874   -49.7137
  171.5000     6.9742     7.1904     7.7358    94.4037   -49.9889
  172.0000     7.0121     7.2533     7.7503    93.1916   -50.2628
  172.5000     7.0328     7.3003     7.7649    93.3485   -50.5381
  173.0000     6.9820     7.2465     7.7795    95.2291   -50.8102
  173.5000     6.9420     7.2040     7.7931    96.9260   -50.9624
  174.0000     6.9021     7.1618     7.6958    95.9839   -50.7287
  174.5000     6.8625     7.1198     7.6443    95.3175   -50.5069
  175.0000     6.8231     7.0781     7.5931    96.4750   -50.2853
  175.5000     6.7839     7.0366     7.5423    98.1683   -50.0546
  176.0000     6.7449     6.9955     7.4850    99.0284   -50.0004
  176.5000     6.7063     6.9545     7.2920    98.2520   -49.9993
  177.0000     6.6677     6.9136     7.1040    97.2481   -49.9999
  177.5000     6.6199     6.7554     6.9216    96.6029   -50.0000
  178.0000     6.4078     6.5597     6.6778    96.9778   -50.0001
  178.5000     6.2025     6.3703     6.3928    96.3544   -50.0015
  179.0000     5.9068     6.0710     6.1196    95.2551   -49.9356
  179.5000     5.5532     5.7011     5.9374    94.2023   -49.8510
  180.0000     5.2170     5.3574     5.7798    92.7794   -49.7660
  180.5000     4.9752     5.1692     5.7817    91.0549   -49.6811
  181.0000     4.9808     5.1185     5.8141    89.3040   -49.5963
  181.5000     5.1379     5.3957     5.8566    87.5367   -49.5121
  182.0000     5.4191     5.6964     5.8902    87.3559   -49.4259
  182.5000     5.7136     6.0134     6.1660    90.3248   -49.3551
