~VERSION INFORMATION
 VERS.                2.0:   CWLS LOG ASCII STANDARD - VERSION 2.0
 WRAP.                 NO:   ONE LINE PER DEPTH STEP
~WELL INFORMATION
#MNEM.UNIT      DATA TYPE    INFORMATION
#----------   ------------   ------------------------------
 STRT.F            8.5000:   START DEPTH
 STOP.F         2140.0000:   STOP DEPTH
 STEP.F            0.5000:   STEP LENGTH
 NULL.          -999.2500:   NO VALUE
 COMP. LAWRENCE/ALLISON INC:   COMPANY
 WELL.   11-61 SHX #61-11:   WELL
 FLD .             TEAPOT:   FIELD
 LOC .      S11 T38N R78W:   LOCATION
 CNTY.            NATRONA:   COUNTY
 STAT.            WYOMING:   STATE
 CTRY. UNITED STATES OF AMERICA:   COUNTRY
 SRVC.      NL McCullough:   SERVICE COMPANY
 DATE.        04-MAY-1988:   LOGDATE
 API .       490251115600:   API NUMBER
~CURVE INFORMATION
#MNEM.UNIT       API CODE    CURVE DESCRIPTION
#----------   ------------   ------------------------------
 DEPT.F                  :   
 GRR .GAPI   81 310 01 00:   GAMMY RAY
 ROP .FT/HR  91 810 01 00:   RAT OF DRILLING PENETRATION
 TGAS.TC/CC  91 830 01 00:   TOTAL GAS UNIT
~PARAMETER INFORMATION
#MNEM.UNIT          VALUE    DESCRIPTION
#----------   ------------   ------------------------------
 PD  .                 GL:   PERMANENT DATUM
 EPD .F              5135:   ELEVATION PERMANENT DATUM
 LMF .                 KB:   LOG MEASURED FROM
 DAPD.F                 8:   FEET ABOVE PERMANENT DATUM
 DMF .                 KB:   DRILLING MEASURED FROM
 EKB .F              5143:   KELLING BUSHING
 EGL .F              5135:   GROUND LEVEL
 DATE.        04-MAY-1988:   RUN DATE
 RUN .                  1:   RUN NUMBER
 DD  .F              2140:   DEPTH DRILLER
 DL  .F               572:   DEPTH LOGGER
 BLI .F               568:   BOTTOM LOG INTERVAL
 CS  .IN              5.5:   CASING SIZE
 CBD .F               622:   CASING BOTTOM DRILLER
 BSD .F              2140:   BIT SIZE AT DEPTH
 DFT .         KCL/ WATER:   DRILLING FLUID TYPE
 TCS .HRS               1:   TIME CURCULATED STOPPED
 ENGI.               DALY:   RECORDING ENGINEER
 WITN.           MR. LOWL:   WITNESSED BY
 CLNT.            A2DTECH:   CLIENT CODE
 ORIG.           5" PRINT:   ORIGIN OF DATA
 UWI .       490251115600:   UNIQUE WELL ID
 DICO. A2D Technologies, Inc.:   DIGITIZING COMPANY
~OTHER INFORMATION
~A    DEPT      GRR       ROP       TGAS   
# ...
 1282.5000  -999.2500     0.3142     1.2392
 1283.0000  -999.2500     0.3144     1.2623
 1283.5000  -999.2500     0.3051     1.2853
 1284.0000  -999.2500     0.2864     1.3084
 1284.5000  -999.2500     0.2772     1.3315
 1285.0000  -999.2500     0.2679     1.3575
 1285.5000  -999.2500     0.2681     2.8596
 1286.0000  -999.2500     0.2683     3.6088
 1286.5000  -999.2500     0.2685     3.5996
 1287.0000  -999.2500     0.2687     3.9698
 1287.5000  -999.2500     0.2689     3.9623
 1288.0000  -999.2500     0.2691     3.9537
 1288.5000  -999.2500     0.2693     3.9472
 1289.0000  -999.2500     0.2694     3.9396
 1289.5000  -999.2500     0.2696     3.9321
 1290.0000  -999.2500     0.2698     3.9245
 1290.5000  -999.2500     0.2700     3.9170
 1291.0000  -999.2500     0.2702     3.9094
 1291.5000  -999.2500     0.2704     3.9019
 1292.0000  -999.2500     0.2706     3.8943
 1292.5000  -999.2500     0.2708     3.8868
 1293.0000  -999.2500     0.2709     3.8792
 1293.5000  -999.2500     0.2711     3.8717
 1294.0000  -999.2500     0.2713     3.8642
 1294.5000  -999.2500     0.2715     3.8566
 1295.0000  -999.2500     0.2811     3.8491
 1295.5000  -999.2500     0.2813     3.8415
 1296.0000  -999.2500     0.2815     3.8340
 1296.5000  -999.2500     0.2817     3.8264
 1297.0000  -999.2500     0.2913     3.8189
 1297.5000  -999.2500     0.2915     3.8113
 1298.0000  -999.2500     0.2917     3.8038
 1298.5000  -999.2500     0.2919     3.7962
 1299.0000  -999.2500     0.2921     3.4109
 1299.5000  -999.2500     0.2923     2.6489
 1300.0000  -999.2500     0.2925     1.8868
 1300.5000  -999.2500     0.2926     1.8792
 1301.0000  -999.2500     0.2928     1.8703
 1301.5000  -999.2500     0.2930     1.9547
 1302.0000  -999.2500     0.2932     2.2347
 1302.5000  -999.2500     0.2934     2.6029
 1303.0000  -999.2500     0.2936     2.5956
 1303.5000  -999.2500     0.2938     2.2109
 1304.0000  -999.2500     0.2940     2.2035
 1304.5000  -999.2500     0.2942     2.1962
 1305.0000  -999.2500     0.2840     2.2153
 1305.5000  -999.2500     0.2841     2.2608
 1306.0000  -999.2500     0.2842     2.3062
 1306.5000  -999.2500     0.2843     2.3516
 1307.0000  -999.2500     0.2843     2.3970
 1307.5000  -999.2500     0.2844     2.4424
 1308.0000  -999.2500     0.2845     2.4879
 1308.5000  -999.2500     0.2846     2.5333
 1309.0000  -999.2500     0.2847     2.5787
 1309.5000  -999.2500     0.2848     2.6241
 1310.0000  -999.2500     0.2849     2.6695
 1310.5000  -999.2500     0.2850     2.7150
 1311.0000  -999.2500     0.2851     2.7604
 1311.5000  -999.2500     0.2852     2.8058
 1312.0000  -999.2500     0.2853     2.8512
 1312.5000  -999.2500     0.2759     2.8967
 1313.0000  -999.2500     0.2760     2.9421
 1313.5000  -999.2500     0.2713     2.9875
 1314.0000  -999.2500     0.2603     3.0329
 1314.5000  -999.2500     0.2480     3.0783
 1315.0000  -999.2500     0.2387     3.1238
 1315.5000  -999.2500     0.2293     3.1692
 1316.0000  -999.2500     0.2200     3.2146
 1316.5000  -999.2500     0.2201     3.2600
 1317.0000  -999.2500     0.2202     3.3055
 1317.5000  -999.2500     0.2203     3.3509
 1318.0000  -999.2500     0.2204     3.3963
 1318.5000  -999.2500     0.2299     3.4417
 1319.0000  -999.2500     0.2300     3.4868
 1319.5000  -999.2500     0.2301     3.4792
 1320.0000  -999.2500     0.2396     3.4717
 1320.5000  -999.2500     0.2492     3.4642
 1321.0000  -999.2500     0.2493     3.8344
 1321.5000  -999.2500     0.2493     3.8264
 1322.0000  -999.2500     0.2589     3.8177
 1322.5000  -999.2500     0.2778     3.8102
 1323.0000  -999.2500     0.2874     3.8028
 1323.5000  -999.2500     0.2970     3.4179
 1324.0000  -999.2500     0.3165     3.4105
 1324.5000  -999.2500     0.3348     3.4031
 1325.0000  -999.2500     0.3349     3.0182
 1325.5000  -999.2500     0.3350     2.6334
 1326.0000  -999.2500     0.3351     3.0038
 1326.5000  -999.2500     0.3352     2.9959
 1327.0000  -999.2500     0.3353     2.9885
 1327.5000  -999.2500     0.3354     2.6037
 1328.0000  -999.2500     0.3260     2.6001
 1328.5000  -999.2500     0.3167     2.6087
 1329.0000  -999.2500     0.3168     2.6173
 1329.5000  -999.2500     0.3169     2.6258
 1330.0000  -999.2500     0.3075     2.6344
 1330.5000  -999.2500     0.2982     2.6429
 1331.0000  -999.2500     0.2983     2.6515
 1331.5000  -999.2500     0.2984     2.6600
 1332.0000  -999.2500     0.2891     2.6686
 1332.5000  -999.2500     0.2892     2.6771
 1333.0000  -999.2500     0.2987     2.6857
 1333.5000  -999.2500     0.2988     2.6942
 1334.0000  -999.2500     0.2894     2.7028
 1334.5000  -999.2500     0.2990     2.7113
 1335.0000  -999.2500     0.2896     2.7199
 1335.5000  -999.2500     0.2897     2.7284
 1336.0000  -999.2500     0.2898     2.7370
 1336.5000  -999.2500     0.2899     2.7456
 1337.0000  -999.2500     0.2900     2.7541
 1337.5000  -999.2500     0.2901     2.7627
 1338.0000  -999.2500     0.2902     2.7712
 1338.5000  -999.2500     0.2903     2.7798
 1339.0000  -999.2500     0.2904     2.7883
 1339.5000  -999.2500     0.2905     2.7969
 1340.0000  -999.2500     0.2906     2.8054
 1340.5000  -999.2500     0.2907     2.8140
 1341.0000  -999.2500     0.2908     2.8225
 1341.5000  -999.2500     0.2908     2.8311
 1342.0000  -999.2500     0.2909     2.8396
 1342.5000  -999.2500     0.2910     2.8482
 1343.0000  -999.2500     0.2911     2.8567
 1343.5000  -999.2500     0.2912     2.8653
 1344.0000  -999.2500     0.2913     2.8739
 1344.5000  -999.2500     0.2914     2.8824
 1345.0000  -999.2500     0.2915     2.8910
 1345.5000  -999.2500     0.2916     2.8995
 1346.0000  -999.2500     0.2917     2.9081
 1346.5000  -999.2500     0.2918     2.9166
 1347.0000  -999.2500     0.2919     2.9252
 1347.5000  -999.2500     0.2920     2.9337
 1348.0000  -999.2500     0.2921     2.9423
 1348.5000  -999.2500     0.2922     2.9508
 1349.0000  -999.2500     0.2923     2.9594
 1349.5000  -999.2500     0.2924     2.9679
 1350.0000  -999.2500     0.2925     2.9765
 1350.5000  -999.2500     0.2926     2.9851
 1351.0000  -999.2500     0.2926     2.9936
 1351.5000  -999.2500     0.2927     3.0022
 1352.0000  -999.2500     0.2928     3.0107
 1352.5000  -999.2500     0.2929     3.0193
 1353.0000  -999.2500     0.2930     3.0278
 1353.5000  -999.2500     0.2931     3.0364
 1354.0000  -999.2500     0.2932     3.0449
 1354.5000  -999.2500     0.2933     3.0535
 1355.0000  -999.2500     0.2934     3.0620
 1355.5000  -999.2500     0.2935     3.0706
 1356.0000  -999.2500     0.2936     3.0791
 1356.5000  -999.2500     0.2937     3.0877
 1357.0000  -999.2500     0.2938     3.0962
 1357.5000  -999.2500     0.2939     3.1048
 1358.0000  -999.2500     0.2940     3.1134
 1358.5000  -999.2500     0.2941     3.1219
 1359.0000  -999.2500     0.2942     3.1305
 1359.5000  -999.2500     0.2942     3.1390
 1360.0000  -999.2500     0.2943     3.1476
 1360.5000  -999.2500     0.2944     3.1561
 1361.0000  -999.2500     0.2945     3.1647
 1361.5000  -999.2500     0.2946     3.1732
 1362.0000  -999.2500     0.2947     3.1818
 1362.5000  -999.2500     0.2948     3.1903
 1363.0000  -999.2500     0.2949     3.1995
 1363.5000  -999.2500     0.2950     3.1345
 1364.0000  -999.2500     0.2951     3.0646
 1364.5000  -999.2500     0.2952     2.9948
 1365.0000  -999.2500     0.2953     2.9250
 1365.5000  -999.2500     0.2954     2.8551
 1366.0000  -999.2500     0.2955     2.7853
 1366.5000  -999.2500     0.2956     2.7154
 1367.0000  -999.2500     0.2957     2.6456
 1367.5000  -999.2500     0.2958     2.5758
 1368.0000  -999.2500     0.2958     2.5059
 1368.5000  -999.2500     0.2959     2.4361
 1369.0000  -999.2500     0.2961     2.3663
 1369.5000  -999.2500     0.2961     2.2964
 1370.0000  -999.2500     0.2962     2.2266
 1370.5000  -999.2500     0.2963     2.1568
 1371.0000  -999.2500     0.2964     2.0869
 1371.5000  -999.2500     0.3059     2.0171
 1372.0000  -999.2500     0.3060     1.9911
 1372.5000  -999.2500     0.3061     2.0010
 1373.0000  -999.2500     0.3062     2.0109
