~VERSION INFORMATION
 VERS.                2.0:   CWLS LOG ASCII STANDARD - VERSION 2.0
 WRAP.                 NO:   ONE LINE PER DEPTH STEP
~WELL INFORMATION
#MNEM.UNIT      DATA TYPE    INFORMATION
#----------   ------------   ------------------------------
 STRT.F           35.0000:   START DEPTH
 STOP.F          601.0000:   STOP DEPTH
 STEP.F            0.5000:   STEP LENGTH
 NULL.          -999.2500:   NO VALUE
 COMP. FENIX & SCISSON INC:   COMPANY
 WELL. NPR #3 71SX #71-15:   WELL
 FLD .             TEAPOT:   FIELD
 LOC .      S15 T38N R78W:   LOCATION
 CNTY.            NATRONA:   COUNTY
 STAT.            WYOMING:   STATE
 CTRY. UNITED STATES OF AMERICA:   COUNTRY
 SRVC.              Welex:   SERVICE COMPANY
 DATE.        10-MAR-1977:   LOGDATE
 API .       490251031200:   API NUMBER
~CURVE INFORMATION
#MNEM.UNIT       API CODE    CURVE DESCRIPTION
#----------   ------------   ------------------------------
 DEPT.F                  :   
 SPR .MV     07 010 01 00:   SPONTANEOUS POTENTIAL
 SGRD.OHMM   07 220 05 00:   SHALLOW RESISTIVITY
 DRES.OHMM   07 120 46 00:   INDUCTION LOG DEEP
 MRES.OHMM   07 120 44 00:   INDUCTION LOG MEDIUM
 GRD .GAPI   45 310 01 00:   GAMMA RAY FROM DENSITY LOG
 CALD.IN     45 280 60 00:   CALIPER
 RHOB.G/C3   45 350 01 00:   BULK DENSITY
 DPHI.DEC    45 890 12 00:   DENSITY POROSITY
 CORR.G/C3   45 356 01 00:   DENSITY CORRECTION
~PARAMETER INFORMATION
#MNEM.UNIT          VALUE    DESCRIPTION
#----------   ------------   ------------------------------
 PD  .                 GL:   PERMANENT DATUM
 EPD .F              5241:   ELEVATION PERMANENT DATUM
 LMF .                 GL:   LOG MEASURED FROM
 DMF .                 GL:   DRILLING MEASURED FROM
 EGL .F              5241:   GROUND LEVEL
 DATE.            3-10-77:   RUN DATE
 RUN .                  1:   RUN NUMBER
 DD  .F               600:   DEPTH DRILLER
 DL  .F               603:   DEPTH LOGGER
 BLI .F               601:   BOTTOM LOG INTERVAL
 TLI .F                35:   TOP LOG INTERVAL
 CS  .IN            8.625:   CASING SIZE
 CBD .F                40:   CASING BOTTOM DRILLER
 CBL .F                40:   CASING BOTTOM LOGGER
 BS  .IN            7.875:   BIT SIZE
 BSD .F               600:   BIT SIZE AT DEPTH
 DFT .            KCL MUD:   DRILLING FLUID TYPE
 DFD .                8.6:   DRILLING FLUID DENSITY
 DFV .                 10:   DRILLING FLUID VISCOSITY
 DFPH.                7.2:   DRILLING FLUID PH
 DFL .                  8:   DRILLING FLUID LOSS
 MSS .            MUD PIT:   MUD SAMPLE SOURCE
 RMS .OHMM            .36:   RESISTIVITY MUD SAMPLE
 MST .F                47:   MUD SAMPLE TEMPERATURE
 RMF .OHMM            .35:   RESISTIVITY MUD FILTRATE SAMPLE
 MFST.F                47:   MUD FILTRATE SAMPLE TEMPERATURE
 RMC .OHMM            .40:   RESISTIVITY MUD CAKE
 MCST.F                47:   MUD CAKE SAMPLE TEMPERATURE
 MFSS.           FANN KIT:   MUD FILTRATE SAMPLE SOURCE
 MCSS.           FANN KIT:   MUD CAKE SAMPLE SOURCE
 RMB .OHMM            .31:   RESISTIVITY MUD AT BHT
 BHT .F                53:   BOTTOM HOLE TEMPERATURE
 TCS .HRS             1.5:   TIME CURCULATED STOPPED
 MRT .F                53:   MAXIMUM RECORDED TEMPERATURE
 LUN .               8611:   LOGGING UNIT NUMBER
 LUL .           GILLETTE:   LOGGING UNIT LOCATION
 ENGI.               DOAK:   RECORDING ENGINEER
 WITN.         STUEBINGER:   WITNESSED BY
 CLNT.            A2DTECH:   CLIENT CODE
 ORIG.       2", 5" PRINT:   ORIGIN OF DATA
 UWI .       490251031200:   UNIQUE WELL ID
 DICO. A2D Technologies, Inc.:   DIGITIZING COMPANY
~OTHER INFORMATION
~A   DEPT      SPR       SGRD       DRES       MRES         GRD      CALD       RHOB       DPHI       CORR   
   35.0000  -999.2500  -999.2500  -999.2500  -999.2500    86.0835  -999.2500  -999.2500  -999.2500  -999.2500
   35.5000  -999.2500  -999.2500  -999.2500  -999.2500    86.0835  -999.2500  -999.2500  -999.2500  -999.2500
   36.0000  -999.2500  -999.2500  -999.2500  -999.2500    87.2763  -999.2500  -999.2500  -999.2500  -999.2500
   36.5000  -999.2500  -999.2500  -999.2500  -999.2500    86.8787  -999.2500  -999.2500  -999.2500  -999.2500
   37.0000  -999.2500  -999.2500  -999.2500  -999.2500    86.5233  -999.2500  -999.2500  -999.2500  -999.2500
   37.5000  -999.2500  -999.2500  -999.2500  -999.2500    86.8780  -999.2500  -999.2500  -999.2500  -999.2500
   38.0000  -999.2500  -999.2500  -999.2500  -999.2500    90.1974  -999.2500  -999.2500  -999.2500  -999.2500
   38.5000  -999.2500  -999.2500  -999.2500  -999.2500    94.0604  -999.2500  -999.2500  -999.2500  -999.2500
   39.0000  -999.2500  -999.2500  -999.2500  -999.2500    96.1059  -999.2500  -999.2500  -999.2500  -999.2500
   39.5000  -999.2500  -999.2500  -999.2500  -999.2500    97.7718  -999.2500  -999.2500  -999.2500  -999.2500
   40.0000  -999.2500  -999.2500  -999.2500  -999.2500   103.1561  -999.2500  -999.2500  -999.2500  -999.2500
   40.5000   -29.8258     7.7059     0.3018     5.7446   107.1248    10.3377     2.3347     0.1860    -0.0019
   41.0000   -30.5881     8.2818     0.2485     6.3277   108.0968     9.3326     2.4446     0.1259     0.0372
   41.5000   -31.4075     8.9007     0.2877     6.4608   109.0970     8.2299     2.4494     0.1232     0.0491
   42.0000   -32.2289     9.5678     0.4551     7.0940   110.1658     7.9849     2.4511     0.1218     0.0509
   42.5000   -32.9383    10.2806     0.7583     7.6521   108.5997     7.9824     2.4485     0.1238     0.0485
   43.0000   -33.2950    10.9700     1.5194     7.6521   105.5713     7.9745     2.4398     0.1277     0.0465
   43.5000   -33.6589    10.7719     3.1164     7.6492   107.2290     7.9698     2.4309     0.1315     0.0480
   44.0000   -34.0237    10.5944     6.7237     7.9170   110.4699     7.9647     2.4248     0.1354     0.0495
   44.5000   -34.3886    10.3822     6.5609     8.4448   111.5362     7.9595     2.4194     0.1387     0.0511
   45.0000   -34.7505    10.7184     6.3450     9.0408   111.2031     7.9544     2.4153     0.1391     0.0527
   45.5000   -35.0387    11.1949     6.1304     8.9476   112.0669     7.9492     2.4159     0.1381     0.0542
   46.0000   -35.0298    11.7039     7.0307     8.7153   111.6274     7.9456     2.4166     0.1369     0.0558
   46.5000   -35.0289    11.2126     7.6511     8.4876   110.2573     7.9431     2.4175     0.1357     0.0573
   47.0000   -34.9167    10.7352     7.4569     8.2657   112.8091     7.9406     2.4181     0.1345     0.0589
   47.5000   -34.6990    10.3795     7.2577     8.0138   116.4586     7.9381     2.4259     0.1333     0.0605
   48.0000   -34.4813    10.9928     7.4051     8.1644   116.9425     7.9356     2.4355     0.1269     0.0620
   48.5000   -34.2628    11.3840     7.6742     8.3494   112.2234     7.9331     2.4453     0.1188     0.0636
   49.0000   -34.0444    10.9241     7.9531     8.5386   106.4479     7.9306     2.4550     0.1109     0.0651
   49.5000   -33.8256    10.3795     8.2421     8.7321   102.2244     7.9281     2.4502     0.1129     0.0667
   50.0000   -33.6065    10.7964     8.3926     8.8710    99.3010     7.9257     2.4444     0.1185     0.0683
   50.5000   -33.3912    11.4304     7.9044     8.5062    97.6419     7.9232     2.4548     0.1212     0.0699
   51.0000   -33.2862    12.1109     7.5472     8.3155    98.8942     7.9207     2.4435     0.1234     0.0701
   51.5000   -33.5162    11.9442     7.2396     8.5562   101.3286     7.9182     2.4323     0.1291     0.0697
   52.0000   -33.7364    11.7039     7.2626     8.7488   103.7677     7.9157     2.4274     0.1344     0.0694
   52.5000   -33.9598    11.8126     7.2837     8.9459   106.2831     7.9132     2.4331     0.1322     0.0690
   53.0000   -34.3108    11.9222     7.3066     9.2035   108.8722     7.9107     2.4404     0.1278     0.0687
   53.5000   -34.7357    11.5796     7.2183     9.0487   111.4901     7.9082     2.4477     0.1235     0.0681
   54.0000   -35.1583    11.2794     7.0933     8.8301   114.3580     7.9075     2.4461     0.1225     0.0629
   54.5000   -35.5795    10.9869     6.9705     8.6168   113.3160     7.9154     2.4356     0.1277     0.0575
   55.0000   -35.9304    10.6685     6.8498     8.4705   111.2438     7.9232     2.4257     0.1318     0.0525
   55.5000   -36.1796    10.7313     6.7313     8.4382   109.1543     7.9310     2.4271     0.1335     0.0540
   56.0000   -36.4285    10.8179     6.6149     8.3434   107.3669     7.9387     2.4289     0.1321     0.0557
   56.5000   -36.6758    10.9051     6.5002     8.2485   107.8614     7.9465     2.4300     0.1310     0.0575
   57.0000   -36.9231    10.9931     6.3875     8.1538   109.7212     7.9543     2.4268     0.1314     0.0552
   57.5000   -37.1707    11.0716     6.2439     8.0601   111.5282     7.9620     2.4237     0.1330     0.0499
   58.0000   -37.4182    10.8999     6.2509     7.9676   113.3366     7.9657     2.4144     0.1385     0.0446
   58.5000   -37.6657    10.6697     6.2650     7.8764   113.6871     7.9649     2.4000     0.1463     0.0392
   59.0000   -37.9134    10.7350     6.2792     7.7951   109.6895     7.9641     2.3874     0.1541     0.0339
   59.5000   -38.1616    11.0729     6.2930     7.8610   106.5947     7.9633     2.3902     0.1559     0.0302
   60.0000   -38.4088    10.9317     6.3027     7.9218   105.9458     7.9625     2.3961     0.1497     0.0331
   60.5000   -38.6007    10.5730     6.3914     8.0045   105.3865     7.9617     2.4024     0.1440     0.0388
   61.0000   -38.4373    10.9205     6.4731     8.0975   104.8089     7.9609     2.4089     0.1378     0.0444
   61.5000   -38.2710    11.4367     6.5558     8.1916   104.6881     7.9601     2.4255     0.1317     0.0501
   62.0000   -38.1058    12.1445     6.6396     8.2867   104.8841     7.9593     2.4405     0.1255     0.0546
   62.5000   -37.9403    11.9406     6.7245     8.3926   104.5271     7.9585     2.4517     0.1214     0.0555
   63.0000   -37.7743    11.5429     6.8106     8.3932   104.7497     7.9577     2.4586     0.1195     0.0565
   63.5000   -37.6303    11.1584     6.8986     8.3927   105.7844     7.9570     2.4505     0.1215     0.0575
   64.0000   -37.7303    10.9710     6.9790     8.3931   106.8236     7.9562     2.4516     0.1214     0.0575
   64.5000   -37.8309    11.2891     7.0439     8.3780   107.7114     7.9554     2.4481     0.1240     0.0532
   65.0000   -37.9301    11.5863     7.0433     8.3278   106.9064     7.9546     2.4258     0.1321     0.0490
   65.5000   -38.0291    11.9222     7.0416     8.2779   106.1065     7.9538     2.4109     0.1419     0.0448
   66.0000   -38.1281    11.6285     6.8886     8.2284   105.3559     7.9530     2.4114     0.1387     0.0427
   66.5000   -38.2271    11.2793     6.7884     8.1793   105.6801     7.9522     2.4190     0.1348     0.0441
   67.0000   -38.3261    11.1705     6.6897     8.1305   108.6796     7.9514     2.4285     0.1308     0.0455
   67.5000   -38.4252    11.0167     6.5925     8.0820   111.7325     7.9506     2.4381     0.1267     0.0469
   68.0000   -38.5242    10.7161     6.4966     8.0337   114.2734     7.9498     2.4402     0.1267     0.0483
   68.5000   -38.6232    10.3621     6.4022     7.9857   116.5308     7.9490     2.4418     0.1260     0.0496
   69.0000   -38.7230    10.1895     6.3091     7.9381   118.4174     7.9482     2.4512     0.1209     0.0529
   69.5000   -38.8237    10.3955     6.2447     7.8671   118.1662     7.9474     2.4591     0.1159     0.0578
   70.0000   -38.6996    10.5730     6.2447     7.9151   114.7192     7.9468     2.4569     0.1138     0.0599
   70.5000   -38.5438    10.3555     6.4163     8.0119   111.9414     7.9510     2.4549     0.1152     0.0591
   71.0000   -38.3870    10.1191     6.5765     8.1098   109.1480     7.9660     2.4549     0.1117     0.0584
