~VERSION INFORMATION
 VERS.                2.0:   CWLS LOG ASCII STANDARD - VERSION 2.0
 WRAP.                 NO:   ONE LINE PER DEPTH STEP
~WELL INFORMATION
#MNEM.UNIT      DATA TYPE    INFORMATION
#----------   ------------   ------------------------------
 STRT.F            0.0000:   START DEPTH
 STOP.F          820.0000:   STOP DEPTH
 STEP.F            0.5000:   STEP LENGTH
 NULL.          -999.2500:   NO VALUE
 COMP. LAWRENCE/ALLISON INC:   COMPANY
 WELL.       44 SX #16-11:   WELL
 FLD .             TEAPOT:   FIELD
 LOC .      S11 T38N R78W:   LOCATION
 CNTY.            NATRONA:   COUNTY
 STAT.            WYOMING:   STATE
 CTRY. UNITED STATES OF AMERICA:   COUNTRY
 SRVC.           Gearhart:   SERVICE COMPANY
 DATE.        26-AUG-1988:   LOGDATE
 API .       490251124600:   API NUMBER
~CURVE INFORMATION
#MNEM.UNIT       API CODE    CURVE DESCRIPTION
#----------   ------------   ------------------------------
 DEPT.F                  :   
 GRR .GAPI   07 310 01 00:   GAMMA RAY FROM RES. LOG.
 RILD.OHMM   07 120 46 00:   INDUCTION LOG DEEP RESISTIVITY
 RILM.OHMM   07 120 44 00:   INDUCTION LOG MEDIUM RESISTIVITY
~PARAMETER INFORMATION
#MNEM.UNIT          VALUE    DESCRIPTION
#----------   ------------   ------------------------------
 PD  .                 GL:   PERMANENT DATUM
 EPD .F              5197:   ELEVATION PERMANENT DATUM
 LMF .                 KB:   LOG MEASURED FROM
 DAPD.F                10:   FEET ABOVE PERMANENT DATUM
 DMF .                 KB:   DRILLING MEASURED FROM
 EKB .F              5207:   KELLING BUSHING
 EDF .F              5206:   DRILLING FLOOR
 EGL .F              5197:   GROUND LEVEL
 DATE.            8-26-88:   RUN DATE
 RUN .                  1:   RUN NUMBER
 DD  .F               820:   DEPTH DRILLER
 DL  .F               819:   DEPTH LOGGER
 BLI .F               811:   BOTTOM LOG INTERVAL
 TLI .F                50:   TOP LOG INTERVAL
 CS  .IN            9.625:   CASING SIZE
 CBD .F                50:   CASING BOTTOM DRILLER
 CBL .F                50:   CASING BOTTOM LOGGER
 BS  .IN             8.75:   BIT SIZE
 BSD .F               820:   BIT SIZE AT DEPTH
 DFT .                AIR:   DRILLING FLUID TYPE
 BHT .F                70:   BOTTOM HOLE TEMPERATURE
 TCS .HRS            0200:   TIME CURCULATED STOPPED
 TLAB.HRS            0342:   TIME LOGGER AT BOTTOM
 MRT .F                70:   MAXIMUM RECORDED TEMPERATURE
 LUN .               7609:   LOGGING UNIT NUMBER
 LUL .           GILLETTE:   LOGGING UNIT LOCATION
 ENGI.           JOHNSTON:   RECORDING ENGINEER
 WITN.             STRONG:   WITNESSED BY
 CLNT.            A2DTECH:   CLIENT CODE
 ORIG.        2" 5" PRINT:   ORIGIN OF DATA
 UWI .       490251124600:   UNIQUE WELL ID
 DICO. A2D Technologies, Inc.:   DIGITIZING COMPANY
~OTHER INFORMATION
~A    DEPT      GRR      RILD       RILM   
# ...
  728.0000   116.6828     6.2159     5.4369
  728.5000   121.6611     5.8602     5.0117
  729.0000   130.0908     5.5249     4.6199
  729.5000   139.2468     5.2061     4.2586
  730.0000   148.5776     4.9335     4.1692
  730.5000   151.3906     5.1666     4.5440
  731.0000   140.7092     5.5393     4.9861
  731.5000   131.1648     5.9108     5.5033
  732.0000   121.6732     6.4763     6.0343
  732.5000   113.0490     7.0589     6.6165
  733.0000   112.6526     7.6947     7.2542
  733.5000   113.3016     8.4433     7.9405
  734.0000   115.1246     8.5646     8.4516
  734.5000   117.0693     8.6946     8.5298
  735.0000   119.2262     8.8267     8.6036
  735.5000   121.4097     8.9607     8.6780
  736.0000   122.9117     9.1193     8.7531
  736.5000   121.5193     9.3010     8.9202
  737.0000   120.9143     9.4864     9.1246
  737.5000   123.2009     9.6753     9.3337
  738.0000   125.6492     9.8695     9.5476
  738.5000   125.0316    10.0259     9.7555
  739.0000   124.2235    10.1730     9.9108
  739.5000   123.6834    10.3224    10.0686
  740.0000   124.5211    10.4740    10.2288
  740.5000   125.2051    10.6278    10.3916
  741.0000   125.8112    10.7954    10.5569
  741.5000   123.0946    10.9738    10.7250
  742.0000   118.6580    11.1553    10.8957
  742.5000   114.1745    11.3398    11.0693
  743.0000   109.9262    11.5272    11.2451
  743.5000   110.0897    11.6519    11.3423
  744.0000   111.6965    11.6864    11.3878
  744.5000   113.2651    11.7211    11.4341
  745.0000   113.3015    11.7533    11.4806
  745.5000   113.0466    11.7776    11.5274
  746.0000   115.0425    11.8019    11.5743
  746.5000   116.7824    11.8263    11.6374
  747.0000   116.3335    11.8585    11.6108
  747.5000   115.9334    11.8333    11.5706
  748.0000   116.0906    11.7944    11.5306
  748.5000   119.0537    11.7558    11.4907
  749.0000   122.0945    11.7175    11.4509
  749.5000   119.6935    11.6793    11.4114
  750.0000   115.1671    11.6412    11.3718
  750.5000   110.4642    11.5879    11.3325
  751.0000   111.1023    11.5331    11.2514
  751.5000   115.2053    11.4786    11.1309
  752.0000   119.3632    11.4203    11.0119
  752.5000   121.2619    11.2805    10.8944
  753.0000   120.0786    11.1313    10.7629
  753.5000   118.4774    10.9839    10.5470
  754.0000   116.8566    10.8385    10.3350
  754.5000   115.4740    10.6951    10.1999
  755.0000   116.3363    10.5535    10.1992
  755.5000   118.8565    10.3968    10.2009
  756.0000   121.3472    10.2293    10.0195
  756.5000   123.8125    10.0645     9.8349
  757.0000   125.8326     9.9023     9.6542
  757.5000   124.4906     9.7428     9.4769
  758.0000   122.4422     9.5858     9.3029
  758.5000   120.3889     9.4314     9.1320
  759.0000   118.3248     9.3020     8.9644
  759.5000   115.3213     9.1890     8.7997
  760.0000   112.3426     9.0774     8.6381
  760.5000   109.3903     8.9670     8.5288
  761.0000   108.6707     8.8580     8.5279
  761.5000   110.2774     8.7501     8.5286
  762.0000   111.8723     8.6909     8.5288
  762.5000   112.5333     8.7320     8.5289
  763.0000   112.2577     8.7651     8.5295
  763.5000   113.5722     8.7984     8.5269
  764.0000   116.1288     8.8318     8.5343
  764.5000   118.6917     8.8562     8.2542
  765.0000   118.3715     8.7245     8.0602
  765.5000   116.9174     8.6023     7.9579
  766.0000   115.4907     8.4823     7.8641
  766.5000   114.3126     8.3640     7.7716
  767.0000   115.7548     8.2475     7.6801
  767.5000   117.3259     8.1325     7.5897
  768.0000   116.2643     8.0192     7.5003
  768.5000   114.5768     7.9074     7.4120
  769.0000   114.3499     7.7972     7.3247
  769.5000   116.7630     7.6882     7.2385
  770.0000   119.1627     7.5669     7.1533
  770.5000   119.5877     7.4167     7.0651
  771.0000   117.3388     7.2703     6.8714
  771.5000   115.1322     7.1268     6.6728
  772.0000   113.8943     6.9759     6.4798
  772.5000   113.8917     6.7370     6.2926
  773.0000   113.9933     6.5051     6.1107
  773.5000   115.9286     6.1893     5.9342
  774.0000   117.8336     6.1933     5.7627
  774.5000   118.2522     6.1339     5.5961
  775.0000   115.9006     6.4145     5.5303
  775.5000   113.8595     6.7396     5.8905
  776.0000   114.9249     6.8488     6.2088
  776.5000   118.4175     7.0079     6.5444
  777.0000   119.5295     7.3653     6.8980
  777.5000   118.0473     7.7409     7.2708
  778.0000   116.7310     8.1356     7.6643
  778.5000   117.7015     8.4810     8.0607
  779.0000   119.3736     8.6160     8.2087
  779.5000   120.4814     8.7531     8.3529
  780.0000   119.5303     8.9400     8.5020
  780.5000   118.3715     8.9322     8.6949
  781.0000   118.4389     8.9205     8.6881
  781.5000   118.6511     8.9087     8.6909
  782.0000   118.6353     8.8970     8.6909
  782.5000   117.6341     8.8853     8.6909
  783.0000   116.6546     8.8737     8.6501
  783.5000   115.6854     8.8620     8.6048
  784.0000   115.1170     8.8298     8.5597
  784.5000   115.9514     8.7776     8.5148
  785.0000   115.9916     8.7258     8.4701
  785.5000   115.2043     8.6743     8.4256
  786.0000   114.3932     8.6231     8.3814
  786.5000   115.4742     8.5722     8.3374
  787.0000   117.1398     8.5216     8.2914
  787.5000   118.0805     8.4712     8.2143
  788.0000   118.6173     8.3085     8.1337
  788.5000   120.3640     8.0592     8.0540
  789.0000   119.4661     7.8167     7.9746
  789.5000   117.5387     7.5357     7.8541
  790.0000   115.7140     7.2512     7.5392
  790.5000   118.0296     6.9774     7.2370
  791.0000   121.8918     6.6234     6.9469
  791.5000   125.7493     6.2278     6.6684
  792.0000   127.0212     5.6568     6.2761
  792.5000   121.1417     5.0212     5.8777
  793.0000   116.1531     4.4570     5.4191
  793.5000   112.3405     3.9562     4.7184
  794.0000   110.5421     3.5117     4.1082
  794.5000   109.3781     3.1171     3.3922
  795.0000   110.9006     2.7850     2.7151
  795.5000   113.5972     2.6006     2.4027
  796.0000   116.2706     2.5780     2.2485
  796.5000   118.7948     2.5962     2.1769
  797.0000   119.5884     2.6230     2.2673
  797.5000   120.2875     2.6216     2.4650
  798.0000   121.1517     3.2110     2.7928
  798.5000   114.4249     3.6808     3.1641
  799.0000   104.5173     4.1731     3.5826
  799.5000    92.6417     4.6609     4.0206
  800.0000   100.5119     5.1688     4.7277
  800.5000   116.2942     5.7227     5.4876
  801.0000  -999.2500     6.1539     6.1361
  801.5000  -999.2500     6.4079     6.5813
  802.0000  -999.2500     6.6769     6.9984
  802.5000  -999.2500     6.8286     7.1247
  803.0000  -999.2500     6.8752     7.2616
  803.5000  -999.2500     6.9221     7.4052
  804.0000  -999.2500     6.9693     7.3651
  804.5000  -999.2500     6.9984     7.3240
  805.0000  -999.2500     6.9985     7.2832
  805.5000  -999.2500     6.9987     7.2634
  806.0000  -999.2500     6.9704     7.2457
  806.5000  -999.2500     6.9363     7.2280
  807.0000  -999.2500     6.9022     7.2104
  807.5000  -999.2500     6.8683     7.1928
  808.0000  -999.2500     6.8345     7.1753
  808.5000  -999.2500     6.8034     7.1578
  809.0000  -999.2500     6.8034     7.1404
  809.5000  -999.2500     6.8727     7.1145
  810.0000  -999.2500     6.9346     7.0559
  810.5000  -999.2500     6.9956     6.9978
  811.0000  -999.2500     7.1714     6.9402
  811.5000  -999.2500     7.3654     6.8678
  812.0000  -999.2500     7.5651     6.8782
  812.5000  -999.2500  -999.2500     6.8924
  813.0000  -999.2500  -999.2500     6.9067
  813.5000  -999.2500  -999.2500     6.9210
  814.0000  -999.2500  -999.2500     6.9330
  814.5000  -999.2500  -999.2500     6.9322
  815.0000  -999.2500  -999.2500     7.0085
  815.5000  -999.2500  -999.2500     7.0646
  816.0000  -999.2500  -999.2500     7.0646
  816.5000  -999.2500  -999.2500     7.0646
  817.0000  -999.2500  -999.2500     7.0646
  817.5000  -999.2500  -999.2500     7.0646
  818.0000  -999.2500  -999.2500     7.0646
  818.5000  -999.2500  -999.2500     7.0646
