~VERSION INFORMATION
 VERS.                2.0:   CWLS LOG ASCII STANDARD - VERSION 2.0
 WRAP.                 NO:   ONE LINE PER DEPTH STEP
~WELL INFORMATION
#MNEM.UNIT      DATA TYPE    INFORMATION
#----------   ------------   ------------------------------
 STRT.F           30.5000:   START DEPTH
 STOP.F          692.0000:   STOP DEPTH
 STEP.F            0.5000:   STEP LENGTH
 NULL.          -999.2500:   NO VALUE
 COMP. FENIX & SCISSON INC:   COMPANY
 WELL.   27-S-11-WP #3-11:   WELL
 FLD .  TEAPOT DOME NPR-3:   FIELD
 LOC .      S11 T38N R78W:   LOCATION
 CNTY.            NATRONA:   COUNTY
 STAT.            WYOMING:   STATE
 CTRY. UNITED STATES OF AMERICA:   COUNTRY
 SRVC.       Schlumberger:   SERVICE COMPANY
 DATE.        18-FEB-1978:   LOGDATE
 API .       490251058100:   API NUMBER
~CURVE INFORMATION
#MNEM.UNIT       API CODE    CURVE DESCRIPTION
#----------   ------------   ------------------------------
 DEPT.F                  :   
 CALD.IN     45 280 60 00:   CALIPER FROM DENSITY LOG
 CORR.G/C3   45 356 01 00:   DENSITY CORRECTION
 DPHI.DEC    45 890 12 00:   DENSITY POROSITY SANDSTONE
 GRD .GAPI   45 310 01 00:   GAMMA RAY FROM DENSITY LOG
 RHOB.G/C3   45 350 01 00:   BULK DENSITY
 ILD .OHMM   05 110 46 00:   INDUCTION LOG DEEP
 SN  .OHMM   05 040 16 00:   SHORT NORMAL 16"
 SPR .MV     05 010 01 00:   SPONTANEOUS POTENSIAL FROM RES.
~PARAMETER INFORMATION
#MNEM.UNIT          VALUE    DESCRIPTION
#----------   ------------   ------------------------------
 PD  .                 GL:   PERMANENT DATUM
 EPD .F              5195:   ELEVATION PERMANENT DATUM
 LMF .                 KB:   LOG MEASURED FROM
 DAPD.F                 4:   FEET ABOVE PERMANENT DATUM
 DMF .                 KB:   DRILLING MEASURED FROM
 EKB .F              5199:   KELLING BUSHING
 EGL .F              5195:   GROUND LEVEL
 DATE.        18-FEB-1978:   RUN DATE
 RUN .                  1:   RUN NUMBER
 DD  .F               690:   DEPTH DRILLER
 DL  .F               695:   DEPTH LOGGER
 BLI .F               688:   BOTTOM LOG INTERVAL
 TLI .F                40:   TOP LOG INTERVAL
 CS  .IN            8.625:   CASING SIZE
 CBD .F                40:   CASING BOTTOM DRILLER
 CBL .F                40:   CASING BOTTOM LOGGER
 BS  .IN            7.875:   BIT SIZE
 BSD .F               690:   BIT SIZE AT DEPTH
 DFT .       LIGNO/ SULF.:   DRILLING FLUID TYPE
 DFD .                8.8:   DRILLING FLUID DENSITY
 DFV .                 33:   DRILLING FLUID VISCOSITY
 DFPH.               10.0:   DRILLING FLUID PH
 DFL .                5.0:   DRILLING FLUID LOSS
 MSS .           FLOWLINE:   MUD SAMPLE SOURCE
 RMS .OHMM            1.7:   RESISTIVITY MUD SAMPLE
 MST .F                66:   MUD SAMPLE TEMPERATURE
 RMF .OHMM            2.0:   RESISTIVITY MUD FILTRATE SAMPLE
 MFST.F                58:   MUD FILTRATE SAMPLE TEMPERATURE
 RMC .OHMM            3.0:   RESISTIVITY MUD CAKE
 MCST.F                60:   MUD CAKE SAMPLE TEMPERATURE
 MFSS.               MEAS:   MUD FILTRATE SAMPLE SOURCE
 RMB .OHMM           1.65:   RESISTIVITY MUD AT BHT
 BHT .F                68:   BOTTOM HOLE TEMPERATURE
 TCS .HRS               2:   TIME CURCULATED STOPPED
 MRT .F                68:   MAXIMUM RECORDED TEMPERATURE
 LUN .               2958:   LOGGING UNIT NUMBER
 LUL .             CASPER:   LOGGING UNIT LOCATION
 ENGI.            POINTER:   RECORDING ENGINEER
 WITN.           MCGINLEY:   WITNESSED BY
 CLNT.            A2DTECH:   CLIENT CODE
 ORIG.           5" PRINT:   ORIGIN OF DATA
 UWI .       490251058100:   UNIQUE WELL ID
~OTHER INFORMATION
~A   DEPT     CALD       CORR       DPHI         GRD      RHOB        ILD         SN        SPR   
# ...
  435.5000     7.9408     0.0537     0.0895   101.0196     2.5014     5.4382     6.7847   -34.3741
  436.0000     7.8469     0.0685     0.0885    95.4048     2.4968     5.4318     6.9682   -34.2500
  436.5000     7.7991     0.0850     0.0877    91.3073     2.5005     5.4643     7.0572   -34.1259
  437.0000     7.6898     0.1001     0.0947    95.2357     2.5035     5.5802     7.0457   -34.1555
  437.5000     7.4729     0.1090     0.0975    97.9542     2.4935     5.8185     7.0863   -34.1898
  438.0000     7.3483     0.1165     0.0987    99.9151     2.4859     6.1305     7.0767   -36.3523
  438.5000     7.3158     0.1239     0.1006   100.5293     2.4858     6.3415     7.1172   -36.0687
  439.0000     7.3140     0.1300     0.1018   101.8650     2.4895     6.3804     7.2080   -35.7922
  439.5000     7.3776     0.1357     0.1047   104.8866     2.4681     6.4628     7.1983   -35.8277
  440.0000     7.5404     0.1279     0.1153   108.3626     2.4452     6.4534     7.1367   -35.8560
  440.5000     7.6461     0.1141     0.1278   108.2023     2.4315     6.1807     7.0777   -35.7249
  441.0000     7.6755     0.0987     0.1372   106.9814     2.4200     5.7562     7.0685   -35.4555
  441.5000     7.6733     0.0849     0.1442   105.7605     2.4078     5.3609     6.9611   -35.0265
  442.0000     7.6715     0.0665     0.1567   103.8908     2.3976     5.1344     6.6197   -34.7500
  442.5000     7.6697     0.0494     0.1546   101.6498     2.3886     4.9521     6.0785   -34.4735
  443.0000     7.6846     0.0570     0.1412   105.7320     2.4044     4.9454     5.8618   -34.5031
  443.5000     7.7118     0.0736     0.1137   109.9656     2.4636     4.9752     5.8541   -34.5373
  444.0000     7.7561     0.0780     0.1034   110.4136     2.4764     5.0083     5.8465   -34.4062
  444.5000     7.8158     0.0626     0.1031   108.7359     2.4634     5.1750     5.8389   -34.2821
  445.0000     7.9061     0.0503     0.1038   108.8786     2.4603     5.3906     6.1671   -34.3176
  445.5000     7.9965     0.0410     0.1038   110.2556     2.4708     5.6944     6.5143   -34.3459
  446.0000     8.0255     0.0282     0.0990   110.9823     2.4784     6.1000     6.9397   -34.3743
  446.5000     8.0237     0.0163     0.0941   105.5168     2.4851     6.4890     7.3250   -34.4027
  447.0000     8.0214     0.0101     0.0929   101.5686     2.4880     6.7594     7.7263   -34.4311
  447.5000     8.0197     0.0039     0.0924   100.6507     2.4887     6.8968     7.9353   -34.4594
  448.0000     8.0179     0.0007     0.0927   100.7934     2.4916     6.9371     8.0931   -34.4878
  448.5000     8.0161     0.0081     0.0916   100.8111     2.4946     7.0740     8.3704   -34.9868
  449.0000     8.0143     0.0156     0.0852    99.0929     2.4991     7.1656     8.5396   -35.3067
  449.5000     8.0280     0.0214     0.0840    97.5831     2.5050     7.3088     8.5884   -35.1827
  450.0000     8.0261     0.0228     0.0862    96.6674     2.5011     7.4552     8.7596   -34.6037
  450.5000     8.0110     0.0211     0.0865    97.2525     2.4995     7.6579     8.9986   -34.6326
  451.0000     7.9959     0.0225     0.0881    98.1442     2.5025     7.7568     9.0531   -34.6616
  451.5000     7.9898     0.0222     0.0890    99.1874     2.5001     7.7454     9.1060   -34.6962
  452.0000     7.9880     0.0236     0.0875    99.6246     2.4992     7.7930     9.0970   -34.7246
  452.5000     7.9858     0.0234     0.0891    97.7847     2.5022     7.7816     9.0882   -34.7531
  453.0000     7.9841     0.0232     0.0907    96.8582     2.4975     7.7726     9.0793   -34.7816
  453.5000     7.9981     0.0246     0.0913    96.6937     2.4967     7.7635     9.0704   -34.3456
  454.0000     7.9959     0.0259     0.0923    96.8278     2.4981     7.7544     8.9966   -34.2216
  454.5000     7.9941     0.0272     0.0920    96.9576     2.4988     7.8020     9.0533   -34.2572
  455.0000     7.9924     0.0286     0.0899    96.9359     2.4987     7.7906     8.9167   -34.2857
  455.5000     8.0213     0.0299     0.0872    96.9185     2.4963     7.7816     8.9081   -34.3141
  456.0000     8.0191     0.0297     0.0848    96.7497     2.4985     7.7725     8.8995   -34.3426
  456.5000     8.0174     0.0311     0.0824    96.5808     2.5083     7.7634     8.8910   -34.3711
  457.0000     8.0156     0.0309     0.0804    96.4119     2.5143     7.8636     8.9470   -34.3995
  457.5000     7.9985     0.0307     0.0792    96.5460     2.5157     7.8542     9.1258   -34.4284
  458.0000     7.9809     0.0305     0.0792    96.9789     2.5171     7.9004     9.3105   -34.4573
  458.5000     7.9484     0.0303     0.0796    97.4160     2.5171     7.8338     9.4326   -34.4920
  459.0000     7.9159     0.0301     0.0832    97.7017     2.5139     7.7159     9.3578   -34.3610
  459.5000     7.9142     0.0300     0.0902    97.6843     2.5017     6.7002     9.2189   -33.9392
  460.0000     7.8817     0.0283     0.1073    97.8185     2.4796     6.1533     8.8890   -33.6557
  460.5000     7.6784     0.0266     0.1186    98.1041     2.4590     5.9348     8.4948   -33.3793
  461.0000     8.1542     0.0233     0.1344    98.6885     2.4316     5.9278     7.8786   -33.4149
  461.5000     8.0910     0.0155     0.1408    99.1300     2.4033     5.9209     7.2370   -33.4433
  462.0000     7.5363     0.0032     0.1275    96.6840     2.4124     5.9573     7.0304   -35.3011
  462.5000     7.3655     0.0121     0.1002    95.7576     2.4533     6.0324     6.9763   -35.7868
  463.0000     7.3824     0.0332     0.0845    96.4934     2.4821     6.1532     7.4210   -35.8153
  463.5000     7.8996     0.0452     0.0675    99.8094     2.5245     6.5000     8.0634   -35.8438
  464.0000     7.8974     0.0450     0.0663    98.5799     2.5343     7.1187     8.9473   -36.0247
  464.5000     7.8957     0.0448     0.0655    92.3504     2.5395     7.8138     9.7901   -36.0534
  465.0000     7.9097     0.0447     0.0668    91.8687     2.5394     8.8724    10.0583   -36.0823
  465.5000     7.9229     0.0445     0.0701    92.5031     2.5385     8.9896    10.3339   -36.2637
  466.0000     7.9210     0.0443     0.0735    94.2637     2.5377     9.0421    10.6916   -35.8408
  466.5000     7.9347     0.0441     0.0747    96.0645     2.5277     9.0290    10.9081   -35.4119
  467.0000     7.9325     0.0440     0.0754    96.8047     2.5269     9.0184    11.1322   -35.4404
  467.5000     7.9000     0.0437     0.0803    96.0297     2.5238     9.0079    11.1961   -35.4688
  468.0000     7.7753     0.0436     0.0849    94.7839     2.5158     8.9974    11.2639   -36.1071
  468.5000     7.6660     0.0450     0.0861    93.8694     2.5053     9.0526    11.3321   -37.2026
  469.0000     7.6331     0.0478     0.0880    94.7611     2.5015     9.1668    11.3184   -37.3835
  469.5000     7.6314     0.0506     0.0908    95.9559     2.4999     9.4161    11.3075   -37.4120
  470.0000     7.6296     0.0617     0.0975    96.8476     2.5157     9.8084    11.3787   -38.0502
  470.5000     7.5971     0.0806     0.1061    97.1333     2.4807    10.4354    11.8525   -38.6884
  471.0000     7.4264     0.0941     0.1134    96.0510     2.4621    11.3603    12.7887   -38.8693
  471.5000     7.2534     0.1031     0.1213    93.3063     2.4251    12.6289    14.4916   -40.1204
  472.0000     7.1920     0.1075     0.1642    84.1980     2.3976    14.6465    16.3069   -41.2378
  472.5000     7.1902     0.1027     0.2094    73.7261     2.3080    16.1918    18.2215   -43.2775
  473.0000     7.1885     0.0965     0.2235    67.9512     2.2729    16.8934    21.0861   -44.0137
  473.5000     7.2481     0.1130     0.2129    62.4846     2.2888    17.6328    21.9693   -42.0676
  474.0000     7.3078     0.1189     0.1865    56.2454     2.3485    18.4965    22.8894   -42.0960
  474.5000     7.3521     0.1035     0.1518    52.7432     2.4253    19.2673    22.8668   -42.1245
  475.0000     7.3499     0.0957     0.1611    53.9394     2.3895    19.3799    22.6851   -43.0676
  475.5000     7.3640     0.1047     0.1723    60.4328     2.3697    19.7680    22.6587   -44.0107
