~VERSION INFORMATION
 VERS.                2.0:   CWLS LOG ASCII STANDARD - VERSION 2.0
 WRAP.                 NO:   ONE LINE PER DEPTH STEP
~WELL INFORMATION
#MNEM.UNIT      DATA TYPE    INFORMATION
#----------   ------------   ------------------------------
 STRT.F           16.0000:   START DEPTH
 STOP.F          661.0000:   STOP DEPTH
 STEP.F            0.5000:   STEP LENGTH
 NULL.          -999.2500:   NO VALUE
 COMP. FENIX & SCISSON INC:   COMPANY
 WELL.  26-66 SX 11 #I-11:   WELL
 FLD .             TEAPOT:   FIELD
 LOC .      S11 T38N R78W:   LOCATION
 CNTY.            NATRONA:   COUNTY
 STAT.            WYOMING:   STATE
 CTRY. UNITED STATES OF AMERICA:   COUNTRY
 SRVC.      Dresser Atlas:   SERVICE COMPANY
 DATE.        22-JUL-1980:   LOGDATE
 API .       490251083200:   API NUMBER
~CURVE INFORMATION
#MNEM.UNIT       API CODE    CURVE DESCRIPTION
#----------   ------------   ------------------------------
 DEPT.F                  :   
 SFL .OHMM   07 220 01 00:   SHALLOW FOCUSED LOG RESISTIVITY
 ILD .OHMM   07 120 46 00:   INDUCTION LOG DEEP
 ILM .OHMM   07 120 44 00:   INDUCTION LOG MEDIUM
 SPR .MV     07 010 01 00:   SPONTANEOUS POTENTIAL
 CALD.IN     45 280 60 00:   CALIPER
 GRD .GAPI   45 310 01 00:   GAMMA RAY FROM DENSITY LOG
 RHOB.G/C3   45 350 01 00:   BULK DENSITY
 CORR.G/C3   45 356 01 00:   DENSITY CORRECTION
 DPHI.DEC    45 890 12 00:   DENSITY POROSITY SANDSTONE
 NPHI.DEC    42 890 03 00:   NEUTRON POROSITY SANDSTONE
~PARAMETER INFORMATION
#MNEM.UNIT          VALUE    DESCRIPTION
#----------   ------------   ------------------------------
 PD  .                 GL:   PERMANENT DATUM
 EPD .F              5193:   ELEVATION PERMANENT DATUM
 LMF .                 KB:   LOG MEASURED FROM
 DAPD.F                 5:   FEET ABOVE PERMANENT DATUM
 DMF .                 KB:   DRILLING MEASURED FROM
 EKB .F              5198:   KELLING BUSHING
 EDF .F              5196:   DRILLING FLOOR
 EGL .F              5193:   GROUND LEVEL
 DATE.            7-22-80:   RUN DATE
 RUN .                  1:   RUN NUMBER
 DD  .F               655:   DEPTH DRILLER
 DL  .F               655:   DEPTH LOGGER
 BLI .F               653:   BOTTOM LOG INTERVAL
 TLI .F                20:   TOP LOG INTERVAL
 BS  .IN            7.875:   BIT SIZE
 BSD .F               655:   BIT SIZE AT DEPTH
 DFT .                KCL:   DRILLING FLUID TYPE
 DFD .                9.1:   DRILLING FLUID DENSITY
 DFV .                 46:   DRILLING FLUID VISCOSITY
 DFPH.                 11:   DRILLING FLUID PH
 DFL .                  6:   DRILLING FLUID LOSS
 MSS .           FLOWLINE:   MUD SAMPLE SOURCE
 RMS .OHMM            .17:   RESISTIVITY MUD SAMPLE
 MST .F                75:   MUD SAMPLE TEMPERATURE
 RMF .OHMM            .13:   RESISTIVITY MUD FILTRATE SAMPLE
 MFST.F                75:   MUD FILTRATE SAMPLE TEMPERATURE
 RMC .OHMM            .26:   RESISTIVITY MUD CAKE
 MCST.F                75:   MUD CAKE SAMPLE TEMPERATURE
 MFSS.                  C:   MUD FILTRATE SAMPLE SOURCE
 MCSS.                  C:   MUD CAKE SAMPLE SOURCE
 TCS .HRS               1:   TIME CURCULATED STOPPED
 LUN .               6240:   LOGGING UNIT NUMBER
 LUL .               RVTN:   LOGGING UNIT LOCATION
 ENGI.   K. RALL/J. GETTY:   RECORDING ENGINEER
 WITN.            RHOADES:   WITNESSED BY
 CLNT.            A2DTECH:   CLIENT CODE
 ORIG.        2" 5" PRINT:   ORIGIN OF DATA
 UWI .       490251083200:   UNIQUE WELL ID
 DICO. A2D Technologies, Inc.:   DIGITIZING COMPANY
~OTHER INFORMATION
~A   DEPT      SFL        ILD        ILM        SPR       CALD        GRD       RHOB       CORR         DPHI     NPHI   
# ...
  150.0000     6.7769     6.5556     6.2929   -62.4457     8.0285   105.3756     2.4518     0.0385     0.1350     0.3032
  150.5000     6.8523     6.6037     6.3533   -63.3615     8.0301   107.0373     2.4541     0.0289     0.1342     0.2980
  151.0000     6.9218     6.6522     6.3701   -63.4144     8.0317   108.4419     2.4520     0.0181     0.1363     0.2898
  151.5000     6.9923     6.7010     6.3878   -63.4080     8.0333   107.4160     2.4449     0.0073     0.1394     0.2979
  152.0000     7.0953     6.8396     6.4058   -63.4064     8.0348   105.4389     2.4346    -0.0033     0.1454     0.3179
  152.5000     6.9998     6.8052     6.4238   -63.4628     8.0364   105.0508     2.4272    -0.0098     0.1494     0.3185
  153.0000     6.8396     6.7682     6.4419   -63.8695     8.0380   107.3020     2.4360    -0.0010     0.1418     0.3310
  153.5000     6.8983     6.7314     6.4600   -64.2165     8.0396   108.4961     2.4632     0.0272     0.1277     0.3394
  154.0000     6.9786     6.7147     6.5318   -64.1631     8.0411   105.8654     2.4931     0.0587     0.1137     0.3339
  154.5000     7.0983     6.8299     6.6559   -64.1165     8.0423   101.3635     2.5068     0.0572     0.1024     0.2934
  155.0000     7.1650     7.0439     6.7600   -64.0712     8.0422    99.1482     2.4911     0.0507     0.1087     0.2798
  155.5000     7.1587     7.2653     6.9025   -64.0261     8.0422    98.9911     2.4746     0.0440     0.1195     0.2809
  156.0000     7.3876     7.4929     6.8809   -63.9809     8.0422   100.3578     2.4719     0.0426     0.1251     0.2881
  156.5000     7.5689     7.7809     6.8517   -63.9359     8.0422   102.4765     2.4818     0.0432     0.1188     0.3024
  157.0000     7.4655     7.5958     6.7113   -63.8915     8.0422   104.5786     2.4785     0.0439     0.1176     0.3090
  157.5000     7.3353     7.3648     6.5424   -63.8453     8.0422   106.6843     2.4724     0.0450     0.1226     0.3007
  158.0000     7.2068     7.1409     6.3778   -63.7337     8.0422   108.8234     2.4732     0.0499     0.1267     0.2942
  158.5000     7.0802     6.9237     6.2143   -63.3433     8.0422   108.7800     2.4835     0.0568     0.1181     0.2971
  159.0000     6.9141     6.7205     6.0734   -62.9604     8.0422   105.3418     2.4853     0.0536     0.1176     0.3193
  159.5000     6.7245     6.5836     5.9813   -62.6070     8.0422   101.8014     2.4596     0.0338     0.1254     0.3261
  160.0000     6.5402     6.4494     5.9311   -62.5991     8.0422   100.4764     2.4394     0.0143     0.1410     0.3339
  160.5000     6.4125     6.3180     5.9024   -62.6020     8.0423   104.4490     2.4303     0.0041     0.1494     0.3368
  161.0000     6.4990     6.2955     5.9024   -62.5911     8.0423   107.3412     2.4380     0.0199     0.1462     0.3341
  161.5000     6.5627     6.3457     5.9173   -62.3844     8.0400   106.3463     2.4420     0.0396     0.1417     0.3274
  162.0000     6.6270     6.3811     5.9317   -62.1822     8.0369   104.1452     2.4447     0.0380     0.1406     0.3298
  162.5000     6.6920     6.4167     5.9456   -61.9730     8.0338   103.2010     2.4498     0.0351     0.1404     0.3345
  163.0000     6.7147     6.4524     5.9582   -61.5102     8.0306   107.8879     2.4601     0.0379     0.1351     0.3285
  163.5000     6.7147     6.4719     5.8496   -61.0592     8.0275   113.5226     2.4695     0.0479     0.1299     0.3056
  164.0000     6.6511     6.3818     5.7984   -60.6077     8.0243   114.7665     2.4720     0.0523     0.1243     0.3064
  164.5000     6.5918     6.3112     5.7411   -60.4940     8.0212   110.5012     2.4739     0.0493     0.1234     0.3178
  165.0000     6.5329     6.2415     5.6889   -60.3776     8.0181   107.3153     2.4717     0.0438     0.1231     0.3213
  165.5000     6.4746     6.1724     5.6889   -60.2601     8.0149   107.3874     2.4679     0.0382     0.1247     0.3246
  166.0000     6.4168     6.1231     5.7954   -60.1986     8.0118   109.6053     2.4641     0.0332     0.1295     0.3317
  166.5000     6.3544     6.1191     5.9070   -60.2540     8.0086   113.1486     2.4684     0.0383     0.1261     0.3446
  167.0000     6.4546     6.2402     6.0208   -60.3072     8.0055   115.0199     2.4758     0.0426     0.1226     0.3433
  167.5000     6.6098     6.2378     6.1239   -60.3611     8.0023   113.3307     2.4797     0.0426     0.1191     0.3364
  168.0000     6.8750     6.4931     6.1890   -60.3827     8.0020   107.4584     2.4699     0.0383     0.1216     0.3123
  168.5000     7.2282     6.7814     6.3177   -60.3829     8.0020   102.0246     2.4585     0.0329     0.1300     0.2964
  169.0000     7.1593     7.0824     6.4491   -60.3829     8.0020   103.2043     2.4521     0.0310     0.1355     0.2909
  169.5000     7.0651     7.2282     6.5922   -60.3847     8.0020   105.7794     2.4579     0.0386     0.1351     0.2890
  170.0000     6.9668     7.2138     6.6532   -60.4883     8.0020   107.4512     2.4688     0.0465     0.1277     0.3250
  170.5000     7.0686     7.1871     6.7114   -60.7470     8.0020   107.0023     2.4744     0.0543     0.1207     0.3444
  171.0000     7.1270     7.1606     6.7769   -60.9694     8.0020   107.8387     2.4654     0.0449     0.1240     0.3441
  171.5000     7.1619     7.1341     6.7769   -60.6416     8.0020   109.9773     2.4492     0.0325     0.1391     0.3263
  172.0000     7.2343     7.1077     6.6365   -60.2915     8.0020   111.4391     2.4470     0.0310     0.1391     0.3068
  172.5000     7.3626     7.0963     6.5348   -60.4315     8.0020   111.0289     2.4772     0.0389     0.1222     0.2959
  173.0000     7.2146     7.0312     6.4346   -60.8001     8.0020   110.6447     2.5013     0.0513     0.1061     0.3013
  173.5000     7.0992     6.9668     6.3360   -61.1731     8.0020   111.1386     2.5087     0.0639     0.1024     0.3075
  174.0000     6.9366     6.8271     6.2378   -61.5284     8.0020   111.5643     2.5021     0.0646     0.1077     0.3198
  174.5000     6.8396     6.6995     6.2140   -62.3013     8.0023   108.7766     2.4882     0.0619     0.1154     0.3287
  175.0000     6.7724     6.5742     6.1901   -63.1052     8.0048   108.4837     2.4756     0.0595     0.1239     0.3089
  175.5000     6.6613     6.4513     6.1806   -63.9096     8.0074   109.1707     2.4699     0.0596     0.1255     0.3007
  176.0000     6.5305     6.3307     6.2581   -64.6621     8.0099   109.8245     2.4677     0.0630     0.1259     0.3114
  176.5000     6.5322     6.1778     6.3554   -64.8261     8.0125   108.1039     2.4629     0.0630     0.1310     0.3441
  177.0000     6.6198     6.1771     6.4545   -64.8193     8.0150   107.2966     2.4501     0.0554     0.1400     0.3579
  177.5000     6.7086     6.2402     6.5549   -64.8186     8.0176   105.4263     2.4370     0.0462     0.1494     0.3368
  178.0000     6.7769     6.2378     6.5922   -64.8186     8.0201   103.5900     2.4332     0.0370     0.1462     0.3106
  178.5000     6.9561     6.4419     6.6952   -64.8190     8.0226   103.7525     2.4566     0.0470     0.1327     0.2968
  179.0000     7.1427     6.6783     6.8205   -64.8207     8.0252   105.1060     2.4771     0.0528     0.1206     0.2805
  179.5000     7.3344     6.9233     6.9481   -64.8105     8.0277   105.0607     2.4815     0.0549     0.1196     0.2817
  180.0000     7.5311     7.1776     7.0784   -64.4623     8.0303   101.8334     2.4861     0.0469     0.1147     0.2867
  180.5000     7.7338     7.4408     7.0966   -64.0972     8.0328    97.9604     2.4911     0.0391     0.1116     0.2852
  181.0000     7.9279     7.6403     7.1373   -63.4008     8.0354    95.1749     2.4752     0.0302     0.1239     0.2770
  181.5000     7.9281     7.6389     7.2002   -62.6275     8.0379    96.0808     2.4481     0.0102     0.1394     0.2733
  182.0000     7.6947     7.7383     7.2621   -61.8509     8.0405   101.5372     2.4315     0.0033     0.1478     0.2769
  182.5000     7.5689     7.7809     7.2973   -61.0631     8.0423   106.6125     2.4586     0.0112     0.1287     0.2840
  183.0000     7.7209     7.7096     7.0655   -60.5848     8.0398   107.3693     2.4902     0.0459     0.1104     0.2840
