~VERSION INFORMATION
 VERS.                2.0:   CWLS LOG ASCII STANDARD - VERSION 2.0
 WRAP.                 NO:   ONE LINE PER DEPTH STEP
~WELL INFORMATION
#MNEM.UNIT      DATA TYPE    INFORMATION
#----------   ------------   ------------------------------
 STRT.F           27.0000:   START DEPTH
 STOP.F          670.0000:   STOP DEPTH
 STEP.F            0.5000:   STEP LENGTH
 NULL.          -999.2500:   NO VALUE
 COMP. LAWRENCE/ALLISON INC:   COMPANY
 WELL. SX 11 WP 26 #26-11:   WELL
 FLD .           N.P.R #3:   FIELD
 LOC .      S11 T38N R78W:   LOCATION
 CNTY.            NATRONA:   COUNTY
 STAT.            WYOMING:   STATE
 CTRY. UNITED STATES OF AMERICA:   COUNTRY
 SRVC.            Unknown:   SERVICE COMPANY
 DATE.        11-SEP-1984:   LOGDATE
 API .       490251097700:   API NUMBER
~CURVE INFORMATION
#MNEM.UNIT       API CODE    CURVE DESCRIPTION
#----------   ------------   ------------------------------
 DEPT.F                  :   
 CNC .DEC    42 890 03 00:   NEUTRON POROSITY SANDSTONE
 AC  .US/F   60 520 00 00:   ACCOUSTIC SONIC
 SPR .MV     07 010 01 00:   SPONTANEOUS POTENTIAL
 RILD.OHMM   07 120 46 00:   INDUCTION LOG DEEP RESISTIVITY
 RILM.OHMM   07 120 44 00:   INDUCTION LOG MEDIUM RESISTIVITY
 RFOC.OHMM   07 220 04 00:   RESISTIVITY FOCUSED LOG
 GRD .GAPI   45 310 01 00:   GAMMA RAY FROM DENSITY LOG
 CALD.IN     45 280 60 00:   CALIPER FROM DENSITY LOG
 DEN .G/C3   45 350 01 00:   COMPENSATED BULK DENSTIY
 CORR.G/C3   45 356 01 00:   DENSITY CORRECTION
 PORD.DEC    45 890 12 00:   POROSITY DENSITY SANDSTONE
~PARAMETER INFORMATION
#MNEM.UNIT          VALUE    DESCRIPTION
#----------   ------------   ------------------------------
 PD  .                 GL:   PERMANENT DATUM
 EPD .F              5186:   ELEVATION PERMANENT DATUM
 LMF .                 GL:   LOG MEASURED FROM
 DMF .                 GL:   DRILLING MEASURED FROM
 EGL .F              5186:   GROUND LEVEL
 DATE.            9-11-84:   RUN DATE
 RUN .                  1:   RUN NUMBER
 DD  .F               672:   DEPTH DRILLER
 DL  .F               668:   DEPTH LOGGER
 BLI .F               668:   BOTTOM LOG INTERVAL
 TLI .F                45:   TOP LOG INTERVAL
 CS  .IN            8.625:   CASING SIZE
 CBD .F                42:   CASING BOTTOM DRILLER
 CBL .F                45:   CASING BOTTOM LOGGER
 BS  .IN            7.875:   BIT SIZE
 BSD .F               672:   BIT SIZE AT DEPTH
 DFT .          KCL WATER:   DRILLING FLUID TYPE
 MSS .               TANK:   MUD SAMPLE SOURCE
 RMS .OHMM            .36:   RESISTIVITY MUD SAMPLE
 MST .F                82:   MUD SAMPLE TEMPERATURE
 MFSS.                  C:   MUD FILTRATE SAMPLE SOURCE
 MCSS.                  C:   MUD CAKE SAMPLE SOURCE
 TCS .HRS               3:   TIME CURCULATED STOPPED
 MRT .F               100:   MAXIMUM RECORDED TEMPERATURE
 LUN .            HL 6307:   LOGGING UNIT NUMBER
 LUL .           GILLETTE:   LOGGING UNIT LOCATION
 ENGI.      FAHLSING/MACK:   RECORDING ENGINEER
 WITN.            JOHNSON:   WITNESSED BY
 CLNT.            A2DTECH:   CLIENT CODE
 ORIG.       2", 5" PRINT:   ORIGIN OF DATA
 UWI .       490251097700:   UNIQUE WELL ID
 DICO. A2D Technologies, Inc.:   DIGITIZING COMPANY
~OTHER INFORMATION
~A   DEPT      CNC          AC       SPR       RILD       RILM       RFOC        GRD       CALD        DEN       CORR       PORD   
# ...
  271.0000     0.2809    97.6430   -35.9420     9.7240    10.0970    11.8120    91.9590     8.0580     2.4610     0.0420     0.1320
  271.5000     0.2712    97.4540   -36.0650     9.7560    10.1070    11.8860    91.7180     8.0580     2.4560     0.0500     0.1350
  272.0000     0.2709    97.2650   -36.3060     9.7880    10.1170    11.7390    94.0320     8.0580     2.4520     0.0520     0.1380
  272.5000     0.2805    97.0750   -36.5350     9.8190    10.1270    11.5620    96.6050     8.0580     2.4470     0.0060     0.1400
  273.0000     0.2848    96.7990   -36.7590     9.8510    10.1360    11.4560    96.6240     8.0580     2.4430     0.0060     0.1400
  273.5000     0.2820    96.1530   -36.9870     9.8860    10.1460    11.8410    94.2230     8.0580     2.4480     0.0100     0.1350
  274.0000     0.2770    95.5070   -37.2150     9.8860    10.1560    12.1330    91.8450     8.0580     2.4570     0.0140     0.1290
  274.5000     0.2723    94.8610   -37.4440     9.7960    10.1630    12.2190    89.4270     8.0580     2.4630     0.0030     0.1310
  275.0000     0.2746    95.3690   -37.6720     9.6190     9.9220    11.8920    89.9360     8.0580     2.4550    -0.0100     0.1350
  275.5000     0.2782    96.3060   -37.9010     9.4240     9.7370    11.5860    92.2500     8.0580     2.4430    -0.0180     0.1410
  276.0000     0.2802    97.2770   -38.1310     9.2290     9.5530    11.2800    96.0060     8.0580     2.4320    -0.0100     0.1470
  276.5000     0.2794    98.2490   -38.3650     9.0340     9.3680    10.9740   100.8330     8.0580     2.4220    -0.0010     0.1510
  277.0000     0.2719    99.2130   -38.7040     8.8390     9.1830    10.6680    97.9530     8.0590     2.4260     0.0070     0.1500
  277.5000     0.2660    99.0340   -38.6110     8.6450     8.9990    10.4480    95.1810     8.0590     2.4300     0.0020     0.1490
  278.0000     0.2632    98.8550   -38.4720     8.4500     8.8140    10.7390    92.5610     8.0600     2.4320    -0.0050     0.1500
  278.5000     0.2629    98.7530   -38.3320     8.2550     8.6290    10.9670    94.9710     8.0610     2.4250    -0.0120     0.1550
  279.0000     0.2842    98.9310   -38.1940     8.0730     8.5320    11.1440    97.6780     8.0610     2.4170    -0.0190     0.1580
  279.5000     0.2882    99.1100   -38.0550     7.9990     8.6160    11.0000    98.6120     8.0620     2.4100    -0.0240     0.1610
  280.0000     0.2903    99.1090   -37.9170     8.0780     8.6900    10.7410    97.6230     8.0620     2.4080    -0.0170     0.1620
  280.5000     0.3113    98.8590   -37.7780     8.1520     8.5770    10.7410    96.5140     8.0630     2.4190     0.0160     0.1530
  281.0000     0.3076    98.6100   -37.6390     8.2230     8.4530    10.9290    94.9760     8.0630     2.4320     0.0540     0.1450
  281.5000     0.2979    98.3600   -37.5000     8.1940     8.5160    11.0420    93.4220     8.0640     2.4450     0.0440     0.1400
  282.0000     0.2878    98.6510   -37.3590     8.1600     8.5900    10.8390    91.8730     8.0650     2.4440     0.0270     0.1410
  282.5000     0.2741    99.0250   -37.3950     8.1270     8.6820    10.6110    91.7000     8.0650     2.4420     0.0100     0.1420
  283.0000     0.2824    99.3990   -37.4430     8.0930     8.6510    10.3820    94.0900     8.0660     2.4410     0.0100     0.1430
  283.5000     0.2930    99.7740   -37.4920     8.0590     8.5900    10.1540    96.4140     8.0660     2.4390     0.0170     0.1440
  284.0000     0.2963    99.9100   -37.5400     8.0250     8.5300    10.0700    98.1310     8.0670     2.4380     0.0240     0.1440
  284.5000     0.2919    99.8230   -37.5880     7.9900     8.4690    10.1340    95.8240     8.0670     2.4430     0.0310     0.1410
  285.0000     0.2891    99.6240   -37.6370     7.9520     8.4080    10.2360    96.2890     8.0680     2.4480     0.0370     0.1380
  285.5000     0.2860    99.2770   -37.6860     7.9140     8.3470    10.3370    98.8170     8.0690     2.4530     0.0390     0.1350
  286.0000     0.2637    98.7450   -37.7370     7.8530     8.2990    10.4390   101.3240     8.0690     2.4570     0.0330     0.1330
  286.5000     0.2575    98.2130   -37.9060     7.8850     8.3460    10.5410   100.1630     8.0700     2.4610     0.0250     0.1300
  287.0000     0.2683    97.9930   -38.2470     7.9630     8.3840    10.6420    94.2710     8.0700     2.4650     0.0170     0.1270
  287.5000     0.2779    98.3460   -38.5850     8.0410     8.4230    10.4230    89.1390     8.0710     2.4680     0.0090     0.1260
  288.0000     0.2791    99.2610   -38.9230     8.0730     8.4530    10.2210    90.8930     8.0710     2.4570     0.0030     0.1350
  288.5000     0.2794   100.1750   -39.2610     7.9990     8.4050    10.0200    94.6120     8.0720     2.4420     0.0080     0.1430
  289.0000     0.2800   100.5460   -39.5990     7.8640     8.3110     9.9780    98.3110     8.0730     2.4270     0.0140     0.1510
  289.5000     0.2799   100.8070   -39.9390     7.7280     8.1450    10.0650    99.3740     8.0730     2.4200     0.0160     0.1550
  290.0000     0.2802   100.7690   -40.2790     7.5910     7.9790    10.1540    95.9480     8.0740     2.4260     0.0140     0.1520
  290.5000     0.2858   100.7330   -40.3560     7.4550     7.8140    10.2430    93.3800     8.0740     2.4320     0.0120     0.1490
  291.0000     0.2864   100.7950   -40.4070     7.3190     7.6480    10.3320    94.3030     8.0750     2.4340     0.0100     0.1450
  291.5000     0.2808   101.1060   -40.4550     7.1830     7.4820    10.3520    95.4470     8.0760     2.4370     0.0100     0.1450
  292.0000     0.2743   101.7560   -40.5040     7.0470     7.3160     9.8820    96.9460     8.0760     2.4390     0.0130     0.1440
  292.5000     0.2736   102.3660   -40.5520     6.9100     7.1500     9.3930   100.7290     8.0770     2.4420     0.0160     0.1440
  293.0000     0.2822   102.9750   -40.6000     6.7740     6.9840     8.9040   104.5500     8.0770     2.4400     0.0190     0.1430
  293.5000     0.2909   102.9820   -40.6480     6.6380     6.7150     8.4150   103.2030     8.0780     2.4390     0.0220     0.1420
  294.0000     0.2995   102.3170   -40.6950     6.5020     6.7550     7.9990   101.5090     8.0780     2.4400     0.0240     0.1420
  294.5000     0.2926   101.6510   -40.6990     6.4130     6.8290     8.6410   100.0190     8.0790     2.4420     0.0270     0.1410
  295.0000     0.2859   101.4930   -40.4620     6.4920     6.9030     9.2000   100.6370     8.0800     2.4440     0.0300     0.1410
  295.5000     0.2834   101.8870   -40.2260     6.5620     6.9760     9.7960   101.8490     8.0800     2.4460     0.0260     0.1410
  296.0000     0.2886   102.2810   -39.9890     6.6310     7.0500     9.3490   103.0660     8.0810     2.4480     0.0190     0.1400
  296.5000     0.3040   102.6750   -39.7540     6.7010     7.1230     8.9340   104.3450     8.0810     2.4470     0.0120     0.1400
  297.0000     0.2986   102.4560   -39.8320     6.7700     7.1970     8.9340   102.5830     8.0820     2.4440     0.0050     0.1400
  297.5000     0.2932   101.9570   -39.9290     6.8400     7.2710     9.3260   100.1240     8.0820     2.4420     0.0070     0.1420
  298.0000     0.2860   101.5140   -40.0260     6.9090     7.3440     9.6380    97.6430     8.0830     2.4390     0.0080     0.1420
  298.5000     0.2900   101.2830   -40.1220     6.9790     7.4180     9.9780    95.0980     8.0840     2.4370     0.0100     0.1430
  299.0000     0.2937   101.5490   -40.2190     7.0480     7.4920     9.9780    94.6970     8.0840     2.4410     0.0120     0.1420
  299.5000     0.2952   101.8160   -40.3160     7.1180     7.5650     9.8860    95.4850     8.0850     2.4450     0.0130     0.1400
  300.0000     0.2884   101.8600   -40.4120     7.1870     7.6390     9.7960    97.8920     8.0850     2.4490     0.0150     0.1370
  300.5000     0.2745   101.3850   -40.5110     7.2570     7.7130     9.7960    99.9190     8.0860     2.4500     0.0110     0.1370
  301.0000     0.2732   100.9100   -40.4710     7.3260     7.7860     9.8860    98.9010     8.0860     2.4420     0.0080     0.1420
