~VERSION INFORMATION
 VERS.                2.0:   CWLS LOG ASCII STANDARD - VERSION 2.0
 WRAP.                 NO:   ONE LINE PER DEPTH STEP
~WELL INFORMATION
#MNEM.UNIT      DATA TYPE    INFORMATION
#----------   ------------   ------------------------------
 STRT.F          131.0000:   START DEPTH
 STOP.F         1085.0000:   STOP DEPTH
 STEP.F            0.5000:   STEP LENGTH
 NULL.          -999.2500:   NO VALUE
 COMP. U S NAVY-INTEX OIL:   COMPANY
 WELL.     UPR #3 #66-S-2:   WELL
 FLD .             TEAPOT:   FIELD
 LOC .       S2 T38N R78W:   LOCATION
 CNTY.            NATRONA:   COUNTY
 STAT.            WYOMING:   STATE
 CTRY. UNITED STATES OF AMERICA:   COUNTRY
 SRVC.       Schlumberger:   SERVICE COMPANY
 DATE.        18-JUL-1964:   LOGDATE
 API .       490250641300:   API NUMBER
~CURVE INFORMATION
#MNEM.UNIT       API CODE    CURVE DESCRIPTION
#----------   ------------   ------------------------------
 DEPT.F                  :   
 ASN .OHMM   05 041 16 00:   AMPLIFIED SHORT NORMAL 16"
 CILD.MMHO   05 110 46 00:   CONDUCTIVITY INDUCTION LOG DEEP
 ILD .OHMM   05 120 46 00:   INDUCTION LOG DEEP
 SPR .MV     05 010 01 00:   SPONTANEOUS POTENTIAL FROM RES.
 GR  .GAPI   30 310 01 00:   GAMMA RAY
 CALS.IN     60 280 50 00:   CALIPER FROM SONIC LOG
 DT  .US/F   60 520 33 00:   INTERVAL TRANSIT TIME
~PARAMETER INFORMATION
#MNEM.UNIT          VALUE    DESCRIPTION
#----------   ------------   ------------------------------
 PD  .                 GL:   PERMANENT DATUM
 EPD .F              5204:   ELEVATION PERMANENT DATUM
 LMF .                 KB:   LOG MEASURED FROM
 DAPD.F                 5:   FEET ABOVE PERMANENT DATUM
 DMF .                 KB:   DRILLING MEASURED FROM
 EKB .F              5209:   KELLING BUSHING
 EGL .F              5204:   GROUND LEVEL
 DATE.          7-18-1964:   RUN DATE
 RUN .                  1:   RUN NUMBER
 DD  .F              1085:   DEPTH DRILLER
 DL  .F              1086:   DEPTH LOGGER
 BLI .F              1085:   BOTTOM LOG INTERVAL
 TLI .F               131:   TOP LOG INTERVAL
 CS  .IN            8.625:   CASING SIZE
 CBD .F                10:   CASING BOTTOM DRILLER
 BS  .IN             6.75:   BIT SIZE
 BSD .F              5204:   BIT SIZE AT DEPTH
 DFT .                GEL:   DRILLING FLUID TYPE
 DFD .                9.5:   DRILLING FLUID DENSITY
 DFV .                 47:   DRILLING FLUID VISCOSITY
 DFL .                 10:   DRILLING FLUID LOSS
 MSS .           FLOWLINE:   MUD SAMPLE SOURCE
 RMS .OHMM           2.58:   RESISTIVITY MUD SAMPLE
 MST .F                93:   MUD SAMPLE TEMPERATURE
 RMF .OHMM           2.27:   RESISTIVITY MUD FILTRATE SAMPLE
 MFST.F                93:   MUD FILTRATE SAMPLE TEMPERATURE
 MFSS.                 FP:   MUD FILTRATE SAMPLE SOURCE
 TCS .HRS             1.5:   TIME CURCULATED STOPPED
 LUN .               3527:   LOGGING UNIT NUMBER
 LUL .              CSPR.:   LOGGING UNIT LOCATION
 ENGI.            WINKLER:   RECORDING ENGINEER
 WITN.          JORGENSEN:   WITNESSED BY
 CLNT.            A2DTECH:   CLIENT CODE
 ORIG.    1" , 2.5" PRINT:   ORIGIN OF DATA
 UWI .       490250641300:   UNIQUE WELL ID
 DICO. A2D Technologies, Inc.:   DIGITIZING COMPANY
~OTHER INFORMATION
~A   DEPT      ASN       CILD        ILD        SPR         GR       CALS         DT   
# ...
  176.5000     6.4479   183.2951     6.2150   -47.7828  -999.2500  -999.2500  -999.2500
  177.0000     6.4742   183.2681     6.2158   -47.9750  -999.2500  -999.2500  -999.2500
  177.5000     6.4956   183.2426     6.2165   -47.9878  -999.2500  -999.2500  -999.2500
  178.0000     6.4858   184.3574     6.2173   -48.2676  -999.2500  -999.2500  -999.2500
  178.5000     6.4443   186.5587     6.2181   -48.2669  -999.2500  -999.2500  -999.2500
  179.0000     6.3409   189.1315     6.2188   -48.2662  -999.2500  -999.2500  -999.2500
  179.5000     6.1418   191.1948     6.2195   -48.1333  -999.2500  -999.2500  -999.2500
  180.0000     6.0118   192.4699     6.2202   -47.9706  -999.2500  -999.2500  -999.2500
  180.5000     5.9132   193.7450     6.1374   -47.9255  -999.2500  -999.2500  -999.2500
  181.0000     5.8509   195.1335     5.9240   -47.6750  -999.2500  -999.2500  -999.2500
  181.5000     5.8586   195.1130     5.9249   -47.6741  -999.2500  -999.2500  -999.2500
  182.0000     6.0331   195.0904     5.9256   -47.4667  -999.2500  -999.2500  -999.2500
  182.5000     6.4985   193.5366     5.9263   -47.3787  -999.2500  -999.2500  -999.2500
  183.0000     6.5475   190.3614     6.0042   -47.2588  -999.2500  -999.2500  -999.2500
  183.5000     6.5583   186.7947     6.1855   -47.0831  -999.2500  -999.2500  -999.2500
  184.0000     6.6047   183.8956     6.4385   -47.0824  -999.2500  -999.2500  -999.2500
  184.5000     6.7675   178.4100     6.6734   -47.0816  -999.2500  -999.2500  -999.2500
  185.0000     6.9477   175.9287     6.6742   -47.0809  -999.2500  -999.2500  -999.2500
  185.5000     6.8476   174.3323     6.5624   -47.0801  -999.2500  -999.2500  -999.2500
  186.0000     6.7373   176.2650     6.4370   -47.0794  -999.2500  -999.2500  -999.2500
  186.5000     6.6024   179.5307     6.3116   -47.0787  -999.2500  -999.2500  -999.2500
  187.0000     6.4882   182.5000     6.2307   -47.1402  -999.2500  -999.2500  -999.2500
  187.5000     6.4016   185.9940     6.2097   -47.3714  -999.2500  -999.2500  -999.2500
  188.0000     6.3266   187.2888     6.0833   -47.3705  -999.2500  -999.2500  -999.2500
  188.5000     6.2516   190.2746     6.0842   -47.3699  -999.2500  -999.2500  -999.2500
  189.0000     6.1766   191.3253     6.1873   -47.1882  -999.2500  -999.2500  -999.2500
  189.5000     6.0885   191.7395     6.3141   -47.0743  -999.2500  -999.2500  -999.2500
  190.0000     6.0473   192.3695     6.4410   -47.0735  -999.2500  -999.2500  -999.2500
  190.5000     6.0299   192.7560     6.5678   -47.0728  -999.2500  -999.2500  -999.2500
  191.0000     6.0771   189.7841     6.6947   -47.0721  -999.2500  -999.2500  -999.2500
  191.5000     6.2430   179.4905     6.8327   -47.0712  -999.2500  -999.2500  -999.2500
  192.0000     6.5751   173.5511     6.8333   -47.0706  -999.2500  -999.2500  -999.2500
  192.5000     6.9778   169.0638     6.8341   -47.0699  -999.2500  -999.2500  -999.2500
  193.0000     7.0249   165.6676     6.8348   -47.0691  -999.2500  -999.2500  -999.2500
  193.5000     7.0565   163.7500     6.8356   -47.0684  -999.2500  -999.2500  -999.2500
  194.0000     7.0531   162.9217     6.8120   -47.0676  -999.2500  -999.2500  -999.2500
  194.5000     7.0283   163.1827     6.6866   -47.0669  -999.2500  -999.2500  -999.2500
  195.0000     6.9926   164.6838     6.5403   -47.0662  -999.2500  -999.2500  -999.2500
  195.5000     6.9167   170.3817     6.4359   -47.0654  -999.2500  -999.2500  -999.2500
  196.0000     6.8024   175.0200     6.3105   -46.9098  -999.2500  -999.2500  -999.2500
  196.5000     6.6734   184.0136     6.1255   -46.7699  -999.2500  -999.2500  -999.2500
  197.0000     6.4890   191.7546     5.9479   -46.7691  -999.2500  -999.2500  -999.2500
  197.5000     6.2759   197.5715     5.9344   -46.7684  -999.2500  -999.2500  -999.2500
  198.0000     6.0665   202.2289     5.8006   -46.7676  -999.2500  -999.2500  -999.2500
  198.5000     5.8983   203.6270     5.6837   -46.9966  -999.2500  -999.2500  -999.2500
  199.0000     5.7686   206.3690     5.6533   -47.0603  -999.2500  -999.2500  -999.2500
  199.5000     5.6721   203.9231     5.6540   -47.0596  -999.2500  -999.2500  -999.2500
  200.0000     5.7890   198.2931     5.7540   -47.0588  -999.2500  -999.2500  -999.2500
  200.5000     5.9802   192.5778     5.9800   -47.0581  -999.2500  -999.2500  -999.2500
  201.0000     6.1275   187.9518     6.1111   -47.0574  -999.2500  -999.2500  -999.2500
  201.5000     6.1968   184.0361     6.4012   -47.0565  -999.2500  -999.2500  -999.2500
  202.0000     6.2456   180.1205     6.6171   -47.0559  -999.2500  -999.2500  -999.2500
  202.5000     6.2737   176.0912     6.7851   -46.8824  -999.2500  -999.2500  -999.2500
  203.0000     6.3411   173.0529     6.9742   -46.7603  -999.2500  -999.2500  -999.2500
  203.5000     6.4346   169.8795     7.1876   -46.7596  -999.2500  -999.2500  -999.2500
  204.0000     6.5755   167.6506     7.2976   -46.7588  -999.2500  -999.2500  -999.2500
  204.5000     6.7426   165.6953     7.2984   -46.7581  -999.2500  -999.2500  -999.2500
  205.0000     6.8935   163.0773     7.1788   -46.4631  -999.2500  -999.2500  -999.2500
  205.5000     7.0447   160.8961     6.9559   -46.4625  -999.2500  -999.2500  -999.2500
  206.0000     7.1634   160.8735     6.7793   -46.6216  -999.2500  -999.2500  -999.2500
  206.5000     7.1225   160.8475     6.6539   -46.7551  -999.2500  -999.2500  -999.2500
  207.0000     7.0565   161.9277     6.5285   -46.7544  -999.2500  -999.2500  -999.2500
  207.5000     6.9583   164.9849     6.4032   -46.7537  -999.2500  -999.2500  -999.2500
  208.0000     6.8402   168.8554     6.2620   -46.7529  -999.2500  -999.2500  -999.2500
  208.5000     6.7349   173.2003     6.1524   -46.5176  -999.2500  -999.2500  -999.2500
  209.0000     6.5734   178.6345     6.0270   -46.4574  -999.2500  -999.2500  -999.2500
  209.5000     6.3879   185.0427     5.9017   -46.4566  -999.2500  -999.2500  -999.2500
  210.0000     6.2061   190.8106     5.7763   -46.4559  -999.2500  -999.2500  -999.2500
  210.5000     6.0450   201.1144     5.6509   -46.4551  -999.2500  -999.2500  -999.2500
  211.0000     5.9044   207.1385     5.5223   -46.4544  -999.2500  -999.2500  -999.2500
  211.5000     5.7898   209.5482     5.5231   -46.4536  -999.2500  -999.2500  -999.2500
  212.0000     5.7172   210.8233     5.6240   -46.4529  -999.2500  -999.2500  -999.2500
  212.5000     5.8654   211.1572     5.7509   -46.4522  -999.2500  -999.2500  -999.2500
  213.0000     6.0583   208.0121     5.8777   -46.5853  -999.2500  -999.2500  -999.2500
  213.5000     6.2676   198.1835     6.0367   -46.8348  -999.2500  -999.2500  -999.2500
  214.0000     6.4686   189.7991     6.2803   -47.0384  -999.2500  -999.2500  -999.2500
  214.5000     6.6618   181.6792     6.4205   -47.0375  -999.2500  -999.2500  -999.2500
  215.0000     6.8378   176.9830     6.5340   -47.0366  -999.2500  -999.2500  -999.2500
  215.5000     7.0210   174.9348     6.5707   -47.0360  -999.2500  -999.2500  -999.2500
  216.0000     7.0935   173.6145     6.5714   -47.0353  -999.2500  -999.2500  -999.2500
  216.5000     7.1104   172.4473     6.5722   -47.0346  -999.2500  -999.2500  -999.2500
  217.0000     7.0805   172.4237     6.5508   -47.0338  -999.2500  -999.2500  -999.2500
  217.5000     7.0306   171.1596     6.4249   -47.0000  -999.2500  -999.2500  -999.2500
  218.0000     6.9868   170.8735     6.4257   -46.7382  -999.2500  -999.2500  -999.2500
  218.5000     6.9604   170.0251     6.3235   -46.4980  -999.2500  -999.2500  -999.2500
  219.0000     6.9048   169.3223     6.2783   -46.4426  -999.2500  -999.2500  -999.2500
  219.5000     6.9050   168.8906     6.2790   -46.4419  -999.2500  -999.2500  -999.2500
  220.0000     6.9586   167.7711     6.3145   -46.3333  -999.2500  -999.2500  -999.2500
  220.5000     7.0209   167.7484     6.4413   -46.1463  -999.2500  -999.2500  -999.2500
  221.0000     7.0714   166.2161     6.5789   -46.1456  -999.2500  -999.2500  -999.2500
  221.5000     7.1219   164.0336     6.8105   -46.1448  -999.2500  -999.2500  -999.2500
