~VERSION INFORMATION
 VERS.                2.0:   CWLS LOG ASCII STANDARD - VERSION 2.0
 WRAP.                 NO:   ONE LINE PER DEPTH STEP
~WELL INFORMATION
#MNEM.UNIT      DATA TYPE    INFORMATION
#----------   ------------   ------------------------------
 STRT.F            1.0000:   START DEPTH
 STOP.F          708.0000:   STOP DEPTH
 STEP.F            0.5000:   STEP LENGTH
 NULL.          -999.2500:   NO VALUE
 COMP. LAWRENCE/ALLISON INC:   COMPANY
 WELL. NPR 3 68-61 SX #34-34:   WELL
 FLD .             TEAPOT:   FIELD
 LOC .      S34 T39N R78W:   LOCATION
 CNTY.            NATRONA:   COUNTY
 STAT.            WYOMING:   STATE
 CTRY. UNITED STATES OF AMERICA:   COUNTRY
 SRVC.           Gearhart:   SERVICE COMPANY
 DATE.        22-SEP-1988:   LOGDATE
 API .       490251125200:   API NUMBER
~CURVE INFORMATION
#MNEM.UNIT       API CODE    CURVE DESCRIPTION
#----------   ------------   ------------------------------
 DEPT.F                  :   
 GRR .GAPI   07 310 01 00:   GAMMA RAY
 RILD.OHMM   07 120 46 00:   INDUCTION LOG DEEP RESISTIVITY
 RILM.OHMM   07 120 44 00:   INDUCTION LOG MEDIUM RESISTIVITY
~PARAMETER INFORMATION
#MNEM.UNIT          VALUE    DESCRIPTION
#----------   ------------   ------------------------------
 PD  .                 GL:   PERMANENT DATUM
 EPD .F              5067:   ELEVATION PERMANENT DATUM
 LMF .                 KB:   LOG MEASURED FROM
 DAPD.F                10:   FEET ABOVE PERMANENT DATUM
 DMF .                 KB:   DRILLING MEASURED FROM
 EKB .F              5077:   KELLING BUSHING
 EGL .F              5067:   GROUND LEVEL
 DATE.        22-SEP-1988:   RUN DATE
 RUN .                  1:   RUN NUMBER
 DD  .F               705:   DEPTH DRILLER
 DL  .F               716:   DEPTH LOGGER
 BLI .F             707.5:   BOTTOM LOG INTERVAL
 TLI .F                50:   TOP LOG INTERVAL
 CS  .IN            9.625:   CASING SIZE
 CBD .F                50:   CASING BOTTOM DRILLER
 CBL .F                50:   CASING BOTTOM LOGGER
 BS  .IN             8.75:   BIT SIZE
 BSD .F               705:   BIT SIZE AT DEPTH
 DFT .                AIR:   DRILLING FLUID TYPE
 TCS .HRS            2400:   TIME CURCULATED STOPPED
 TLAB.HRS            0251:   TIME LOGGER AT BOTTOM
 MRT .F                70:   MAXIMUM RECORDED TEMPERATURE
 LUN .               7597:   LOGGING UNIT NUMBER
 LUL .           GILLETTE:   LOGGING UNIT LOCATION
 ENGI.          HUCKFRIDT:   RECORDING ENGINEER
 WITN.             STRONG:   WITNESSED BY
 CLNT.            A2DTECH:   CLIENT CODE
 ORIG.           5" PRINT:   ORIGIN OF DATA
 UWI .       490251125200:   UNIQUE WELL ID
 DICO. A2D Technologies, Inc.:   DIGITIZING COMPANY
~OTHER INFORMATION
~A    DEPT      GRR      RILD       RILM   
# ...
  183.0000   119.7587     8.1386     7.4231
  183.5000   119.4570     8.1363     7.4201
  184.0000   117.0437     8.1337     7.4176
  184.5000   118.5520     8.1315     7.4151
  185.0000   120.3620     8.1293     7.5162
  185.5000   117.9487     8.1271     7.5660
  186.0000   115.2338     8.1249     7.5635
  186.5000   112.8205     8.1228     7.5609
  187.0000   113.4238     8.0644     7.5578
  187.5000   114.6305     8.0618     7.5553
  188.0000   115.8371     8.0596     7.5005
  188.5000   117.4439     8.0017     7.3946
  189.0000   119.4570     7.8894     7.1898
  189.5000   120.3620     7.8873     7.0883
  190.0000   117.0437     7.8852     6.9881
  190.5000   117.0437     7.8831     6.9370
  191.0000   116.4404     7.8259     6.9346
  191.5000   115.5354     7.8238     6.9323
  192.0000   114.9321     7.7677     6.9300
  192.5000   115.2338     7.7656     6.8798
  193.0000   115.5354     7.7099     6.8299
  193.5000   117.1012     7.7078     6.8211
  194.0000   120.0603     7.7594     6.7775
  194.5000   120.6637     7.7660     6.7753
  195.0000   118.5520     7.8092     6.7730
  195.5000   117.0437     7.8614     6.7707
  196.0000   115.5354     7.8588     6.7685
  196.5000   114.6305     7.8567     6.7662
  197.0000   114.6305     7.8546     6.7638
  197.5000   113.0918     7.9071     6.7611
  198.0000   112.5189     7.9600     6.7588
  198.5000   115.2338     8.0132     6.8042
  199.0000   117.3454     8.0669     6.8493
  199.5000   119.7587     8.0641     6.9421
  200.0000   117.6463     8.0620     7.0858
  200.5000   119.7493     8.0598     6.8908
  201.0000   122.7572     8.0577     7.1829
  201.5000   123.0501     8.2249     7.1817
  202.0000   119.4194     8.2799     7.1807
  202.5000   116.9974     8.4517     7.1301
  203.0000   116.0837     8.5047     7.1292
  203.5000   116.6787     8.7403     7.2278
  204.0000   116.9713     8.7982     7.2772
  204.5000   118.3701     8.9182     7.4291
  205.0000   122.6833     8.9772     7.5319
  205.5000   124.7862     8.9735     7.6897
  206.0000   124.1742     8.9705     7.7958
  206.5000   121.7523     8.9676     7.8491
  207.0000   119.9336     8.9646     7.9027
  207.5000   120.6788     9.0261     7.9014
  208.0000   123.5340     9.2099     7.9004
  208.5000   125.0336     9.3354     7.8993
  209.0000   125.0249     9.4635     7.9533
  209.5000   124.1113     9.4596     8.1195
  210.0000   121.9910     9.6552     8.3467
  210.5000   121.3785     9.7192     8.5212
  211.0000   121.6719     9.8509     8.6993
  211.5000   122.5660     9.9860     8.8201
  212.0000   122.8612    10.1213     9.0041
  212.5000   122.5487    10.2601     9.0656
  213.0000   121.0317    10.4714     9.1908
  213.5000   120.0171    10.6133     9.3184
  214.0000   117.6939    10.8337     9.5791
  214.5000   114.9703    11.0578     9.8475
  215.0000   112.5483    11.1311    10.1234
  215.5000   112.8413    11.3605    10.4173
  216.0000   112.8326    11.4357    10.6985
  216.5000   112.5219    11.3519    10.8466
  217.0000   111.9081    11.3482    10.9207
  217.5000   110.6927    11.1881    10.6939
  218.0000   111.2874    11.1071    10.2525
  218.5000   113.0886    10.7996     9.9049
  219.0000   116.0965    10.4998     9.7670
  219.5000   117.9477    10.4238     9.5645
  220.0000   118.4903    10.2768     9.4971
  220.5000   119.0871    10.2734     9.4301
  221.0000   120.2828    10.2699     9.4232
  221.5000   122.6874    10.2664     9.3621
  222.0000   124.4887    10.2623     9.2961
  222.5000   121.7144    10.2589     9.2949
  223.0000   116.6260    10.1846     9.2936
  223.5000   115.4107    10.1812     9.2924
  224.0000   117.5136    10.1778     9.2912
  224.5000   119.0132    10.1744     9.2254
  225.0000   119.0045    10.1702     9.0341
  225.5000   117.7888    10.1669     8.9083
  226.0000   118.3817    10.1635     8.7844
  226.5000   119.5796    10.0899     8.7225
  227.0000   121.3809    10.0866     8.7210
  227.5000   124.9921    10.0824     8.7198
  228.0000   126.7934    10.0790     8.7797
  228.5000   124.9241    10.0757     8.7175
  229.0000   122.5506    10.0723     8.7164
  229.5000   121.3353    10.0690     8.7152
  230.0000   121.6282    10.0656     8.7138
  230.5000   121.9216     9.8543     8.5925
  231.0000   122.2142     9.7829     8.5319
  231.5000   122.5071     9.6450     8.5308
  232.0000   122.1946     9.5751     8.4121
  232.5000   122.1859     9.5698     8.2950
  233.0000   122.7806     9.4362     8.2363
  233.5000   126.0901     9.3679     8.1782
  234.0000   128.4947     9.3000     8.0644
  234.5000   129.7426     9.2327     8.0076
  235.0000   130.5890     9.0396     7.8397
  235.5000   130.8819     8.7892     7.5728
  236.0000   132.3794     8.5453     7.3135
  236.5000   133.8790     8.3087     7.0631
  237.0000   135.3786     8.1916     6.9167
  237.5000   136.5765     8.0760     6.8204
  238.0000   133.2474     8.0176     6.8195
  238.5000   131.1271     8.0142     6.8184
  239.0000   130.8168     8.0680     6.8174
  239.5000   131.4114     8.1208     7.0084
  240.0000   131.4027     8.2895     7.1057
  240.5000   128.1759     8.5191     7.2038
  241.0000   122.3334     8.7009     7.4056
  241.5000   116.2915     8.8745     7.6129
  242.0000   113.5679     8.9962     7.8261
  242.5000   113.5592     9.1181     7.9345
  243.0000   113.2489     9.2431     8.0443
  243.5000   111.7315     9.2393     8.0432
  244.0000   112.0249     9.1716     8.0419
  244.5000   113.8240     9.1052     8.0408
  245.0000   114.7224     9.0393     8.0398
  245.5000   114.6617     8.9738     8.0387
  246.0000   114.7029     8.9708     8.0376
  246.5000   117.1074     8.9678     8.0366
  247.0000   114.9850     8.9642     8.0352
  247.5000   113.1663     9.0243     8.0342
  248.0000   109.8394     9.1473     8.0331
  248.5000   112.8473     9.2079     8.0320
  249.0000   116.1569     9.3976     8.0310
  249.5000   119.0136     9.5257     8.1421
  250.0000   120.9660     9.6555     8.2549
  250.5000   119.7556     9.6519     8.2523
  251.0000   118.2438     9.5151     8.2501
  251.5000   116.1292     9.4461     8.1908
  252.0000   118.5396     9.3777     8.1259
  252.5000   120.9499     9.3097     8.0172
  253.0000   122.1544     9.1784     7.8498
  253.5000   123.3575     9.1753     7.8477
  254.0000   124.5611     9.1088     7.7913
  254.5000   125.4961     9.1057     7.7892
  255.0000   126.0635     9.0941     7.7871
  255.5000   124.5516     9.0359     7.7850
  256.0000   122.1354     9.0329     7.7829
  256.5000   121.2275     9.0298     7.7808
  257.0000   120.9229     9.0268     7.7786
  257.5000   120.6183     9.0237     7.7761
  258.0000   119.1071     8.9583     7.7740
  258.5000   120.9722     8.9553     7.7719
  259.0000   122.1178     8.9523     7.8244
  259.5000   122.1142     8.9492     7.8218
  260.0000   121.8096     8.9455     7.8197
  260.5000   121.8066     8.9425     7.8176
  261.0000   121.8037     8.9395     7.8154
  261.5000   121.8008     8.8747     7.8128
  262.0000   123.0045     8.8717     7.8107
  262.5000   125.7416     8.8687     7.8086
  263.0000   127.8252     8.8657     7.7525
  263.5000   127.2182     8.8015     7.7504
  264.0000   125.4053     8.7376     7.7483
  264.5000   123.2908     8.6137     7.7462
  265.0000   122.0812     8.4922     7.7441
  265.5000   120.8717     8.3724     7.6885
  266.0000   122.6787     8.3117     7.5799
  266.5000   124.1841     8.1378     7.5255
  267.0000   123.2754     8.1351     7.5234
  267.5000   123.2725     8.1323     7.4177
  268.0000   125.0795     8.1295     7.3135
  268.5000   126.8866     8.1262     7.3115
  269.0000   127.7893     8.2369     7.3095
  269.5000   126.8807     8.3498     7.3584
  270.0000   122.6545     8.5218     7.5112
  270.5000   120.8417     8.5789     7.5801
  271.0000   121.1404     8.8165     7.7185
  271.5000   121.7408     8.9989     7.9331
  272.0000   121.7371     9.0584     7.9310
  272.5000   121.7342     9.0553     7.9288
  273.0000   120.5247     9.0516     7.9267
  273.5000   118.4101     9.0485     7.9246
