~VERSION INFORMATION
 VERS.                2.0:   CWLS LOG ASCII STANDARD - VERSION 2.0
 WRAP.                 NO:   ONE LINE PER DEPTH STEP
~WELL INFORMATION
#MNEM.UNIT      DATA TYPE    INFORMATION
#----------   ------------   ------------------------------
 STRT.F           46.0000:   START DEPTH
 STOP.F          670.0000:   STOP DEPTH
 STEP.F            0.5000:   STEP LENGTH
 NULL.          -999.2500:   NO VALUE
 COMP. FENIX & SCISSON INC:   COMPANY
 WELL. TEAPOT #27 62SX 11WI-11:   WELL
 FLD .             TEAPOT:   FIELD
 LOC .      S11 T38N R78W:   LOCATION
 CNTY.            NATRONA:   COUNTY
 STAT.            WYOMING:   STATE
 CTRY. UNITED STATES OF AMERICA:   COUNTRY
 SRVC.      Dresser Atlas:   SERVICE COMPANY
 DATE.        27-JUL-1980:   LOGDATE
 API .       490251084000:   API NUMBER
~CURVE INFORMATION
#MNEM.UNIT       API CODE    CURVE DESCRIPTION
#----------   ------------   ------------------------------
 DEPT.F                  :   
 GRD .GAPI   45 310 01 00:   GAMMA RAY FROM DENSITY LOG
 RHOB.G/C3   45 350 01 00:   BULK DENSITY
 CORR.G/C3   45 356 01 00:   DENSITY CORRECTION
 CALD.IN     45 280 60 00:   CALIPER
 DPOR.DEC    45 890 12 00:   DENSITY POROSITY SANDSTONE
 SPR .MV     07 010 01 00:   SPONTANEOUS POTENTIAL
 SFL .OHMM   07 220 01 00:   SHALLOW FOCUSED LOG RESISTIVITY
 ILD .OHMM   07 120 46 00:   INDUCTION LOG DEEP
 ILM .OHMM   07 120 44 00:   INDUCTION LOG MEDIUM
~PARAMETER INFORMATION
#MNEM.UNIT          VALUE    DESCRIPTION
#----------   ------------   ------------------------------
 PD  .                 GL:   PERMANENT DATUM
 EPD .F              5186:   ELEVATION PERMANENT DATUM
 LMF .                 KB:   LOG MEASURED FROM
 DAPD.F                 5:   FEET ABOVE PERMANENT DATUM
 DMF .                 KB:   DRILLING MEASURED FROM
 EKB .F              5191:   KELLING BUSHING
 EGL .F              5186:   GROUND LEVEL
 DATE.            7-27-80:   RUN DATE
 RUN .                  1:   RUN NUMBER
 DD  .F               660:   DEPTH DRILLER
 DL  .F               663:   DEPTH LOGGER
 BLI .F               661:   BOTTOM LOG INTERVAL
 TLI .F                46:   TOP LOG INTERVAL
 BS  .IN            7.875:   BIT SIZE
 BSD .F               660:   BIT SIZE AT DEPTH
 DFT .           CHEM GEL:   DRILLING FLUID TYPE
 DFD .                9.5:   DRILLING FLUID DENSITY
 DFV .                 50:   DRILLING FLUID VISCOSITY
 DFPH.                 11:   DRILLING FLUID PH
 DFL .                  6:   DRILLING FLUID LOSS
 MSS .           FLOWLINE:   MUD SAMPLE SOURCE
 RMS .OHMM            .08:   RESISTIVITY MUD SAMPLE
 MST .F                70:   MUD SAMPLE TEMPERATURE
 RMC .OHMM            .08:   RESISTIVITY MUD CAKE
 MCST.F                70:   MUD CAKE SAMPLE TEMPERATURE
 MFSS.               MEAS:   MUD FILTRATE SAMPLE SOURCE
 MCSS.               MEAS:   MUD CAKE SAMPLE SOURCE
 RMB .OHMM            .06:   RESISTIVITY MUD AT BHT
 BHT .F                90:   BOTTOM HOLE TEMPERATURE
 TCS .HRS               5:   TIME CURCULATED STOPPED
 MRT .F                90:   MAXIMUM RECORDED TEMPERATURE
 LUN .               6145:   LOGGING UNIT NUMBER
 LUL .              GLTTE:   LOGGING UNIT LOCATION
 ENGI.              HENRY:   RECORDING ENGINEER
 WITN.              AMEND:   WITNESSED BY
 CLNT.            A2DTECH:   CLIENT CODE
 ORIG.       2", 5" PRINT:   ORIGIN OF DATA
 UWI .       490251084000:   UNIQUE WELL ID
 DICO. A2D Technologies, Inc.:   DIGITIZING COMPANY
~OTHER INFORMATION
~A   DEPT      GRD       RHOB       CORR       CALD       DPOR        SPR          SFL        ILD      ILM   
# ...
  228.5000   107.7529     2.4818     0.0040     8.4527     0.1188   -44.0842    11.3670     8.4823     8.8996
  229.0000   107.9086     2.4987     0.0102     8.4430     0.1100   -43.9667    11.2016     8.5679     8.8998
  229.5000   108.2187     2.5098     0.0166     8.4333     0.0988   -43.7514    11.2805     8.6575     8.9539
  230.0000   108.4559     2.5085     0.0170     8.4254     0.1031   -43.4133    11.3866     8.6575     9.1077
  230.5000   107.7045     2.5041     0.0123     8.4552     0.1056   -43.0746    11.7697     8.6575     9.2545
  231.0000   107.5323     2.5132     0.0077     8.4876     0.0991   -42.7359    12.2455     8.6575     9.4050
  231.5000   106.9678     2.5261     0.0086     8.5198     0.0923   -42.6227    12.6250     8.6575     9.3789
  232.0000   105.5348     2.5354     0.0105     8.5523     0.0867   -42.5423    12.3651     8.6584     9.3371
  232.5000   103.7180     2.5293     0.0154     8.5661     0.0890   -42.6913    11.8374     8.5482     9.2956
  233.0000   101.3595     2.5242     0.0157     8.5698     0.0920   -42.8368    11.5152     8.4617     9.2542
  233.5000   101.0146     2.5229     0.0162     8.5733     0.0939   -42.9831    11.5730     8.3759     9.1204
  234.0000   105.7516     2.5225     0.0168     8.5767     0.0950   -43.1068    11.6216     8.2911     8.9026
  234.5000   109.0259     2.5221     0.0174     8.5802     0.0960   -42.9181    11.4549     8.2440     8.6868
  235.0000   111.9485     2.5204     0.0176     8.5837     0.0954   -42.7243    11.2775     8.1987     8.4760
  235.5000   114.7282     2.5181     0.0176     8.5872     0.0956   -42.5322    11.0990     8.1537     8.2691
  236.0000   116.3352     2.5180     0.0176     8.5907     0.0965   -42.6533    11.0266     8.0862     8.3362
  236.5000   114.7833     2.5182     0.0176     8.5942     0.0961   -42.7994    10.9971     7.9255     8.4213
  237.0000   113.8924     2.5218     0.0176     8.5977     0.0964   -42.9220    11.1124     7.7680     8.3789
  237.5000   113.1282     2.5079     0.0175     8.6012     0.1026   -42.9203    11.1956     7.6136     8.3266
  238.0000   113.2802     2.5081     0.0176     8.6046     0.1032   -42.9119    11.2764     7.4713     8.2750
  238.5000   112.8845     2.5073     0.0205     8.6025     0.0967   -42.7134    11.3108     7.2886     8.0513
  239.0000   112.1070     2.5092     0.0237     8.6001     0.0929   -42.5094    10.7134     7.1187     7.8092
  239.5000   111.3589     2.5168     0.0267     8.5976     0.0918   -42.3255    10.2747     6.9431     7.5742
  240.0000   111.3309     2.5369     0.0303     8.5952     0.0903   -42.3229     9.8530     6.7921     7.3464
  240.5000   111.3303     2.5266     0.0226     8.5928     0.0939   -42.3246     9.5204     6.6284     7.1808
  241.0000   111.3756     2.5061     0.0156     8.5904     0.1029   -42.3214     9.4050     6.6303     7.1199
  241.5000   112.2679     2.4985     0.0137     8.5880     0.1096   -42.1522     9.4480     6.6299     7.0710
  242.0000   112.6587     2.5030     0.0121     8.5856     0.1053   -41.9711     9.5035     6.7398     7.0710
  242.5000   111.1239     2.5078     0.0124     8.5848     0.1012   -41.5936     9.5619     6.8801     7.0710
  243.0000   110.7263     2.5129     0.0141     8.5848     0.0995   -41.1675     9.8636     7.0234     7.2646
  243.5000   110.7302     2.5162     0.0158     8.5848     0.0988   -40.7392    10.4359     7.1696     7.5040
  244.0000   111.1257     2.5095     0.0174     8.5848     0.1003   -40.3509    11.0014     7.3189     7.6868
  244.5000   112.5078     2.4983     0.0149     8.5848     0.1075   -40.4328    11.3052     7.4899     7.7057
  245.0000   112.3628     2.4918     0.0119     8.5848     0.1129   -40.5245    10.9671     7.6674     7.7248
  245.5000   111.5592     2.5008     0.0096     8.5848     0.1079   -40.6142    10.7550     7.7525     7.7438
  246.0000   111.8646     2.5032     0.0140     8.5848     0.1055   -40.7034    10.5968     7.6662     7.8858
  246.5000   111.9413     2.5040     0.0188     8.5848     0.1062   -40.7925    10.8577     7.5910     8.0431
  247.0000   110.7875     2.5060     0.0189     8.5848     0.1049   -40.8817    10.9991     7.5165     7.9400
  247.5000   109.7094     2.5061     0.0180     8.5848     0.1037   -40.9709    10.8262     7.4498     7.8530
  248.0000   108.8485     2.5099     0.0120     8.5848     0.1009   -41.0600    10.5046     7.3942     7.7669
  248.5000   108.5657     2.5166     0.0054     8.5848     0.0971   -41.1492    10.2740     7.3390     7.7079
  249.0000   108.9187     2.5229     0.0056     8.5848     0.0938   -41.2384    10.1219     7.2842     7.6546
  249.5000   108.1767     2.5261     0.0082     8.5848     0.0918   -41.3275    10.1216     7.2298     7.6016
  250.0000   107.1263     2.5261     0.0141     8.5848     0.0930   -41.4166    10.2770     7.2023     7.5490
  250.5000   105.8537     2.5218     0.0165     8.5848     0.0957   -41.5077    10.4067     7.2522     7.4968
  251.0000   104.6019     2.5171     0.0175     8.5848     0.0969   -41.6180    10.3659     7.2962     7.4724
  251.5000   104.5356     2.5140     0.0165     8.5848     0.0994   -41.7388    10.3218     7.3779     7.5727
  252.0000   105.1097     2.5113     0.0155     8.5848     0.1003   -41.8596    10.3118     7.4609     7.6621
  252.5000   106.0466     2.5167     0.0183     8.5848     0.0989   -41.9811    10.5795     7.5447     7.7525
  253.0000   106.9951     2.5233     0.0217     8.5848     0.0938   -42.1045    10.8024     7.6221     7.9989
  253.5000   108.3807     2.5321     0.0237     8.5848     0.0892   -42.1225    11.0583     7.6734     8.1920
  254.0000   109.1342     2.5299     0.0199     8.5848     0.0908   -41.9155    11.3052     7.7250     8.1599
  254.5000   107.0895     2.5272     0.0158     8.5848     0.0928   -41.4068    11.1036     7.7770     8.1336
  255.0000   105.9308     2.5227     0.0117     8.5848     0.0944   -40.9428    10.8931     7.8242     8.1072
  255.5000   106.0687     2.5206     0.0115     8.5848     0.0976   -40.9335    10.8566     7.7872     8.0810
  256.0000   106.7765     2.5114     0.0115     8.5848     0.1017   -40.9727    10.8203     7.7352     8.0549
  256.5000   108.7754     2.5016     0.0093     8.5848     0.1071   -41.1307    10.7283     7.6815     7.9915
  257.0000   110.0988     2.4937     0.0075     8.5848     0.1120   -41.2821    10.5366     7.6700     7.8983
  257.5000   109.4425     2.4929     0.0075     8.5848     0.1110   -41.4311    10.3090     7.6580     7.8242
  258.0000   109.4366     2.4968     0.0076     8.5848     0.1094   -41.5059    10.3729     7.6460     7.8241
  258.5000   109.8597     2.4990     0.0083     8.5848     0.1085   -41.4256    10.5238     7.6340     7.8247
  259.0000   109.4259     2.4915     0.0090     8.5848     0.1119   -41.3443    10.6768     7.6222     7.8235
  259.5000   108.3785     2.4900     0.0097     8.5848     0.1136   -41.4422    10.7850     7.6110     7.9695
  260.0000   107.3426     2.4921     0.0104     8.5848     0.1114   -41.5808    10.8880     7.5944     7.8991
  260.5000   108.3696     2.4983     0.0112     8.5848     0.1092   -41.7203    10.8201     7.5789     7.8200
  261.0000   110.1553     2.5052     0.0127     8.5848     0.1051   -41.8594    10.7358     7.5635     7.7492
  261.5000   109.7659     2.5105     0.0153     8.5848     0.1011   -41.9981    10.6521     7.5481     7.7250
  262.0000   110.5793     2.5230     0.0176     8.5848     0.0944   -42.1282    10.5692     7.5013     7.7008
  262.5000   112.6461     2.5170     0.0117     8.5848     0.0984   -42.2094    10.4868     7.4312     7.6815
  263.0000   112.3845     2.5115     0.0054     8.5848     0.1020   -42.2869    10.4067     7.3617     7.6981
  263.5000   111.9276     2.5061     0.0023     8.5848     0.1046   -42.3644    10.3683     7.2930     7.7120
  264.0000   110.5220     2.5025     0.0046     8.5848     0.1061   -42.4425    10.3311     7.2602     7.7259
  264.5000   108.5670     2.4999     0.0068     8.5848     0.1064   -42.5198    10.3114     7.2473     7.7399
