~VERSION INFORMATION
 VERS.                2.0:   CWLS LOG ASCII STANDARD - VERSION 2.0
 WRAP.                 NO:   ONE LINE PER DEPTH STEP
~WELL INFORMATION
#MNEM.UNIT      DATA TYPE    INFORMATION
#----------   ------------   ------------------------------
 STRT.F            1.0000:   START DEPTH
 STOP.F          886.0000:   STOP DEPTH
 STEP.F            0.5000:   STEP LENGTH
 NULL.          -999.2500:   NO VALUE
 COMP. BROWN JOHN E&C INC:   COMPANY
 WELL. NAVAL PETROLEUM RESERVE 3 SHX-1 #33-2:   WELL
 FLD .             NPR #3:   FIELD
 LOC .       S2 T38N R78W:   LOCATION
 CNTY.            NATRONA:   COUNTY
 STAT.            WYOMING:   STATE
 CTRY. UNITED STATES OF AMERICA:   COUNTRY
 SRVC.      Western Atlas:   SERVICE COMPANY
 DATE.        26-NOV-1991:   LOGDATE
 API .       490252248300:   API NUMBER
~CURVE INFORMATION
#MNEM.UNIT       API CODE    CURVE DESCRIPTION
#----------   ------------   ------------------------------
 DEPT.F                  :   
 RILD.OHMM   07 120 46 00:   INDUCTION LOG DEEP RESISTIVITY
 RILM.OHMM   07 120 44 00:   INDUCTION LOG MEDIUM RESISTIVITY
 RFOC.OHMM   07 220 04 00:   RESISTIVITY FOCUSED LOG
 SPR .MV     07 010 01 00:   SPONTANEOUS POTENTIAL
 GRR .GAPI   07 310 01 00:   GAMMA RAY
~PARAMETER INFORMATION
#MNEM.UNIT          VALUE    DESCRIPTION
#----------   ------------   ------------------------------
 PD  .                 GL:   PERMANENT DATUM
 EPD .F              5133:   ELEVATION PERMANENT DATUM
 LMF .                 KB:   LOG MEASURED FROM
 DAPD.F                10:   FEET ABOVE PERMANENT DATUM
 DMF .                 KB:   DRILLING MEASURED FROM
 EKB .F              5143:   KELLING BUSHING
 EGL .F              5133:   GROUND LEVEL
 DATE.        26-NOV-1991:   RUN DATE
 RUN .                  1:   RUN NUMBER
 DD  .F               892:   DEPTH DRILLER
 DL  .F               889:   DEPTH LOGGER
 BLI .F               837:   BOTTOM LOG INTERVAL
 CS  .IN            8.625:   CASING SIZE
 CBD .F                40:   CASING BOTTOM DRILLER
 CBL .F                55:   CASING BOTTOM LOGGER
 BS  .IN            7.875:   BIT SIZE
 BSD .F               892:   BIT SIZE AT DEPTH
 DFT .            POLYMER:   DRILLING FLUID TYPE
 DFD .                9.8:   DRILLING FLUID DENSITY
 DFV .                 38:   DRILLING FLUID VISCOSITY
 DFPH.                9.5:   DRILLING FLUID PH
 DFL .               10.6:   DRILLING FLUID LOSS
 MSS .           FLOWLINE:   MUD SAMPLE SOURCE
 RMS .OHMM           2.08:   RESISTIVITY MUD SAMPLE
 MST .F                78:   MUD SAMPLE TEMPERATURE
 RMF .OHMM           1.66:   RESISTIVITY MUD FILTRATE SAMPLE
 MFST.F                78:   MUD FILTRATE SAMPLE TEMPERATURE
 RMC .OHMM           2.60:   RESISTIVITY MUD CAKE
 MCST.F                78:   MUD CAKE SAMPLE TEMPERATURE
 MFSS.               MEAS:   MUD FILTRATE SAMPLE SOURCE
 MCSS.               CALC:   MUD CAKE SAMPLE SOURCE
 RMB .OHMM           1.08:   RESISTIVITY MUD AT BHT
 BHT .F               150:   BOTTOM HOLE TEMPERATURE
 TCS .HRS               2:   TIME CURCULATED STOPPED
 MRT .F               150:   MAXIMUM RECORDED TEMPERATURE
 LUN .            HL-6307:   LOGGING UNIT NUMBER
 LUL .         CASPER, WY:   LOGGING UNIT LOCATION
 ENGI.             ZIEGER:   RECORDING ENGINEER
 WITN.             STRONG:   WITNESSED BY
 CLNT.            A2DTECH:   CLIENT CODE
 ORIG.           5" PRINT:   ORIGIN OF DATA
 UWI .       490252248300:   UNIQUE WELL ID
 DICO. A2D Technologies, Inc.:   DIGITIZING COMPANY
~OTHER INFORMATION
~A    DEPT    RILD       RILM       RFOC        SPR         GRR  
# ...
  367.0000     5.8590     5.8859     5.7248   -96.9416   115.1967
  367.5000     5.8173     5.9257     5.8438   -96.9532   114.8763
  368.0000     5.7759     5.8828     5.8421   -97.2670   114.2574
  368.5000     5.6952     5.8405     5.8190   -97.2812   113.3364
  369.0000     5.6547     5.7985     5.7582   -96.9883   111.8112
  369.5000     5.5757     5.7566     5.6776   -96.8491   109.9839
  370.0000     5.5360     5.6365     5.6572   -96.5621   108.7608
  370.5000     5.4964     5.6350     5.5778   -96.2692   109.3504
  371.0000     5.4573     5.5946     5.5287   -96.2838   112.1691
  371.5000     5.4562     5.5160     5.5160   -95.9938   115.9641
  372.0000     5.4551     5.5145     5.5146   -95.7038   117.1615
  372.5000     5.4540     5.4749     5.5130   -95.5676   117.4454
  373.0000     5.4529     5.5116     5.5115   -95.2776   119.5455
  373.5000     5.4518     5.4716     5.5099   -95.2893   121.9478
  374.0000     5.4886     5.4702     5.5085   -95.1472   123.4723
  374.5000     5.5639     5.5071     5.5349   -95.1618   121.2921
  375.0000     5.7193     5.6214     5.6527   -95.1735   120.0906
  375.5000     5.8790     5.7776     5.8177   -95.1855   119.4687
  376.0000     6.0431     5.9799     5.9889   -95.6522   117.6414
  376.5000     6.1692     6.1484     6.1302   -95.9655   112.7929
  377.0000     6.2974     6.2740     6.2456   -96.4297   107.9445
  377.5000     6.3399     6.3594     6.3155   -97.0447   104.9087
  378.0000     6.3828     6.4024     6.3140   -97.2072   104.8782
  378.5000     6.3811     6.4003     6.3013   -97.5206   106.7150
  379.0000     6.3358     6.3543     6.2458   -97.5324   109.6950
  379.5000     6.2472     6.3087     6.1907   -97.5468   110.8925
  380.0000     6.1599     6.2201     6.1344   -97.4048   107.2488
  380.5000     6.0319     6.0879     6.0658   -96.9669   105.4215
  381.0000     5.9476     5.9218     5.9278   -96.5231   105.4069
  381.5000     5.8239     5.7582     5.7985   -96.0823   105.3922
  382.0000     5.6986     5.5991     5.6774   -95.7953   105.3776
  382.5000     5.6229     5.5205     5.6313   -95.3545   108.5247
  383.0000     5.5060     5.4430     5.5673   -95.2153   113.1997
  383.5000     5.5049     5.5176     5.4943   -94.9253   114.9977
  384.0000     5.5038     5.5932     5.4778   -94.9399   114.3789
  384.5000     5.6183     5.7092     5.5595   -95.1024   114.0658
  385.0000     5.6563     5.7874     5.6668   -95.2649   114.9575
  385.5000     5.7741     5.9075     5.7903   -95.4274   114.9392
  386.0000     5.8179     6.0296     5.9465   -95.4391   109.4544
  386.5000     5.9341     6.0704     5.9866   -95.6119   108.8676
  387.0000     6.0155     6.1531     5.9739   -96.0687   114.2874
  387.5000     6.1407     6.2374     5.9418   -96.2312   115.4849
  388.0000     6.1395     6.2791     5.9402   -96.3937   116.0708
  388.5000     6.2243     6.3651     5.8975   -96.5551   119.3795
  389.0000     6.2660     6.4072     5.9542   -96.7179   123.5945
  389.5000     6.3083     6.4055     6.0743   -96.7300   119.0481
  390.0000     6.3070     6.4483     6.2091   -96.7421   113.7968
  390.5000     6.3055     6.4466     6.2703   -96.7542   110.5560
  391.0000     6.3484     6.4449     6.1331   -96.7684   111.7498
  391.5000     6.4358     6.4881     6.0955   -96.3275   112.3394
  392.0000     6.3897     6.4414     6.1202   -96.1855   114.1375
  392.5000     6.3004     6.3907     6.2200   -95.7476   115.9355
  393.0000     6.2991     6.2614     6.2102   -95.3068   115.6188
  393.5000     6.2535     6.2164     6.1170   -95.0166   112.8851
  394.0000     6.1606     6.1718     6.0631   -94.7170   112.2663
  394.5000     6.0805     6.0852     6.0012   -94.4368   115.2691
  395.0000     5.9955     6.0415     5.9567   -94.2977   115.8624
  395.5000     5.9528     5.9981     5.9155   -94.3123   112.5208
  396.0000     5.9516     5.9139     5.8930   -94.4748   110.9956
  396.5000     5.9504     5.8714     5.8714   -94.7881   110.3768
  397.0000     5.9492     5.8695     5.8697   -95.1014   110.3621
  397.5000     5.9480     5.8679     5.9093   -95.7164   111.2588
  398.0000     5.9057     5.8663     5.9073   -95.8995   112.4914
  398.5000     5.9043     5.8647     5.9057   -96.1952   113.9399
  399.0000     5.9031     5.8632     5.9040   -96.2069   115.1338
  399.5000     5.9019     5.8616     5.9024   -96.0648   113.9107
  400.0000     5.9417     5.8600     5.8600   -95.8069   112.0426
  400.5000     5.9406     5.8177     5.8514   -95.6347   110.8681
  401.0000     5.9394     5.8161     5.8968   -95.1932   113.5761
  401.5000     5.9795     5.7744     5.8539   -94.4479   115.3822
  402.0000     5.9782     5.7728     5.8519   -93.2500   114.1628
  402.5000     5.9355     5.7713     5.8091   -91.5997   113.5497
  403.0000     5.9343     5.8099     5.8074   -90.4018   113.5850
  403.5000     5.8921     5.8079     5.8161   -89.6565   115.9469
  404.0000     5.8909     5.8064     5.8643   -88.9111   115.9381
  404.5000     5.8897     5.8048     5.8824   -88.6063   112.9081
  405.0000     5.9295     5.8032     5.8397   -88.3275   109.2740
  405.5000     5.9695     5.8425     5.8465   -88.3363   108.0567
  406.0000     5.9680     5.8405     5.8949   -88.4959   110.4649
  406.5000     6.0505     5.8823     5.9725   -88.6556   114.0814
  407.0000     6.1338     5.9601     6.0793   -88.6644   115.9033
  407.5000     6.2611     6.0486     6.2124   -88.9748   114.9680
  408.0000     6.3038     6.1667     6.2285   -89.2852   114.0551
  408.5000     6.4350     6.2946     6.1731   -89.2941   116.1589
  409.0000     6.4782     6.3808     6.1984   -89.3032   117.3585
  409.5000     6.6130     6.4683     6.2991   -89.3138   118.8603
  410.0000     6.6577     6.5568     6.4778   -89.3226   120.6642
  410.5000     6.7027     6.6067     6.6365   -89.3314   122.1660
  411.0000     6.7480     6.6448     6.6804   -89.3402   123.3796
  411.5000     6.7463     6.6893     6.7251   -89.1981   124.6163
  412.0000     6.7449     6.6870     6.6761   -89.0558   126.0649
  412.5000     6.7905     6.6852     6.6993   -88.7632   127.2668
  413.0000     6.7891     6.6834     6.7179   -88.6033   126.9537
  413.5000     6.8350     6.7750     6.7624   -88.1775   122.4132
  414.0000     6.8332     6.8203     6.7975   -88.0354   120.5939
  414.5000     6.8798     6.9613     6.9238   -87.7447   127.2294
  415.0000     6.9745     7.0084     7.0912   -87.7535   133.3033
  415.5000     7.0216     7.2031     7.1382   -88.0640   137.7858
  416.0000     7.0687     7.2513     7.2572   -88.2236   130.8262
  416.5000     7.1165     7.4018     7.3339   -88.3832   124.4730
  417.0000     7.1645     7.4513     7.3314   -88.6938   120.5367
  417.5000     7.2129     7.5533     7.4311   -88.8555   119.6238
  418.0000     7.3118     7.6039     7.5328   -89.0151   121.4255
  418.5000     7.4128     7.6547     7.5511   -89.0239   124.7400
  419.0000     7.6194     7.7596     7.5796   -89.1835   128.0726
  419.5000     7.7781     7.8115     7.5243   -89.4939   131.4552
  420.0000     7.8310     7.9179     7.5282   -89.5027   124.4093
  420.5000     7.9936     8.0269     7.6868   -89.5115   115.6391
  421.0000     8.1036     8.2499     8.1126   -89.3635   110.1923
  421.5000     8.3364     8.3051     8.5721   -89.0528   106.2560
  422.0000     8.6817     8.3023     8.8721   -88.7859   105.9473
  422.5000     8.5012     8.2427     8.5945   -88.4908   113.7913
  423.0000     8.1530     8.1270     8.2615   -88.3488   118.6225
  423.5000     7.9836     8.0129     8.1545   -88.2067   121.7069
  424.0000     7.8720     8.0107     8.0931   -87.9161   123.1305
  424.5000     7.8160     7.9532     7.9670   -87.7738   118.5878
  425.0000     7.7604     7.8962     7.8962   -87.7828   113.4430
  425.5000     7.7588     7.8940     7.7861   -87.7919   111.0173
  426.0000     7.8113     7.8914     7.7014   -87.8026   109.1958
  426.5000     7.8093     7.8893     7.7528   -88.1130   107.6764
  427.0000     7.8077     7.8871     7.7497   -88.2726   106.1571
  427.5000     7.8062     7.8850     7.7470   -88.4323   106.8579
