~VERSION INFORMATION
 VERS.                2.0:   CWLS LOG ASCII STANDARD - VERSION 2.0
 WRAP.                 NO:   ONE LINE PER DEPTH STEP
~WELL INFORMATION
#MNEM.UNIT      DATA TYPE    INFORMATION
#----------   ------------   ------------------------------
 STRT.F           26.0000:   START DEPTH
 STOP.F          655.0000:   STOP DEPTH
 STEP.F            0.5000:   STEP LENGTH
 NULL.          -999.2500:   NO VALUE
 COMP. FENIX & SCISSON, INCORPORATED:   COMPANY
 WELL. RES 3 TEAPOT DOM #22S-11:   WELL
 FLD .             TEAPOT:   FIELD
 LOC .      S11 T38N R78W:   LOCATION
 CNTY.            NATRONA:   COUNTY
 STAT.            WYOMING:   STATE
 CTRY. UNITED STATES OF AMERICA:   COUNTRY
 SRVC.            Unknown:   SERVICE COMPANY
 DATE.        03-FEB-1978:   LOGDATE
 API .       490251057200:   API NUMBER
~CURVE INFORMATION
#MNEM.UNIT       API CODE    CURVE DESCRIPTION
#----------   ------------   ------------------------------
 DEPT.F                  :   
 ILD .OHMM   05 120 46 00:   INDUCTION LOG DEEP
 SN  .OHMM   05 040 16 00:   SHORT NORMAL 16"
 SPR .MV     05 010 01 00:   SPONTANEOUS POTENTIAL.
 CALD.IN     45 280 60 00:   CALIPER FROM DENSITY LOG
 CORR.G/C3   45 356 01 00:   DENSITY CORRECTION
 DPHI.DEC    45 890 12 00:   DENSITY POROSITY SANDSTONE
 GRD .GAPI   45 310 01 00:   GAMMA RAY FROM DENSITY LOG
 RHOB.G/C3   45 350 01 00:   BULK DENSITY
~PARAMETER INFORMATION
#MNEM.UNIT          VALUE    DESCRIPTION
#----------   ------------   ------------------------------
 PD  .                 GL:   PERMANENT DATUM
 EPD .F              5168:   ELEVATION PERMANENT DATUM
 LMF .                 KB:   LOG MEASURED FROM
 DMF .                 KB:   DRILLING MEASURED FROM
 EKB .F              5171:   KELLING BUSHING
 EGL .F              5168:   GROUND LEVEL
 DATE.        03-FEB-1978:   RUN DATE
 RUN .                  1:   RUN NUMBER
 DD  .F               650:   DEPTH DRILLER
 DL  .F               655:   DEPTH LOGGER
 BLI .F               655:   BOTTOM LOG INTERVAL
 TLI .F                40:   TOP LOG INTERVAL
 CS  .IN            8.625:   CASING SIZE
 CBD .F                39:   CASING BOTTOM DRILLER
 CBL .F                40:   CASING BOTTOM LOGGER
 BS  .IN            7.875:   BIT SIZE
 BSD .F               650:   BIT SIZE AT DEPTH
 DFT .                KCL:   DRILLING FLUID TYPE
 DFD .                8.6:   DRILLING FLUID DENSITY
 DFV .                 31:   DRILLING FLUID VISCOSITY
 DFPH.                9.5:   DRILLING FLUID PH
 DFL .               12.8:   DRILLING FLUID LOSS
 MSS .           FLOWLINE:   MUD SAMPLE SOURCE
 RMS .OHMM           0.38:   RESISTIVITY MUD SAMPLE
 MST .F                62:   MUD SAMPLE TEMPERATURE
 RMF .OHMM            4.4:   RESISTIVITY MUD FILTRATE SAMPLE
 MFST.F                62:   MUD FILTRATE SAMPLE TEMPERATURE
 RMC .OHMM            0.8:   RESISTIVITY MUD CAKE
 MCST.F                62:   MUD CAKE SAMPLE TEMPERATURE
 MFSS.               MEAS:   MUD FILTRATE SAMPLE SOURCE
 RMB .OHMM           0.35:   RESISTIVITY MUD AT BHT
 BHT .F                68:   BOTTOM HOLE TEMPERATURE
 TCS .HRS               1:   TIME CURCULATED STOPPED
 MRT .F                68:   MAXIMUM RECORDED TEMPERATURE
 LUN .               2958:   LOGGING UNIT NUMBER
 LUL .             CASPER:   LOGGING UNIT LOCATION
 ENGI.           REYNOLDS:   RECORDING ENGINEER
 WITN.         HARRINGTON:   WITNESSED BY
 CLNT.            A2DTECH:   CLIENT CODE
 ORIG.           5" PRINT:   ORIGIN OF DATA
 UWI .       490251057200:   UNIQUE WELL ID
 DICO. A2D Technologies, Inc.:   DIGITIZING COMPANY
~OTHER INFORMATION
~A   DEPT      ILD         SN        SPR       CALD       CORR       DPHI         GRD      RHOB   
# ...
  188.0000     8.9963     8.9369   -70.0667     7.8502     0.0062     0.1176   104.9124     2.4544
  188.5000     9.1218     8.9955   -70.0729     7.8486     0.0091     0.1122   111.7205     2.4686
  189.0000     9.2435     9.0545   -70.0790     7.8472     0.0119     0.1131   108.5468     2.4708
  189.5000     9.3663     9.1764   -70.0851     7.8457     0.0148     0.1168   105.0288     2.4615
  190.0000     9.4988     9.3010   -70.0912     7.8594     0.0145     0.1166   103.5021     2.4632
  190.5000     9.6955     9.4281   -70.0976     7.8730     0.0100     0.1123   103.0329     2.4736
  191.0000     9.8285     9.6216   -70.1034     7.8867     0.0069     0.1126   104.8294     2.4713
  191.5000     9.9634     9.7523   -70.1094     7.9000     0.0038     0.1156   108.2877     2.4630
  192.0000    10.1722     9.9534   -70.1155     7.8984     0.0081     0.1135   108.8882     2.4645
  192.5000    10.3205    10.0255   -70.1226     7.9029     0.0125     0.1157   105.9366     2.4637
  193.0000    10.5241    10.2253   -70.1277     7.9259     0.0138     0.1175    99.4740     2.4523
  193.5000    10.5205    10.3640   -70.1337     7.9244     0.0197     0.1181    96.4368     2.4591
  194.0000    10.5177    10.5047   -70.1398     7.9402     0.0301     0.1185    95.8178     2.4537
  194.5000    10.3698    10.4994   -70.1461     7.9517     0.0418     0.1211    97.4634     2.4454
  195.0000    10.2240    10.3505   -70.1520     7.9654     0.0446     0.1206   100.5035     2.4401
  195.5000    10.0802    10.2037   -70.1581     7.9790     0.0445     0.1209   105.6616     2.4513
  196.0000     9.9385     9.9894   -70.1641     7.9772     0.0503     0.1224   106.6296     2.4580
  196.5000     9.9263     9.8398   -70.1711     7.9909     0.0591     0.1230   101.4735     2.4475
  197.0000     9.7954     9.6399   -70.1770     8.0045     0.0665     0.1143    99.1916     2.4422
  197.5000     9.6577     9.5031   -70.1824     8.0030     0.0723     0.1104   100.0818     2.4430
  198.0000     9.5219     9.4993   -70.1885     8.0167     0.0769     0.1073   106.5612     2.4586
  198.5000     9.3880     9.4955   -70.1946     7.9997     0.0855     0.1102   111.8321     2.4600
  199.0000     9.3205     9.4916   -70.2006     7.9983     0.0913     0.1087   108.2306     2.4652
  199.5000     9.2535     9.5540   -70.2079     7.9968     0.0927     0.1015   103.3367     2.4757
  200.0000     9.2510     9.0340   -70.2128     7.9348     0.0851     0.0952   101.9651     2.4846
  200.5000     9.2473     9.0309   -70.2196     7.9339     0.0819     0.0946   103.9187     2.4951
  201.0000     9.2442     9.0278   -70.2255     7.9330     0.0758     0.0961   104.5119     2.4966
  201.5000     9.1771     9.0248   -70.2314     7.9475     0.0727     0.0998   107.6754     2.4889
  202.0000     9.1740     9.0217   -70.2373     7.9464     0.0726     0.1045   110.6877     2.4811
  202.5000     9.1709     9.0186   -70.2432     7.9607     0.0725     0.1124   107.6578     2.4708
  203.0000     9.1678     9.0149   -70.2695     7.9598     0.0723     0.1151   105.2321     2.4648
  203.5000     9.1647     8.9500   -70.4084     7.9437     0.0722     0.1142   102.8064     2.4580
  204.0000     9.2255     8.9464   -70.4143     7.9580     0.0735     0.1125   105.5166     2.4572
  204.5000     9.2221     8.9121   -70.4201     7.9418     0.0734     0.1110   107.3535     2.4579
  205.0000     9.2189     8.8788   -70.3487     7.9562     0.0748     0.1104   109.4243     2.4601
  205.5000     9.2154     8.8757   -70.2080     7.9400     0.0746     0.1098   109.7198     2.4653
  206.0000     9.1485     8.9344   -70.0629     7.9240     0.0760     0.1105   106.6877     2.4635
  206.5000     9.0821     8.9936   -69.9200     7.9080     0.0744     0.1122   103.9599     2.4539
  207.0000     9.0791     8.9904   -69.9311     7.8768     0.0713     0.1135   101.2320     2.4629
  207.5000     9.0760     8.9873   -69.8862     7.8306     0.0681     0.1147   104.5465     2.4628
  208.0000     9.0728     9.0469   -69.7949     7.7994     0.0635     0.1159   109.0694     2.4583
  208.5000     9.0691     9.0431   -69.8059     7.7832     0.0604     0.1069   112.7004     2.4507
  209.0000     9.0660     9.0400   -69.8149     7.7823     0.0558     0.1063   110.2581     2.4697
  209.5000     9.0630     9.0370   -69.8240     7.7814     0.0512     0.1082   109.6435     2.4716
  210.0000     9.0599     8.9714   -69.9865     7.7805     0.0495     0.1100   108.2376     2.4633
  210.5000     9.0571     8.8448   -69.9953     7.7796     0.0479     0.1058   110.5331     2.4655
  211.0000     8.9289     8.7567   -70.0042     7.7788     0.0403     0.1070   112.6391     2.4730
  211.5000     8.8027     8.5967   -69.8591     7.7930     0.0265     0.1115   115.0472     2.4774
  212.0000     8.6467     8.4754   -69.8701     7.7921     0.0191     0.1164   115.6449     2.4579
  212.5000     8.4621     8.2931   -69.8790     7.8215     0.0190     0.1179   113.3680     2.4541
  213.0000     8.3178     8.1240   -70.0396     7.8206     0.0159     0.1182   110.1870     2.4570
  213.5000     8.1435     7.9534   -70.2003     7.8348     0.0098     0.1206   110.7825     2.4464
  214.0000     8.0285     7.8411   -70.2094     7.8490     0.0067     0.1252   111.5290     2.4351
  214.5000     7.9702     7.7842   -70.2185     7.8783     0.0125     0.1305   109.8585     2.4186
  215.0000     7.8576     7.8364   -70.2276     7.8774     0.0154     0.1270   111.0560     2.4290
  215.5000     7.8549     7.8877   -70.2378     7.8918     0.0152     0.1240   112.2557     2.4365
  216.0000     7.8523     7.9952   -70.2467     7.9059     0.0169     0.1180   112.8533     2.4379
  216.5000     7.9634     8.1607   -70.2549     7.9050     0.0209     0.1108   109.5191     2.4431
  217.0000     8.2372     8.4460   -70.2644     7.9041     0.0208     0.1075   109.5103     2.4584
  217.5000     8.5255     8.6838   -70.1985     7.9183     0.0207     0.1072   109.3504     2.4723
  218.0000     8.7627     8.8080   -70.1305     7.9172     0.0205     0.1061   107.5832     2.4700
  218.5000     8.8830     8.9191   -70.1414     7.9012     0.0204     0.1039   103.2883     2.4654
  219.0000     8.9419     8.9782   -70.1502     7.9003     0.0173     0.1007   101.3158     2.4774
  219.5000     8.8763     8.9123   -70.1591     7.9146     0.0142     0.1037   101.6099     2.4818
  220.0000     8.8733     8.8477   -70.1680     7.9137     0.0125     0.1073   103.4137     2.4780
  220.5000     8.7479     8.7228   -70.1768     7.9129     0.0139     0.1079   107.6944     2.4735
  221.0000     8.6238     8.5996   -70.1851     7.9120     0.0137     0.1053   108.0789     2.4719
  221.5000     8.5612     8.5863   -70.0425     7.9110     0.0121     0.1026   105.8021     2.4721
  222.0000     8.4991     8.6537   -70.0516     7.9075     0.0120     0.1005   103.9806     2.4786
  222.5000     8.4962     8.6507   -70.0620     7.8939     0.0134     0.1026   106.5398     2.4762
  223.0000     8.4934     8.6545   -70.2226     7.8931     0.0177     0.1014   110.7606     2.4672
  223.5000     8.5497     8.7051   -70.2307     7.8922     0.0206     0.1002   113.3198     2.4739
  224.0000     8.6063     8.7627   -70.2403     7.9111     0.0188     0.0997   113.0089     2.4798
  224.5000     8.6627     8.7590   -70.2491     7.9209     0.0128     0.1036   111.7719     2.4828
  225.0000     8.6603     8.8178   -70.2580     7.9197     0.0037     0.1072   109.6173     2.4797
  225.5000     8.7179     8.8762   -70.3093     7.9189     0.0021     0.1108   107.0891     2.4674
  226.0000     8.7142     8.8724   -70.4296     7.9260     0.0050     0.1151   103.9081     2.4586
  226.5000     8.7113     8.8696   -70.4370     7.9323     0.0093     0.1172   101.9377     2.4503
  227.0000     8.7084     8.8664   -70.4461     7.9465     0.0126     0.1139   106.6095     2.4563
  227.5000     8.7055     8.8021   -70.4562     7.9454     0.0165     0.1160   108.2646     2.4502
  228.0000     8.7025     8.7382   -70.4650     7.9673     0.0163     0.1145   105.0814     2.4472
