~VERSION INFORMATION
 VERS.                2.0:   CWLS LOG ASCII STANDARD - VERSION 2.0
 WRAP.                 NO:   ONE LINE PER DEPTH STEP
~WELL INFORMATION
#MNEM.UNIT      DATA TYPE    INFORMATION
#----------   ------------   ------------------------------
 STRT.F           90.5000:   START DEPTH
 STOP.F          836.0000:   STOP DEPTH
 STEP.F            0.5000:   STEP LENGTH
 NULL.          -999.2500:   NO VALUE
 COMP.          U.S. NAVY:   COMPANY
 WELL.    NPR #3 #38-S-35:   WELL
 FLD .           TEAPOT E:   FIELD
 LOC .      S35 T39N R78W:   LOCATION
 CNTY.            NATRONA:   COUNTY
 STAT.            WYOMING:   STATE
 CTRY. UNITED STATES OF AMERICA:   COUNTRY
 SRVC. Schlumberger Well Surveying Corp:   SERVICE COMPANY
 DATE.        21-JUL-1963:   LOGDATE
 API .       490250649100:   API NUMBER
~CURVE INFORMATION
#MNEM.UNIT       API CODE    CURVE DESCRIPTION
#----------   ------------   ------------------------------
 DEPT.F                  :   
 SPR .MV     05 010 01 00:   SPONTANEOUS POTENTIAL FROM RES.
 ASN .OHMM   05 041 16 00:   AMPLIFIED SHORT NORMAL 16"
 ILD .OHMM   05 120 46 00:   INDUCTION LOG DEEP
 CILD.MMHO   05 110 46 00:   CONDUCTIVITY INDUCTION LOG DEEP
 DT  .US/F   60 520 33 00:   INTERVAL TRANSIT TIME
 GR  .GAPI   30 310 01 00:   GAMMA RAY
~PARAMETER INFORMATION
#MNEM.UNIT          VALUE    DESCRIPTION
#----------   ------------   ------------------------------
 LMF .                 KB:   LOG MEASURED FROM
 DMF .                 KB:   DRILLING MEASURED FROM
 EKB .F              5119:   KELLING BUSHING
 EGL .F              5114:   GROUND LEVEL
 DATE.          7-21-1963:   RUN DATE
 RUN .                  1:   RUN NUMBER
 DD  .F               836:   DEPTH DRILLER
 DL  .F               837:   DEPTH LOGGER
 BLI .F               836:   BOTTOM LOG INTERVAL
 TLI .F                90:   TOP LOG INTERVAL
 CBD .F                12:   CASING BOTTOM DRILLER
 BS  .IN             6.75:   BIT SIZE
 BSD .F               836:   BIT SIZE AT DEPTH
 DFT .            GEL-OIL:   DRILLING FLUID TYPE
 DFD .                9.2:   DRILLING FLUID DENSITY
 DFV .                 85:   DRILLING FLUID VISCOSITY
 DFPH.                  8:   DRILLING FLUID PH
 DFL .                3.6:   DRILLING FLUID LOSS
 MSS .           FLOWLINE:   MUD SAMPLE SOURCE
 RMS .OHMM           2.95:   RESISTIVITY MUD SAMPLE
 MST .F                88:   MUD SAMPLE TEMPERATURE
 RMF .OHMM           2.31:   RESISTIVITY MUD FILTRATE SAMPLE
 MFST.F                88:   MUD FILTRATE SAMPLE TEMPERATURE
 RMC .OHMM           2.65:   RESISTIVITY MUD CAKE
 MCST.F                88:   MUD CAKE SAMPLE TEMPERATURE
 MFSS.                  M:   MUD FILTRATE SAMPLE SOURCE
 MCSS.                  M:   MUD CAKE SAMPLE SOURCE
 TCS .HRS               1:   TIME CURCULATED STOPPED
 LUN .               2523:   LOGGING UNIT NUMBER
 LUL .              CSPR.:   LOGGING UNIT LOCATION
 ENGI.             KNOBEL:   RECORDING ENGINEER
 WITN.          JORGENSON:   WITNESSED BY
 CLNT.            A2DTECH:   CLIENT CODE
 ORIG.      2" , 5" PRINT:   ORIGIN OF DATA
 UWI .       490250649100:   UNIQUE WELL ID
 DICO. A2D Technologies, Inc.:   DIGITIZING COMPANY
~OTHER INFORMATION
~A   DEPT      SPR        ASN        ILD       CILD         DT         GR   
# ...
  454.5000   -20.6110     8.1400     6.7231   129.6296    99.2930  -999.2500
  455.0000   -20.5811     8.0274     6.6109   131.6888   100.6394  -999.2500
  455.5000   -20.5510     7.9436     6.4987   135.6657   102.1005  -999.2500
  456.0000   -20.5214     7.9115     6.3865   140.9009   103.5617  -999.2500
  456.5000   -20.5137     7.7350     6.2738   146.1361   105.0229  -999.2500
  457.0000   -20.5746     7.4911     6.1597   147.4366   105.5056  -999.2500
  457.5000   -20.6319     7.3628     6.0910   148.5385   105.1081  -999.2500
  458.0000   -20.6801     7.2642     6.0231   149.6385   104.7106  -999.2500
  458.5000   -21.0994     7.1659     5.9550   150.6507   104.3130  -999.2500
  459.0000   -21.5930     7.1102     5.8863   150.6507   103.9156  -999.2500
  459.5000   -21.7012     7.1056     5.9008   149.7567   103.5181  -999.2500
  460.0000   -21.6254     7.1642     5.9804   148.5486   102.9520  -999.2500
  460.5000   -21.2082     7.2994     6.0610   146.9820   102.1743  -999.2500
  461.0000   -20.8006     7.4481     6.1417   144.3644   101.3966  -999.2500
  461.5000   -20.3818     7.5290     6.2222   141.7458   100.6189  -999.2500
  462.0000   -20.3336     7.5540     6.3028   139.1258   100.2318  -999.2500
  462.5000   -20.3775     7.5775     6.3833   137.0862   100.1165  -999.2500
  463.0000   -20.4231     7.6010     6.4583   135.8093   100.2612  -999.2500
  463.5000   -20.4677     7.6248     6.5072   134.5338   100.4497  -999.2500
  464.0000   -20.5123     7.6479     6.5538   133.2576   101.1101  -999.2500
  464.5000   -20.5568     7.7217     6.6003   131.9808   101.9397  -999.2500
  465.0000   -20.6014     7.8257     6.6469   130.7027   101.7249  -999.2500
  465.5000   -20.6460     7.9018     6.6934   129.4227   101.7459  -999.2500
  466.0000   -20.6943     7.9495     6.7400   128.1501   102.5001  -999.2500
  466.5000   -20.5834     7.9971     6.7866   127.8486   102.9124  -999.2500
  467.0000   -20.4342     8.0446     6.8323   128.2225   102.3421  -999.2500
  467.5000   -20.2841     8.0877     6.8169   128.6286   100.9503  -999.2500
  468.0000   -20.1344     8.1165     6.7351   130.1396    98.6014  -999.2500
  468.5000   -19.9868     8.0742     6.6535   131.7928   101.5337  -999.2500
  469.0000   -19.9461     8.0101     6.5715   133.4461   101.3384  -999.2500
  469.5000   -20.0574     7.8762     6.4897   135.0993   101.1408  -999.2500
  470.0000   -20.1671     7.7452     6.4084   136.7525   101.7389  -999.2500
  470.5000   -20.2767     7.6144     6.3404   138.4058   102.5490  -999.2500
  471.0000   -20.4247     7.4823     6.2983   140.0590   103.3591  -999.2500
  471.5000   -20.5817     7.4377     6.2558   141.7123   103.4335  -999.2500
  472.0000   -20.7400     7.4530     6.2133   143.3675   103.1968  -999.2500
  472.5000   -20.8937     7.4757     6.1709   145.0187   103.6420  -999.2500
  473.0000   -20.8542     7.4956     6.1283   146.6467   104.0992  -999.2500
  473.5000   -20.8043     7.4541     6.0861   146.0968   104.5578  -999.2500
  474.0000   -20.7554     7.4106     6.0619   145.5571   104.7798  -999.2500
  474.5000   -20.7068     7.3659     6.0894   145.0138   104.8984  -999.2500
  475.0000   -20.6581     7.3691     6.1151   144.4727   104.9825  -999.2500
  475.5000   -20.6095     7.4045     6.1409   143.9305   104.9177  -999.2500
  476.0000   -20.5608     7.4698     6.1666   143.3875   104.8951  -999.2500
  476.5000   -20.5122     7.5348     6.1924   142.4700   104.5907  -999.2500
  477.0000   -20.4635     7.5380     6.2181   141.5527   104.2451  -999.2500
  477.5000   -20.4149     7.5374     6.2439   140.6350   103.8961  -999.2500
  478.0000   -20.3662     7.5384     6.2696   139.7175   104.0773  -999.2500
  478.5000   -20.3176     7.5578     6.2953   138.7999   104.2603  -999.2500
  479.0000   -20.2689     7.5770     6.3210   137.8824   104.4429  -999.2500
  479.5000   -20.2201     7.5959     6.3475   136.9649   104.4017  -999.2500
  480.0000   -20.1717     7.6132     6.3857   136.0474   104.0640  -999.2500
  480.5000   -20.1228     7.6830     6.4534   135.1299   103.6272  -999.2500
  481.0000   -20.1558     7.7589     6.5205   134.2124   103.2560  -999.2500
  481.5000   -20.2596     7.8350     6.5879   133.2948   103.0910  -999.2500
  482.0000   -20.3643     7.9110     6.6552   132.3773   102.9257  -999.2500
  482.5000   -20.4698     7.9858     6.7225   131.4598   102.7605  -999.2500
  483.0000   -20.5299     8.0424     6.7898   130.5423   102.5977  -999.2500
  483.5000   -20.5729     8.0533     6.8571   129.6248   102.5974  -999.2500
  484.0000   -20.6155     8.0649     6.9244   128.7076   102.5974  -999.2500
  484.5000   -20.6581     8.0748     6.9917   127.7922   102.5974  -999.2500
  485.0000   -20.7008     8.1363     7.0591   126.8722   102.4475  -999.2500
  485.5000   -20.7435     8.2803     7.1265   125.7245   102.0155  -999.2500
  486.0000   -20.7863     8.4351     7.1942   124.4927   101.5834  -999.2500
  486.5000   -20.8294     8.5890     7.2557   123.2609   101.1514  -999.2500
  487.0000   -20.8707     8.7009     7.2419   122.4424   100.7193  -999.2500
  487.5000   -20.8483     8.6989     7.2266   122.0685   100.9116  -999.2500
  488.0000   -20.6852     8.6985     7.2116   121.6940   101.3437  -999.2500
  488.5000   -20.5245     8.6792     7.1966   121.3200   101.5998  -999.2500
  489.0000   -20.3634     8.6323     7.1815   120.9481   101.5971  -999.2500
  489.5000   -20.2025     8.5848     7.1669   120.6179   101.1259  -999.2500
  490.0000   -20.0414     8.5433     7.1562   120.6199   100.6752  -999.2500
  490.5000   -19.8794     8.6832     7.2461   120.6360   100.2274  -999.2500
  491.0000   -19.7126     8.8321     7.3922   119.1243    99.7797  -999.2500
  491.5000   -19.9196     9.0017     7.5396   117.3293    99.1500  -999.2500
  492.0000   -20.1730     9.1767     7.6870   115.5344    98.4885  -999.2500
  492.5000   -20.4268     9.3539     7.8342   113.7394    97.8567  -999.2500
  493.0000   -20.6799     9.5027     7.9815   111.9445    97.5482  -999.2500
  493.5000   -20.9289     9.6353     8.1287   110.1496    97.2320  -999.2500
  494.0000   -21.0711     9.7679     8.2760   108.1961    96.9212  -999.2500
  494.5000   -20.9699     9.9005     8.4232   105.3264    96.6002  -999.2500
  495.0000   -20.8733    10.0332     8.5705   102.4440    95.7123  -999.2500
  495.5000   -20.7757    10.1615     8.7178    99.5631    92.6377  -999.2500
  496.0000   -20.6784    10.3115     8.8643    97.5360    88.8488  -999.2500
  496.5000   -20.5812    10.4598     9.0041    97.3422    85.6144  -999.2500
  497.0000   -20.4840    10.6080     9.1287    97.1456    86.1498  -999.2500
  497.5000   -20.3870    10.8322     9.2540    96.9526    86.2438  -999.2500
  498.0000   -20.2699    11.0390     9.3764    96.7611    85.8981  -999.2500
  498.5000   -20.0330    10.7711     9.4134    96.7708    89.7075  -999.2500
  499.0000   -19.7860    10.6241     9.2704    97.9532    94.8492  -999.2500
  499.5000   -19.9564    10.5568     9.1304    99.1279    98.2408  -999.2500
  500.0000   -20.3532    10.4915     8.9896   100.3026    98.7308  -999.2500
  500.5000   -20.6501    10.4261     8.8506   101.4773    99.1104  -999.2500
  501.0000   -20.1583    10.3609     8.7453   102.6520    99.0464  -999.2500
  501.5000   -19.6749    10.3032     8.7104   103.6877    98.6411  -999.2500
  502.0000   -19.2861    10.2590     8.6743   104.1300    98.2359  -999.2500
  502.5000   -19.2707    10.2149     8.6385   104.5736    97.8306  -999.2500
  503.0000   -19.2477    10.1530     8.6026   105.0159    97.6309  -999.2500
  503.5000   -19.2244    10.0831     8.5668   105.4586    98.3053  -999.2500
  504.0000   -19.2010    10.0659     8.5309   105.9013    97.8022  -999.2500
  504.5000   -19.1775    10.0516     8.4950   106.3441    96.0040  -999.2500
  505.0000   -19.1542    10.0370     8.4592   106.7868    97.5774  -999.2500
  505.5000   -19.1303    10.0222     8.4233   107.2295    98.0958  -999.2500
  506.0000   -19.1088    10.0074     8.3874   107.6722    97.8685  -999.2500
