~VERSION INFORMATION
 VERS.                2.0:   CWLS LOG ASCII STANDARD - VERSION 2.0
 WRAP.                 NO:   ONE LINE PER DEPTH STEP
~WELL INFORMATION
#MNEM.UNIT      DATA TYPE    INFORMATION
#----------   ------------   ------------------------------
 STRT.F           11.0000:   START DEPTH
 STOP.F          915.0000:   STOP DEPTH
 STEP.F            0.5000:   STEP LENGTH
 NULL.          -999.2500:   NO VALUE
 COMP. U S NAVY/INTEX OIL CO:   COMPANY
 WELL.       N.P.R. #3-35:   WELL
 FLD .           TEAPOT E:   FIELD
 LOC .      S35 T39N R78W:   LOCATION
 CNTY.            NATRONA:   COUNTY
 STAT.            WYOMING:   STATE
 CTRY. UNITED STATES OF AMERICA:   COUNTRY
 SRVC.       Schlumberger:   SERVICE COMPANY
 DATE.        25-JUL-1953:   LOGDATE
 API .       490250653700:   API NUMBER
~CURVE INFORMATION
#MNEM.UNIT       API CODE    CURVE DESCRIPTION
#----------   ------------   ------------------------------
 DEPT.F                  :   
 SPR .MV     05 010 01 00:   SPONTANEOUS POTENTIAL FROM RES.
 CILD.MMHO   05 110 46 00:   CONDUCTIVITY INDUCTION LOG DEEP
 ILD .OHMM   05 120 46 00:   INDUCTION LOG DEEP
 ASN .OHMM   05 041 16 00:   AMPLIFIED SHORT NORMAL 16"
 GR  .GAPI   30 310 01 00:   GAMMA RAY
~PARAMETER INFORMATION
#MNEM.UNIT          VALUE    DESCRIPTION
#----------   ------------   ------------------------------
 EPD .F              5097:   ELEVATION PERMANENT DATUM
 LMF .                 KB:   LOG MEASURED FROM
 DMF .                 KB:   DRILLING MEASURED FROM
 EKB .F              5102:   KELLING BUSHING
 EGL .F              5097:   GROUND LEVEL
 DATE.           7-2-1963:   RUN DATE
 RUN .                  1:   RUN NUMBER
 DD  .F               916:   DEPTH DRILLER
 DL  .F               916:   DEPTH LOGGER
 BLI .F               915:   BOTTOM LOG INTERVAL
 TLI .F                90:   TOP LOG INTERVAL
 CS  .IN            8.625:   CASING SIZE
 CBD .F                10:   CASING BOTTOM DRILLER
 BS  .IN             6.75:   BIT SIZE
 BSD .F               916:   BIT SIZE AT DEPTH
 DFT .            GEL/OIL:   DRILLING FLUID TYPE
 DFD .                9.6:   DRILLING FLUID DENSITY
 DFV .                 67:   DRILLING FLUID VISCOSITY
 DFPH.                  9:   DRILLING FLUID PH
 DFL .                4.2:   DRILLING FLUID LOSS
 MSS .          FLOW LINE:   MUD SAMPLE SOURCE
 RMS .OHMM           2.92:   RESISTIVITY MUD SAMPLE
 MST .F                86:   MUD SAMPLE TEMPERATURE
 RMF .OHMM            2.6:   RESISTIVITY MUD FILTRATE SAMPLE
 MFST.F                86:   MUD FILTRATE SAMPLE TEMPERATURE
 RMC .OHMM           2.49:   RESISTIVITY MUD CAKE
 MCST.F                86:   MUD CAKE SAMPLE TEMPERATURE
 MFSS.                  M:   MUD FILTRATE SAMPLE SOURCE
 MCSS.                  M:   MUD CAKE SAMPLE SOURCE
 TCS .HRS              .5:   TIME CURCULATED STOPPED
 LUN .               4507:   LOGGING UNIT NUMBER
 ENGI.             KNOBEL:   RECORDING ENGINEER
 WITN.          JORGENSON:   WITNESSED BY
 CLNT.            A2DTECH:   CLIENT CODE
 ORIG.       2", 5" PRINT:   ORIGIN OF DATA
 UWI .       490250653700:   UNIQUE WELL ID
 DICO. A2D Technologies, Inc.:   DIGITIZING COMPANY
~OTHER INFORMATION
~A   DEPT      SPR       CILD        ILD        ASN          GR  
# ...
   72.0000  -999.2500  -999.2500  -999.2500  -999.2500    48.4847
   72.5000  -999.2500  -999.2500  -999.2500  -999.2500    49.0986
   73.0000  -999.2500  -999.2500  -999.2500  -999.2500    44.2620
   73.5000  -999.2500  -999.2500  -999.2500  -999.2500    40.9217
   74.0000  -999.2500  -999.2500  -999.2500  -999.2500    39.6289
   74.5000  -999.2500  -999.2500  -999.2500  -999.2500    38.5396
   75.0000  -999.2500  -999.2500  -999.2500  -999.2500    39.4314
   75.5000  -999.2500  -999.2500  -999.2500  -999.2500    40.5657
   76.0000  -999.2500  -999.2500  -999.2500  -999.2500    38.8146
   76.5000  -999.2500  -999.2500  -999.2500  -999.2500    39.7772
   77.0000  -999.2500  -999.2500  -999.2500  -999.2500    42.5541
   77.5000  -999.2500  -999.2500  -999.2500  -999.2500    42.5104
   78.0000  -999.2500  -999.2500  -999.2500  -999.2500    43.3992
   78.5000  -999.2500  -999.2500  -999.2500  -999.2500    44.9240
   79.0000  -999.2500  -999.2500  -999.2500  -999.2500    43.8128
   79.5000  -999.2500  -999.2500  -999.2500  -999.2500    42.2436
   80.0000  -999.2500  -999.2500  -999.2500  -999.2500    45.7445
   80.5000  -999.2500  -999.2500  -999.2500  -999.2500    36.9768
   81.0000  -999.2500  -999.2500  -999.2500  -999.2500    38.4352
   81.5000  -999.2500  -999.2500  -999.2500  -999.2500    41.0017
   82.0000  -999.2500  -999.2500  -999.2500  -999.2500    41.4891
   82.5000  -999.2500  -999.2500  -999.2500  -999.2500    37.7871
   83.0000  -999.2500  -999.2500  -999.2500  -999.2500    39.3171
   83.5000  -999.2500  -999.2500  -999.2500  -999.2500    45.3567
   84.0000  -999.2500  -999.2500  -999.2500  -999.2500    46.5094
   84.5000  -999.2500  -999.2500  -999.2500  -999.2500    41.7954
   85.0000  -999.2500  -999.2500  -999.2500  -999.2500    42.7718
   85.5000  -999.2500  -999.2500  -999.2500  -999.2500    38.8971
   86.0000  -999.2500  -999.2500  -999.2500  -999.2500    42.3715
   86.5000  -999.2500  -999.2500  -999.2500  -999.2500    40.7012
   87.0000  -999.2500  -999.2500  -999.2500  -999.2500    41.2092
   87.5000  -999.2500  -999.2500  -999.2500  -999.2500    38.8128
   88.0000  -999.2500  -999.2500  -999.2500  -999.2500    41.0559
   88.5000  -999.2500  -999.2500  -999.2500  -999.2500    43.6980
   89.0000  -999.2500  -999.2500  -999.2500  -999.2500    40.0186
   89.5000  -999.2500  -999.2500  -999.2500  -999.2500    41.6633
   90.0000   -40.4771   198.9724     4.7090  -999.2500    46.5101
   90.5000   -41.2974   195.4264     4.9403     1.8954    48.6941
   91.0000   -41.5418   191.8804     5.1217     2.0932    40.5669
   91.5000   -41.1150   188.3345     5.2770     2.5620    41.1598
   92.0000   -40.7056   185.6741     5.4070     3.1208    40.2074
   92.5000   -40.7656   182.1276     5.5349     3.8672    39.7116
   93.0000   -40.8482   179.3576     5.6503     4.6127    39.0271
   93.5000   -40.9290   177.8161     5.7679     5.3569    39.8331
   94.0000   -41.0091   176.2749     5.8855     6.1007    40.8177
   94.5000   -41.0896   174.7324     6.0030     6.4693    40.2564
   95.0000   -41.1708   172.9467     6.1209     6.5121    42.1074
   95.5000   -41.2496   170.6096     6.2392     6.5468    44.1095
   96.0000   -41.2404   168.4155     6.3441     6.6687    41.8225
   96.5000   -40.7140   169.1196     6.2718     6.8077    38.4543
   97.0000   -40.6858   169.7830     6.1972     6.7413    38.9066
   97.5000   -40.6899   170.4465     6.1235     6.4830    39.9769
   98.0000   -40.6925   171.1099     6.0501     6.3555    43.3879
   98.5000   -40.6817   171.7733     5.9766     6.6163    44.4029
   99.0000   -40.3573   172.4368     5.9023     6.5682    40.1856
   99.5000   -40.0679   171.4696     5.8264     6.4961    38.0589
  100.0000   -40.1006   169.9136     5.8235     6.4519    41.9908
  100.5000   -40.1363   168.3577     5.8249     6.6217    45.0552
  101.0000   -40.1708   166.8017     5.9778     6.7503    45.1428
  101.5000   -40.2054   165.2457     6.2889     6.7448    46.6446
  102.0000   -40.2400   163.6897     6.5943     6.8873    51.2165
  102.5000   -40.2745   164.2344     6.6819     7.0412    49.4683
  103.0000   -40.3090   165.8358     6.4569     7.0205    50.4848
  103.5000   -40.3435   167.3662     6.2235     7.0064    52.4016
  104.0000   -40.3781   172.2581     5.9872     6.8803    53.7628
  104.5000   -40.4127   176.8101     5.7501     6.6969    52.5476
  105.0000   -40.4476   183.3508     5.5129     6.5126    51.5854
  105.5000   -40.4792   189.7198     5.2777     6.3281    51.1617
  106.0000   -40.4380   196.0842     5.0725     6.1448    49.6105
  106.5000   -40.3943   200.2648     5.0265     5.9993    44.8404
  107.0000   -40.3509   200.3207     4.9971     5.9502    43.5617
  107.5000   -40.3078   196.8171     5.0798     5.8991    43.8993
  108.0000   -40.2611   193.3473     5.1609     5.9317    44.3862
  108.5000   -40.2044   185.9906     5.3320     6.1156    41.9774
  109.0000   -40.1467   177.4740     5.5683     6.2982    41.5851
  109.5000   -40.0890   168.9639     5.8441     6.5212    47.0844
  110.0000   -40.0314   160.4496     6.3777     6.9820    44.1439
  110.5000   -39.9736   153.4995     6.8727     7.4527    39.3188
  111.0000   -39.9151   149.6595     6.5920     7.5582    40.9975
  111.5000   -39.8567   145.8210     6.1482     6.6056    44.8579
  112.0000   -39.9287   141.9860     6.5058     6.9473    49.0369
  112.5000   -40.0123   141.2316     6.8648     8.3132    45.6222
  113.0000   -40.0956   143.5152     6.5308     8.1682    42.0158
  113.5000   -40.1790   145.7821     6.0447     7.7642    39.4029
  114.0000   -40.2614   147.9917     6.1563     7.2526    35.0038
  114.5000   -40.2469   150.0301     6.2428     7.3664    35.9425
  115.0000   -40.2182   152.0690     6.2437     7.5682    39.5571
  115.5000   -40.1892   154.1056     6.2435     7.6231    44.4237
  116.0000   -40.1604   156.1422     6.2455     7.3934    48.4231
  116.5000   -40.1316   159.5682     6.1198     7.1387    50.7427
  117.0000   -40.1021   163.7703     5.9289     6.8827    52.8284
  117.5000   -40.0746   167.9756     5.7368     6.7309    45.1493
  118.0000   -39.8800   172.1808     5.5448     6.6372    45.7552
  118.5000   -39.6577   176.3828     5.4645     6.6000    44.1467
  119.0000   -39.7762   179.4978     5.4092     6.6224    41.0298
  119.5000   -39.8857   181.0006     5.3534     6.5039    41.6132
  120.0000   -39.9931   179.4598     5.3039     6.4085    43.2654
  120.5000   -39.9685   177.8588     5.4458     6.3502    45.8398
  121.0000   -39.7008   174.7686     5.5979     6.3587    48.3305
  121.5000   -39.6452   171.5880     5.7493     6.3786    47.0711
  122.0000   -39.6437   168.4074     5.9003     6.4508    45.4028
  122.5000   -39.6441   165.2268     6.0515     6.6304    44.9378
  123.0000   -39.6443   162.0462     6.2059     6.8097    47.6482
  123.5000   -39.6443   158.8656     6.2659     6.9909    50.1239
  124.0000   -39.6443   155.6850     6.2984     6.9535    48.6912
  124.5000   -39.6444   154.6315     6.3297     6.9435    45.7627
  125.0000   -39.6443   154.4314     6.3613     7.0516    42.8275
  125.5000   -39.6443   154.2312     6.3919     7.1561    40.4104
  126.0000   -39.6450   154.0310     6.4216     7.2590    41.7784
  126.5000   -39.6153   153.8308     6.4756     7.2506    44.3723
  127.0000   -39.5732   152.6603     6.4176     7.2343    46.9282
  127.5000   -39.5308   156.8422     6.2221     7.3458    47.1078
  128.0000   -39.4884   160.7496     6.0201     7.3413    49.0217
  128.5000   -39.4461   164.6537     5.8178     6.8395    49.6522
  129.0000   -39.4037   168.5572     5.6172     6.3757    46.3470
  129.5000   -39.3613   172.4606     5.4178     6.4512    42.9676
  130.0000   -39.3191   176.3641     5.3212     6.4543    43.2741
  130.5000   -39.2764   180.2676     5.3720     6.3573    45.5867
  131.0000   -39.2293   181.2644     5.4219     6.2601    47.4202
  131.5000   -39.3598   179.9633     5.4728     6.2707    48.4423
  132.0000   -39.5246   178.6621     5.5237     6.3470    46.7220
  132.5000   -39.6908   177.3614     5.5745     6.3215    50.4539
