~VERSION INFORMATION
 VERS.                2.0:   CWLS LOG ASCII STANDARD - VERSION 2.0
 WRAP.                 NO:   ONE LINE PER DEPTH STEP
~WELL INFORMATION
#MNEM.UNIT      DATA TYPE    INFORMATION
#----------   ------------   ------------------------------
 STRT.F           29.0000:   START DEPTH
 STOP.F          642.0000:   STOP DEPTH
 STEP.F            0.5000:   STEP LENGTH
 NULL.          -999.2500:   NO VALUE
 COMP. FENIX & SCISSON INC:   COMPANY
 WELL.    NPR-3 SX #21-10:   WELL
 FLD .  TEAPOT DOME NPR 3:   FIELD
 LOC .      S10 T38N R78W:   LOCATION
 CNTY.            NATRONA:   COUNTY
 STAT.            WYOMING:   STATE
 CTRY. UNITED STATES OF AMERICA:   COUNTRY
 SRVC.            Unknown:   SERVICE COMPANY
 DATE.        03-JUL-1978:   LOGDATE
 API .       490251065400:   API NUMBER
~CURVE INFORMATION
#MNEM.UNIT       API CODE    CURVE DESCRIPTION
#----------   ------------   ------------------------------
 DEPT.F                  :   
 SPR .MV     05 010 01 00:   SPONTANEOUS POTENTIAL FROM RES.
 SN  .OHMM   05 040 16 00:   SHORT NORMAL 16"
 ILD .OHMM   05 120 46 00:   INDUCTION LOG DEEP
 CALD.IN     45 280 60 00:   CALIPER FROM DENSITY
 GRD .GAPI   45 310 01 00:   GAMMA RAY FROM DENSITY LOG
 CORR.G/C3   45 356 01 00:   DENSITY CORRECTION
 DPHI.DEC    45 890 12 00:   DENSITY POROSITY SANDSTONE
 DEN .G/C3   45 350 01 00:   COMPENSATED BULK DENSTIY
~PARAMETER INFORMATION
#MNEM.UNIT          VALUE    DESCRIPTION
#----------   ------------   ------------------------------
 PD  .                 GL:   PERMANENT DATUM
 EPD .F              5253:   ELEVATION PERMANENT DATUM
 LMF .                 KB:   LOG MEASURED FROM
 DAPD.F                 4:   FEET ABOVE PERMANENT DATUM
 DMF .                 KB:   DRILLING MEASURED FROM
 EKB .F              5257:   KELLING BUSHING
 EGL .F              5253:   GROUND LEVEL
 DATE.           7-3-1978:   RUN DATE
 RUN .                  1:   RUN NUMBER
 DD  .F               650:   DEPTH DRILLER
 DL  .F               648:   DEPTH LOGGER
 BLI .F               642:   BOTTOM LOG INTERVAL
 TLI .F                40:   TOP LOG INTERVAL
 CS  .IN            8.625:   CASING SIZE
 CBD .F                40:   CASING BOTTOM DRILLER
 CBL .F                40:   CASING BOTTOM LOGGER
 BS  .IN            7.875:   BIT SIZE
 BSD .F               650:   BIT SIZE AT DEPTH
 DFT .                KCL:   DRILLING FLUID TYPE
 DFD .                8.6:   DRILLING FLUID DENSITY
 DFV .                 32:   DRILLING FLUID VISCOSITY
 DFPH.                  9:   DRILLING FLUID PH
 MSS .           FLOWLINE:   MUD SAMPLE SOURCE
 RMS .OHMM            .24:   RESISTIVITY MUD SAMPLE
 MST .F                88:   MUD SAMPLE TEMPERATURE
 RMF .OHMM            .24:   RESISTIVITY MUD FILTRATE SAMPLE
 MFST.F                94:   MUD FILTRATE SAMPLE TEMPERATURE
 RMC .OHMM            .46:   RESISTIVITY MUD CAKE
 MCST.F                96:   MUD CAKE SAMPLE TEMPERATURE
 MFSS.               MEAS:   MUD FILTRATE SAMPLE SOURCE
 MCSS.               MEAS:   MUD CAKE SAMPLE SOURCE
 TCS .HRS               2:   TIME CURCULATED STOPPED
 LUN .               2958:   LOGGING UNIT NUMBER
 LUL .               CASP:   LOGGING UNIT LOCATION
 CLNT.            A2DTECH:   CLIENT CODE
 ORIG.           5" PRINT:   ORIGIN OF DATA
 UWI .       490251065400:   UNIQUE WELL ID
 DICO. A2D Technologies, Inc.:   DIGITIZING COMPANY
~OTHER INFORMATION
~A   DEPT      SPR         SN        ILD       CALD        GRD       CORR       DPHI        DEN   
# ...
  515.0000   -20.5663    11.7601    13.4302     8.0194    93.2598     0.0054     0.1615     2.4141
  515.5000   -20.9834    11.6882    13.4411     8.0193    94.4412     0.0053     0.1624     2.4283
  516.0000   -21.2634    11.5372    13.2681     8.0191   100.9324     0.0068     0.1645     2.4253
  516.5000   -21.8293    11.5461    13.2791     8.0040   105.6536     0.0082     0.1672     2.4179
  517.0000   -22.4011    11.4753    13.2900     8.0039   107.4250     0.0127     0.1708     2.4149
  517.5000   -22.8299    11.4052    13.3928     7.9738   106.6890     0.0156     0.1606     2.4059
  518.0000   -23.4017    11.3377    13.4038     7.9736   101.2332     0.0172     0.1594     2.4126
  518.5000   -23.9676    11.1911    13.3223     8.0034    99.0223     0.0170     0.1612     2.4238
  519.0000   -24.0930    11.1995    13.2418     8.0332    99.1713     0.0170     0.1615     2.4231
  519.5000   -24.2183    11.2079    13.1644     8.0481   100.0577     0.0169     0.1582     2.4193
  520.0000   -24.3495    11.2164    12.9951     8.0329   100.0592     0.0154     0.1552     2.4245
  520.5000   -24.3202    11.2248    12.9139     8.0328   100.6506     0.0168     0.1561     2.4328
  521.0000   -24.4464    11.2332    12.8358     8.0326   103.3069     0.0198     0.1582     2.4282
  521.5000   -24.4221    11.2416    12.6733     8.0325   103.4555     0.0197     0.1552     2.4245
  522.0000   -24.5476    11.2501    12.6836     8.0174    99.0326     0.0212     0.1549     2.4314
  522.5000   -24.8264    11.2585    12.6939     8.0172    96.8213     0.0167     0.1513     2.4328
  523.0000   -24.9470    11.2670    12.7042     8.0171    98.2981     0.0062     0.1444     2.4375
  523.5000   -24.9226    11.2754    12.7146     8.0169    98.5945     0.0046     0.1504     2.4499
  524.0000   -25.0430    11.2839    12.6374     8.0168    98.0060     0.0180     0.1540     2.4492
  524.5000   -25.0195    11.2150    12.6480     8.0166    97.4172     0.0150     0.1522     2.4297
  525.0000   -24.9961    11.2234    12.6583     8.0165    97.5665     0.0075     0.1430     2.4312
  525.5000   -25.1273    11.2318    12.5817     8.0163    99.6329     0.0044     0.1423     2.4424
  526.0000   -25.2527    11.2402    12.5923     8.0162   101.1093     0.0059     0.1463     2.4536
  526.5000   -25.0745    11.2487    12.5158     8.0160   101.1107     0.0073     0.1496     2.4529
  527.0000   -25.2057    11.2571    12.5285     8.0159   100.9643     0.0103     0.1523     2.4401
  527.5000   -25.3252    11.2656    12.6253     8.0157   100.9662     0.0132     0.1550     2.4326
  528.0000   -25.3018    11.2740    12.6356     8.0305   101.2626     0.0132     0.1495     2.4311
  528.5000   -25.2783    11.3604    12.6458     8.0304   101.8541     0.0101     0.1424     2.4379
  529.0000   -25.2549    11.3689    12.7435     8.0452   102.2980     0.0086     0.1494     2.4521
  529.5000   -25.2314    11.3774    12.7538     8.0450   102.2995     0.0071     0.1547     2.4498
  530.0000   -25.3571    11.3079    12.7642     8.0449   103.0384     0.0085     0.1515     2.4311
  530.5000   -25.3333    11.3165    12.7746     8.0447   105.6948     0.0085     0.1443     2.4289
  531.0000   -25.3095    11.2473    12.6974     8.0446   106.2862     0.0099     0.1427     2.4468
  531.5000   -25.2857    11.1786    12.5341     8.0444   106.2877     0.0099     0.1505     2.4535
  532.0000   -25.2619    11.1869    12.4579     8.0443   105.1092     0.0098     0.1565     2.4423
  532.5000   -25.2336    11.1186    12.4684     8.0441   102.1608     0.0098     0.1568     2.4333
  533.0000   -25.2101    11.1290    12.3081     8.0440    98.3275     0.0127     0.1541     2.4288
  533.5000   -25.3414    11.1374    12.1498     8.0438    98.3132     0.0142     0.1529     2.4296
  534.0000   -25.3120    11.1457    12.1599     8.0437    99.3629     0.0186     0.1472     2.4371
  534.5000   -25.1398    11.1541    12.1696     8.0435   101.4292     0.0125     0.1460     2.4417
  535.0000   -25.1163    11.1625    12.0960     8.0434   104.5281     0.0051     0.1526     2.4461
  535.5000   -25.0929    11.1709    11.9404     8.0432   104.6770     0.0065     0.1547     2.4467
  536.0000   -25.0694    11.1793    11.8682     8.0431   104.5310     0.0112     0.1454     2.4295
  536.5000   -25.1947    11.1876    11.8803     8.0580   102.6151     0.0139     0.1445     2.4482
  537.0000   -25.1713    11.1960    11.8899     8.0578    99.5192     0.0169     0.1430     2.4542
  537.5000   -25.1478    11.2044    11.9817     8.0876    99.8156     0.0153     0.1418     2.4572
  538.0000   -24.9756    11.2119    12.1576     8.1024   100.4111     0.0078     0.1421     2.4564
  538.5000   -24.9521    11.2206    12.2515     8.1172   101.5963     0.0003     0.1454     2.4549
  539.0000   -24.9286    11.2290    12.3461     8.1171   103.9504    -0.0028     0.1583     2.4519
  539.5000   -24.7560    11.2374    12.6137     8.1319   110.5355     0.0002     0.1721     2.4385
  540.0000   -24.1171    11.4803    12.9762     8.1168   112.8122     0.0031     0.1838     2.4025
  540.5000   -22.4715    11.5710    13.7214     8.0867   112.6210     0.0046     0.1823     2.3951
  541.0000   -20.8111    11.9000    14.2131     8.0566   110.3902     0.0060     0.1931     2.3876
  541.5000   -19.8948    12.1657    14.9263     8.0115   108.0083     0.0209     0.2092     2.3756
  542.0000   -19.2761    12.5059    14.9386     7.9814   103.3746     0.0224     0.2127     2.3232
  542.5000   -18.6574    12.6014    14.9509     7.9663   100.9710     0.0179     0.2015     2.3285
  543.0000   -18.4851    12.2686    14.9632     7.9662    98.0751     0.0178     0.2008     2.3516
  543.5000   -18.1640    12.1937    14.9780     7.9510    92.0930     0.0193     0.2182     2.3549
  544.0000   -17.9918    12.2051    14.9902     7.9359    92.0176     0.0222     0.2278     2.3232
  544.5000   -18.1171    12.2143    15.1059     7.9358    93.0792     0.0296     0.2278     2.3090
  545.0000   -18.5460    12.3078    15.3276     7.9356    93.3480     0.0475     0.2275     2.3089
  545.5000   -19.1119    12.5739    15.4460     7.9355    91.4324     0.0550     0.2259     2.3127
  546.0000   -19.5349    12.7576    15.4585     7.9353    85.8292     0.0564     0.2040     2.3330
  546.5000   -19.8095    13.0334    15.7937     7.9352    86.5681     0.0564     0.1842     2.3595
  547.0000   -20.2321    13.4070    15.8065     7.9350    88.6345     0.0488     0.1623     2.3869
  547.5000   -20.5110    13.6968    15.9286     7.9349    92.1758     0.0294     0.1331     2.4267
  548.0000   -20.6448    13.8017    15.9415     7.9347    94.0947     0.0129     0.1581     2.4504
  548.5000   -20.7569    13.8121    15.8445     7.9496    92.9162     0.0173     0.1704     2.4465
  549.0000   -20.7275    13.4473    15.7493     7.9793    91.0003     0.0457     0.1817     2.3949
  549.5000   -20.8587    13.3652    15.6539     7.9792    91.4442     0.0576     0.1832     2.3859
  550.0000   -20.8329    13.3751    15.6668     7.9851    97.5520     0.0531     0.1835     2.3875
  550.5000   -20.8035    13.3900    15.6840     7.9945   100.5979     0.0515     0.1823     2.3882
  551.0000   -20.7738    13.4057    15.5916     7.9949   102.0802     0.0455     0.1758     2.3829
  551.5000   -20.7387    13.4242    15.6079     7.9954   101.9382     0.0484     0.1728     2.3926
  552.0000   -20.7095    13.4396    15.6238     7.9958    99.8825     0.0573     0.1725     2.4076
  552.5000   -20.6804    13.3628    15.6507     8.0262    94.7277     0.0603     0.1686     2.4068
  553.0000   -20.6513    13.1953    15.7673     8.0117    90.1628     0.0318     0.1581     2.4151
  553.5000   -20.6221    13.1161    15.7833     8.0271    88.8408     0.0228     0.1593     2.4278
  554.0000   -20.7491    13.0412    15.6909     8.0575    92.9798     0.0243     0.1968     2.4001
  554.5000   -20.8688    12.7894    15.7068     8.1028    98.2969     0.0302     0.2114     2.3530
  555.0000   -20.8324    12.7194    15.5078     8.1033   102.8765     0.0361     0.2156     2.3350
