~VERSION INFORMATION
 VERS.                2.0:   CWLS LOG ASCII STANDARD - VERSION 2.0
 WRAP.                 NO:   ONE LINE PER DEPTH STEP
~WELL INFORMATION
#MNEM.UNIT      DATA TYPE    INFORMATION
#----------   ------------   ------------------------------
 STRT.F           85.0000:   START DEPTH
 STOP.F          780.0000:   STOP DEPTH
 STEP.F            0.5000:   STEP LENGTH
 NULL.          -999.2500:   NO VALUE
 COMP. U S NAVY-INTEX OIL:   COMPANY
 WELL.        NPR #47-S-2:   WELL
 FLD .             TEAPOT:   FIELD
 LOC .       S2 T38N R78W:   LOCATION
 CNTY.            NATRONA:   COUNTY
 STAT.            WYOMING:   STATE
 CTRY. UNITED STATES OF AMERICA:   COUNTRY
 SRVC.       Schlumberger:   SERVICE COMPANY
 DATE.        30-JUN-1962:   LOGDATE
 API .       490250640200:   API NUMBER
~CURVE INFORMATION
#MNEM.UNIT       API CODE    CURVE DESCRIPTION
#----------   ------------   ------------------------------
 DEPT.F                  :   
 SPR .MV     05 010 01 00:   SPONTANEOUS POTENTIAL FROM RES.
 ASN .OHMM   05 041 18 00:   AMPLIFIED SHORT NORMAL 18"
 ILD .OHMM   05 120 46 00:   INDUCTION LOG DEEP
 CILD.MMHO   05 110 46 00:   CONDUCTIVITY INDUCTION LOG DEEP
 CALM.IN     15 280 01 00:   CALIPER FROM MICRO LOG
 GR  .GAPI   30 310 01 00:   GAMMA RAY
~PARAMETER INFORMATION
#MNEM.UNIT          VALUE    DESCRIPTION
#----------   ------------   ------------------------------
 PD  .                 KB:   PERMANENT DATUM
 LMF .                 KB:   LOG MEASURED FROM
 DMF .                 KB:   DRILLING MEASURED FROM
 EKB .F              5175:   KELLING BUSHING
 EGL .F              5170:   GROUND LEVEL
 DATE.          6-30-1962:   RUN DATE
 RUN .                  1:   RUN NUMBER
 DD  .F               775:   DEPTH DRILLER
 DL  .F               781:   DEPTH LOGGER
 BLI .F               780:   BOTTOM LOG INTERVAL
 TLI .F                86:   TOP LOG INTERVAL
 BS  .IN             6.75:   BIT SIZE
 BSD .F               775:   BIT SIZE AT DEPTH
 DFT .            GEL-OIL:   DRILLING FLUID TYPE
 DFD .                 10:   DRILLING FLUID DENSITY
 DFV .                 50:   DRILLING FLUID VISCOSITY
 DFL .                3.6:   DRILLING FLUID LOSS
 MSS .           FLOWLINE:   MUD SAMPLE SOURCE
 RMS .OHMM           5.75:   RESISTIVITY MUD SAMPLE
 MST .F                69:   MUD SAMPLE TEMPERATURE
 RMF .OHMM           4.96:   RESISTIVITY MUD FILTRATE SAMPLE
 MFST.F                69:   MUD FILTRATE SAMPLE TEMPERATURE
 RMC .OHMM           4.80:   RESISTIVITY MUD CAKE
 MCST.F                69:   MUD CAKE SAMPLE TEMPERATURE
 RMB .OHMM           5.13:   RESISTIVITY MUD AT BHT
 BHT .F                78:   BOTTOM HOLE TEMPERATURE
 TCS .HRS               1:   TIME CURCULATED STOPPED
 MRT .F                78:   MAXIMUM RECORDED TEMPERATURE
 LUN .               2503:   LOGGING UNIT NUMBER
 LUL .              CSPR.:   LOGGING UNIT LOCATION
 ENGI.             KNOBEL:   RECORDING ENGINEER
 WITN.          JORGENSEN:   WITNESSED BY
 CLNT.            A2DTECH:   CLIENT CODE
 ORIG.      2" & 5" PRINT:   ORIGIN OF DATA
 UWI .       490250640200:   UNIQUE WELL ID
 DICO. A2D Technologies, Inc.:   DIGITIZING COMPANY
~OTHER INFORMATION
~A   DEPT      SPR        ASN        ILD         CILD     CALM         GR   
# ...
  293.0000   -26.5722     7.6135     6.7802   156.3910  -999.2500  -999.2500
  293.5000   -26.5648     7.1948     6.7820   154.1353  -999.2500  -999.2500
  294.0000   -26.4101     7.2851     6.7088   152.6316  -999.2500  -999.2500
  294.5000   -26.4042     7.5999     6.7103   153.3835  -999.2500  -999.2500
  295.0000   -26.3983     7.7050     6.6366   156.3910  -999.2500  -999.2500
  295.5000   -26.2436     7.4960     6.5638   159.3985  -999.2500  -999.2500
  296.0000   -26.2377     7.3467     6.5652   160.9023  -999.2500  -999.2500
  296.5000   -26.2318     7.1975     6.6415   161.6541  -999.2500  -999.2500
  297.0000   -26.2259     7.0632     6.6429   161.5690  -999.2500  -999.2500
  297.5000   -26.2200     6.9738     6.6444   160.1504  -999.2500  -999.2500
  298.0000   -26.2141     6.8844     6.6459   159.3985  -999.2500  -999.2500
  298.5000   -26.0594     6.8549     6.6474   158.6466  -999.2500  -999.2500
  299.0000   -26.0535     6.8554     6.6489   157.8947  -999.2500  -999.2500
  299.5000   -26.0476     6.9008     6.6504   157.1429  -999.2500  -999.2500
  300.0000   -26.0428     6.9760     6.7012   155.6391  -999.2500  -999.2500
  300.5000   -26.0417     7.0508     6.8729   153.3921  -999.2500  -999.2500
  301.0000   -26.3393     7.0506     6.7935   152.6477  -999.2500  -999.2500
  301.5000   -26.3393     7.0654     6.7899   152.6551  -999.2500  -999.2500
  302.0000   -26.3393     7.0802     6.7114   154.1663  -999.2500  -999.2500
  302.5000   -26.0417     7.0501     6.5583   157.1812  -999.2500  -999.2500
  303.0000   -25.8929     6.9448     6.5545   160.1962  -999.2500  -999.2500
  303.5000   -25.5952     6.8526     6.5508   162.4592  -999.2500  -999.2500
  304.0000   -25.5952     6.7780     6.5464   163.9704  -999.2500  -999.2500
  304.5000   -25.5952     6.7202     6.5427   164.7297  -999.2500  -999.2500
  305.0000   -25.7440     6.7051     6.6147   164.7372  -999.2500  -999.2500
  305.5000   -25.5952     6.6750     6.6857   163.9927  -999.2500  -999.2500
  306.0000   -25.5952     6.6748     6.7568   163.2482  -999.2500  -999.2500
  306.5000   -25.5952     6.6897     6.8278   162.5038  -999.2500  -999.2500
  307.0000   -25.7440     6.7344     6.8232   161.0074  -999.2500  -999.2500
  307.5000   -25.7440     6.7792     6.8952   159.5111  -999.2500  -999.2500
  308.0000   -25.7440     6.8539     6.8906   158.0148  -999.2500  -999.2500
  308.5000   -25.7440     6.9436     6.8122   156.5184  -999.2500  -999.2500
  309.0000   -25.5952     7.0482     6.8085   155.0221  -999.2500  -999.2500
  309.5000   -25.5933     7.0930     6.8049   153.5258  -999.2500  -999.2500
  310.0000   -25.4464     7.0629     6.8012   152.0313  -999.2500  -999.2500
  310.5000   -25.4464     7.0627     6.8723   150.5350  -999.2500  -999.2500
  311.0000   -25.4464     7.0925     6.8685   149.7887  -999.2500  -999.2500
  311.5000   -25.4464     7.1979     6.9396   148.2942  -999.2500  -999.2500
  312.0000   -25.4464     7.3050     7.0107   146.7979  -999.2500  -999.2500
  312.5000   -25.5952     7.3790     7.1565   145.3015  -999.2500  -999.2500
  313.0000   -25.7440     7.4512     7.3023   143.8052  -999.2500  -999.2500
  313.5000   -25.7440     7.5259     7.3734   141.5570  -999.2500  -999.2500
  314.0000   -25.7440     7.5706     7.5183   140.0606  -999.2500  -999.2500
  314.5000   -25.7440     7.6005     7.5902   139.3143  -999.2500  -999.2500
  315.0000   -25.7440     7.6303     7.5109   140.0755  -999.2500  -999.2500
  315.5000   -25.7440     7.6301     7.4325   142.3386  -999.2500  -999.2500
  316.0000   -25.7440     7.6299     7.3541   144.6016  -999.2500  -999.2500
  316.5000   -25.7440     7.5699     7.2757   146.8647  -999.2500  -999.2500
  317.0000   -25.7440     7.4949     7.1972   149.1278  -999.2500  -999.2500
  317.5000   -25.7440     7.4199     7.1188   150.7019  -999.2500  -999.2500
  318.0000   -25.7440     7.3299     7.0354   152.2509  -999.2500  -999.2500
  318.5000   -25.7440     7.2250     6.9619   153.6617  -999.2500  -999.2500
  319.0000   -25.8929     7.1350     6.9574   155.1744  -999.2500  -999.2500
  319.5000   -25.8929     7.0300     6.9537   155.1818  -999.2500  -999.2500
  320.0000   -26.0417     6.9541     7.0257   155.9411  -999.2500  -999.2500
  320.5000   -26.0417     7.0785     7.0968   155.1948  -999.2500  -999.2500
  321.0000   -26.1905     7.2804     7.3911   153.6984  -999.2500  -999.2500
  321.5000   -26.3393     7.4636     7.4631   154.4578  -999.2500  -999.2500
  322.0000   -26.4881     7.2539     7.3100   153.7133  -999.2500  -999.2500
  322.5000   -26.4881     7.5232     7.3810   152.9707  -999.2500  -999.2500
  323.0000   -26.4881     7.5979     7.0775   151.4744  -999.2500  -999.2500
  323.5000   -26.6369     7.1486     7.0738   149.9762  -999.2500  -999.2500
  324.0000   -26.6369     6.9839     7.0701   151.4892  -999.2500  -999.2500
  324.5000   -26.6369     7.2382     7.0665   153.0004  -999.2500  -999.2500
  325.0000   -27.0833     7.2530     7.0628   153.0078  -999.2500  -999.2500
  325.5000   -27.2321     7.2229     6.9843   153.0159  -999.2500  -999.2500
  326.0000   -27.2321     7.1928     6.9806   153.0227  -999.2500  -999.2500
  326.5000   -27.2321     7.1777     7.0518   153.0301  -999.2500  -999.2500
  327.0000   -27.2321     7.1326     7.0472   152.2857  -999.2500  -999.2500
  327.5000   -27.2321     7.1025     7.1191   151.5412  -999.2500  -999.2500
  328.0000   -27.0833     7.0725     7.1902   150.7968  -999.2500  -999.2500
  328.5000   -26.9286     7.1035     7.2193   150.0523  -999.2500  -999.2500
  329.0000   -26.6369     7.1814     7.1472   150.0616  -999.2500  -999.2500
  329.5000   -26.4881     7.2816     7.0751   149.3153  -999.2500  -999.2500
  330.0000   -26.3393     7.4012     7.0257   149.3245  -999.2500  -999.2500
  330.5000   -26.1905     7.5208     7.1715   148.5782  -999.2500  -999.2500
  331.0000   -26.1905     7.5955     7.3173   148.5875  -999.2500  -999.2500
  331.5000   -26.3393     7.6253     7.3884   149.3468  -999.2500  -999.2500
  332.0000   -26.3393     7.4904     7.0848   150.8580  -999.2500  -999.2500
  332.5000   -26.3393     7.2956     6.9317   153.1211  -999.2500  -999.2500
  333.0000   -26.3393     7.1458     6.9280   153.8804  -999.2500  -999.2500
  333.5000   -26.4881     7.0259     7.0000   153.8878  -999.2500  -999.2500
  334.0000   -26.3393     6.9659     7.0702   154.6471  -999.2500  -999.2500
  334.5000   -26.3393     6.9358     6.9917   154.6545  -999.2500  -999.2500
  335.0000   -26.3393     6.9506     6.9133   155.4138  -999.2500  -999.2500
  335.5000   -26.1905     7.0702     6.8348   156.1732  -999.2500  -999.2500
  336.0000   -26.1905     7.1748     6.9804   158.4362  -999.2500  -999.2500
  336.5000   -26.1905     7.0072     6.8272   158.4436  -999.2500  -999.2500
  337.0000   -26.1905     6.8153     6.8236   157.6992  -999.2500  -999.2500
  337.5000   -26.0417     7.0197     7.0441   157.7695  -999.2500  -999.2500
  338.0000   -26.0417     7.1593     6.8809   159.4178  -999.2500  -999.2500
  338.5000   -26.0258     6.9346     6.5882   163.2605  -999.2500  -999.2500
  339.0000   -25.8929     6.7997     6.5090   167.5052  -999.2500  -999.2500
  339.5000   -25.7440     6.7247     6.5053   168.2645  -999.2500  -999.2500
  340.0000   -26.1905     6.6647     6.5016   168.2719  -999.2500  -999.2500
  340.5000   -26.6369     6.6046     6.4980   168.2793  -999.2500  -999.2500
  341.0000   -26.7857     6.6045     6.5699   167.5330  -999.2500  -999.2500
  341.5000   -26.9345     6.6492     6.5653   166.0385  -999.2500  -999.2500
  342.0000   -27.0833     6.7689     6.6373   164.5422  -999.2500  -999.2500
  342.5000   -26.9345     6.9034     6.7084   163.0440  -999.2500  -999.2500
  343.0000   -26.9345     7.0829     6.7794   160.0458  -999.2500  -999.2500
  343.5000   -26.9345     7.2025     6.8505   157.7976  -999.2500  -999.2500
  344.0000   -26.7857     7.2323     6.9954   154.7975  -999.2500  -999.2500
  344.5000   -26.7857     7.2472     7.0668   151.7974  -999.2500  -999.2500
