~VERSION INFORMATION
 VERS.                2.0:   CWLS LOG ASCII STANDARD - VERSION 2.0
 WRAP.                 NO:   ONE LINE PER DEPTH STEP
~WELL INFORMATION
#MNEM.UNIT      DATA TYPE    INFORMATION
#----------   ------------   ------------------------------
 STRT.F           28.0000:   START DEPTH
 STOP.F          659.0000:   STOP DEPTH
 STEP.F            0.5000:   STEP LENGTH
 NULL.          -999.2500:   NO VALUE
 COMP. FENIX & SCISSON INC:   COMPANY
 WELL.    NPR 3 #46-SX-34:   WELL
 FLD .             TEAPOT:   FIELD
 LOC .      S34 T39N R78W:   LOCATION
 CNTY.            NATRONA:   COUNTY
 STAT.            WYOMING:   STATE
 CTRY. UNITED STATES OF AMERICA:   COUNTRY
 SRVC.              Welex:   SERVICE COMPANY
 DATE.        01-MAY-1977:   LOGDATE
 API .       490251035600:   API NUMBER
~CURVE INFORMATION
#MNEM.UNIT       API CODE    CURVE DESCRIPTION
#----------   ------------   ------------------------------
 DEPT.F                  :   
 CALD.IN     45 280 60 00:   CALIPER FROM DENSITY
 GRD .GAPI   45 310 01 00:   GAMMA RAY FROM DENSITY LOG
 CORR.G/C3   45 356 01 00:   DENSITY CORRECTION
 DPHI.DEC    45 890 12 00:   DENSITY POROSITY SANDSTONE
 RHOB.G/C3   45 350 01 00:   BULK DENSITY
 SPR .MV     07 010 01 00:   SPONTANEOUS POTENTIAL
 ILD .OHMM   07 120 46 00:   INDUCTION LOG DEEP
 ILM .OHMM   07 120 44 00:   INDUCTION LOG MEDIUM
 SGRD.OHMM   07 221 05 00:   SHALLOW SHORT GUARD RESISTIVITY
~PARAMETER INFORMATION
#MNEM.UNIT          VALUE    DESCRIPTION
#----------   ------------   ------------------------------
 PD  .                 GL:   PERMANENT DATUM
 EPD .F              5120:   ELEVATION PERMANENT DATUM
 LMF .                 GL:   LOG MEASURED FROM
 DMF .                 GL:   DRILLING MEASURED FROM
 EGL .F              5120:   GROUND LEVEL
 DATE.        01-MAY-1977:   RUN DATE
 RUN .                  1:   RUN NUMBER
 DD  .F               660:   DEPTH DRILLER
 DL  .F               663:   DEPTH LOGGER
 BLI .F               661:   BOTTOM LOG INTERVAL
 TLI .F                28:   TOP LOG INTERVAL
 CS  .IN            8.625:   CASING SIZE
 BS  .IN               12:   BIT SIZE
 BSD .F               660:   BIT SIZE AT DEPTH
 DFT .            KCL MUD:   DRILLING FLUID TYPE
 DFD .                8.7:   DRILLING FLUID DENSITY
 TCS .HRS            0100:   TIME CURCULATED STOPPED
 MRT .F                71:   MAXIMUM RECORDED TEMPERATURE
 ENGI.          T. JOYNER:   RECORDING ENGINEER
 WITN.            R. LYON:   WITNESSED BY
 CLNT.            A2DTECH:   CLIENT CODE
 ORIG.           5" PRINT:   ORIGIN OF DATA
 UWI .       490251035600:   UNIQUE WELL ID
 DICO. A2D Technologies, Inc.:   DIGITIZING COMPANY
~OTHER INFORMATION
~A   DEPT     CALD        GRD        CORR      DPHI       RHOB        SPR        ILD        ILM       SGRD   
# ...
  210.5000     7.7919   111.6013     0.0132     0.0979     2.5130   -42.2305    10.1070    12.7767    12.8651
  211.0000     7.7913   111.0026     0.0087     0.1000     2.5085   -42.2290    10.2473    12.6889    13.2309
  211.5000     7.7756   108.4240     0.0117     0.1039     2.4919   -42.2275    10.3182    12.6889    14.7877
  212.0000     7.7750   106.6316     0.0132     0.1060     2.4897   -42.2260    10.3182    12.4292    16.7335
  212.5000     7.7593   107.3042     0.0148     0.1009     2.5100   -42.2245    10.3182    12.0911    15.5516
  213.0000     7.7587   110.7746     0.0163     0.0967     2.5175   -42.2231    10.3182    11.8436    13.2801
  213.5000     7.7733   115.3660     0.0133     0.0997     2.5069   -42.2216    10.2473    11.6012    12.2492
  214.0000     7.7726   116.7192     0.0103     0.1069     2.4851   -42.2201    10.1070    11.3637    11.9971
  214.5000     7.8020   119.1236     0.0118     0.1139     2.4829   -42.2186    10.0376    11.1311    11.9256
  215.0000     7.8014   119.7261     0.0118     0.1187     2.4813   -42.2172    10.0376    10.8284    12.0219
  215.5000     7.8160   119.8781     0.0118     0.1196     2.4806   -42.2157    10.0376    10.6801    12.2902
  216.0000     7.8002   120.6308     0.0118     0.1157     2.4838   -42.2142    10.0376    10.6801    12.9541
  216.5000     7.7996   123.4855     0.0134     0.1114     2.4874   -42.2127    10.0376    10.7540    13.0437
  217.0000     7.7991   120.9349     0.0149     0.1099     2.4904   -42.2112    10.0376    10.7540    12.9541
  217.5000     7.7835   123.0389     0.0149     0.1102     2.4941   -42.2098    10.0376    10.7540    12.8651
  218.0000     7.7829   123.3411     0.0164     0.1108     2.4956   -42.0595    10.0376    10.7540    12.9541
  218.5000     7.7823   122.8925     0.0164     0.1108     2.4926   -42.0580     9.9686    10.6801    13.2248
  219.0000     7.7813   121.8434     0.0165     0.1108     2.4926   -42.0565     9.9686    10.6801    13.4084
  219.5000     7.7961   121.0940     0.0165     0.1099     2.4933   -42.0550     9.9001    10.6801    12.9541
  220.0000     7.7955   121.6970     0.0180     0.1039     2.5008   -42.0535     9.9686    10.6801    12.5152
  220.5000     7.7949   123.8010     0.0180     0.1102     2.4971   -42.0521     9.9001    10.6067    12.2590
  221.0000     7.8094   125.0041     0.0180     0.1120     2.4895   -42.0506     9.9001    10.5338    12.3438
  221.5000     7.8087   123.4616     0.0196     0.1066     2.4955   -42.0491     9.9001    10.4615    12.5152
  222.0000     7.8081   120.1026     0.0196     0.1051     2.4978   -42.1964     9.9001    10.3182    12.6889
  222.5000     7.8075   116.9138     0.0196     0.1084     2.4978   -42.1949     9.9001    10.3182    12.8651
  223.0000     7.7918   114.2004     0.0196     0.1105     2.4948   -42.1935     9.8321    10.2473    12.8651
  223.5000     7.7912   117.2053     0.0181     0.1105     2.4940   -42.1920     9.6975    10.2473    12.8651
  224.0000     7.7906   117.6577     0.0181     0.1105     2.4947   -42.1905     9.5647    10.3182    12.8651
  224.5000     7.7749   117.5094     0.0166     0.1120     2.4895   -42.1890     9.4337    10.3896    12.8651
  225.0000     7.7895   117.2110     0.0136     0.1169     2.4827   -42.0387     9.4337    10.4615    12.6889
  225.5000     7.7888   115.8616     0.0106     0.1229     2.4744   -42.0372     9.4337    10.5338    12.6018
  226.0000     7.7882   114.9621     0.0046     0.1283     2.4624   -42.0354     9.4990    10.6801    12.5152
  226.5000     7.8027   114.8139     0.0016     0.1295     2.4609   -42.0339     9.5647    10.8284    12.5152
  227.0000     7.8021   114.6661     0.0031     0.1298     2.4625   -42.0325     9.6975    10.9787    12.3438
  227.5000     7.7865   115.4187     0.0061     0.1271     2.4647   -42.1802     9.7646    11.2081    12.2590
  228.0000     7.7859   117.2224     0.0061     0.1301     2.4607   -42.1783     9.7646    11.4423    12.1748
  228.5000     7.7853   118.5757     0.0077     0.1304     2.4578   -42.1768     9.7646    11.6012    12.0081
  229.0000     7.7846   120.3794     0.0107     0.1301     2.4638   -42.1754     9.6309    11.7623    11.9256
  229.5000     7.7840   116.9278     0.0122     0.1262     2.4691   -42.1739     9.4990    11.7623    11.8436
  230.0000     7.7834   114.0769     0.0123     0.1184     2.4736   -42.3212     9.3045    11.7623    11.8436
  230.5000     7.7828   114.6794     0.0153     0.1181     2.4758   -42.3197     9.2406    11.7623    11.7623
  231.0000     7.7822   117.5341     0.0168     0.1174     2.4781   -42.4671     9.0515    11.7623    11.6815
  231.5000     7.7816   119.1198     0.0168     0.1163     2.4818   -42.6144     8.9893    11.7623    11.6815
  232.0000     7.7660   120.4104     0.0199     0.1139     2.4894   -42.7621     8.9275    11.7623    11.6815
  232.5000     7.7805   121.1680     0.0184     0.1139     2.4901   -42.7602     8.9275    11.7623    11.6012
  233.0000     7.7798   123.5674     0.0139     0.1139     2.4901   -42.9079     8.9275    11.7623    11.6012
  233.5000     7.7792   125.6513     0.0108     0.1120     2.4901   -43.0549     8.9275    11.7623    11.6012
  234.0000     7.7635   123.2508     0.0109     0.1084     2.5014   -43.3514     8.9275    11.7623    11.6012
  234.5000     7.7629   117.5470     0.0109     0.1066     2.5014   -43.6472     8.9893    11.7623    11.6012
  235.0000     7.7775   115.4468     0.0109     0.1060     2.5014   -44.0925     8.9893    11.7623    11.6815
  235.5000     7.7767   117.8511     0.0124     0.1081     2.5013   -44.0906     9.1141    11.7623    11.7623
  236.0000     7.7762   119.6548     0.0124     0.1123     2.5013   -43.4939     9.2406    11.7623    11.7623
  236.5000     7.7756   120.5576     0.0125     0.1060     2.5013   -42.5996     9.4337    11.8436    11.8436
  237.0000     7.7750   120.8593     0.0125     0.1060     2.5006   -42.0029     9.6309    11.8436    11.8436
  237.5000     7.7744   120.4112     0.0140     0.1060     2.4974   -42.0014     9.7646    12.0081    11.9256
  238.0000     7.7738   119.5122     0.0140     0.1072     2.4921   -41.9999     9.9686    12.0911    12.0081
  238.5000     7.7732   117.4120     0.0123     0.1117     2.4854   -41.9984    10.0376    12.3438    12.1748
  239.0000     7.7726   114.4109     0.0080     0.1123     2.4802   -41.9970    10.1070    12.4292    12.2590
  239.5000     7.7720   116.0645     0.0065     0.1187     2.4742   -42.1443    10.1070    12.5152    12.4292
  240.0000     7.7714   119.5488     0.0065     0.1265     2.4682   -42.1428    10.1769    12.5152    12.4292
  240.5000     7.7557   124.1757     0.0050     0.1289     2.4621   -42.1413    10.1769    12.5152    12.4278
  241.0000     7.7551   127.1799     0.0065     0.1301     2.4629   -42.1399    10.2473    12.4292    12.2562
  241.5000     7.7395   125.1652     0.0081     0.1274     2.4689   -42.1384    10.2473    12.4292    12.1748
  242.0000     7.7389   121.1912     0.0096     0.1229     2.4712   -42.1369    10.3182    12.3438    12.0026
  242.5000     7.7383   116.5226     0.0126     0.1190     2.4772   -42.1354    10.2473    12.2590    11.7623
  243.0000     7.7377   120.4280     0.0142     0.1187     2.4772   -42.1339    10.2473    12.0911    11.6012
  243.5000     7.7522   118.9278     0.0142     0.1173     2.4787   -42.2813    10.1769    11.9256    11.5215
  244.0000     7.7515   116.9771     0.0157     0.1144     2.4839   -42.4286    10.0376    11.7623    11.4423
  244.5000     7.7509   115.4769     0.0157     0.1113     2.4884   -42.5873     9.9686    11.6815    11.2857
  245.0000     7.7504   116.3791     0.0157     0.1087     2.4944   -42.7233     9.6975    11.5215    11.2857
  245.5000     7.7498   118.7827     0.0173     0.1066     2.4997   -42.7217     9.3689    11.4423    11.2081
  246.0000     7.7492   124.3396     0.0173     0.1063     2.5012   -42.7202     8.9893    11.2857    11.0546
  246.5000     7.7636   124.9411     0.0188     0.1060     2.5019   -42.7188     8.8053    11.1311    10.9033
