~VERSION INFORMATION
 VERS.                2.0:   CWLS LOG ASCII STANDARD - VERSION 2.0
 WRAP.                 NO:   ONE LINE PER DEPTH STEP
~WELL INFORMATION
#MNEM.UNIT      DATA TYPE    INFORMATION
#----------   ------------   ------------------------------
 STRT.F           10.0000:   START DEPTH
 STOP.F         2599.5000:   STOP DEPTH
 STEP.F            0.5000:   STEP LENGTH
 NULL.          -999.2500:   NO VALUE
 COMP. FENIX & SCISSON INC:   COMPANY
 WELL.   34-SHX-33 #34-33:   WELL
 FLD .             TEAPOT:   FIELD
 LOC .      S33 T39N R78W:   LOCATION
 CNTY.            NATRONA:   COUNTY
 STAT.            WYOMING:   STATE
 CTRY. UNITED STATES OF AMERICA:   COUNTRY
 SRVC.           BIRDWELL:   SERVICE COMPANY
 DATE.        20-FEB-1978:   LOGDATE
 API .       490251058400:   API NUMBER
~CURVE INFORMATION
#MNEM.UNIT       API CODE    CURVE DESCRIPTION
#----------   ------------   ------------------------------
 DEPT.F                  :   
 GR  .GAPI   30 310 01 00:   GAMMA RAY
 CALI.IN     70 280 01 00:   CALIPER
~PARAMETER INFORMATION
#MNEM.UNIT          VALUE    DESCRIPTION
#----------   ------------   ------------------------------
 PD  .                 GL:   PERMANENT DATUM
 EPD .F              5174:   ELEVATION PERMANENT DATUM
 LMF .                 KB:   LOG MEASURED FROM
 DAPD.F                10:   FEET ABOVE PERMANENT DATUM
 DMF .                 KB:   DRILLING MEASURED FROM
 EKB .F              5184:   KELLING BUSHING
 EGL .F              5174:   GROUND LEVEL
 DATE.            2-20-78:   RUN DATE
 RUN .                  1:   RUN NUMBER
 DD  .F              2590:   DEPTH DRILLER
 DL  .F              2600:   DEPTH LOGGER
 BLI .F              2600:   BOTTOM LOG INTERVAL
 CS  .IN            8.625:   CASING SIZE
 CBD .F               737:   CASING BOTTOM DRILLER
 BS  .IN            8.625:   BIT SIZE
 BSD .F              2590:   BIT SIZE AT DEPTH
 TCS .HRS               2:   TIME CURCULATED STOPPED
 LUL .             CASPER:   LOGGING UNIT LOCATION
 ENGI.             MILLER:   RECORDING ENGINEER
 WITN.           MCGINLEY:   WITNESSED BY
 CLNT.            A2DTECH:   CLIENT CODE
 ORIG.           5" PRINT:   ORIGIN OF DATA
 UWI .       490251058400:   UNIQUE WELL ID
 DICO. A2D Technologies, Inc.:   DIGITIZING COMPANY
~OTHER INFORMATION
~A   DEPT        GR      CALI   
# ...
 1832.5000   160.7449     9.1564
 1833.0000   160.6761     9.1544
 1833.5000   159.8003     9.1521
 1834.0000   160.6113     9.1499
 1834.5000   164.1103     9.1477
 1835.0000   167.6003     9.1455
 1835.5000   168.2066     9.1433
 1836.0000   168.6809     9.1414
 1836.5000   168.1967     9.1414
 1837.0000   166.5993     9.1414
 1837.5000   161.9364     9.1414
 1838.0000   155.2094     9.1414
 1838.5000   148.2624     9.1415
 1839.0000   146.1317     9.1414
 1839.5000   149.7347     9.1386
 1840.0000   155.5371     9.1270
 1840.5000   160.8328     9.1155
 1841.0000   164.7544     9.1041
 1841.5000   166.9144     9.0927
 1842.0000   166.8404     9.0819
 1842.5000   165.3924     9.0816
 1843.0000   165.4533     9.0815
 1843.5000   165.6031     9.0818
 1844.0000   165.8350     9.0852
 1844.5000   162.5967     8.9759
 1845.0000   158.7299     8.8399
 1845.5000   156.9483     8.9389
 1846.0000   161.3312     9.0841
 1846.5000   160.8338     9.1368
 1847.0000   155.6104     9.0062
 1847.5000   155.5449     9.0302
 1848.0000   156.2327     9.1723
 1848.5000   156.2375     9.6251
 1849.0000   156.9718     9.4516
 1849.5000   164.7915     9.4676
 1850.0000   173.2732     9.5642
 1850.5000   177.6065    11.1390
 1851.0000   176.0952     9.5189
 1851.5000   171.1117     9.2553
 1852.0000   164.9530     9.2386
 1852.5000   158.8658     9.2399
 1853.0000   155.9656     9.2410
 1853.5000   154.5288     9.2411
 1854.0000   154.4972     9.2309
 1854.5000   155.7631     9.2147
 1855.0000   157.0034     9.1998
 1855.5000   157.3422     9.2332
 1856.0000   157.9106     9.2738
 1856.5000   160.9879     9.3024
 1857.0000   167.5993     9.3101
 1857.5000   175.0125     9.3191
 1858.0000   180.6685     9.3346
 1858.5000   177.8998     9.3147
 1859.0000   165.4981     9.2788
 1859.5000   153.1338    10.1669
 1860.0000   143.7089     9.0698
 1860.5000   141.8825     9.0719
 1861.0000   150.3339     9.0905
 1861.5000   156.8643     8.7635
 1862.0000   155.4956     8.4766
 1862.5000   155.9261     8.7033
 1863.0000   158.1685     8.9650
 1863.5000   158.7914     9.0440
 1864.0000   159.0667     9.0593
 1864.5000   161.7544     9.0577
 1865.0000   167.4785     9.0551
 1865.5000   170.4126     9.0526
 1866.0000   170.5474     9.0502
 1866.5000   167.6950     9.0478
 1867.0000   166.8169     9.0454
 1867.5000   166.2572     9.0429
 1868.0000   164.8377     9.0405
 1868.5000   162.1239     9.0381
 1869.0000   160.1518     9.0357
 1869.5000   161.5789     9.0333
 1870.0000   163.6700     9.0308
 1870.5000   165.3701     9.0284
 1871.0000   165.0993     9.0260
 1871.5000   164.9145     9.0236
 1872.0000   166.2200     9.0212
 1872.5000   167.6883     9.0187
 1873.0000   168.5827     9.0163
 1873.5000   169.5325     9.0139
 1874.0000   173.8392     9.0115
 1874.5000   179.0140     9.0091
 1875.0000   179.1960     9.0066
 1875.5000   173.2345     9.0048
 1876.0000   166.5583     9.0038
 1876.5000   161.5439     8.9856
 1877.0000   158.6704     8.6822
 1877.5000   158.5201     8.9795
 1878.0000   159.9498     9.1552
 1878.5000   165.1779     9.1457
 1879.0000   166.1252     9.1450
 1879.5000   166.3423     9.3400
 1880.0000   166.8582    10.0246
 1880.5000   166.0971    11.6547
 1881.0000   165.0430     9.1668
 1881.5000   164.2055     9.2043
 1882.0000   166.2284     9.2003
 1882.5000   171.2257     9.2004
 1883.0000   175.7167     9.2012
 1883.5000   182.6693     9.2012
 1884.0000   189.8773     9.2012
 1884.5000   191.4848     9.2012
 1885.0000   190.1144     9.2012
 1885.5000   186.6996     9.2012
 1886.0000   182.9778     9.2012
 1886.5000   180.8272     9.2012
 1887.0000   181.3551     9.2012
 1887.5000   181.8899     9.2011
 1888.0000   180.9333     9.2013
 1888.5000   177.0529     9.2051
 1889.0000   172.4477     9.2277
 1889.5000   168.3332     9.2505
 1890.0000   169.9876     9.2361
 1890.5000   171.6802     9.1914
 1891.0000   171.2361     9.1437
 1891.5000   170.4563     9.0819
 1892.0000   168.5207     9.0214
 1892.5000   164.6031     8.9633
 1893.0000   157.0856     8.7136
 1893.5000   149.7816     8.4988
 1894.0000   149.4574     8.7710
 1894.5000   152.6685     9.2163
 1895.0000   152.8903     9.2553
 1895.5000   152.6981    11.3005
 1896.0000   153.5133    10.1110
 1896.5000   153.4024     8.9775
 1897.0000   150.8384     9.0438
 1897.5000   148.2557     9.1324
 1898.0000   147.0449     9.5711
 1898.5000   149.9225     9.0466
 1899.0000   155.2185     9.0651
 1899.5000   165.5608     9.0539
 1900.0000   170.3174     9.0443
 1900.5000   166.5343     9.0705
 1901.0000   157.6417     9.1199
 1901.5000   146.8931     9.0447
 1902.0000   155.7950     8.7949
 1902.5000   167.8885     9.3528
 1903.0000   173.5292     9.1701
 1903.5000   173.5210     9.1908
 1904.0000   171.3048     9.2004
 1904.5000   170.8301     9.2025
 1905.0000   172.6070     9.2048
 1905.5000   179.0426     9.2071
 1906.0000   184.8721     9.2094
 1906.5000   181.7094     9.2117
 1907.0000   175.4223     9.2139
 1907.5000   169.2425     9.2163
 1908.0000   167.7450     9.2186
 1908.5000   175.5513     9.2131
 1909.0000   182.6916    10.7062
 1909.5000   189.7639     8.9336
 1910.0000   194.7621     9.0301
 1910.5000   197.0488     8.9539
 1911.0000   188.4590     8.9667
 1911.5000   178.1070     8.9761
 1912.0000   169.9265     8.7066
 1912.5000   165.3244     8.5443
 1913.0000   168.0448     8.6622
 1913.5000   173.7322     8.7751
 1914.0000   181.1142     8.6062
 1914.5000   185.9976     8.6040
 1915.0000   185.2668     8.5456
 1915.5000   184.7193     8.4915
 1916.0000   190.8620     8.7107
 1916.5000   198.2658     8.7149
 1917.0000   198.6021     8.6830
 1917.5000   198.6319     8.6495
 1918.0000   200.2504     8.6435
 1918.5000   204.8965     8.6434
 1919.0000   206.7903     8.6434
 1919.5000   209.2220     8.6431
 1920.0000   211.8704     8.6435
 1920.5000   226.1822     8.6747
 1921.0000   242.8828     8.7173
 1921.5000   259.2972     9.0092
 1922.0000   276.1066     9.1578
 1922.5000   274.2612     9.1047
 1923.0000   271.4244     9.0530
 1923.5000   265.9883     9.0023
 1924.0000   260.6280     8.8629
 1924.5000   256.1956     8.6748
 1925.0000   251.2575     8.6456
 1925.5000   256.6732     8.7423
 1926.0000   276.1382     8.8395
 1926.5000   299.0598     8.8435
 1927.0000   321.2549     8.8405
 1927.5000   342.5484     8.7522
 1928.0000   333.5087     8.5379
 1928.5000   326.3297     8.4797
 1929.0000   314.3097     8.5764
 1929.5000   296.2979     8.7971
 1930.0000   262.9909     8.9615
 1930.5000   238.1662     8.9363
 1931.0000   219.8771     8.9156
 1931.5000   206.6476     8.8953
 1932.0000   202.7327     8.8751
 1932.5000   210.9154     8.8713
 1933.0000   214.1018     8.9211
 1933.5000   217.1028     8.9370
 1934.0000   225.0430     8.9230
 1934.5000   239.0288     8.9091
 1935.0000   242.1499     8.8952
 1935.5000   237.8981     8.8819
 1936.0000   215.0215     8.8592
 1936.5000   193.0890     8.7690
 1937.0000   175.9944     8.7953
 1937.5000   161.2166     9.0100
 1938.0000   157.7003     9.0471
 1938.5000   159.7462     9.0535
 1939.0000   156.8741     9.0595
 1939.5000   148.5795     9.0787
 1940.0000   140.2655     9.0987
 1940.5000   137.4250     9.0164
 1941.0000   136.9393     9.2006
 1941.5000   142.7285     8.9678
 1942.0000   157.3630     8.9597
 1942.5000   159.2930     8.9537
 1943.0000   163.1426     8.9505
 1943.5000   171.9869     8.9472
 1944.0000   180.4876     8.9437
 1944.5000   183.3498     8.9403
 1945.0000   182.3361     8.9368
 1945.5000   181.9783     8.9334
 1946.0000   182.7816     8.9300
 1946.5000   178.9648     8.9265
 1947.0000   174.6974     8.9231
 1947.5000   173.4670     8.9400
 1948.0000   180.4816     8.8481
 1948.5000   186.1596     8.8592
 1949.0000   188.9063     8.9587
 1949.5000   191.5784     8.9693
 1950.0000   193.4955     8.9759
 1950.5000   191.8996     8.9829
 1951.0000   190.2281     8.9902
 1951.5000   190.6117     8.9965
 1952.0000   189.4864     8.9663
 1952.5000   187.7667     8.9019
 1953.0000   186.9624     8.8978
 1953.5000   186.3097     8.8948
