~VERSION INFORMATION
 VERS.                2.0:   CWLS LOG ASCII STANDARD - VERSION 2.0
 WRAP.                 NO:   ONE LINE PER DEPTH STEP
~WELL INFORMATION
#MNEM.UNIT      DATA TYPE    INFORMATION
#----------   ------------   ------------------------------
 STRT.F           16.0000:   START DEPTH
 STOP.F          900.0000:   STOP DEPTH
 STEP.F            0.5000:   STEP LENGTH
 NULL.          -999.2500:   NO VALUE
 COMP. FENIX & SCISSON INC:   COMPANY
 WELL.    NPR-3 #65S15-15:   WELL
 FLD .             TEAPOT:   FIELD
 LOC .      S15 T38N R78W:   LOCATION
 CNTY.            NATRONA:   COUNTY
 STAT.            WYOMING:   STATE
 CTRY. UNITED STATES OF AMERICA:   COUNTRY
 SRVC.            Unknown:   SERVICE COMPANY
 DATE.        11-MAY-1978:   LOGDATE
 API .       490251062400:   API NUMBER
~CURVE INFORMATION
#MNEM.UNIT       API CODE    CURVE DESCRIPTION
#----------   ------------   ------------------------------
 DEPT.F                  :   
 RHOB.G/C3   45 350 01 00:   BULK DENSITY
 DPHI.DEC    45 890 12 00:   DENSITY POROSITY SANDSTONE
 CORR.G/C3   45 356 01 00:   DENSITY CORRECTION
 GRD .GAPI   45 310 01 00:   GAMMA RAY FROM DENSITY LOG
 CALD.IN     45 280 60 00:   CALIPER FROM DENSITY LOG
 SPR .MV     05 010 01 00:   SPONTANEOUS POTENTIAL FROM RES.
 SN  .OHMM   05 040 16 00:   SHORT NORMAL 16"
 IL  .OHMM   05 120 00 00:   INDUCTION LOG
~PARAMETER INFORMATION
#MNEM.UNIT          VALUE    DESCRIPTION
#----------   ------------   ------------------------------
 PD  .                 GL:   PERMANENT DATUM
 EPD .F              5289:   ELEVATION PERMANENT DATUM
 LMF .                 KB:   LOG MEASURED FROM
 DAPD.F                 4:   FEET ABOVE PERMANENT DATUM
 DMF .                 KB:   DRILLING MEASURED FROM
 EKB .F              5293:   KELLING BUSHING
 EDF .F                  :   DRILLING FLOOR
 EGL .F              5289:   GROUND LEVEL
 DATE.          5-11-1978:   RUN DATE
 RUN .                  1:   RUN NUMBER
 DD  .F               887:   DEPTH DRILLER
 DL  .F               889:   DEPTH LOGGER
 BLI .F               883:   BOTTOM LOG INTERVAL
 TLI .F                40:   TOP LOG INTERVAL
 CS  .IN            8.625:   CASING SIZE
 CBD .F                40:   CASING BOTTOM DRILLER
 CBL .F                40:   CASING BOTTOM LOGGER
 BS  .IN            7.875:   BIT SIZE
 BSD .F               887:   BIT SIZE AT DEPTH
 DFT .                KCL:   DRILLING FLUID TYPE
 DFD .                8.6:   DRILLING FLUID DENSITY
 DFV .                 30:   DRILLING FLUID VISCOSITY
 DFPH.                9.5:   DRILLING FLUID PH
 DFL .                  8:   DRILLING FLUID LOSS
 MSS .                   :   MUD SAMPLE SOURCE
 RMS .OHMM            .42:   RESISTIVITY MUD SAMPLE
 MST .F                68:   MUD SAMPLE TEMPERATURE
 RMF .OHMM            .38:   RESISTIVITY MUD FILTRATE SAMPLE
 MFST.F                68:   MUD FILTRATE SAMPLE TEMPERATURE
 RMC .OHMM            .68:   RESISTIVITY MUD CAKE
 MCST.F                66:   MUD CAKE SAMPLE TEMPERATURE
 MFSS.           MEASURED:   MUD FILTRATE SAMPLE SOURCE
 MCSS.                   :   MUD CAKE SAMPLE SOURCE
 RMB .OHMM               :   RESISTIVITY MUD AT BHT
 BHT .F                72:   BOTTOM HOLE TEMPERATURE
 TCS .HRS               2:   TIME CURCULATED STOPPED
 TLAB.HRS                :   TIME LOGGER AT BOTTOM
 MRT .F                72:   MAXIMUM RECORDED TEMPERATURE
 LUN .              CASP.:   LOGGING UNIT NUMBER
 LUL .               2958:   LOGGING UNIT LOCATION
 ENGI.             MILLER:   RECORDING ENGINEER
 WITN.           MCGINLEY:   WITNESSED BY
 CLNT.            A2DTECH:   CLIENT CODE
 ORIG.      2" & 5" PRINT:   ORIGIN OF DATA
 UWI .       490251062400:   UNIQUE WELL ID
 DICO. A2D Technologies, Inc.:   DIGITIZING COMPANY
 OS  .                   :   OTHER SERVICES
 PWI .                   :   PRIMARY WELL IDENTIFIER
 R1  .                   :   REMARKS 1
 R2  .                   :   REMARKS 2
~OTHER INFORMATION
~A   DEPT     RHOB       DPHI       CORR         GRD      CALD        SPR         SN         IL   
# ...
  704.5000     2.4197     0.1565     0.0115    59.4966     7.1298   -34.9137    11.3406    10.2572
  705.0000     2.4160     0.1584     0.0097    59.6028     7.1439   -34.9311    11.3271    10.3033
  705.5000     2.4123     0.1610     0.0080    59.0876     7.1644   -34.9485    11.3136    10.3557
  706.0000     2.4087     0.1637     0.0064    58.6675     7.1851   -34.9757    11.3002    10.4085
  706.5000     2.4055     0.1639     0.0067    59.4195     7.2060   -35.0236    11.2868    10.4615
  707.0000     2.4044     0.1605     0.0140    60.1989     7.2220   -35.0713    11.2735    10.5147
  707.5000     2.4081     0.1571     0.0212    60.3092     7.1223   -35.1189    11.2600    10.5682
  708.0000     2.4130     0.1536     0.0283    58.5418     7.1090   -35.1665    11.2468    10.6221
  708.5000     2.4180     0.1508     0.0341    57.7183     7.1634   -35.2141    11.3317    10.6885
  709.0000     2.4229     0.1503     0.0283    59.8436     7.2452   -35.2618    11.4357    10.7966
  709.5000     2.4278     0.1498     0.0227    59.9701     7.3267   -35.3094    11.5406    10.9058
  710.0000     2.4306     0.1478     0.0260    59.8829     7.3462   -35.3570    11.6465    11.0162
  710.5000     2.4317     0.1453     0.0304    60.7357     7.2887   -35.4046    11.7534    11.1276
  711.0000     2.4332     0.1370     0.0306    61.6930     7.2315   -35.4523    11.8612    11.2402
  711.5000     2.4413     0.1370     0.0297    61.5958     7.1852   -35.5000    11.9701    11.3539
  712.0000     2.4496     0.1316     0.0284    59.5043     7.1906   -35.5487    11.9958    11.4687
  712.5000     2.4578     0.1243     0.0254    57.9100     7.1950   -35.5578    11.9958    11.5619
  713.0000     2.4661     0.1225     0.0225    58.3460     7.1992   -35.5579    11.9958    11.5619
  713.5000     2.4743     0.1160     0.0216    58.1593     7.2035   -35.5578    11.7769    11.3509
  714.0000     2.4826     0.1164     0.0251    57.7266     7.2203   -35.5578    11.5884    11.1692
  714.5000     2.4867     0.1214     0.0187    57.2852     7.2494   -35.5578    11.3687    10.9575
  715.0000     2.4874     0.1324     0.0086    57.2583     7.2785   -35.5578    11.1532    10.7498
  715.5000     2.4730     0.1364     0.0190    57.7318     7.3078   -35.5578    10.9418    10.5460
  716.0000     2.4559     0.1244     0.0304    58.5546     7.3444   -35.5578    10.7344    10.3461
  716.5000     2.4622     0.1284     0.0403    58.9995     7.3932   -35.5578    10.5900    10.2070
  717.0000     2.4680     0.1330     0.0368    59.0520     7.4419   -35.5578    10.4957    10.1160
  717.5000     2.4591     0.1362     0.0384    59.1392     7.4901   -35.5578    10.4021    10.0258
  718.0000     2.4500     0.1367     0.0404    60.6948     7.5199   -35.5578    10.3091     9.9362
  718.5000     2.4489     0.1373     0.0361    61.9606     7.4947   -35.5578    10.2574     9.8864
  719.0000     2.4490     0.1401     0.0313    60.7221     7.4702   -35.5578    10.2615     9.8904
  719.5000     2.4466     0.1429     0.0321    59.4944     7.4714   -35.5578    10.2649     9.8936
  720.0000     2.4429     0.1391     0.0340    58.7226     7.4798   -35.5578    10.2681     9.8967
  720.5000     2.4412     0.1316     0.0360    57.9606     7.4884   -35.5578    10.2713     9.8998
  721.0000     2.4465     0.1333     0.0339    57.1921     7.4969   -35.5577    10.2745     9.9028
  721.5000     2.4513     0.1348     0.0302    56.4830     7.5054   -35.5571    10.2776     9.9059
  722.0000     2.4529     0.1361     0.0263    56.6062     7.5138   -35.5601    10.2808     9.9089
  722.5000     2.4518     0.1362     0.0227    57.7251     7.5227   -35.6567    10.2840     9.9120
  723.0000     2.4507     0.1363     0.0255    59.0292     7.5114   -35.7590    10.2872     9.9151
  723.5000     2.4497     0.1364     0.0284    61.7614     7.4926   -35.8610    10.2903     9.9181
  724.0000     2.4491     0.1347     0.0273    64.2198     7.4733   -35.9552    10.2935     9.9212
  724.5000     2.4497     0.1309     0.0260    63.4873     7.4722   -35.9677    10.2967     9.9243
  725.0000     2.4532     0.1296     0.0248    63.3461     7.4842   -35.9778    10.2999     9.9273
  725.5000     2.4578     0.1260     0.0236    64.1298     7.4965   -35.9882    10.3031     9.9304
  726.0000     2.4618     0.1258     0.0225    64.3117     7.5087   -35.9987    10.3063     9.9335
  726.5000     2.4640     0.1268     0.0222    64.4052     7.5212   -36.0092    10.3094     9.9365
  727.0000     2.4634     0.1300     0.0219    64.4174     7.5214   -36.0196    10.3126     9.9396
  727.5000     2.4607     0.1300     0.0216    64.2920     7.5165   -36.0301    10.3158     9.9427
  728.0000     2.4581     0.1349     0.0214    62.5892     7.5114   -36.0406    10.3190     9.9458
  728.5000     2.4554     0.1351     0.0211    60.2692     7.5067   -36.0510    10.3222     9.9488
  729.0000     2.4530     0.1338     0.0208    59.0821     7.4776   -36.0615    10.3254     9.9519
  729.5000     2.4516     0.1336     0.0205    58.7277     7.4417   -36.0720    10.3286     9.9550
  730.0000     2.4502     0.1394     0.0202    58.6506     7.4059   -36.0825    10.3318     9.9581
  730.5000     2.4481     0.1456     0.0200    59.6919     7.3929   -36.0929    10.3350     9.9611
  731.0000     2.4425     0.1422     0.0197    59.9541     7.4118   -36.1034    10.3382     9.9642
  731.5000     2.4367     0.1385     0.0194    59.2584     7.4327   -36.1139    10.3413     9.9673
  732.0000     2.4425     0.1349     0.0191    59.1325     7.4644   -36.1244    10.3444     9.9703
  732.5000     2.4477     0.1332     0.0188    59.7635     7.4950   -36.1351    10.3479     9.9735
  733.0000     2.4493     0.1343     0.0185    60.1770     7.5251   -36.1465    10.3504     9.9763
  733.5000     2.4510     0.1353     0.0197    60.4094     7.5312   -36.1495    10.4413    10.0247
  734.0000     2.4526     0.1338     0.0223    60.6357     7.4912   -35.9983    10.5875    10.1014
  734.5000     2.4542     0.1303     0.0281    60.8593     7.4516   -35.8455    10.7348    10.1783
  735.0000     2.4579     0.1280     0.0294    61.0891     7.4414   -35.6937    10.8841    10.2557
  735.5000     2.4632     0.1338     0.0237    61.5111     7.4369   -35.4836    11.0357    10.3337
  736.0000     2.4625     0.1478     0.0155    62.6646     7.4325   -34.8887    11.1899    10.4123
  736.5000     2.4424     0.1645     0.0072    63.7645     7.4283   -34.2867    11.3523    10.4479
  737.0000     2.4220     0.1811     0.0044    64.2445     7.4362   -33.6850    11.3285    10.4171
  737.5000     2.4006     0.1978     0.0051    63.4411     7.4728   -33.0762    11.2976    10.3944
  738.0000     2.3666     0.2143     0.0172    62.1452     7.5090   -32.8765    11.2675    10.3717
  738.5000     2.3333     0.2243     0.0289    54.3132     7.5434   -32.7627    11.2374    10.3490
  739.0000     2.3073     0.2237     0.0383    48.3630     7.5283   -32.6516    11.2075    10.3264
  739.5000     2.2993     0.2180     0.0346    48.2532     7.5111   -32.5846    11.1776    10.3040
  740.0000     2.3077     0.2121     0.0311    49.5667     7.4941   -32.6599    11.1478    10.2816
  740.5000     2.3176     0.2065     0.0291    50.5612     7.4873   -32.7309    11.1181    10.2580
  741.0000     2.3276     0.2121     0.0324    50.8261     7.4922   -32.8018    11.0885    10.2763
  741.5000     2.3270     0.2005     0.0357    51.1058     7.4970   -32.8727    11.0589    10.2967
  742.0000     2.3357     0.1862     0.0333    51.8711     7.5020   -32.9436    11.0294    10.3173
  742.5000     2.3552     0.1852     0.0286    53.1298     7.5170   -33.0145    11.0000    10.3379
  743.0000     2.3638     0.2001     0.0298    53.2255     7.5515   -33.0858    10.9707    10.3586
  743.5000     2.3556     0.2050     0.0355    53.3453     7.5624   -33.1587    10.9415    10.3794
  744.0000     2.3412     0.1964     0.0412    53.4796     7.5589   -33.1080    10.9123    10.4001
  744.5000     2.3368     0.1903     0.0454    52.6211     7.5551   -33.0371    10.8832    10.4209
