~VERSION INFORMATION
 VERS.                2.0:   CWLS LOG ASCII STANDARD - VERSION 2.0
 WRAP.                 NO:   ONE LINE PER DEPTH STEP
~WELL INFORMATION
#MNEM.UNIT      DATA TYPE    INFORMATION
#----------   ------------   ------------------------------
 STRT.F           20.0000:   START DEPTH
 STOP.F          488.0000:   STOP DEPTH
 STEP.F            0.5000:   STEP LENGTH
 NULL.          -999.2500:   NO VALUE
 COMP.    FENIX & SCISSON:   COMPANY
 WELL.  SX-3 NPR #3-3 #43:   WELL
 FLD .             TEAPOT:   FIELD
 LOC .       S3 T38N R78W:   LOCATION
 CNTY.            NATRONA:   COUNTY
 STAT.            WYOMING:   STATE
 CTRY. UNITED STATES OF AMERICA:   COUNTRY
 SRVC.           BIRDWELL:   SERVICE COMPANY
 DATE.        04-JAN-1978:   LOGDATE
 API .       490251044800:   API NUMBER
~CURVE INFORMATION
#MNEM.UNIT       API CODE    CURVE DESCRIPTION
#----------   ------------   ------------------------------
 DEPT.F                  :   
 ILD .OHMM   05 120 46 00:   INDUCTION LOG DEEP
 SN  .OHMM   05 040 16 00:   SHORT NORMAL 16"
 SPR .MV     05 010 01 00:   SPONTANEOUS POTENTIAL FROM RES.
 CALD.IN     45 280 60 00:   CALIPER FROM DENSITY LOG
 DPHI.DEC    45 890 12 00:   DENSITY POROSITY SANDSTONE
 DRHO.G/C3   45 356 01 00:   DENSITY CORRECTION
 GRD .GAPI   45 310 01 00:   GAMMA RAY FROM DENSITY LOG
 RHOB.G/C3   45 350 01 00:   BULK DENSITY
~PARAMETER INFORMATION
#MNEM.UNIT          VALUE    DESCRIPTION
#----------   ------------   ------------------------------
 PD  .                 GL:   PERMANENT DATUM
 LMF .                 KB:   LOG MEASURED FROM
 DAPD.F                 4:   FEET ABOVE PERMANENT DATUM
 DMF .                 KB:   DRILLING MEASURED FROM
 EKB .F              5163:   KELLING BUSHING
 EGL .F              5159:   GROUND LEVEL
 DATE.        04-JAN-1978:   RUN DATE
 RUN .                  1:   RUN NUMBER
 DD  .F               490:   DEPTH DRILLER
 DL  .F               490:   DEPTH LOGGER
 BLI .F               485:   BOTTOM LOG INTERVAL
 TLI .F                20:   TOP LOG INTERVAL
 CS  .IN            8.625:   CASING SIZE
 CBD .F                40:   CASING BOTTOM DRILLER
 CBL .F                44:   CASING BOTTOM LOGGER
 BS  .IN            7.875:   BIT SIZE
 BSD .F               490:   BIT SIZE AT DEPTH
 DFT .                KCL:   DRILLING FLUID TYPE
 DFD .                8.4:   DRILLING FLUID DENSITY
 DFV .                 32:   DRILLING FLUID VISCOSITY
 DFPH.                 11:   DRILLING FLUID PH
 DFL .                  8:   DRILLING FLUID LOSS
 MSS .                PIT:   MUD SAMPLE SOURCE
 RMS .OHMM           0.32:   RESISTIVITY MUD SAMPLE
 MST .F                62:   MUD SAMPLE TEMPERATURE
 RMF .OHMM           0.30:   RESISTIVITY MUD FILTRATE SAMPLE
 MFST.F                62:   MUD FILTRATE SAMPLE TEMPERATURE
 RMC .OHMM           0.35:   RESISTIVITY MUD CAKE
 MCST.F                62:   MUD CAKE SAMPLE TEMPERATURE
 MFSS.               MEAS:   MUD FILTRATE SAMPLE SOURCE
 MCSS.               MEAS:   MUD CAKE SAMPLE SOURCE
 RMB .OHMM           0.26:   RESISTIVITY MUD AT BHT
 BHT .F                75:   BOTTOM HOLE TEMPERATURE
 TCS .HRS               2:   TIME CURCULATED STOPPED
 MRT .F                75:   MAXIMUM RECORDED TEMPERATURE
 LUN .               2958:   LOGGING UNIT NUMBER
 LUL .             CASPER:   LOGGING UNIT LOCATION
 ENGI.             HUGHES:   RECORDING ENGINEER
 WITN.         HARRINGTON:   WITNESSED BY
 CLNT.            A2DTECH:   CLIENT CODE
 ORIG.           5" PRINT:   ORIGIN OF DATA
 UWI .       490251044800:   UNIQUE WELL ID
 DICO. A2D Technologies, Inc.:   DIGITIZING COMPANY
~OTHER INFORMATION
~A   DEPT      ILD         SN        SPR       CALD       DPHI       DRHO         GRD      RHOB   
# ...
  141.5000    13.5322     9.9478   -96.8676     8.3017     0.1171     0.0376   106.4470     2.4532
  142.0000    13.6238     9.9478   -95.6629     8.3165     0.1183     0.0295   107.1797     2.4532
  142.5000    13.8097     9.9478   -95.5111     8.3168     0.1183     0.0250   102.0681     2.4569
  143.0000    13.9990     9.8792   -95.2090     8.3171     0.1179     0.0304   102.9523     2.4599
  143.5000    13.9945     9.8792   -95.0569     8.3320     0.1167     0.0344   104.2690     2.4599
  144.0000    13.9909     9.8792   -95.0555     8.3323     0.1161     0.0365   106.0236     2.4591
  144.5000    13.6985     9.8112   -94.6030     8.3326     0.1155     0.0276   107.0608     2.4570
  145.0000    13.6003     9.8067   -94.4509     8.3329     0.1152     0.0255   104.5499     2.4562
  145.5000    13.5029     9.6764   -93.8480     8.3331     0.1158     0.0323   105.5946     2.4562
  146.0000    13.2206     9.6097   -93.6962     8.3043     0.1158     0.0369   107.7872     2.4554
  146.5000    13.0351     9.4778   -93.2434     8.2900     0.1195     0.0250   106.1841     2.4413
  147.0000    12.8523     9.2764   -92.6405     8.2902     0.1232     0.0213   105.3090     2.4383
  147.5000    12.7467     9.0299   -92.5652     8.2905     0.1238     0.0274   105.7523     2.4428
  148.0000    12.4935     9.1557   -92.3366     8.2908     0.1217     0.0399   111.1566     2.4473
  148.5000    12.4903     9.3476   -92.1848     8.2911     0.1193     0.0492   120.2104     2.4503
  149.0000    12.4863     9.5532   -92.0331     8.2914     0.1178     0.0411   122.8409     2.4488
  149.5000    12.3968     9.7436   -92.0313     8.2917     0.1175     0.0315   121.9484     2.4391
  150.0000    12.3936     9.7436   -92.0300     8.2774     0.1217     0.0225   112.6282     2.4279
  150.5000    12.3897     9.6764   -92.0286     8.2482     0.1241     0.0249   106.0616     2.4256
  151.0000    12.3868     9.6764   -91.9481     8.2628     0.1240     0.0340   104.7498     2.4294
  151.5000    12.2977     9.6097   -91.8002     8.2482     0.1210     0.0475   105.6292     2.4399
  152.0000    12.1853     9.6097   -91.6523     8.2482     0.1144     0.0566   104.9027     2.4503
  152.5000    12.1297     9.6097   -91.5044     8.2482     0.1096     0.0574   103.5916     2.4557
  153.0000    12.1283     9.6097   -91.4375     8.2336     0.1109     0.0515   104.4703     2.4617
  153.5000    12.1266     9.6097   -91.4392     8.1460     0.1130     0.0448   106.8089     2.4617
  154.0000    12.1247     9.5435   -91.4406     8.1314     0.1107     0.0352   110.2102     2.4564
  154.5000    12.1231     9.4778   -91.4423     8.2920     0.1070     0.0435   106.2311     2.4550
  155.0000    12.1216     9.4124   -91.4437     8.3504     0.1060     0.0533   101.4164     2.4588
  155.5000    12.1196     9.2832   -91.4451     8.3504     0.1072     0.0497    99.5213     2.4618
  156.0000    12.0343     9.2832   -91.4468     8.3504     0.1103     0.0295   100.2540     2.4603
  156.5000    12.0328     9.1557   -91.4482     8.3358     0.1129     0.0255   111.4984     2.4529
  157.0000    12.0311     9.1557   -91.4496     8.3212     0.1156     0.0333   116.0267     2.4499
  157.5000    11.9462     9.0299   -91.1506     8.3066     0.1171     0.0459   114.8616     2.4492
  158.0000    11.5375     8.9059   -91.0016     8.3066     0.1180     0.0519   110.3388     2.4499
  158.5000    10.8376     8.8393   -90.8526     8.3212     0.1162     0.0429   108.2657     2.4552
  159.0000    10.2514     8.5440   -90.8543     8.3066     0.1135     0.0377   107.8626     2.4560
  159.5000     9.9696     8.3109   -91.0061     8.3066     0.1126     0.0459   110.2018     2.4515
  160.0000     9.9683     8.0285   -90.8571     8.3066     0.1141     0.0526   111.6644     2.4470
  160.5000     9.8978     7.9182   -90.8588     8.3066     0.1165     0.0309   111.6808     2.4455
  161.0000     9.8282     7.9182   -90.8602     8.3066     0.1179     0.0377   109.7728     2.4486
  161.5000     9.7590     7.8637   -90.7113     8.3066     0.1149     0.0461   108.4277     2.4546
  162.0000     9.8253     7.9732   -90.4119     8.3066     0.1111     0.0527   107.6995     2.4591
  162.5000     9.8928     8.1968   -90.2629     8.3066     0.1096     0.0280   106.8250     2.4621
  163.0000     9.9600     8.3686   -90.2647     8.3066     0.1119     0.0385   106.2424     2.4560
  163.5000    10.2389     8.5440   -90.2664     8.3066     0.1140     0.0430   105.6599     2.4592
  164.0000    10.5985     8.6630   -90.2678     8.3066     0.1149     0.0272   110.7711     2.4614
  164.5000    10.5238     8.7231   -90.2692     8.3080     0.1176     0.0332   113.5458     2.4577
  165.0000    10.5222     8.7231   -90.2709     8.3212     0.1154     0.0392   110.9198     2.4615
  165.5000    10.3759     8.7231   -90.2723     8.3212     0.1131     0.0400   109.0234     2.4607
  166.0000    10.3029     8.7231   -90.2737     8.3358     0.1143     0.0385   114.5625     2.4555
  166.5000    10.3012     8.7231   -90.2754     8.3358     0.1191     0.0370   115.4495     2.4443
  167.0000    10.3716     8.7231   -90.2768     8.3358     0.1215     0.0348   113.5534     2.4443
  167.5000    10.2986     8.6630   -90.2782     8.3358     0.1224     0.0303   110.6351     2.4435
  168.0000    10.3686     8.6630   -90.2799     8.3358     0.1224     0.0243   107.2302     2.4384
  168.5000    10.4394     8.6630   -90.2813     8.3504     0.1214     0.0298   101.8791     2.4354
  169.0000    10.4381     8.6630   -90.1323     8.3504     0.1205     0.0341    96.3330     2.4340
  169.5000    10.3643     8.6033   -90.1340     8.3504     0.1196     0.0288    93.7066     2.4355
  170.0000    10.3629     8.6033   -90.1353     8.3504     0.1193     0.0251    95.1679     2.4363
  170.5000    10.2189     8.4851   -90.1371     8.3504     0.1202     0.0296   104.3667     2.4348
  171.0000     9.5990     8.2536   -90.1385     8.3504     0.1250     0.0371   107.8717     2.4296
  171.5000     9.0170     7.9182   -90.1399     8.3504     0.1247     0.0423   110.6468     2.4236
  172.0000     8.8302     7.6435   -90.1416     8.3650     0.1238     0.0401   112.2540     2.4206
  172.5000     8.7677     7.2375   -89.9923     8.3796     0.1274     0.0349   111.5258     2.4027
  173.0000     8.8890     6.9434   -89.6933     8.3650     0.1310     0.0287   110.2133     2.3885
  173.5000     8.8879     6.7540   -89.6950     8.3650     0.1316     0.0207   107.8790     2.3893
  174.0000     9.1365     7.0961   -89.6964     8.3650     0.1229     0.0416   105.3986     2.4007
  174.5000     9.1353     7.3892   -89.6978     8.3650     0.1154     0.0394   107.3562     2.4237
  175.0000     9.2617     7.6491   -89.2484     8.3650     0.1112     0.0349   111.5331     2.4380
  175.5000     9.9252     7.9182   -88.6483     8.3650     0.1094     0.0319   114.7461     2.4507
  176.0000    10.4902     8.3109   -88.0482     8.3650     0.1091     0.0439   111.9738     2.4627
  176.5000    10.7839     8.6033   -88.0499     8.3504     0.1100     0.0477   109.0409     2.4717
  177.0000    10.7824     8.8445   -87.9006     8.3504     0.1103     0.0432   111.5389     2.4717
  177.5000    10.7807     9.0926   -87.9023     8.3504     0.1106     0.0362   115.0440     2.4702
  178.0000    10.7794     9.2192   -87.7520     8.3504     0.1100     0.0379   117.0888     2.4688
  178.5000    10.9702     9.3476   -87.4525     8.3504     0.1064     0.0447   115.0467     2.4703
  179.0000    11.0797     9.3476   -87.1552     8.3504     0.1010     0.0484   117.6762     2.4771
  179.5000    11.0780     9.3476   -86.7051     8.3504     0.0998     0.0462   116.9476     2.4846
  180.0000    11.1588     9.4124   -86.1050     8.3504     0.1034     0.0297   115.3432     2.4861
  180.5000    11.3867     9.4124   -85.5052     8.3504     0.1063     0.0335   120.3081     2.4801
  181.0000    11.3848     9.4778   -85.0558     8.3504     0.1060     0.0395   118.9567     2.4719
  181.5000    11.6257     9.5466   -84.9068     8.3504     0.1024     0.0477   117.0995     2.4652
