~VERSION INFORMATION
 VERS.                2.0:   CWLS LOG ASCII STANDARD - VERSION 2.0
 WRAP.                 NO:   ONE LINE PER DEPTH STEP
~WELL INFORMATION
#MNEM.UNIT      DATA TYPE    INFORMATION
#----------   ------------   ------------------------------
 STRT.F            6.0000:   START DEPTH
 STOP.F          458.0000:   STOP DEPTH
 STEP.F            0.5000:   STEP LENGTH
 NULL.          -999.2500:   NO VALUE
 COMP. BROWN JOHN E&C INC:   COMPANY
 WELL.   73-61 X10 #61-10:   WELL
 FLD .             TEAPOT:   FIELD
 LOC .      S10 T38N R78W:   LOCATION
 CNTY.            NATRONA:   COUNTY
 STAT.            WYOMING:   STATE
 CTRY. UNITED STATES OF AMERICA:   COUNTRY
 SRVC.           Gearhart:   SERVICE COMPANY
 DATE.        12-JUN-1987:   LOGDATE
 API .       490251113200:   API NUMBER
~CURVE INFORMATION
#MNEM.UNIT       API CODE    CURVE DESCRIPTION
#----------   ------------   ------------------------------
 DEPT.F                  :   
 GRR .GAPI   07 310 01 00:   GAMMA RAY FROM RES. LOG.
 RILD.OHMM   07 120 46 00:   INDUCTION LOG DEEP RESISTIVITY
 RILM.OHMM   07 120 44 00:   INDUCTION LOG MEDIUM RESISTIVITY
~PARAMETER INFORMATION
#MNEM.UNIT          VALUE    DESCRIPTION
#----------   ------------   ------------------------------
 PD  .                 GL:   PERMANENT DATUM
 EPD .F              5170:   ELEVATION PERMANENT DATUM
 LMF .                 KB:   LOG MEASURED FROM
 DAPD.F                 8:   FEET ABOVE PERMANENT DATUM
 DMF .                 KB:   DRILLING MEASURED FROM
 EKB .F              5178:   KELLING BUSHING
 EDF .F              5176:   DRILLING FLOOR
 EGL .F              5170:   GROUND LEVEL
 DATE.            6-12-87:   RUN DATE
 RUN .                  1:   RUN NUMBER
 DD  .F               560:   DEPTH DRILLER
 DL  .F               466:   DEPTH LOGGER
 BLI .F               463:   BOTTOM LOG INTERVAL
 TLI .F                46:   TOP LOG INTERVAL
 CS  .IN            8.625:   CASING SIZE
 CBD .F                50:   CASING BOTTOM DRILLER
 CBL .F                46:   CASING BOTTOM LOGGER
 BS  .IN             7.87:   BIT SIZE
 BSD .F               560:   BIT SIZE AT DEPTH
 DFT .               FOAM:   DRILLING FLUID TYPE
 TCS .HRS            0645:   TIME CURCULATED STOPPED
 TLAB.HRS            0845:   TIME LOGGER AT BOTTOM
 LUN .               7597:   LOGGING UNIT NUMBER
 LUL .           GILLETTE:   LOGGING UNIT LOCATION
 ENGI.           JOHNSTON:   RECORDING ENGINEER
 WITN.             STRONG:   WITNESSED BY
 CLNT.            A2DTECH:   CLIENT CODE
 ORIG.       2", 5" PRINT:   ORIGIN OF DATA
 UWI .       490251113200:   UNIQUE WELL ID
 DICO. A2D Technologies, Inc.:   DIGITIZING COMPANY
~OTHER INFORMATION
~A    DEPT      GRR      RILD       RILM   
# ...
  370.0000    71.0967    17.6503    14.5983
  370.5000    70.6254    18.7860    15.2074
  371.0000    68.1754    19.7773    17.1750
  371.5000    65.5768    21.1990    19.4412
  372.0000    63.0451    23.2873    21.5840
  372.5000    61.2736    25.5920    23.9284
  373.0000    59.5090    27.8011    26.5275
  373.5000    57.8522    29.9790    28.2824
  374.0000    57.5289    32.3275    29.4631
  374.5000    57.9905    33.3095    30.9046
  375.0000    58.4334    33.3095    32.0744
  375.5000    59.0873    33.3095    32.0744
  376.0000    60.5053    32.8535    31.6373
  376.5000    61.4489    32.2905    31.2053
  377.0000    62.0275    31.7372    30.7792
  377.5000    62.5969    31.1934    30.3589
  378.0000    63.1831    30.6589    29.9444
  378.5000    63.2132    30.1335    29.5355
  379.0000    62.9897    30.0220    29.1322
  379.5000    62.0797    30.0220    28.7344
  380.0000    61.2108    30.0220    28.3404
  380.5000    60.9754    29.5633    28.0269
  381.0000    61.7572    29.1024    27.8279
  381.5000    62.9996    28.6370    27.6323
  382.0000    65.6609    28.1482    27.4375
  382.5000    68.3793    27.6550    27.2205
  383.0000    67.6024    27.1704    26.9651
  383.5000    66.5699    26.8744    26.7121
  384.0000    65.6233    26.6355    26.4615
  384.5000    65.6459    26.3993    26.2132
  385.0000    65.6503    26.1650    25.9672
  385.5000    65.6472    25.9327    25.7235
  386.0000    65.6308    25.7024    25.4821
  386.5000    66.3101    25.4742    25.2414
  387.0000    67.1076    25.3165    25.0731
  387.5000    66.0131    25.2809    25.0223
  388.0000    64.2787    25.2473    24.9736
  388.5000    62.5016    25.2135    24.9247
  389.0000    62.4724    25.1796    24.8757
  389.5000    62.8308    25.1458    24.8540
  390.0000    63.1506    25.1122    24.8537
  390.5000    64.6906    25.0297    24.8539
  391.0000    66.3878    24.8534    24.8554
  391.5000    65.8704    24.6780    24.5482
  392.0000    65.1804    24.5041    24.1380
  392.5000    64.8202    24.2621    23.7070
  393.0000    65.3972    23.8838    23.2779
  393.5000    67.6802    23.4841    22.8193
  394.0000    69.3808    23.0609    22.3492
  394.5000    69.5251    22.6124    21.8738
  395.0000    69.6995    22.3356    21.5653
  395.5000    69.8674    22.1341    21.5720
  396.0000    70.0355    21.9343    21.3681
  396.5000    70.0265    21.7364    21.3205
  397.0000    69.8469    21.5403    21.2709
  397.5000    69.7282    21.3672    21.2207
  398.0000    70.4575    21.3672    21.1677
  398.5000    71.9170    21.5700    21.1130
  399.0000    72.8965    21.5700    21.0540
  399.5000    72.5040    21.5699    20.9954
  400.0000    72.1531    21.5623    20.9369
  400.5000    71.7994    21.4880    20.8786
  401.0000    71.4594    21.4141    20.8205
  401.5000    69.7493    21.3402    20.7625
  402.0000    67.5162    21.2666    20.7047
  402.5000    66.5147    21.1932    20.6470
  403.0000    66.7526    21.1201    20.5895
  403.5000    66.7079    21.0473    20.5323
  404.0000    66.4205    20.9746    20.4754
  404.5000    66.1287    20.9023    20.4175
  405.0000    65.8354    20.8302    20.3286
  405.5000    65.5388    20.7017    19.9846
  406.0000    65.2598    20.2917    19.6482
  406.5000    65.6605    19.8897    19.3408
  407.0000    66.8040    19.4958    19.0763
  407.5000    67.9951    19.1535    18.8153
  408.0000    69.1784    18.8858    18.5580
  408.5000    70.0714    18.6218    18.3041
  409.0000    69.4421    18.3614    18.0538
  409.5000    67.9939    18.1047    17.8068
  410.0000    66.8376    17.8516    17.5632
  410.5000    68.5488    17.6021    17.3230
  411.0000    71.5075    17.3560    17.0861
  411.5000    73.8671    17.1133    16.8524
  412.0000    73.9980    16.8741    16.6218
  412.5000    74.1637    16.6382    16.3945
  413.0000    74.1778    16.4666    16.1702
  413.5000    73.6689    16.3288    16.0590
  414.0000    72.5089    16.1924    16.0055
  414.5000    72.1300    16.0849    15.9522
  415.0000    73.2254    16.0511    15.8991
  415.5000    74.4690    16.0172    15.8462
  416.0000    73.4299    15.9834    15.7935
  416.5000    71.7719    15.9497    15.7409
  417.0000    70.9559    15.9161    15.6885
  417.5000    71.2900    15.8825    15.6363
  418.0000    72.5070    15.8491    15.5842
  418.5000    73.7196    15.8157    15.5323
  419.0000    74.9460    15.7471    15.4659
  419.5000    75.2601    15.6054    15.3695
  420.0000    75.5229    15.4655    15.2738
  420.5000    75.8227    15.3267    15.1785
  421.0000    76.9816    15.1892    15.0839
  421.5000    78.2204    15.0529    14.9900
  422.0000    77.4194    14.9179    14.8966
  422.5000    76.3136    14.7841    14.8037
  423.0000    75.3843    14.6514    14.6680
  423.5000    75.7577    14.5200    14.5209
  424.0000    77.6651    14.3897    14.3753
  424.5000    79.5358    14.2606    14.2311
  425.0000    80.3395    14.2028    14.0884
  425.5000    79.3869    14.1631    13.9471
  426.0000    78.6227    14.1233    13.8366
  426.5000    79.3837    14.1006    13.8691
  427.0000    80.2799    14.1004    13.9013
  427.5000    81.1914    14.1005    13.9335
  428.0000    81.4053    14.1005    13.9659
  428.5000    80.8411    14.1005    13.9983
  429.0000    80.5019    14.1005    14.0309
  429.5000    80.1794    14.1005    14.0637
  430.0000    79.8962    14.1006    14.0983
  430.5000    80.6115    14.1005    13.9835
  431.0000    82.2433    14.1027    13.8488
  431.5000    82.6730    14.0592    13.7154
  432.0000    81.3950    13.9722    13.5833
  432.5000    77.3615    13.8859    13.4525
  433.0000    75.9892    13.8001    13.3229
  433.5000    75.7177    13.7065    13.1946
  434.0000    75.4146    13.5648    13.0675
  434.5000    75.8107    13.4094    12.9417
  435.0000    78.2167    13.2558    12.8176
  435.5000    80.8469    13.1041    12.6795
  436.0000    83.2501    12.9541    12.4522
  436.5000    83.6265    12.8056    12.2276
  437.0000    84.0449    12.6317    12.0074
  437.5000    84.4648    12.4086    11.7912
  438.0000    84.3589    12.1894    11.5789
  438.5000    82.9520    11.9366    11.3705
  439.0000    81.1112    11.4992    11.1870
  439.5000    79.4580    11.0778    11.0430
  440.0000    80.7266    10.6320    10.9008
  440.5000    82.9480    10.1374    10.7605
  441.0000    84.9687     9.5937    10.6208
  441.5000    85.9142     8.7772    10.5192
  442.0000    86.8827     8.0326     9.7129
  442.5000    87.8405     7.3990     8.9658
  443.0000    88.1122     6.9954     7.9750
  443.5000    86.4830     6.6224     6.7552
  444.0000    85.1047     6.5586     5.7210
  444.5000    86.4388     6.6161     5.3761
  445.0000    88.5920     6.6556     5.6454
  445.5000    93.7451     6.8118     6.1349
  446.0000  -999.2500     7.3538     6.6669
  446.5000  -999.2500     7.9388     7.3187
  447.0000  -999.2500     8.5704     8.0484
  447.5000  -999.2500     9.4826     8.8758
  448.0000  -999.2500    10.1474     9.6353
  448.5000  -999.2500    10.8111    10.4040
  449.0000  -999.2500    11.1903    10.8884
  449.5000  -999.2500    11.4291    11.0149
  450.0000  -999.2500    11.6724    11.2162
  450.5000  -999.2500    11.7838    11.4247
  451.0000  -999.2500    12.2304    11.6389
  451.5000  -999.2500    12.5894    11.8568
  452.0000  -999.2500    12.3343    12.0830
  452.5000  -999.2500    12.1417    12.3246
  453.0000  -999.2500    11.9520    12.6192
  453.5000  -999.2500    11.7642    12.9207
  454.0000  -999.2500    11.5613    13.2302
  454.5000  -999.2500    11.6739    13.5446
  455.0000  -999.2500    11.6734    13.7976
  455.5000  -999.2500  -999.2500    14.1084
  456.0000  -999.2500  -999.2500    14.4255
  456.5000  -999.2500  -999.2500    14.7825
  457.0000  -999.2500  -999.2500    14.8333
  457.5000  -999.2500  -999.2500    14.8857
  458.0000  -999.2500  -999.2500    14.9224
