~VERSION INFORMATION
 VERS.                2.0:   CWLS LOG ASCII STANDARD - VERSION 2.0
 WRAP.                 NO:   ONE LINE PER DEPTH STEP
~WELL INFORMATION
#MNEM.UNIT      DATA TYPE    INFORMATION
#----------   ------------   ------------------------------
 STRT.F           34.0000:   START DEPTH
 STOP.F          662.0000:   STOP DEPTH
 STEP.F            0.5000:   STEP LENGTH
 NULL.          -999.2500:   NO VALUE
 COMP. LAWRENCE/ALLISON INC:   COMPANY
 WELL.   68-66 STX #34-34:   WELL
 FLD .             TEAPOT:   FIELD
 LOC .      S34 T39N R78W:   LOCATION
 CNTY.            NATRONA:   COUNTY
 STAT.            WYOMING:   STATE
 CTRY. UNITED STATES OF AMERICA:   COUNTRY
 SRVC.           Gearhart:   SERVICE COMPANY
 DATE.        24-AUG-1987:   LOGDATE
 API .       490251115000:   API NUMBER
~CURVE INFORMATION
#MNEM.UNIT       API CODE    CURVE DESCRIPTION
#----------   ------------   ------------------------------
 DEPT.F                  :   
 GRR .GAPI   07 310 01 00:   GAMMA RAY FROM RES. LOG
 ILD .OHMM   07 120 46 00:   INDUCTION LOG DEEP
 ILM .OHMM   07 120 44 00:   INDUCTION LOG MEDIUM
~PARAMETER INFORMATION
#MNEM.UNIT          VALUE    DESCRIPTION
#----------   ------------   ------------------------------
 PD  .                 GL:   PERMANENT DATUM
 EPD .F              5089:   ELEVATION PERMANENT DATUM
 LMF .                 KB:   LOG MEASURED FROM
 DAPD.F                 8:   FEET ABOVE PERMANENT DATUM
 DMF .                 KB:   DRILLING MEASURED FROM
 EKB .F              5097:   KELLING BUSHING
 EDF .F              5095:   DRILLING FLOOR
 EGL .F              5089:   GROUND LEVEL
 DATE.            8-24-87:   RUN DATE
 RUN .                  1:   RUN NUMBER
 DD  .F               675:   DEPTH DRILLER
 DL  .F               670:   DEPTH LOGGER
 BLI .F               662:   BOTTOM LOG INTERVAL
 TLI .F                30:   TOP LOG INTERVAL
 CS  .IN            8.625:   CASING SIZE
 CBD .F                48:   CASING BOTTOM DRILLER
 CBL .F                48:   CASING BOTTOM LOGGER
 BS  .IN            7.875:   BIT SIZE
 BSD .F               675:   BIT SIZE AT DEPTH
 DFT .                AIR:   DRILLING FLUID TYPE
 TCS .HRS            1300:   TIME CURCULATED STOPPED
 TLAB.HRS            1712:   TIME LOGGER AT BOTTOM
 MRT .F                80:   MAXIMUM RECORDED TEMPERATURE
 LUN .               7597:   LOGGING UNIT NUMBER
 LUL .           GILLETTE:   LOGGING UNIT LOCATION
 ENGI.         WEATHERMON:   RECORDING ENGINEER
 WITN.             STRONG:   WITNESSED BY
 CLNT.            A2DTECH:   CLIENT CODE
 ORIG.       2", 5" PRINT:   ORIGIN OF DATA
 UWI .       490251115000:   UNIQUE WELL ID
 DICO. A2D Technologies, Inc.:   DIGITIZING COMPANY
~OTHER INFORMATION
~A   DEPT       GRR       ILD        ILM   
# ...
  580.0000    93.3242    16.8568    17.4939
  580.5000    93.7285    16.5901    17.2172
  581.0000    96.1081    16.3101    16.9266
  581.5000    98.4201    16.2237    16.8370
  582.0000    98.8418    16.1345    16.7444
  582.5000    96.5323    16.0443    16.6507
  583.0000    95.4229    15.9126    16.5141
  583.5000    97.1528    15.7540    16.3495
  584.0000    98.8624    15.5970    16.1865
  584.5000   100.5397    15.4426    16.0252
  585.0000   100.4137    14.9307    15.5843
  585.5000   100.2437    14.3965    15.1243
  586.0000   101.3875    13.8824    14.6779
  586.5000   102.5779    13.5225    14.2447
  587.0000   103.3083    13.2675    13.8243
  587.5000   102.3656    13.0636    13.5597
  588.0000    99.7284    12.8200    13.3040
  588.5000    97.0973    12.5778    13.0532
  589.0000    96.5579    12.3406    12.8071
  589.5000    96.8817    12.1080    12.5656
  590.0000    97.7440    11.9662    12.4185
  590.5000    98.6075    11.8921    12.3416
  591.0000    99.3415    11.8184    12.2653
  591.5000    98.3705    11.7454    12.1894
  592.0000    97.3904    11.6779    12.1193
  592.5000    96.5314    11.7313    12.1748
  593.0000    96.5474    11.7906    12.2363
  593.5000    96.6466    11.8506    12.2985
  594.0000    97.8856    11.9108    12.3610
  594.5000    99.4379    11.9712    12.4237
  595.0000   101.5314    12.0320    12.4867
  595.5000   103.6166    12.0931    12.5502
  596.0000   105.6932    12.1543    12.6137
  596.5000   107.5847    12.2328    12.6952
  597.0000   107.8541    12.1954    12.6564
  597.5000   108.1778    12.1441    12.6032
  598.0000   108.1241    12.0927    12.5498
  598.5000   107.4388    12.0415    12.4966
  599.0000   105.1111    11.9906    12.4438
  599.5000   103.2841    11.9399    12.3912
  600.0000   102.7673    11.8894    12.3388
  600.5000   102.2622    11.8391    12.2866
  601.0000   103.3398    11.7875    12.2331
  601.5000   104.5505    11.7285    12.1717
  602.0000   105.9237    11.6678    12.1088
  602.5000   107.9415    11.6075    12.0462
  603.0000   109.3447    11.5475    11.9839
  603.5000   110.6967    11.4877    11.9219
  604.0000   111.4843    11.4284    11.8603
  604.5000   111.7845    11.3583    11.7877
  605.0000   111.3822    11.3681    11.7978
  605.5000   110.9987    11.3801    11.8102
  606.0000   110.9500    11.3923    11.8229
  606.5000   111.6627    11.4045    11.8355
  607.0000   112.3536    11.4166    11.8481
  607.5000   112.5071    11.4288    11.8608
  608.0000   111.8579    11.4412    11.8736
  608.5000   109.9261    11.4537    11.8866
  609.0000   109.7968    11.4629    11.8962
  609.5000   111.4424    11.3476    11.7766
  610.0000   113.4227    11.2434    11.6684
  610.5000   115.3805    11.1402    11.5612
  611.0000   115.4660    11.0386    11.4558
  611.5000   113.5867    10.9434    11.3571
  612.0000   111.7093    10.7766    11.1840
  612.5000   109.8385    10.6220    11.0235
  613.0000   107.9216    10.4703    10.8660
  613.5000   109.7426    10.3416    10.7329
  614.0000   112.8726    10.2921    10.6832
  614.5000   114.5405    10.2429    10.6336
  615.0000   115.6699    10.1940    10.5846
  615.5000   115.8923    10.1452    10.5355
  616.0000   117.0925    10.0966    10.4867
  616.5000   118.7487     9.9494    10.3819
  617.0000   119.1559     9.6648    10.0770
  617.5000   119.4648     9.3883     9.7810
  618.0000   123.6457     9.1198     9.4938
  618.5000   127.4648     8.8589     9.2149
  619.0000   128.1642     8.6054     8.9446
  619.5000   124.7399     8.3593     8.6841
  620.0000   122.4475     8.1338     8.4413
  620.5000   122.4636     7.3346     7.8653
  621.0000   123.2848     6.6516     7.3572
  621.5000   124.5583     6.0322     6.8818
  622.0000   126.0045     5.4704     6.4372
  622.5000   130.0641     4.9751     6.0213
  623.0000   138.1118     4.7473     5.8248
  623.5000   146.0342     4.7029     5.8950
  624.0000   149.9555     5.1465     5.9619
  624.5000   143.5128     5.5901     6.0257
  625.0000   133.7086     6.0690     6.5618
  625.5000   123.9220     6.5890     7.1567
  626.0000   120.8430     7.1536     7.8101
  626.5000   120.1651     7.7665     8.5214
  627.0000   119.8510     8.4319     9.3480
  627.5000   119.4410     9.1762     9.5230
  628.0000   118.8193     9.2868     9.7798
  628.5000   118.1932     9.4311     9.9496
  629.0000   117.6522     9.5775    10.0587
  629.5000   118.4533     9.7263    10.1689
  630.0000   119.2763     9.8774    10.2803
  630.5000   120.0984    10.0073    10.3856
  631.0000   120.2196    10.2011    10.5869
  631.5000   119.8522    10.3987    10.7916
  632.0000   119.8228    10.6000    11.0006
  632.5000   120.2443    10.8053    11.2137
  633.0000   120.6629    11.0008    11.4166
  633.5000   121.0849    11.1717    11.5939
  634.0000   121.5014    11.3452    11.7740
  634.5000   121.9421    11.5214    11.9569
  635.0000   121.1209    11.7004    12.1426
  635.5000   119.6805    11.8974    12.3471
  636.0000   117.1187    11.9393    12.3906
  636.5000   117.2443    11.9852    12.4382
  637.0000   119.2945    12.0313    12.4861
  637.5000   120.2683    12.0777    12.5342
  638.0000   117.4757    12.1201    12.5782
  638.5000   114.9689    12.1067    12.5643
  639.0000   117.0891    12.0944    12.5516
  639.5000   119.9843    12.0821    12.5388
  640.0000   119.9370    12.0698    12.5260
  640.5000   116.9216    12.0575    12.5132
  641.0000   113.8563    12.0452    12.5005
  641.5000   113.2602    12.0328    12.4876
  642.0000   114.8364    12.0202    12.4745
  642.5000   116.3672    12.0068    12.4606
  643.0000   116.9618    11.9076    12.3577
  643.5000   116.4288    11.8077    12.2540
  644.0000   116.3328    11.7082    12.1507
  644.5000   118.8894    11.6095    12.0483
  645.0000   121.2389    11.5118    11.9469
  645.5000   121.0457    11.4159    11.8470
  646.0000   116.5203    11.2454    11.6959
  646.5000  -999.2500    10.9796    11.4789
  647.0000  -999.2500    10.7195    11.2655
  647.5000  -999.2500    10.5229    11.0561
  648.0000  -999.2500    10.4486    10.8435
  648.5000  -999.2500    10.3270    10.7088
  649.0000  -999.2500    10.2026    10.5709
  649.5000  -999.2500    10.0797    10.4349
  650.0000  -999.2500     9.9582    10.3006
  650.5000  -999.2500     9.8382    10.1680
  651.0000  -999.2500     9.7197    10.0372
  651.5000  -999.2500     9.5009     9.9080
  652.0000  -999.2500     9.2688     9.7805
  652.5000  -999.2500     9.0914     9.6546
  653.0000  -999.2500     9.0914     9.5230
  653.5000  -999.2500     9.0914     9.3894
  654.0000  -999.2500     9.0914     9.2617
  654.5000  -999.2500     9.0914     9.3047
  655.0000  -999.2500     9.0916     9.3467
  655.5000  -999.2500     9.0914     9.3893
  656.0000  -999.2500     9.0914     9.4351
  656.5000  -999.2500     8.9237     9.3243
  657.0000  -999.2500     8.6954     9.2027
  657.5000  -999.2500     8.4732     9.0828
  658.0000  -999.2500     8.2079     8.9646
  658.5000  -999.2500     8.2102     8.8480
  659.0000  -999.2500     8.2096     8.7329
  659.5000  -999.2500     8.2096     8.6795
  660.0000  -999.2500     8.2096     8.7298
  660.5000  -999.2500     8.2096     8.7674
  661.0000  -999.2500     8.2096     8.8052
  661.5000  -999.2500     8.2096     8.8420
  662.0000  -999.2500     8.2096     9.2971
