~VERSION INFORMATION
 VERS.                2.0:   CWLS LOG ASCII STANDARD - VERSION 2.0
 WRAP.                 NO:   ONE LINE PER DEPTH STEP
~WELL INFORMATION
#MNEM.UNIT      DATA TYPE    INFORMATION
#----------   ------------   ------------------------------
 STRT.F           90.0000:   START DEPTH
 STOP.F          799.0000:   STOP DEPTH
 STEP.F            0.5000:   STEP LENGTH
 NULL.          -999.2500:   NO VALUE
 COMP. U S NAVY-INTEX OIL:   COMPANY
 WELL. RES 3 TEAPOT DOM #83S-34:   WELL
 FLD .             TEAPOT:   FIELD
 LOC .      S34 T39N R78W:   LOCATION
 CNTY.            NATRONA:   COUNTY
 STAT.            WYOMING:   STATE
 CTRY. UNITED STATES OF AMERICA:   COUNTRY
 SRVC.       Schlumberger:   SERVICE COMPANY
 DATE.        15-FEB-1961:   LOGDATE
 API .       490250655100:   API NUMBER
~CURVE INFORMATION
#MNEM.UNIT       API CODE    CURVE DESCRIPTION
#----------   ------------   ------------------------------
 DEPT.F                  :   
 ASN .OHMM   05 041 16 00:   AMPLIFIED SHORT NORMAL 16"
 ILD .OHMM   05 120 46 00:   INDUCTION LOG DEEP RESISTIVITY.
 CILD.MMHO   05 110 46 00:   CONDUCTIVITY INDUCTION LOG DEEP
 SPR .MV     05 010 01 00:   SPONTANEOUS POTENTIAL FROM RES.
 GR  .GAPI   30 310 01 00:   GAMMA RAY
~PARAMETER INFORMATION
#MNEM.UNIT          VALUE    DESCRIPTION
#----------   ------------   ------------------------------
 PD  .                 GL:   PERMANENT DATUM
 EPD .F              5090:   ELEVATION PERMANENT DATUM
 LMF .                 KB:   LOG MEASURED FROM
 DAPD.F                 4:   FEET ABOVE PERMANENT DATUM
 DMF .                 KB:   DRILLING MEASURED FROM
 EKB .F              5094:   KELLING BUSHING
 EGL .F              5090:   GROUND LEVEL
 DATE.        15-FEB-1961:   RUN DATE
 RUN .                  1:   RUN NUMBER
 DD  .F               800:   DEPTH DRILLER
 DL  .F               800:   DEPTH LOGGER
 BLI .F               799:   BOTTOM LOG INTERVAL
 TLI .F               100:   TOP LOG INTERVAL
 CBD .F                12:   CASING BOTTOM DRILLER
 BS  .IN            7.875:   BIT SIZE
 BSD .F               800:   BIT SIZE AT DEPTH
 DFT .       OIL EMULSION:   DRILLING FLUID TYPE
 DFD .                9.5:   DRILLING FLUID DENSITY
 DFV .                 50:   DRILLING FLUID VISCOSITY
 RMS .OHMM           1.25:   RESISTIVITY MUD SAMPLE
 MST .F                57:   MUD SAMPLE TEMPERATURE
 RMB .OHMM           0.98:   RESISTIVITY MUD AT BHT
 BHT .F                73:   BOTTOM HOLE TEMPERATURE
 TCS .HRS               1:   TIME CURCULATED STOPPED
 LUN .               2572:   LOGGING UNIT NUMBER
 LUL .                 NC:   LOGGING UNIT LOCATION
 ENGI.            EARNEST:   RECORDING ENGINEER
 WITN.          JORGENSEN:   WITNESSED BY
 CLNT.            A2DTECH:   CLIENT CODE
 ORIG.       2" ,5" PRINT:   ORIGIN OF DATA
 UWI .       490250655100:   UNIQUE WELL ID
 DICO. A2D Technologies, Inc.:   DIGITIZING COMPANY
~OTHER INFORMATION
~A   DEPT        ASN        ILD      CILD       SPR         GR   
# ...
  395.0000    12.1838     9.4765   109.7214   -40.4586  -999.2500
  395.5000    11.9923     9.5532   109.7110   -40.4579  -999.2500
  396.0000    11.8675     9.5542   109.6997   -40.6076  -999.2500
  396.5000    11.8118     9.5553   109.6879   -40.6067  -999.2500
  397.0000    11.7380     9.4812   109.6772   -40.6060  -999.2500
  397.5000    11.7395     9.4823   109.6659   -40.6491  -999.2500
  398.0000    11.7410     9.5587   110.4051   -40.7549  -999.2500
  398.5000    11.8178     9.5599   111.1449   -40.7541  -999.2500
  399.0000    11.9932     9.6094   112.6372   -40.7534  -999.2500
  399.5000    12.1220     9.6616   113.3745   -40.7526  -999.2500
  400.0000    12.3497     9.7139   113.1216   -40.7058  -999.2500
  400.5000    12.4100     9.7139   112.8668   -40.5892  -999.2500
  401.0000    12.4852     9.7134   112.6101   -40.4495  -999.2500
  401.5000    12.5753     9.5633   111.1111   -40.4997  -999.2500
  402.0000    12.3991     9.4880   110.8558   -40.5985  -999.2500
  402.5000    12.2728     9.4880   109.6096   -40.5976  -999.2500
  403.0000    11.9729     9.4880   111.1111   -40.7990  -999.2500
  403.5000    11.7963     9.4880   111.3701   -40.8970  -999.2500
  404.0000    11.6717     9.4880   111.8719   -41.0465  -999.2500
  404.5000    11.8223     9.4127   112.6126   -41.1962  -999.2500
  405.0000    11.9767     9.3850   112.6126   -41.3484  -999.2500
  405.5000    12.3549     9.3373   112.6126   -41.4955  -999.2500
  406.0000    12.9518     9.3373   112.6126   -41.6451  -999.2500
  406.5000    13.1291     9.3373   112.6126   -41.7947  -999.2500
  407.0000    13.0989     9.4162   112.6126   -41.9442  -999.2500
  407.5000    12.8012     9.4880   112.6126   -41.9975  -999.2500
  408.0000    12.5693     9.4880   112.6126   -42.0932  -999.2500
  408.5000    12.1192     9.4837   112.6339   -42.2427  -999.2500
  409.0000    11.7470     9.3373   114.1141   -42.2421  -999.2500
  409.5000    11.4386     9.3075   115.1389   -42.2461  -999.2500
  410.0000    11.1421     9.1014   115.6658   -42.3910  -999.2500
  410.5000    10.9940     8.7349   117.1171   -42.3902  -999.2500
  411.0000    10.8908     8.5231   118.1457   -42.3895  -999.2500
  411.5000    10.7623     8.2774   120.1778   -42.5390  -999.2500
  412.0000    10.5422     8.1325   122.3724   -42.5383  -999.2500
  412.5000    10.2880     8.0259   123.6863   -42.6880  -999.2500
  413.0000    10.0838     7.9001   125.4404   -42.6871  -999.2500
  413.5000     9.7139     7.7560   127.6276   -42.7434  -999.2500
  414.0000     9.9247     7.6486   130.1652   -42.8361  -999.2500
  414.5000     9.7733     7.5228   132.9554   -42.9856  -999.2500
  415.0000     9.5309     7.4548   135.8859   -42.9850  -999.2500
  415.5000     9.4729     7.4219   138.4272   -42.9920  -999.2500
  416.0000     9.4729     7.4548   139.7197   -43.1338  -999.2500
  416.5000     9.5072     7.4548   142.6426   -43.1331  -999.2500
  417.0000     9.8042     7.4885   143.2282   -43.2827  -999.2500
  417.5000    10.0026     7.5301   144.1441   -43.2818  -999.2500
  418.0000    10.2410     7.6054   141.1411   -43.2812  -999.2500
  418.5000    10.3460     7.7151   139.0465   -43.2805  -999.2500
  419.0000    10.5469     7.8409   136.5415   -43.4300  -999.2500
  419.5000    10.6928     7.9819   133.6336   -43.4293  -999.2500
  420.0000    10.7982     8.0924   131.5315   -43.4286  -999.2500
  420.5000    10.7629     8.1428   129.0266   -43.4831  -999.2500
  421.0000    10.5422     8.2831   127.6276   -43.5774  -999.2500
  421.5000    10.2248     8.2831   128.2357   -43.7271  -999.2500
  422.0000     9.9287     8.2078   129.9350   -43.8766  -999.2500
  422.5000     9.7139     8.2078   130.6306   -43.9373  -999.2500
  423.0000     9.7756     8.2445   132.4400   -44.0256  -999.2500
  423.5000     9.9575     8.2831   133.7512   -44.1751  -999.2500
  424.0000    10.2410     8.2831   135.8859   -44.1744  -999.2500
  424.5000    10.5294     8.3958   135.5743   -44.3241  -999.2500
  425.0000    10.7806     8.4337   135.0101   -44.4736  -999.2500
  425.5000    11.1446     8.5090   132.1321   -44.4729  -999.2500
  426.0000    11.3584     8.5843   131.0661   -44.6226  -999.2500
  426.5000    11.6783     8.5843   129.0629   -44.6217  -999.2500
  427.0000    11.8223     8.5843   127.6276   -44.6211  -999.2500
  427.5000    11.7150     8.5843   126.1261   -44.7707  -999.2500
  428.0000    11.5823     8.4950   124.5545   -44.7698  -999.2500
  428.5000    11.3705     8.4337   123.1231   -44.7692  -999.2500
  429.0000    11.1875     8.3584   122.0496   -44.7684  -999.2500
  429.5000    11.0545     8.2683   122.4462   -44.7676  -999.2500
  430.0000    10.6928     8.1325   123.1231   -44.7669  -999.2500
  430.5000    10.2933     8.1325   124.6246   -44.7815  -999.2500
  431.0000    10.0904     8.1481   125.4530   -45.0661  -999.2500
  431.5000    10.2410     8.2078   126.8769   -45.0654  -999.2500
  432.0000    10.3494     8.2078   127.9580   -45.0807  -999.2500
  432.5000    10.4750     8.2078   129.2104   -45.2143  -999.2500
  433.0000    10.5422     8.2078   129.8799   -45.2802  -999.2500
  433.5000    10.6175     8.2078   130.6306   -45.3632  -999.2500
  434.0000    10.6928     8.1325   131.4665   -45.5127  -999.2500
  434.5000    10.6928     8.1325   132.1321   -45.5794  -999.2500
  435.0000    10.6175     8.1325   132.1321   -45.6617  -999.2500
  435.5000    10.6086     8.1147   132.1321   -45.6608  -999.2500
  436.0000    10.5422     8.0572   132.1321   -45.8105  -999.2500
  436.5000    10.5079     8.0138   132.1321   -45.9602  -999.2500
  437.0000    10.4576     7.9819   132.1321   -45.9593  -999.2500
  437.5000    10.3916     7.9819   132.1321   -46.1090  -999.2500
  438.0000    10.3163     7.9819   131.7868   -46.1273  -999.2500
  438.5000    10.3066     7.9819   130.6306   -46.2579  -999.2500
  439.0000    10.2410     7.9819   130.6306   -46.2571  -999.2500
  439.5000    10.2059     8.0572   130.6306   -46.4068  -999.2500
  440.0000    10.1657     8.0572   131.4815   -46.4059  -999.2500
  440.5000    10.0904     8.0572   132.1321   -46.4053  -999.2500
  441.0000    10.0151     8.0572   132.8829   -46.4251  -999.2500
  441.5000    10.0046     8.0572   133.6336   -46.5541  -999.2500
  442.0000     9.9398     8.0572   133.6336   -46.5534  -999.2500
  442.5000     9.8645     8.0572   133.2770   -46.5526  -999.2500
  443.0000     9.7784     8.0572   132.8829   -46.5518  -999.2500
  443.5000     9.7139     8.0572   133.6336   -46.5511  -999.2500
  444.0000     9.7139     8.0572   133.6336   -46.5504  -999.2500
  444.5000     9.8003     8.0572   134.4957   -46.6999  -999.2500
  445.0000     9.9398     8.0572   135.1351   -46.6992  -999.2500
  445.5000    10.0881     8.0572   135.8859   -46.6985  -999.2500
  446.0000    10.2525     8.1325   136.0010   -46.8480  -999.2500
  446.5000    10.4669     8.1325   136.6366   -46.8474  -999.2500
  447.0000    10.5038     8.1325   136.2688   -46.8466  -999.2500
  447.5000    10.6175     8.1325   135.1351   -46.8458  -999.2500
  448.0000    10.6928     8.1325   135.1351   -46.8451  -999.2500
  448.5000    10.8053     8.0572   133.6336   -46.8444  -999.2500
  449.0000    10.9310     8.0572   132.8829   -46.8435  -999.2500
  449.5000    11.0693     8.0572   132.1321   -46.8429  -999.2500
  450.0000    11.1069     8.0572   132.1321   -46.8672  -999.2500
  450.5000    11.1446     8.0572   131.2550   -46.9917  -999.2500
  451.0000    11.1446     8.0572   130.6306   -46.9910  -999.2500
  451.5000    11.1066     8.0572   130.6306   -46.8399  -999.2500
  452.0000    11.0562     8.1325   130.6306   -46.8390  -999.2500
  452.5000    10.9187     8.1325   130.6306   -46.8383  -999.2500
  453.0000    10.9187     8.1325   130.6306   -46.8110  -999.2500
  453.5000    10.8434     8.1325   130.6306   -46.6864  -999.2500
  454.0000    10.7681     8.1325   130.6306   -46.6085  -999.2500
  454.5000    10.6540     8.0572   131.4040   -46.5346  -999.2500
  455.0000    10.5284     8.0296   132.1321   -46.5338  -999.2500
  455.5000    10.3916     7.8313   132.1321   -46.3827  -999.2500
