~VERSION INFORMATION
 VERS.                2.0:   CWLS LOG ASCII STANDARD - VERSION 2.0
 WRAP.                 NO:   ONE LINE PER DEPTH STEP
~WELL INFORMATION
#MNEM.UNIT      DATA TYPE    INFORMATION
#----------   ------------   ------------------------------
 STRT.F           88.0000:   START DEPTH
 STOP.F          991.0000:   STOP DEPTH
 STEP.F            0.5000:   STEP LENGTH
 NULL.          -999.2500:   NO VALUE
 COMP. US NAVY /INTEX OIL CO.:   COMPANY
 WELL.    NPR #3 #S-11 63:   WELL
 FLD .             TEAPOT:   FIELD
 LOC .      S11 T38N R78W:   LOCATION
 CNTY.            NATRONA:   COUNTY
 STAT.            WYOMING:   STATE
 CTRY. UNITED STATES OF AMERICA:   COUNTRY
 SRVC.       Schlumberger:   SERVICE COMPANY
 DATE.        24-JUL-1964:   LOGDATE
 API .       490250636200:   API NUMBER
~CURVE INFORMATION
#MNEM.UNIT       API CODE    CURVE DESCRIPTION
#----------   ------------   ------------------------------
 DEPT.F                  :   
 SPR .MV     05 010 01 00:   SPONTANEOUS POTENTIAL FROM RES.
 ASN .OHMM   05 041 16 00:   AMPLIFIED SHORT NORMAL 16"
 ILD .OHMM   05 120 46 00:   INDUCTION LOG DEEP
 CILD.MMHO   05 110 46 00:   CONDUCTIVITY INDUCTION LOG DEEP
 CALS.IN     60 280 50 00:   CALIPER FROM SONIC LOG
 DT  .US/F   60 520 33 00:   INTERVAL TRANSIT TIME
 GR  .GAPI   30 310 01 00:   GAMMA RAY
~PARAMETER INFORMATION
#MNEM.UNIT          VALUE    DESCRIPTION
#----------   ------------   ------------------------------
 PD  .                 GL:   PERMANENT DATUM
 LMF .                 KB:   LOG MEASURED FROM
 DAPD.F                 5:   FEET ABOVE PERMANENT DATUM
 DMF .                 KB:   DRILLING MEASURED FROM
 EKB .F              5914:   KELLING BUSHING
 DATE.          7-24-1964:   RUN DATE
 RUN .                  1:   RUN NUMBER
 DD  .F               990:   DEPTH DRILLER
 DL  .F               992:   DEPTH LOGGER
 BLI .F               991:   BOTTOM LOG INTERVAL
 TLI .F               990:   TOP LOG INTERVAL
 CS  .IN            8.625:   CASING SIZE
 CBD .F                15:   CASING BOTTOM DRILLER
 BS  .IN             6.75:   BIT SIZE
 BSD .F               990:   BIT SIZE AT DEPTH
 DFT .            GEL OIL:   DRILLING FLUID TYPE
 DFD .                9.2:   DRILLING FLUID DENSITY
 DFV .                 47:   DRILLING FLUID VISCOSITY
 MSS .            MUD PIT:   MUD SAMPLE SOURCE
 RMS .OHMM           1.24:   RESISTIVITY MUD SAMPLE
 MST .F                75:   MUD SAMPLE TEMPERATURE
 RMF .OHMM           .801:   RESISTIVITY MUD FILTRATE SAMPLE
 MFST.F                80:   MUD FILTRATE SAMPLE TEMPERATURE
 MFSS.                 FP:   MUD FILTRATE SAMPLE SOURCE
 RMB .OHMM           1.09:   RESISTIVITY MUD AT BHT
 BHT .F                85:   BOTTOM HOLE TEMPERATURE
 TCS .HRS              .5:   TIME CURCULATED STOPPED
 MRT .F                85:   MAXIMUM RECORDED TEMPERATURE
 LUN .               2572:   LOGGING UNIT NUMBER
 LUL .                 MC:   LOGGING UNIT LOCATION
 ENGI.             BOWLER:   RECORDING ENGINEER
 WITN.          JORGENSEN:   WITNESSED BY
 CLNT.            A2DTECH:   CLIENT CODE
 ORIG.      2" & 5" PRINT:   ORIGIN OF DATA
 UWI .       490250636200:   UNIQUE WELL ID
 DICO. A2D Technologies, Inc.:   DIGITIZING COMPANY
~OTHER INFORMATION
~A   DEPT      SPR          ASN        ILD      CILD      CALS         DT         GR   
# ...
  952.5000   -30.4793    12.3718    11.3211    90.8955     6.6859    95.3984    28.4639
  953.0000   -30.3255    12.2974    11.3233    91.6119     6.6859    95.9940    35.2410
  953.5000   -30.3169    12.2230    11.3255    91.5821     6.6859    96.6642    38.2530
  954.0000   -30.1628    12.1487    11.3277    91.5522     6.6859    97.2599    39.9277
  954.5000   -30.0072    12.0743    11.1061    92.2633     6.6859    96.2174    37.5000
  955.0000   -29.9987    12.0750    10.8112    92.2342     6.6859    96.1430    28.0120
  955.5000   -29.8448    12.0005    10.6645    92.9586     6.6859    96.0685    26.2048
  956.0000   -29.6910    12.0012    10.5179    93.6758     6.6859    95.7707    37.0482
  956.5000   -29.5371    12.0018    10.4457    94.3930     6.6859    95.3239    36.4304
  957.0000   -29.3833    12.0024    10.3651    94.3566     6.6859    94.9516    30.6518
  957.5000   -29.3748    12.0031    10.2268    95.0738     6.6859    95.1154    23.2427
  958.0000   -29.3663    11.9286    10.1546    95.0447     6.6859    95.3239    19.9034
  958.5000   -29.3575    11.8544    10.1573    95.7618     6.6859    95.1005    16.1748
  959.0000   -29.2018    11.7800    10.0845    95.7255     6.6859    94.8771    15.3614
  959.5000   -29.1933    11.7806    10.0123    96.4426     6.6859    94.7282    22.4920
  960.0000   -29.0394    11.7060    10.0150    96.4135     6.6859    94.1325    22.8916
  960.5000   -28.7402    11.7068    10.0916    96.3844     6.6859    93.6113    23.4940
  961.0000   -28.4410    11.7074    10.0938    96.3553     6.6859    93.5369    24.5482
  961.5000   -27.9965    11.7047    10.1704    96.3262     6.6859    93.4624    33.4337
  962.0000   -27.5519    11.6336    10.1726    96.2947     6.6859    93.0156    34.3373
  962.5000   -27.5434    11.6343    10.2497    96.2681     6.6859    92.2710    28.9157
  963.0000   -27.5349    11.5598    10.2518    96.2388     6.6859    92.4944    26.5060
  963.5000   -27.5261    11.4854    10.2540    96.2090     6.6859    92.9412    26.6566
  964.0000   -27.5158    11.4112    10.2562    96.1791     6.7003    92.8667    27.1084
  964.5000   -27.5073    11.4117    10.2584    96.1444     6.7147    92.2665    29.0663
  965.0000   -27.4988    11.4123    10.2605    96.1194     6.7003    91.9732    27.1084
  965.5000   -27.3449    11.4129    10.2627    96.0862     6.7003    91.8243    25.3012
  966.0000   -27.1911    11.4135    10.1905    96.0571     6.7003    91.6754    32.6807
  966.5000   -27.0372    11.4141    10.1927    96.7815     6.7003    91.5264  -999.2500
  967.0000   -26.8834    11.4148    10.1954    96.7451     6.7003    91.4520  -999.2500
  967.5000   -26.7295    11.4154    10.1976    96.7160     6.6996    91.3775  -999.2500
  968.0000   -26.5756    11.4160    10.1997    96.6866     6.6981    91.1541  -999.2500
  968.5000   -26.4215    11.4166    10.2019    96.6568     6.6965    91.0052  -999.2500
  969.0000   -26.2659    11.4172    10.2041    96.6215     6.6950    90.9308  -999.2500
  969.5000   -26.2574    11.4177    10.2063    96.5924     6.6935    90.8563  -999.2500
  970.0000   -26.2489    11.4183    10.2084    96.5633     6.6920    90.8563  -999.2500
  970.5000   -26.2404    11.4189    10.1362    96.5342     6.6904    90.8563  -999.2500
  971.0000   -26.2319    11.4195    10.1384    96.5051     6.6889    90.8563  -999.2500
  971.5000   -26.2234    11.4201    10.1407    97.2295     6.6874    90.8563  -999.2500
  972.0000   -26.2149    11.4208    10.1433    97.9403     6.6858    90.8563  -999.2500
  972.5000   -26.2064    11.4214    10.1455    97.9103     6.6843    90.8563  -999.2500
  973.0000   -26.1977    11.4220    10.1476    97.8806     6.6828    90.8563  -999.2500
  973.5000   -26.0419    11.4226    10.1498    98.5984     6.6813    90.8563  -999.2500
  974.0000   -25.8880    11.3480    10.0776    98.5620     6.6797    90.8563  -999.2500
  974.5000   -25.7342    11.2737    10.0798    98.5329     6.6782    90.8563  -999.2500
  975.0000   -25.5803    11.1994    10.0819    98.5038     6.6767    90.9308  -999.2500
  975.5000   -25.5718    11.2000    10.0841    98.4747     6.6751    91.1541  -999.2500
  976.0000   -25.4180    11.2006    10.0863    98.4456     6.6736    91.4520  -999.2500
  976.5000   -25.2641    11.2012    10.0886    98.4165     6.6721    91.6009  -999.2500
  977.0000   -25.1103    11.2019    10.0912    98.3874     6.6715    91.4520  -999.2500
  977.5000   -25.1018    11.2025    10.0934    98.3582     6.6715    91.0797  -999.2500
  978.0000   -25.0930    11.2949    10.0955    98.3283     6.6715    90.5584  -999.2500
  978.5000   -25.0827    11.4286    10.0977    98.2929     6.6715    90.1117  -999.2500
  979.0000   -25.0742    11.4291    10.0999    98.2638     6.6715    89.8883  -999.2500
  979.5000   -25.0657    11.5047    10.0271    98.2347     6.6715    90.0372  -999.2500
  980.0000   -25.0571    11.4303    10.0298    98.2056     6.6715    90.3351  -999.2500
  980.5000   -25.0486    11.2060    10.0320    98.1765     6.6715    91.0052  -999.2500
  981.0000   -24.8948    11.0512     9.9598    98.9009     6.6715    90.8563  -999.2500
  981.5000   -24.8863    10.8941     9.8876   100.3571     6.6715    91.1541  -999.2500
  982.0000   -24.7324    10.7580     9.6671   101.8205     6.6715    92.0477  -999.2500
  982.5000   -24.7238    10.6086     9.4460   102.5377     6.6715    91.9732  -999.2500
  983.0000   -24.7151    10.5343     9.2994   104.0011     6.6715    91.8987  -999.2500
  983.5000   -24.7048    10.4599     9.1522   104.7183     6.6571    91.8243  -999.2500
  984.0000   -24.5510    10.3105     9.0800   105.4282     6.6138    91.8987  -999.2500
  984.5000   -24.2518    10.2362     8.9339   106.1526     6.5418    91.8987  -999.2500
  985.0000   -24.0979    10.0870     8.9361   106.8625     6.4841    92.0477  -999.2500
  985.5000   -23.9441    10.0126     8.8638   106.8334     6.4697    92.2710  -999.2500
  986.0000   -23.7902    10.0317     8.8661   106.8043     6.5308    92.5003  -999.2500
  986.5000   -23.6364    10.0507     8.8687   106.7752     6.9354    92.6433  -999.2500
  987.0000   -23.6279    10.0698     8.8709   107.4925     6.9020    92.7178  -999.2500
  987.5000   -23.4618    10.0889     8.7981   107.4627  -999.2500  -999.2500  -999.2500
  988.0000   -23.1727    10.1079     8.8009   107.4269  -999.2500  -999.2500  -999.2500
  988.5000   -23.0188    10.0913     8.8774   107.3978  -999.2500  -999.2500  -999.2500
  989.0000   -22.7196     9.9719     8.8796   107.3687  -999.2500  -999.2500  -999.2500
  989.5000   -22.4204     9.8226     8.8818   107.3396  -999.2500  -999.2500  -999.2500
  990.0000   -22.4119     9.5983     8.8840   107.3105  -999.2500  -999.2500  -999.2500
  990.5000   -22.2581     9.2990     8.8117   106.5352  -999.2500  -999.2500  -999.2500
  991.0000   -22.1042     9.0447     8.8145   106.5061  -999.2500  -999.2500  -999.2500
