~VERSION INFORMATION
 VERS.                2.0:   CWLS LOG ASCII STANDARD - VERSION 2.0
 WRAP.                 NO:   ONE LINE PER DEPTH STEP
~WELL INFORMATION
#MNEM.UNIT      DATA TYPE    INFORMATION
#----------   ------------   ------------------------------
 STRT.F            0.0000:   START DEPTH
 STOP.F         1110.0000:   STOP DEPTH
 STEP.F            0.5000:   STEP LENGTH
 NULL.          -999.2500:   NO VALUE
 COMP. FENIX & SCISSON INC:   COMPANY
 WELL. NAVAL PETROLEUM RESERVE 3 SX-1 #63-14:   WELL
 FLD .       TEA POT DOME:   FIELD
 LOC .      S14 T38N R78W:   LOCATION
 CNTY.            NATRONA:   COUNTY
 STAT.            WYOMING:   STATE
 CTRY. UNITED STATES OF AMERICA:   COUNTRY
 SRVC.            Unknown:   SERVICE COMPANY
 DATE.        15-APR-1978:   LOGDATE
 API .       490251061500:   API NUMBER
~CURVE INFORMATION
#MNEM.UNIT       API CODE    CURVE DESCRIPTION
#----------   ------------   ------------------------------
 DEPT.F                  :   
 NPHI.DEC    42 890 03 00:   NEUTRON POROSITY SANDSTONE
 GRD .GAPI   45 310 01 00:   GAMMA RAY FROM DENSITY LOG
 CALD.IN     45 280 60 00:   CALIPER FROM DENSITY LOG
 RHOB.G/C3   45 350 01 00:   BULK DENSITY
 DPHI.DEC    45 890 12 00:   DENSITY POROSITY SANDSTONE
 CORR.G/C3   45 356 01 00:   DENSITY CORRECTION
 SPR .MV     05 010 01 00:   SPONTANEOUS POTENTIAL FROM RES.
 SN  .OHMM   05 040 16 00:   SHORT NORMAL 16"
 ILD .OHMM   05 120 46 00:   INDUCTION LOG DEEP
~PARAMETER INFORMATION
#MNEM.UNIT          VALUE    DESCRIPTION
#----------   ------------   ------------------------------
 PD  .                 GL:   PERMANENT DATUM
 EPD .F              5253:   ELEVATION PERMANENT DATUM
 LMF .                 KB:   LOG MEASURED FROM
 DAPD.F                 4:   FEET ABOVE PERMANENT DATUM
 DMF .                 KB:   DRILLING MEASURED FROM
 EKB .F              5257:   KELLING BUSHING
 EGL .F              5253:   GROUND LEVEL
 DATE.          4-15-1978:   RUN DATE
 RUN .                  1:   RUN NUMBER
 DD  .F              1095:   DEPTH DRILLER
 DL  .F              1102:   DEPTH LOGGER
 BLI .F              1100:   BOTTOM LOG INTERVAL
 TLI .F               850:   TOP LOG INTERVAL
 CS  .IN            9.625:   CASING SIZE
 CBD .F                40:   CASING BOTTOM DRILLER
 CBL .F                40:   CASING BOTTOM LOGGER
 BS  .IN            7.875:   BIT SIZE
 BSD .F              1095:   BIT SIZE AT DEPTH
 DFT .                KCL:   DRILLING FLUID TYPE
 DFD .                8.6:   DRILLING FLUID DENSITY
 DFV .                 30:   DRILLING FLUID VISCOSITY
 DFPH.                 10:   DRILLING FLUID PH
 DFL .                  8:   DRILLING FLUID LOSS
 MSS .           FLOWLINE:   MUD SAMPLE SOURCE
 RMS .OHMM            .46:   RESISTIVITY MUD SAMPLE
 MST .F                58:   MUD SAMPLE TEMPERATURE
 RMF .OHMM             .5:   RESISTIVITY MUD FILTRATE SAMPLE
 MFST.F                60:   MUD FILTRATE SAMPLE TEMPERATURE
 RMC .OHMM             .5:   RESISTIVITY MUD CAKE
 MCST.F                60:   MUD CAKE SAMPLE TEMPERATURE
 MFSS.           MEASURED:   MUD FILTRATE SAMPLE SOURCE
 RMB .OHMM            .33:   RESISTIVITY MUD AT BHT
 BHT .F                80:   BOTTOM HOLE TEMPERATURE
 TCS .HRS               6:   TIME CURCULATED STOPPED
 MRT .F                80:   MAXIMUM RECORDED TEMPERATURE
 LUN .               2958:   LOGGING UNIT NUMBER
 LUL .               CASP:   LOGGING UNIT LOCATION
 ENGI.             MILLER:   RECORDING ENGINEER
 WITN.           MCGINLEY:   WITNESSED BY
 CLNT.            A2DTECH:   CLIENT CODE
 ORIG.      2" & 5" PRINT:   ORIGIN OF DATA
 UWI .       490251061500:   UNIQUE WELL ID
 DICO. A2D Technologies, Inc.:   DIGITIZING COMPANY
~OTHER INFORMATION
~A    DEPT    NPHI         GRD      CALD       RHOB       DPHI       CORR        SPR         SN        ILD   
# ...
   36.5000  -999.2500    75.5129     8.2197  -999.2500  -999.2500  -999.2500  -999.2500  -999.2500  -999.2500
   37.0000  -999.2500    78.7668     8.1297  -999.2500  -999.2500  -999.2500  -999.2500  -999.2500  -999.2500
   37.5000  -999.2500    79.4971     8.0369  -999.2500  -999.2500  -999.2500  -999.2500  -999.2500  -999.2500
   38.0000  -999.2500    79.5281     8.0281  -999.2500  -999.2500  -999.2500  -999.2500  -999.2500  -999.2500
   38.5000  -999.2500    80.5676     8.0415  -999.2500  -999.2500  -999.2500  -999.2500  -999.2500  -999.2500
   39.0000  -999.2500    83.4182     8.0573  -999.2500  -999.2500  -999.2500  -999.2500  -999.2500  -999.2500
   39.5000  -999.2500    84.2614     7.9776  -999.2500  -999.2500  -999.2500  -999.2500  -999.2500  -999.2500
   40.0000  -999.2500    85.4787     7.8763  -999.2500  -999.2500  -999.2500  -999.2500  -999.2500  -999.2500
   40.5000  -999.2500    87.3981     7.8093  -999.2500  -999.2500    -0.3979  -999.2500  -999.2500  -999.2500
   41.0000  -999.2500    87.2307     7.7621  -999.2500  -999.2500    -0.3979  -999.2500  -999.2500  -999.2500
   41.5000  -999.2500    83.2218     7.7133  -999.2500  -999.2500    -0.3721  -999.2500  -999.2500  -999.2500
   42.0000  -999.2500    79.3591     7.7630     2.1907     0.2405    -0.3305  -999.2500  -999.2500  -999.2500
   42.5000  -999.2500    75.8371     7.8551     2.3405     0.1653    -0.1734  -999.2500  -999.2500  -999.2500
   43.0000  -999.2500    76.4437     7.9296     2.3639     0.1630     0.0120  -999.2500  -999.2500  -999.2500
   43.5000  -999.2500    81.9755     7.8236     2.3602     0.1627     0.0688  -999.2500  -999.2500  -999.2500
   44.0000  -999.2500    88.0599     7.7181     2.3608     0.1622     0.0885  -999.2500  -999.2500  -999.2500
   44.5000  -999.2500    91.2115     7.6132     2.3625     0.1596     0.0819  -999.2500  -999.2500  -999.2500
   45.0000  -999.2500    92.1586     7.5081     2.3676     0.1561     0.0728  -999.2500  -999.2500  -999.2500
   45.5000  -999.2500    96.2979     7.3988     2.3709     0.1526     0.0660  -999.2500  -999.2500  -999.2500
   46.0000  -999.2500    95.9845     7.4701     2.3730     0.1507     0.0646  -999.2500  -999.2500  -999.2500
   46.5000  -999.2500    86.2492     7.5850     2.3723     0.1514     0.0631  -999.2500  -999.2500  -999.2500
   47.0000  -999.2500    84.1076     7.7010     2.3697     0.1521     0.0616  -999.2500  -999.2500  -999.2500
   47.5000  -999.2500    84.2691     7.8169     2.3670     0.1527     0.0601  -999.2500  -999.2500  -999.2500
   48.0000  -999.2500    84.8557     7.9318     2.3643     0.1581     0.0586  -999.2500  -999.2500  -999.2500
   48.5000  -999.2500    85.9390     8.0096     2.3629     0.1633     0.0570   -71.7956  -999.2500  -999.2500
   49.0000  -999.2500    88.9828     7.9598     2.3628     0.1604     0.0579   -78.3682     1.0658  -999.2500
   49.5000  -999.2500    91.9152     7.9114     2.3685     0.1500     0.0599   -78.4230     0.9355  -999.2500
   50.0000  -999.2500    92.2637     7.9567     2.3768     0.1479     0.0638   -78.4716     1.0451     5.0570
   50.5000  -999.2500    93.3730     8.0391     2.3891     0.1422     0.0684   -78.5217     1.1098     5.0637
   51.0000  -999.2500    91.4049     8.0099     2.4053     0.1351     0.0730   -78.5765     1.1964     5.0942
   51.5000  -999.2500    88.5768     7.8848     2.4033     0.1338     0.0776   -78.6311     1.3153     5.0760
   52.0000  -999.2500    89.6285     7.7613     2.3934     0.1397     0.0795   -78.6853     1.2768     5.0828
   52.5000  -999.2500    96.0211     7.8260     2.3857     0.1438     0.0717   -78.7446     1.2355     5.0896
   53.0000  -999.2500   101.3582     7.9124     2.3802     0.1480     0.0630   -78.9288     1.1955     5.0965
   53.5000  -999.2500   100.2455     7.9988     2.3747     0.1522     0.0542   -79.1218     1.1452     5.1033
   54.0000  -999.2500    98.6006     8.0765     2.3749     0.1522     0.0453   -79.3120     1.1452     5.1101
   54.5000  -999.2500    96.7023     8.0716     2.3797     0.1491     0.0449   -79.4760     1.1448     5.1170
   55.0000  -999.2500    96.1785     8.0650     2.3836     0.1472     0.0481   -80.8095     1.1672     5.1239
   55.5000  -999.2500    95.9788     8.0587     2.3788     0.1507     0.0504   -81.4217     1.2220     5.1308
   56.0000  -999.2500    92.4633     8.0525     2.3742     0.1538     0.0496   -81.5776     1.3468     5.1377
   56.5000  -999.2500    88.5824     8.0465     2.3834     0.1521     0.0490   -81.7206     1.5272     5.1445
   57.0000  -999.2500    88.0627     8.0395     2.3938     0.1424     0.0504   -81.7370     1.7318     5.1515
   57.5000  -999.2500    89.0688     8.0950     2.3941     0.1364     0.0555   -81.7368     1.9561     5.1584
   58.0000  -999.2500    89.0546     8.1869     2.3788     0.1510     0.0573   -81.7365     2.5609     5.1653
   58.5000  -999.2500    86.1881     8.2037     2.3548     0.1615     0.0541   -81.7365     3.4078     5.1722
   59.0000  -999.2500    86.9601     8.1356     2.3526     0.1670     0.0510   -81.7365     4.5348     5.1792
   59.5000  -999.2500    87.1234     8.0515     2.3520     0.1660     0.0521   -81.7365     6.0344     5.1861
   60.0000  -999.2500    86.2391     8.0176     2.3521     0.1650     0.0588   -81.7365     7.2951     5.1931
   60.5000  -999.2500    86.6916     7.9820     2.3523     0.1648     0.0663   -81.7365     6.9822     5.2001
   61.0000  -999.2500    89.1252     7.9477     2.3524     0.1654     0.0794   -81.7365     6.6642     5.2070
   61.5000  -999.2500    91.5903     7.8288     2.3526     0.1660     0.0911   -81.7365     6.3608     5.2140
   62.0000  -999.2500    91.9515     7.6891     2.3528     0.1666     0.0919   -81.7365     6.1013     5.2210
   62.5000  -999.2500    92.2383     7.6246     2.3556     0.1634     0.0918   -81.7365     5.9806     5.2281
   63.0000  -999.2500    91.7869     7.5999     2.3627     0.1575     0.0897   -81.7365     5.8623     5.2348
   63.5000  -999.2500    90.1447     7.5767     2.3662     0.1586     0.0848   -81.7365     5.7464     5.2708
   64.0000  -999.2500    88.5242     7.5819     2.3689     0.1597     0.0760   -81.7365     5.6368     5.3132
   64.5000  -999.2500    86.9288     7.6572     2.3717     0.1565     0.0672   -81.7365     5.6740     5.3561
   65.0000  -999.2500    85.5886     7.6990     2.3745     0.1534     0.0642   -81.7365     5.7102     5.3993
   65.5000  -999.2500    84.7593     7.5468     2.3759     0.1501     0.0637   -81.7368     5.7466     5.4429
   66.0000  -999.2500    83.5081     7.3995     2.3749     0.1523     0.0632   -81.7239     5.7832     5.4868
   66.5000  -999.2500    80.4301     7.5268     2.3737     0.1544     0.0628   -81.7068     5.8201     5.5311
   67.0000  -999.2500    87.4244     7.6409     2.3730     0.1544     0.0623   -81.6896     5.8572     5.5757
   67.5000  -999.2500    93.1888     7.7543     2.3735     0.1539     0.0618   -81.6724     5.8945     5.6207
   68.0000  -999.2500    97.5426     7.8640     2.3740     0.1529     0.0613   -81.6553     5.9321     5.6660
   68.5000  -999.2500    97.9194     7.9575     2.3744     0.1540     0.0608   -81.6381     6.0121     5.7117
   69.0000  -999.2500    94.0581     7.9886     2.3749     0.1547     0.0613   -81.6210     5.8926     5.7416
   69.5000  -999.2500    91.8217     8.0277     2.3753     0.1543     0.0653   -81.6038     5.8296     5.6707
   70.0000  -999.2500    91.1647     8.1146     2.3760     0.1522     0.0774   -81.5872     5.7673     5.6101
   70.5000  -999.2500    91.5017     8.2029     2.3926     0.1461     0.0891   -81.5739     5.7056     5.5501
   71.0000  -999.2500    91.8396     8.1854     2.4113     0.1349     0.1037   -81.5552     5.6445     5.4907
   71.5000  -999.2500    91.7160     8.1462     2.4105     0.1277     0.1212   -81.1869     5.5851     5.4329
   72.0000  -999.2500    86.9114     8.1060     2.3718     0.1500     0.1379   -78.8531     5.5977     5.4115
   72.5000  -999.2500    82.0815     8.0537     2.3630     0.1604     0.1299   -80.3245     5.6101     5.3905
