~VERSION INFORMATION
 VERS.                2.0:   CWLS LOG ASCII STANDARD - VERSION 2.0
 WRAP.                 NO:   ONE LINE PER DEPTH STEP
~WELL INFORMATION
#MNEM.UNIT      DATA TYPE    INFORMATION
#----------   ------------   ------------------------------
 STRT.F           42.0000:   START DEPTH
 STOP.F          612.0000:   STOP DEPTH
 STEP.F            0.5000:   STEP LENGTH
 NULL.          -999.2500:   NO VALUE
 COMP. FENIX AND SCISSON INCORPORATED:   COMPANY
 WELL. RES 3 TEAPOT DOM #25SX11-11:   WELL
 FLD .             TEAPOT:   FIELD
 LOC .      S11 T38N R78W:   LOCATION
 CNTY.            NATRONA:   COUNTY
 STAT.            WYOMING:   STATE
 CTRY. UNITED STATES OF AMERICA:   COUNTRY
 SRVC.            Unknown:   SERVICE COMPANY
 DATE.        16-FEB-1978:   LOGDATE
 API .       490251058000:   API NUMBER
~CURVE INFORMATION
#MNEM.UNIT       API CODE    CURVE DESCRIPTION
#----------   ------------   ------------------------------
 DEPT.F                  :   
 ILD .OHMM   05 120 46 00:   INDUCTION LOG DEEP
 SN  .OHMM   05 040 16 00:   SHORT NORMAL 16"
 SPR .MV     05 010 01 00:   SPONTANEOUS POTENTIAL FROM RES.
 CALD.IN     45 280 60 00:   CALIPER FROM DENSITY LOG
 CORR.G/C3   45 356 01 00:   DENSITY CORRECTION
 DPHI.DEC    45 890 12 00:   DENSITY POROSITY SANDSTONE
 GRD .GAPI   45 310 01 00:   GAMMA RAY FROM DENSITY LOG
 RHOB.G/C3   45 350 01 00:   BULK DENSITY
~PARAMETER INFORMATION
#MNEM.UNIT          VALUE    DESCRIPTION
#----------   ------------   ------------------------------
 PD  .                 GL:   PERMANENT DATUM
 EPD .F              5167:   ELEVATION PERMANENT DATUM
 LMF .                 KB:   LOG MEASURED FROM
 DAPD.F                 3:   FEET ABOVE PERMANENT DATUM
 DMF .                 KB:   DRILLING MEASURED FROM
 EKB .F              5170:   KELLING BUSHING
 EGL .F              5167:   GROUND LEVEL
 DATE.        16-FEB-1978:   RUN DATE
 RUN .                  1:   RUN NUMBER
 DD  .F               610:   DEPTH DRILLER
 DL  .F               615:   DEPTH LOGGER
 BLI .F               610:   BOTTOM LOG INTERVAL
 TLI .F                40:   TOP LOG INTERVAL
 CS  .IN            8.625:   CASING SIZE
 CBD .F                40:   CASING BOTTOM DRILLER
 CBL .F                40:   CASING BOTTOM LOGGER
 BS  .IN            7.875:   BIT SIZE
 BSD .F               610:   BIT SIZE AT DEPTH
 DFT .        LIGNO/ SULF:   DRILLING FLUID TYPE
 DFD .                8.7:   DRILLING FLUID DENSITY
 DFV .                 30:   DRILLING FLUID VISCOSITY
 DFPH.                 10:   DRILLING FLUID PH
 DFL .                4.6:   DRILLING FLUID LOSS
 MSS .           FLOWLINE:   MUD SAMPLE SOURCE
 RMS .OHMM            1.7:   RESISTIVITY MUD SAMPLE
 MST .F                69:   MUD SAMPLE TEMPERATURE
 RMF .OHMM            1.5:   RESISTIVITY MUD FILTRATE SAMPLE
 MFST.F                70:   MUD FILTRATE SAMPLE TEMPERATURE
 RMC .OHMM            2.5:   RESISTIVITY MUD CAKE
 MCST.F                70:   MUD CAKE SAMPLE TEMPERATURE
 MFSS.               MEAS:   MUD FILTRATE SAMPLE SOURCE
 RMB .OHMM            1.6:   RESISTIVITY MUD AT BHT
 BHT .F                70:   BOTTOM HOLE TEMPERATURE
 TCS .HRS               3:   TIME CURCULATED STOPPED
 MRT .F                70:   MAXIMUM RECORDED TEMPERATURE
 LUN .               2958:   LOGGING UNIT NUMBER
 LUL .             CASPER:   LOGGING UNIT LOCATION
 ENGI.            POINTER:   RECORDING ENGINEER
 WITN.           MCGINLEY:   WITNESSED BY
 CLNT.            A2DTECH:   CLIENT CODE
 ORIG.           5" PRINT:   ORIGIN OF DATA
 UWI .       490251058000:   UNIQUE WELL ID
 DICO. A2D Technologies, Inc.:   DIGITIZING COMPANY
~OTHER INFORMATION
~A   DEPT      ILD         SN         SPR      CALD       CORR       DPHI        GRD       RHOB   
# ...
  487.5000    14.8107    15.0952   -23.7127     7.9154     0.0296     0.1632    78.0218     2.3958
  488.0000    14.6996    15.0892   -23.4202     7.8835     0.0265     0.1614    74.0803     2.3890
  488.5000    14.5911    14.9788   -23.2871     7.8538     0.0249     0.1557    74.8286     2.3874
  489.0000    14.4833    14.8614   -23.1500     7.8380     0.0247     0.1518    76.4819     2.3904
  489.5000    14.3764    14.6566   -23.0130     7.8224     0.0246     0.1497    77.5318     2.3972
  490.0000    14.2568    14.4487   -22.8759     7.8519     0.0245     0.1491    78.2802     2.4040
  490.5000    14.1632    14.2436   -22.7424     7.8514     0.0244     0.1483    78.5762     2.4069
  491.0000    14.0586    14.0415   -22.7605     7.8356     0.0228     0.1456    78.7210     2.4046
  491.5000    13.7623    13.8422   -22.7750     7.8500     0.0195     0.1498    78.6963     2.4113
  492.0000    13.5661    13.5513   -22.7894     7.8948     0.0166     0.1501    78.5570     2.4173
  492.5000    13.3711    13.4508   -22.9554     7.9245     0.0150     0.1498    78.7020     2.4121
  493.0000    12.9987    13.2599   -22.8182     7.9391     0.0134     0.1547    79.2994     2.4105
  493.5000    12.9927    13.1629   -22.6813     7.9232     0.0148     0.1580    80.0477     2.4097
  494.0000    12.8967    13.1576   -22.3963     7.9075     0.0222     0.1475    80.9469     2.4007
  494.5000    12.8015    13.1523   -22.5623     7.9030     0.0266     0.1457    81.3937     2.3999
  495.0000    12.7955    13.2387   -22.7282     7.8911     0.0280     0.1433    81.3826     2.4127
  495.5000    12.7009    13.1405   -22.7427     7.8905     0.0279     0.1358    81.2310     2.4202
  496.0000    12.6058    12.9540   -22.7576     7.8597     0.0263     0.1304    87.2569     2.4277
  496.5000    12.5999    12.7702   -22.6201     7.8290     0.0262     0.1298    87.1002     2.4344
  497.0000    12.5069    12.6767   -22.6381     7.7831     0.0231     0.1333    86.7927     2.4367
  497.5000    12.3286    12.6717   -22.6526     7.7825     0.0197     0.1355    86.1835     2.4366
  498.0000    12.2376    12.4918   -22.3640     7.7819     0.0154     0.1353    84.8202     2.4366
  498.5000    12.2201    12.3992   -22.3785     7.7812     0.0153     0.1380    83.1553     2.4336
  499.0000    12.0561    12.3942   -21.9420     7.7807     0.0182     0.1446    77.6309     2.4305
  499.5000    11.8842    12.3035   -21.9564     7.7801     0.0255     0.1437    75.4513     2.4260
  500.0000    11.8787    12.2983   -21.5791     7.7794     0.0284     0.1338    78.3097     2.4226
  500.5000    11.7909    12.1245   -21.4359     7.7788     0.0269     0.1267    79.5105     2.4327
  501.0000    11.7854    12.1205   -21.5989     7.7855     0.0253     0.1206    83.4262     2.4439
  501.5000    11.6172    11.9492   -21.4558     7.7776     0.0222     0.1170    86.5878     2.4544
  502.0000    11.5302    11.9452   -20.8567     7.7770     0.0222     0.1119    84.6212     2.4627
  502.5000    11.6064    11.9412   -20.4118     7.7763     0.0206     0.1137    83.5571     2.4656
  503.0000    11.5996    11.9371   -20.4206     7.7607     0.0220     0.1249    84.1740     2.4617
  503.5000    11.5942    11.8496   -20.7334     7.7450     0.0279     0.1248    84.7545     2.4535
  504.0000    11.6695    11.7636   -20.8942     7.7759     0.0294     0.1216    84.4470     2.4505
  504.5000    11.6640    11.8426   -21.2070     7.7603     0.0293     0.1195    84.6322     2.4489
  505.0000    11.6585    11.8376   -21.5198     7.7749     0.0292     0.1177    84.3288     2.4512
  505.5000    11.7343    11.9992   -21.5492     7.7745     0.0291     0.1156    83.4134     2.4564
  506.0000    11.8091    12.0788   -21.9955     7.7740     0.0305     0.1132    81.3089     2.4625
  506.5000    11.9687    12.1645   -22.1563     7.7649     0.0349     0.1120    81.4832     2.4676
  507.0000    11.9631    12.4107   -22.1652     7.7579     0.0394     0.1124    81.9093     2.4713
  507.5000    12.0422    12.4055   -22.4779     7.7575     0.0378     0.1181    82.2099     2.4713
  508.0000    12.1192    12.4888   -22.6387     7.7571     0.0302     0.1277    80.3981     2.4682
  508.5000    12.0294    12.3972   -22.7995     7.7566     0.0257     0.1241    78.7375     2.4574
  509.0000    11.6930    12.3930   -22.4944     7.7562     0.0271     0.1190    79.2167     2.4426
  509.5000    11.4465    12.2179   -22.2093     7.7405     0.0150     0.1160    79.9409     2.4456
  510.0000    11.2833    12.1293   -22.0683     7.7250     0.0150     0.1207    79.9395     2.4500
  510.5000    11.1999    12.1139   -21.9230     7.6792     0.0149     0.1232    78.8822     2.4508
  511.0000    11.1172    12.0362   -21.7798     7.6637     0.0148     0.1190    77.3724     2.4470
  511.5000    11.0350    12.0322   -21.6367     7.6633     0.0147     0.1203    77.9743     2.4462
  512.0000    11.0298    11.9449   -21.6477     7.6779     0.0147     0.1224    83.5615     2.4521
  512.5000    10.9481    11.7761   -21.6565     7.6788     0.0146     0.1269    87.6245     2.4498
  513.0000    10.8662    11.6907   -21.6657     7.7073     0.0145     0.1305    89.5838     2.4468
  513.5000    10.8611    11.6868   -21.6764     7.7219     0.0159     0.1346    87.0179     2.4475
  514.0000    10.7808    11.6828   -21.9892     7.7063     0.0174     0.1402    85.3573     2.4420
  514.5000    10.7758    11.8413   -22.1500     7.6756     0.0263     0.1435    85.2050     2.4257
  515.0000    10.7707    12.0029   -22.3108     7.6148     0.0456     0.1438    85.2036     2.4234
  515.5000    10.8407    11.9989   -22.9275     7.4935     0.0710     0.1447    85.2021     2.4226
  516.0000    10.9111    12.3328   -23.5442     7.4175     0.0844     0.1489    84.7478     2.4210
  516.5000    11.0586    12.4156   -24.0091     7.4774     0.0829     0.1586    83.2381     2.4188
  517.0000    11.4427    12.6718   -24.1720     7.5525     0.0813     0.1928    80.5217     2.4039
  517.5000    12.0908    13.0243   -24.1808     7.6427     0.0812     0.2061    77.0311     2.3646
  518.0000    12.8647    13.6940   -24.6456     7.6726     0.0841     0.2322    73.4296     2.3225
  518.5000    13.6882    14.9541   -25.5662     7.7174     0.0870     0.2391    70.7132     2.2931
  519.0000    14.8710    16.2485   -27.5507     7.7471     0.0974     0.2373    66.9410     2.2698
  519.5000    16.8171    17.9019   -28.9273     7.7769     0.1123     0.2277    66.6382     2.2630
  520.0000    20.7338    20.1388   -30.3040     7.7915     0.1287     0.2114    67.5414     2.2690
  520.5000    21.6060    22.4985   -31.1135     7.7910     0.1272     0.1947    67.9924     2.2982
  521.0000    21.7489    23.9418   -31.5396     7.7906     0.1181     0.1917    68.2926     2.3260
  521.5000    21.7362    24.6081   -31.5484     7.7902     0.0806     0.1926    68.1400     2.3387
  522.0000    21.7260    24.7713   -31.4053     7.7897     0.0506     0.1899    68.1385     2.3424
  522.5000    21.5654    24.9356   -30.9560     7.7893     0.0341     0.1842    69.7962     2.3455
  523.0000    21.2420    24.5812   -29.9032     7.7887     0.0265     0.1864    73.5655     2.3484
  523.5000    20.5203    24.4029   -29.0001     7.8035     0.0234     0.1954    76.2790     2.3506
  524.0000    20.5106    23.8916   -28.0871     7.8030     0.0218     0.1978    77.7858     2.3498
  524.5000    20.5010    23.7182   -27.5002     7.8177     0.0203     0.1966    76.5774     2.3347
  525.0000    20.6366    23.7103   -27.2051     7.8172     0.0187     0.1960    75.2185     2.3340
  525.5000    20.6245    23.7020   -27.0598     7.8319     0.0186     0.1966    74.6137     2.3339
  526.0000    20.4721    23.6923   -27.2228     7.8465     0.0171     0.1978    74.6122     2.3316
  526.5000    20.4623    23.8515   -27.3836     7.8762     0.0185     0.1995    74.7620     2.3293
  527.0000    20.4505    23.8415   -27.6963     7.9061     0.0214     0.2057    74.6093     2.3278
  527.5000    20.4409    23.8334   -28.0091     7.9359     0.0258     0.2087    73.8386     2.3202
