~VERSION INFORMATION
 VERS.                2.0:   CWLS LOG ASCII STANDARD - VERSION 2.0
 WRAP.                 NO:   ONE LINE PER DEPTH STEP
~WELL INFORMATION
#MNEM.UNIT      DATA TYPE    INFORMATION
#----------   ------------   ------------------------------
 STRT.F           16.0000:   START DEPTH
 STOP.F          474.0000:   STOP DEPTH
 STEP.F            0.5000:   STEP LENGTH
 NULL.          -999.2500:   NO VALUE
 COMP. FENIX & SCISSON INCORPORATED:   COMPANY
 WELL.    NPR #3 #58-SX-3:   WELL
 FLD .             TEAPOT:   FIELD
 LOC .       S3 T38N R78W:   LOCATION
 CNTY.            NATRONA:   COUNTY
 STAT.            WYOMING:   STATE
 CTRY. UNITED STATES OF AMERICA:   COUNTRY
 SRVC.           BIRDWELL:   SERVICE COMPANY
 DATE.        19-OCT-1978:   LOGDATE
 API .       490251072000:   API NUMBER
~CURVE INFORMATION
#MNEM.UNIT       API CODE    CURVE DESCRIPTION
#----------   ------------   ------------------------------
 DEPT.F                  :   
 CALD.IN     45 280 60 00:   CALIPER FROM DENSITY LOG
 CORR.G/C3   45 356 01 00:   DENSITY CORRECTION
 DPHI.DEC    45 890 12 00:   DENSITY POROSITY SANDSTONE
 GRD .GAPI   45 310 01 00:   GAMMA RAY FROM DENSITY LOG
 RHOB.G/C3   45 350 01 00:   BULK DENSITY
 ILD .OHMM   05 120 46 00:   INDUCTION LOG DEEP
 SN  .OHMM   05 040 16 00:   SHORT NORMAL 16"
 SPR .MV     05 010 01 00:   SPONTANEOUS POTENTIAL FROM RES.
~PARAMETER INFORMATION
#MNEM.UNIT          VALUE    DESCRIPTION
#----------   ------------   ------------------------------
 PD  .                 GL:   PERMANENT DATUM
 EPD .F              5198:   ELEVATION PERMANENT DATUM
 LMF .                 KB:   LOG MEASURED FROM
 DAPD.F                 4:   FEET ABOVE PERMANENT DATUM
 DMF .                 KB:   DRILLING MEASURED FROM
 EKB .F              5202:   KELLING BUSHING
 EGL .F              5198:   GROUND LEVEL
 DATE.        19-OCT-1978:   RUN DATE
 RUN .                  1:   RUN NUMBER
 DD  .F               474:   DEPTH DRILLER
 DL  .F               474:   DEPTH LOGGER
 BLI .F               474:   BOTTOM LOG INTERVAL
 TLI .F                30:   TOP LOG INTERVAL
 CBD .F                40:   CASING BOTTOM DRILLER
 CBL .F                38:   CASING BOTTOM LOGGER
 BS  .IN            7.875:   BIT SIZE
 BSD .F               474:   BIT SIZE AT DEPTH
 DFT .                KCL:   DRILLING FLUID TYPE
 DFD .                8.7:   DRILLING FLUID DENSITY
 DFV .                 38:   DRILLING FLUID VISCOSITY
 DFPH.                9.0:   DRILLING FLUID PH
 DFL .                 13:   DRILLING FLUID LOSS
 MSS .           FLOWLINE:   MUD SAMPLE SOURCE
 RMS .OHMM            .25:   RESISTIVITY MUD SAMPLE
 MST .F                58:   MUD SAMPLE TEMPERATURE
 RMF .OHMM             .2:   RESISTIVITY MUD FILTRATE SAMPLE
 MFST.F                60:   MUD FILTRATE SAMPLE TEMPERATURE
 RMC .OHMM            .24:   RESISTIVITY MUD CAKE
 MCST.F                60:   MUD CAKE SAMPLE TEMPERATURE
 MFSS.               MEAS:   MUD FILTRATE SAMPLE SOURCE
 MCSS.               MEAS:   MUD CAKE SAMPLE SOURCE
 RMB .OHMM            .23:   RESISTIVITY MUD AT BHT
 BHT .F                70:   BOTTOM HOLE TEMPERATURE
 TCS .HRS               3:   TIME CURCULATED STOPPED
 MRT .F                70:   MAXIMUM RECORDED TEMPERATURE
 LUN .               2958:   LOGGING UNIT NUMBER
 LUL .               CASP:   LOGGING UNIT LOCATION
 ENGI.           REYNOLDS:   RECORDING ENGINEER
 WITN.           DINSMORE:   WITNESSED BY
 CLNT.            A2DTECH:   CLIENT CODE
 ORIG.           5" PRINT:   ORIGIN OF DATA
 UWI .       490251072000:   UNIQUE WELL ID
 DICO. A2D Technologies, Inc.:   DIGITIZING COMPANY
~OTHER INFORMATION
~A   DEPT     CALD       CORR       DPHI         GRD      RHOB        ILD         SN        SPR   
# ...
  137.5000     7.7788    -0.0106     0.1386    52.5477     2.4560     8.3979     7.6604   -37.0574
  138.0000     7.7787    -0.0106     0.1315    51.6572     2.4582     8.4000     7.8721   -37.0560
  138.5000     7.7785    -0.0097     0.1351    50.7666     2.4559     8.4016     7.5591   -36.9070
  139.0000     7.7831    -0.0092     0.1421    51.2045     2.4485     8.4923     7.1125   -36.9056
  139.5000     7.7931    -0.0092     0.1465    52.8251     2.4404     8.5200     7.2106   -36.9041
  140.0000     7.7929    -0.0092     0.1489    61.0926     2.4345     8.5801     7.4098   -36.7549
  140.5000     7.8223    -0.0092     0.1474    64.0437     2.4300     8.6403     7.5632   -36.7537
  141.0000     7.8370    -0.0092     0.1445    62.8567     2.4271     8.6420     7.0683   -36.7522
  141.5000     7.8516    -0.0092     0.1381    59.5318     2.4425     8.6437     6.4727   -36.7506
  142.0000     7.8616    -0.0093     0.1297    58.1204     2.4587     8.5869     7.4644   -36.7493
  142.5000     7.8809    -0.0093     0.1315    57.5254     2.4654     8.5304     7.6707   -36.7478
  143.0000     7.8956    -0.0093     0.1351    57.2257     2.4584     8.4151     7.4159   -36.7463
  143.5000     7.9002    -0.0093     0.1395    57.0738     2.4498     8.1848     7.3665   -36.7448
  144.0000     7.9101    -0.0093     0.1366    57.2172     2.4513     7.9214     7.5704   -36.7433
  144.5000     7.9099    -0.0088     0.1292    57.5084     2.4564     7.8157     7.6748   -36.7419
  145.0000     7.9098    -0.0079     0.1271    58.3894     2.4623     7.8176     7.6153   -36.7404
  145.5000     7.9096    -0.0064     0.1262    59.4191     2.4675     7.8725     7.4211   -36.7389
  146.0000     7.9095    -0.0050     0.1315    60.0059     2.4725     7.8740     7.2725   -36.7373
  146.5000     7.9093    -0.0033     0.1366    59.5583     2.4637     7.8756     7.2243   -36.7358
  147.0000     7.9092     0.0008     0.1398    59.9962     2.4526     7.8772     7.1765   -36.8823
  147.5000     7.9090     0.0037     0.1404    63.3893     2.4459     7.8788     7.1774   -37.0283
  148.0000     7.9089     0.0066     0.1372    66.1926     2.4474     7.9344     7.1298   -37.1740
  148.5000     7.9087     0.0095     0.1345    63.9717     2.4518     7.9360     7.0826   -37.3201
  149.0000     7.9086     0.0124     0.1336    60.7178     2.4555     7.8834     7.0356   -37.4838
  149.5000     7.9084     0.0153     0.1339    57.1861     2.4591     7.8854     6.9890   -37.9068
  150.0000     7.9083     0.0168     0.1322    51.5503     2.4555     7.7805     6.9427   -38.2004
  150.5000     7.8939     0.0110     0.1328    49.9208     2.4563     7.6770     6.7569   -37.9024
  151.0000     7.8944     0.0081     0.1322    49.7699     2.4571     7.3652     6.5257   -37.7521
  151.5000     7.8948     0.0066     0.1316    51.2417     2.4601     7.1274     6.3568   -37.6018
  152.0000     7.8953     0.0052     0.1351    52.5669     2.4542     6.9377     6.1867   -37.4508
  152.5000     7.9105     0.0052     0.1381    54.1874     2.4498     6.7530     6.0621   -37.3005
  153.0000     7.9406     0.0067     0.1333    55.2171     2.4514     6.6151     5.9373   -37.0029
  153.5000     7.9410     0.0067     0.1298    56.2713     2.4588     6.5746     5.7419   -36.8050
  154.0000     7.9495     0.0067     0.1283    57.2755     2.4633     6.6210     5.5505   -36.5398
  154.5000     7.9567     0.0067     0.1286    56.2373     2.4663     6.7128     5.1865   -36.4037
  155.0000     7.9500     0.0067     0.1282    53.8697     2.4634     6.8523     5.0136   -36.2535
  155.5000     7.9428     0.0067     0.1273    52.2406     2.4649     7.0907     5.7031   -36.2507
  156.0000     7.9433     0.0072     0.1250    51.3501     2.4708     7.2874     5.8599   -36.3953
  156.5000     7.9436     0.0082     0.1273    50.7302     2.4723     7.4238     5.9400   -36.3919
  157.0000     7.9395     0.0082     0.1308    50.6019     2.4702     7.5421     6.1867   -36.5373
  157.5000     7.9297     0.0089     0.1332    50.8942     2.4671     7.6471     6.5761   -36.9763
  158.0000     7.9302     0.0097     0.1331    50.8889     2.4578     7.7007     6.8029   -37.1308
  158.5000     7.9306     0.0106     0.1331    50.8846     2.4578     7.7022     6.8958   -37.5600
  159.0000     7.9311     0.0112     0.1331    50.4372     2.4594     7.7036     6.1033   -37.8522
  159.5000     7.9316     0.0127     0.1334    49.5456     2.4594     7.7052     5.8998   -37.8494
  160.0000     7.9172     0.0127     0.1366    48.8028     2.4565     7.7067     6.9900   -38.1416
  160.5000     7.9176     0.0142     0.1419    48.5032     2.4507     7.6045     6.7112   -38.4338
  161.0000     7.9180     0.0142     0.1424    49.3852     2.4456     7.5541     6.7112   -38.5785
  161.5000     7.9185     0.0142     0.1436    52.9260     2.4420     7.4035     6.7112   -38.5750
  162.0000     7.9189     0.0157     0.1448    56.1713     2.4420     7.2068     6.5761   -38.4247
  162.5000     7.9194     0.0157     0.1444    57.8163     2.4428     6.9675     6.1449   -38.1263
  163.0000     7.9199     0.0157     0.1447    57.9354     2.4436     6.7361     5.9400   -38.1235
  163.5000     7.9239     0.0172     0.1462    56.1575     2.4377     6.4246     6.2712   -38.0976
  164.0000     7.9355     0.0187     0.1494    53.6422     2.4289     6.1695     6.3568   -37.9705
  164.5000     7.9359     0.0201     0.1553    51.1269     2.4231     6.0053     6.1449   -37.9135
  165.0000     7.9216     0.0216     0.1555    49.7932     2.4232     5.8853     5.7419   -37.8171
  165.5000     7.9220     0.0231     0.1517    53.0877     2.4284     5.8466     5.3654   -37.6664
  166.0000     7.9225     0.0246     0.1405    58.4986     2.4380     5.8081     5.0386   -37.5159
  166.5000     7.9230     0.0246     0.1235    61.8916     2.4473     5.8095     4.8136   -37.4371
  167.0000     7.9234     0.0246     0.1145    63.3656     2.4675     5.8502     4.6848   -37.2793
  167.5000     7.9238     0.0246     0.1103    61.7354     2.4823     5.8913     4.6531   -37.2120
  168.0000     7.9267     0.0246     0.1103    60.1064     2.4905     5.9353     4.7553   -37.0615
  168.5000     7.9395     0.0246     0.1128    58.7716     2.4920     6.0974     5.1166   -36.9877
  169.0000     7.9400     0.0246     0.1185    57.8811     2.4913     6.3523     5.4387   -36.9086
  169.5000     7.9404     0.0320     0.1212    57.5814     2.4825     6.6629     5.7419   -36.7368
  170.0000     7.9408     0.0658     0.1213    59.3497     2.4737     7.0363     6.0211   -36.6074
  170.5000     7.9413     0.0772     0.1106    62.5951     2.4797     7.5326     6.3568   -36.5181
  171.0000     7.9418     0.0554     0.1043    65.8405     2.4981     7.7416     6.5316   -36.3068
  171.5000     7.9422     0.0306     0.1066    64.5313     2.5063     7.7431     6.7112   -36.3009
  172.0000     7.9427     0.0145     0.1093    60.9565     2.4975     7.7973     6.8029   -36.0056
  172.5000     7.9430     0.0043     0.1101    57.5549     2.4946     7.8520     6.8958   -36.0028
  173.0000     7.9583    -0.0030     0.1066    57.2562     2.4939     7.8536     6.9427   -35.8132
  173.5000     7.9587    -0.0073     0.1021    62.2731     2.4947     7.8554     6.9427   -35.7021
  174.0000     7.9592    -0.0102     0.0983    63.7459     2.5036     7.8569     6.9427   -35.6057
  174.5000     7.9597    -0.0132     0.0947    64.2093     2.5103     7.8584     6.9900   -35.5485
  175.0000     7.9601    -0.0146     0.0970    64.4760     2.5169     7.8603     6.9427   -35.3982
  175.5000     7.9605    -0.0014     0.1041    64.3230     2.5177     7.8617     6.9427   -35.2473
  176.0000     7.9610     0.0044     0.1117    63.7279     2.5097     7.8633     7.2803   -35.2445
  176.5000     7.9614     0.0044     0.1171    61.0648     2.4987     7.9185     7.8442   -35.0942
  177.0000     7.9618     0.0044     0.1194    55.7430     2.4892     7.9203     7.9048   -35.0914
  177.5000     7.9623     0.0045     0.1196    50.4201     2.4810     7.9759     7.4299   -35.2354
