~VERSION INFORMATION
 VERS.                2.0:   CWLS LOG ASCII STANDARD - VERSION 2.0
 WRAP.                 NO:   ONE LINE PER DEPTH STEP
~WELL INFORMATION
#MNEM.UNIT      DATA TYPE    INFORMATION
#----------   ------------   ------------------------------
 STRT.F           32.0000:   START DEPTH
 STOP.F          662.0000:   STOP DEPTH
 STEP.F            0.5000:   STEP LENGTH
 NULL.          -999.2500:   NO VALUE
 COMP.    FENIX & SCISSON:   COMPANY
 WELL.   NPR 67SX34 #3-34:   WELL
 FLD .             TEAPOT:   FIELD
 LOC .      S34 T39N R78W:   LOCATION
 CNTY.            NATRONA:   COUNTY
 STAT.            WYOMING:   STATE
 CTRY. UNITED STATES OF AMERICA:   COUNTRY
 SRVC.            Unknown:   SERVICE COMPANY
 DATE.        03-SEP-1978:   LOGDATE
 API .       490251070500:   API NUMBER
~CURVE INFORMATION
#MNEM.UNIT       API CODE    CURVE DESCRIPTION
#----------   ------------   ------------------------------
 DEPT.F                  :   
 ILD .OHMM   05 120 46 00:   INDUCTION LOG DEEP
 SN  .OHMM   05 040 00 00:   SHORT NORMAL
 SPR .MV     05 010 01 00:   SPONTANEOUS POTENTIAL FROM RES.
 CALD.IN     45 280 60 00:   CALIPER FROM DENSITY LOG
 DEN .G/C3   45 350 01 00:   COMPENSATED BULK DENSTIY
 DPHI.DEC    45 890 12 00:   DENSITY POROSITY SANDSTONE
 DRHO.G/C3   45 356 01 00:   DENSITY CORRECTION
 GRD .GAPI   45 310 01 00:   GAMMA RAY FROM DENSITY LOG
~PARAMETER INFORMATION
#MNEM.UNIT          VALUE    DESCRIPTION
#----------   ------------   ------------------------------
 PD  .                 GL:   PERMANENT DATUM
 EPD .F              5076:   ELEVATION PERMANENT DATUM
 LMF .                 KB:   LOG MEASURED FROM
 DAPD.F                 4:   FEET ABOVE PERMANENT DATUM
 DMF .                 KB:   DRILLING MEASURED FROM
 EKB .F              5080:   KELLING BUSHING
 EGL .F              5076:   GROUND LEVEL
 DATE.        03-SEP-1978:   RUN DATE
 RUN .                  1:   RUN NUMBER
 DD  .F               660:   DEPTH DRILLER
 DL  .F               662:   DEPTH LOGGER
 BLI .F               662:   BOTTOM LOG INTERVAL
 TLI .F                40:   TOP LOG INTERVAL
 CS  .IN            8.625:   CASING SIZE
 CBD .F                40:   CASING BOTTOM DRILLER
 BS  .IN            7.875:   BIT SIZE
 BSD .F               660:   BIT SIZE AT DEPTH
 DFT .                KCL:   DRILLING FLUID TYPE
 DFD .                9.0:   DRILLING FLUID DENSITY
 DFV .                 34:   DRILLING FLUID VISCOSITY
 MSS .           FLOWLINE:   MUD SAMPLE SOURCE
 RMS .OHMM            1.4:   RESISTIVITY MUD SAMPLE
 MST .F                65:   MUD SAMPLE TEMPERATURE
 RMF .OHMM            3.2:   RESISTIVITY MUD FILTRATE SAMPLE
 MFST.F                77:   MUD FILTRATE SAMPLE TEMPERATURE
 RMC .OHMM            2.1:   RESISTIVITY MUD CAKE
 MCST.F                78:   MUD CAKE SAMPLE TEMPERATURE
 MFSS.               MEAS:   MUD FILTRATE SAMPLE SOURCE
 TCS .HRS               1:   TIME CURCULATED STOPPED
 LUN .               3006:   LOGGING UNIT NUMBER
 LUL .               CASP:   LOGGING UNIT LOCATION
 ENGI.             MILLER:   RECORDING ENGINEER
 WITN.           MCGINLEY:   WITNESSED BY
 CLNT.            A2DTECH:   CLIENT CODE
 ORIG.        2" 5" PRINT:   ORIGIN OF DATA
 UWI .       490251070500:   UNIQUE WELL ID
 DICO. A2D Technologies, Inc.:   DIGITIZING COMPANY
~OTHER INFORMATION
~A   DEPT      ILD         SN        SPR       CALD        DEN       DPHI       DRHO         GRD  
# ...
  315.5000     7.6127     7.5397   -16.3443     8.1333     2.4497     0.1647     0.0025    83.6826
  316.0000     7.5088     7.4884   -16.4932     8.2084     2.4347     0.1641     0.0025    84.2802
  316.5000     7.4575     7.4889   -16.9429     8.2386     2.4317     0.1587     0.0040    84.2817
  317.0000     7.4065     7.3865   -17.2422     8.1048     2.4369     0.1522     0.0055    84.4421
  317.5000     7.3054     7.2857   -17.5416     8.0902     2.4444     0.1540     0.0055    84.7317
  318.0000     7.1067     7.1315   -17.3894     8.1355     2.4527     0.1530     0.0055    80.7097
  318.5000     6.8656     6.9426   -17.2376     8.1658     2.4520     0.1491     0.0054    80.7111
  319.0000     6.6327     6.8007   -17.2358     8.2110     2.4527     0.1488     0.0069    80.7126
  319.5000     6.4522     6.7542   -17.0840     8.2429     2.4535     0.1518     0.0069    76.5411
  320.0000     6.3144     6.7548   -17.0826     8.2717     2.4535     0.1542     0.0086    74.3068
  320.5000     6.1059     6.7553   -17.0811     8.2722     2.4527     0.1470     0.0129    76.5441
  321.0000     5.9397     6.7092   -17.0797     8.2726     2.4535     0.1469     0.0309    81.6126
  321.5000     5.8991     6.7562   -16.9275     8.2730     2.4557     0.1515     0.0444    83.2534
  322.0000     5.8589     6.7567   -16.6254     8.2586     2.4550     0.1507     0.0474    82.2017
  322.5000     5.9000     6.7798   -16.7747     8.2440     2.4505     0.1418     0.0369    81.3189
  323.0000     5.9414     6.8517   -16.9236     8.1997     2.4535     0.1476     0.0338    81.9168
  323.5000     6.0245     6.8997   -16.9218     8.1852     2.4618     0.1464     0.0248    81.4712
  324.0000     6.1939     6.9961   -16.9200     8.1409     2.4565     0.1437     0.0143    80.8765
  324.5000     6.5117     6.9966   -17.0693     8.1403     2.4625     0.1440     0.0173    80.7286
  325.0000     6.8718     6.9489   -17.3687     8.1268     2.4647     0.1419     0.0188    80.5813
  325.5000     7.0163     6.9976   -17.5172     8.1274     2.4640     0.1398     0.0172    80.2844
  326.0000     7.1145     6.9981   -17.5158     8.1278     2.4655     0.1443     0.0172    79.8391
  326.5000     7.1149     6.9986   -17.5140     8.1283     2.4670     0.1461     0.0157    79.8406
  327.0000     7.1155     6.9990   -17.5126     8.1287     2.4625     0.1519     0.0157    79.5439
  327.5000     7.1160     6.9497   -17.3608     8.1291     2.4557     0.1536     0.0157    79.8684
  328.0000     7.0674     6.9039   -17.3594     8.1594     2.4505     0.1500     0.0157    81.3356
  328.5000     6.9708     6.8568   -17.1905     8.1748     2.4504     0.1542     0.0172    82.3803
  329.0000     6.9188     6.7631   -17.0554     8.1902     2.4489     0.1515     0.0217    82.5304
  329.5000     6.7348     6.7171   -17.0540     8.1906     2.4505     0.1476     0.0263    82.0847
  330.0000     6.4616     6.6254   -17.0525     8.2060     2.4527     0.1419     0.0321    82.9807
  330.5000     6.2425     6.5802   -17.3519     8.2065     2.4572     0.1371     0.0381    83.8764
  331.0000     6.0307     6.5353   -17.6732     8.2069     2.4625     0.1365     0.0501    83.4307
  331.5000     5.7861     6.2704   -17.8001     8.2074     2.4685     0.1311     0.0606    83.5812
  332.0000     5.5513     6.0579   -17.6480     8.2078     2.4737     0.1287     0.0636    84.6458
  332.5000     5.3630     5.8891   -17.3458     8.2082     2.4812     0.1329     0.0606    85.7203
  333.0000     5.2533     5.6543   -17.1940     8.2087     2.4857     0.1467     0.0531    86.2685
  333.5000     5.1815     5.4626   -16.8914     8.2091     2.4774     0.1563     0.0470    86.1206
  334.0000     5.1461     5.4253   -16.5893     8.2096     2.4478     0.1781     0.0440    85.8243
  334.5000     5.1465     5.4634   -16.4374     8.2100     2.4204     0.1797     0.0440    84.6335
  335.0000     5.1113     5.5833   -15.9849     8.2254     2.4122     0.1722     0.0455    80.7602
  335.5000     5.1117     5.7747   -15.8331     8.2408     2.4107     0.1557     0.0485    80.6122
  336.0000     5.2555     6.0195   -15.6809     8.2263     2.4294     0.1269     0.0890    81.3592
  336.5000     5.5165     6.3621   -15.6795     8.2416     2.4602     0.1227     0.0785    84.4903
  337.0000     5.9942     6.7241   -15.8288     8.2570     2.4805     0.1284     0.0740    84.9488
  337.5000     6.4683     7.1068   -15.9774     8.2425     2.4902     0.1254     0.0709    85.5613
  338.0000     6.7453     7.2062   -15.9820     8.2280     2.4902     0.1203     0.0673    89.1147
  338.5000     7.2762     7.2066   -16.1249     8.2135     2.4925     0.1246     0.0604    86.7320
  339.0000     7.6376     7.2071   -16.1231     8.1990     2.4985     0.1392     0.0436    85.6902
  339.5000     7.8523     7.2076   -16.1217     8.1847     2.4850     0.1488     0.0251    84.9465
  340.0000     7.9622     7.2082   -16.1203     8.1701     2.4587     0.1509     0.0048    84.5005
  340.5000     7.9627     7.2086   -16.1188     8.1706     2.4550     0.1431     0.0018    83.9062
  341.0000     7.9085     7.2591   -15.9667     8.1561     2.4602     0.1461     0.0003    84.2057
  341.5000     7.8003     7.2596   -16.1156     8.1416     2.4647     0.1509     0.0003    85.1014
  342.0000     7.7470     7.2601   -16.1142     8.1421     2.4550     0.1431     0.0017    86.4541
  342.5000     7.6925     7.3110   -16.2632     8.1426     2.4550     0.1464     0.0002    86.2717
  343.0000     7.5890     7.3115   -16.4121     8.1431     2.4557     0.1377     0.0002    84.5100
  343.5000     7.5897     7.3120   -16.5610     8.1435     2.4685     0.1308     0.0017    82.2756
  344.0000     7.5377     7.3631   -16.5592     8.1589     2.4842     0.1380     0.0000    86.3012
  344.5000     7.5384     7.3636   -16.5578     8.1891     2.4715     0.1431    -0.0043    87.0475
  345.0000     7.4801     7.3642   -16.4060     8.2045     2.4625     0.1437    -0.0044    85.7080
  345.5000     7.3847     7.4158   -16.4045     8.1899     2.4617     0.1434     0.0016    84.6663
  346.0000     7.3852     7.4677   -16.2524     8.1905     2.4625     0.1443     0.0031    83.7735
  346.5000     7.3346     7.5199   -16.1006     8.1909     2.4617     0.1444     0.0046    84.5201
  347.0000     7.3352     7.5204   -16.0992     8.1764     2.4610     0.1422     0.0031    85.2667
  347.5000     7.2852     7.5211   -15.9474     8.1770     2.4627     0.1389     0.0031    84.5230
  348.0000     7.2354     7.5215   -15.9456     8.1774     2.4692     0.1358     0.0046    85.2700
  348.5000     7.1861     7.5220   -15.7938     8.1628     2.4722     0.1440     0.0045    86.1657
  349.0000     7.0879     7.4707   -15.9431     8.1483     2.4707     0.1446     0.0030    86.3161
  349.5000     6.9429     7.3687   -15.9413     8.1339     2.4655     0.1389     0.0030    86.1682
  350.0000     6.8480     7.5238   -16.0902     8.1108     2.4632     0.1452     0.0045    84.9775
  350.5000     6.7544     7.4220   -16.2378     8.0750     2.4587     0.1461     0.0030    85.1284
  351.0000     6.6098     7.3216   -16.5357     8.0605     2.4550     0.1380     0.0030    85.5769
  351.5000     6.4361     7.1728   -16.6832     8.0611     2.4662     0.1401     0.0030    86.4725
  352.0000     6.2611     7.0274   -16.8301     8.0466     2.4709     0.1478    -0.0001    86.7720
  352.5000     6.1329     6.9319   -16.8265     8.0619     2.4587     0.1550    -0.0031    86.1774
  353.0000     6.0911     6.7446   -17.1244     8.0796     2.4487     0.1568    -0.0046    84.3059
  353.5000     6.0079     6.5620   -17.1215     8.1077     2.4474     0.1514    -0.0031    82.3054
  354.0000     5.9258     6.3408   -17.2692     8.1230     2.4497     0.1535    -0.0031    82.3072
  354.5000     5.7645     5.9186   -17.2662     8.1683     2.4505     0.1575    -0.0031    82.4573
  355.0000     5.4887     5.4487   -17.4138     8.1687     2.4459     0.1634    -0.0047    82.1611
  355.5000     5.0207     5.1212   -17.5613     8.1691     2.4242     0.1718    -0.0047    80.9703
