~VERSION INFORMATION
 VERS.                2.0:   CWLS LOG ASCII STANDARD - VERSION 2.0
 WRAP.                 NO:   ONE LINE PER DEPTH STEP
~WELL INFORMATION
#MNEM.UNIT      DATA TYPE    INFORMATION
#----------   ------------   ------------------------------
 STRT.F           30.0000:   START DEPTH
 STOP.F          634.0000:   STOP DEPTH
 STEP.F            0.5000:   STEP LENGTH
 NULL.          -999.2500:   NO VALUE
 COMP. FENIX & SCISSON INC:   COMPANY
 WELL.     26-S-11 #26-11:   WELL
 FLD .             TEAPOT:   FIELD
 LOC .      S11 T38N R78W:   LOCATION
 CNTY.            NATRONA:   COUNTY
 STAT.            WYOMING:   STATE
 CTRY. UNITED STATES OF AMERICA:   COUNTRY
 SRVC.              Welex:   SERVICE COMPANY
 DATE.        26-APR-1977:   LOGDATE
 API .       490251034300:   API NUMBER
~CURVE INFORMATION
#MNEM.UNIT       API CODE    CURVE DESCRIPTION
#----------   ------------   ------------------------------
 DEPT.F                  :   
 SPR .MV     07 010 01 00:   SPONTANEOUS POTENTIAL
 ILD .OHMM   07 120 46 00:   INDUCTION LOG DEEP
 ILM .OHMM   07 120 44 00:   INDUCTION LOG MEDIUM
 SGRD.OHMM   07 221 05 00:   SHALLOW SHORT GUARD RESISTIVITY
 CALD.IN     45 280 60 00:   CALIPER FROM DENSITY LOG
 GRD .GAPI   45 310 01 00:   GAMMA RAY FROM DENSITY LOG
 CORR.G/C3   45 356 01 00:   DENSITY CORRECTION
 DPHI.DEC    45 890 12 00:   DENSITY POROSITY SANDSTONE
 RHOB.G/C3   45 350 01 00:   BULK DENSITY
~PARAMETER INFORMATION
#MNEM.UNIT          VALUE    DESCRIPTION
#----------   ------------   ------------------------------
 PD  .                 GL:   PERMANENT DATUM
 EPD .F              5179:   ELEVATION PERMANENT DATUM
 LMF .                 GL:   LOG MEASURED FROM
 DMF .                 GL:   DRILLING MEASURED FROM
 EGL .F              5179:   GROUND LEVEL
 DATE.          4-24-1977:   RUN DATE
 RUN .                  1:   RUN NUMBER
 DD  .F               645:   DEPTH DRILLER
 DL  .F               634:   DEPTH LOGGER
 BLI .F               632:   BOTTOM LOG INTERVAL
 TLI .F                40:   TOP LOG INTERVAL
 CS  .IN            8.625:   CASING SIZE
 CBD .F                40:   CASING BOTTOM DRILLER
 CBL .F                42:   CASING BOTTOM LOGGER
 BS  .IN            7.875:   BIT SIZE
 BSD .F               645:   BIT SIZE AT DEPTH
 DFT .            KCL MUD:   DRILLING FLUID TYPE
 DFD .                8.8:   DRILLING FLUID DENSITY
 DFV .                 33:   DRILLING FLUID VISCOSITY
 DFPH.                7.5:   DRILLING FLUID PH
 DFL .                 96:   DRILLING FLUID LOSS
 MSS .           FLOWLINE:   MUD SAMPLE SOURCE
 RMS .OHMM            .17:   RESISTIVITY MUD SAMPLE
 MST .F                81:   MUD SAMPLE TEMPERATURE
 RMF .OHMM            .16:   RESISTIVITY MUD FILTRATE SAMPLE
 MFST.F                81:   MUD FILTRATE SAMPLE TEMPERATURE
 RMC .OHMM            .21:   RESISTIVITY MUD CAKE
 MCST.F                81:   MUD CAKE SAMPLE TEMPERATURE
 MFSS.           FANN KIT:   MUD FILTRATE SAMPLE SOURCE
 MCSS.           FANN KIT:   MUD CAKE SAMPLE SOURCE
 RMB .OHMM            .19:   RESISTIVITY MUD AT BHT
 BHT .F                72:   BOTTOM HOLE TEMPERATURE
 TCS .HRS             1.5:   TIME CURCULATED STOPPED
 MRT .F                72:   MAXIMUM RECORDED TEMPERATURE
 LUN .                861:   LOGGING UNIT NUMBER
 LUL .           GILLETTE:   LOGGING UNIT LOCATION
 ENGI.             JOYNER:   RECORDING ENGINEER
 WITN.           ROB LYON:   WITNESSED BY
 CLNT.            A2DTECH:   CLIENT CODE
 ORIG.         2.5" PRINT:   ORIGIN OF DATA
 UWI .       490251034300:   UNIQUE WELL ID
 DICO. A2D Technologies, Inc.:   DIGITIZING COMPANY
~OTHER INFORMATION
~A   DEPT      SPR        ILD        ILM       SGRD       CALD        GRD       CORR       DPHI       RHOB   
   30.0000  -999.2500  -999.2500  -999.2500  -999.2500  -999.2500  -999.2500  -999.2500  -999.2500  -999.2500
   30.5000  -999.2500  -999.2500  -999.2500  -999.2500     7.9940   101.9117    -0.5356  -999.2500  -999.2500
   31.0000  -999.2500  -999.2500  -999.2500  -999.2500     7.9937   105.4364    -0.5267  -999.2500  -999.2500
   31.5000  -999.2500  -999.2500  -999.2500  -999.2500     7.9935   108.3620    -0.5207  -999.2500  -999.2500
   32.0000  -999.2500  -999.2500  -999.2500  -999.2500     7.9827   104.5455    -0.5118  -999.2500  -999.2500
   32.5000  -999.2500  -999.2500  -999.2500  -999.2500     7.9638   106.3259    -0.4999  -999.2500  -999.2500
   33.0000  -999.2500  -999.2500  -999.2500  -999.2500     7.9929   108.0897    -0.4910  -999.2500  -999.2500
   33.5000  -999.2500  -999.2500  -999.2500  -999.2500     7.9927   109.2375    -0.4760  -999.2500  -999.2500
   34.0000  -999.2500  -999.2500  -999.2500  -999.2500     7.9925   108.3354    -0.4550  -999.2500  -999.2500
   34.5000  -999.2500  -999.2500  -999.2500  -999.2500     7.9922   106.8664    -0.4283  -999.2500  -999.2500
   35.0000  -999.2500  -999.2500  -999.2500  -999.2500     7.9920   105.0901    -0.4014  -999.2500  -999.2500
   35.5000  -999.2500  -999.2500  -999.2500  -999.2500     7.9918   103.6350    -0.3746  -999.2500  -999.2500
   36.0000  -999.2500  -999.2500  -999.2500  -999.2500     7.9916   103.0792    -0.3415  -999.2500  -999.2500
   36.5000  -999.2500  -999.2500  -999.2500  -999.2500     7.9914   103.9589    -0.3029  -999.2500  -999.2500
   37.0000  -999.2500  -999.2500  -999.2500  -999.2500     7.9912   103.6266    -0.2543  -999.2500  -999.2500
   37.5000  -999.2500  -999.2500  -999.2500  -999.2500     7.9910   101.8014    -0.1956  -999.2500  -999.2500
   38.0000  -999.2500  -999.2500  -999.2500  -999.2500     7.9908    99.8310    -0.1485  -999.2500  -999.2500
   38.5000  -999.2500  -999.2500  -999.2500  -999.2500     7.9906    99.5364    -0.1098  -999.2500  -999.2500
   39.0000  -999.2500  -999.2500  -999.2500  -999.2500     7.9904    99.6607    -0.0717  -999.2500  -999.2500
   39.5000  -999.2500  -999.2500  -999.2500  -999.2500     7.9902   103.9310    -0.0519     0.2472  -999.2500
   40.0000  -999.2500  -999.2500  -999.2500  -999.2500     7.9899   109.2655    -0.0519     0.2458  -999.2500
   40.5000  -999.2500  -999.2500  -999.2500  -999.2500     7.9897   108.9150    -0.0519     0.2440     2.2426
   41.0000  -999.2500  -999.2500  -999.2500  -999.2500     7.9895   108.0031    -0.0490     0.2410     2.2470
   41.5000  -999.2500  -999.2500  -999.2500  -999.2500     7.9893   108.2894    -0.0457     0.2322     2.2573
   42.0000  -999.2500  -999.2500  -999.2500  -999.2500     7.9891   110.7038    -0.0397     0.2243     2.2721
   42.5000  -999.2500     0.9061    14.1564  -999.2500     7.9889   108.8046    -0.0367     0.2206     2.2824
   43.0000  -999.2500     1.7820    14.7683  -999.2500     7.9887   106.6010    -0.0341     0.2188     2.2868
   43.5000  -999.2500     3.6612    14.9781  -999.2500     7.9885   104.2522    -0.0341     0.2179     2.2883
   44.0000  -999.2500     6.4782    15.1908  -999.2500     7.9883   106.7547    -0.0371     0.2175     2.2853
   44.5000  -999.2500    10.2781    14.9781  -999.2500     7.9881   108.9443    -0.0341     0.2183     2.2808
   45.0000  -999.2500    11.1078    14.9781  -999.2500     7.9879   108.0645    -0.0341     0.2213     2.2779
   45.5000  -999.2500    11.2638    14.5614  -999.2500     7.9876   110.7569    -0.0341     0.2215     2.2838
   46.0000  -999.2500    12.9864    13.7627  -999.2500     7.9874   115.3707    -0.0307     0.2158     2.2956
   46.5000  -999.2500    16.5552    13.0077  -999.2500     7.9872   118.7139    -0.0282     0.2095     2.3000
   47.0000  -999.2500    17.1491    12.1219  -999.2500     7.9870   118.1385    -0.0277     0.2056     2.3044
   47.5000  -999.2500    16.9148    11.2965  -999.2500     7.9868   117.4487    -0.0252     0.2029     2.3073
   48.0000  -999.2500    15.4641    10.5273  -999.2500     7.9866   119.5015    -0.0252     0.1953     2.3191
   48.5000  -999.2500    12.5401     9.9498  -999.2500     7.9864   118.6217    -0.0223     0.1863     2.3324
   49.0000  -999.2500    10.1433     9.5376  -999.2500     7.9861   119.3395    -0.0158     0.1816     2.3457
   49.5000  -999.2500     8.9353     9.0144  -999.2500     7.9859   123.0205    -0.0134     0.1758     2.3575
   50.0000  -999.2500     8.0438     8.5199  -999.2500     7.9857   117.3928    -0.0098     0.1689     2.3664
   50.5000  -999.2500     7.1893     8.2829  -999.2500     7.9855   118.5002    -0.0045     0.1651     2.3708
   51.0000  -999.2500     6.5162     8.1669  -999.2500     7.9853   121.3783    -0.0015     0.1674     2.3708
   51.5000  -999.2500     5.9886     8.0525  -999.2500     7.9851   124.9002     0.0015     0.1810     2.3619
   52.0000  -999.2500     5.8229     8.0525  -999.2500     7.9849   126.2463    -0.0349     0.1899     2.3367
   52.5000  -999.2500     5.7414     8.0525  -999.2500     7.9847   124.4240    -0.0496     0.1933     2.3363
   53.0000  -999.2500     5.7410     7.9397  -999.2500     7.9845   125.0649    -0.0519     0.1789     2.3485
   53.5000  -999.2500     5.7406     7.9397  -999.2500     7.9549   132.1812    -0.0490     0.1777     2.3486
   54.0000  -999.2500     5.8213     7.9397  -999.2500     7.9547   136.5522    -0.0490     0.1794     2.3425
   54.5000  -999.2500     5.9030     7.9397  -999.2500     7.9551   139.0616    -0.0460     0.1846     2.3366
   55.0000  -999.2500     5.9026     7.9397  -999.2500     7.9555   140.8253    -0.0460     0.1864     2.3306
   55.5000  -999.2500     5.9855     7.9397  -999.2500     7.9560   142.2958    -0.0460     0.1886     2.3307
   56.0000  -999.2500     6.0291     7.9397  -999.2500     7.9564   143.9143    -0.0490     0.1850     2.3409
   56.5000  -999.2500     6.0692     7.9397  -999.2500     7.9568   142.1449    -0.0519     0.1941     2.3304
   57.0000  -999.2500     6.0688     7.9397  -999.2500     7.9573   136.9460    -0.0519     0.1968     2.3215
   57.5000  -999.2500     6.0683     8.0525  -999.2500     7.9577   136.1402    -0.0519     0.1987     2.3186
   58.0000  -999.2500     6.0679     8.0525  -999.2500     7.9581   134.2620    -0.0519     0.1958     2.3171
   58.5000  -999.2500     6.0675     8.0525  -999.2500     7.9586   130.6200    -0.0511     0.1940     2.3174
   59.0000  -999.2500     6.0671     8.0525  -999.2500     7.9590   130.0587    -0.0490     0.1953     2.3230
   59.5000  -999.2500     6.0666     8.0525  -999.2500     7.9595   132.9451    -0.0481     0.1950     2.3249
   60.0000  -999.2500     5.9818     8.0525  -999.2500     7.9599   134.3318    -0.0422     0.1886     2.3355
   60.5000  -999.2500     5.9813     8.0525  -999.2500     7.9603   134.7507    -0.0392     0.1839     2.3422
   61.0000  -999.2500     5.9362     8.0525  -999.2500     7.9608   134.4044    -0.0409     0.1853     2.3357
   61.5000  -999.2500     5.8972     8.0525  -999.2500     7.9612   132.7273    -0.0439     0.1892     2.3301
   62.0000  -999.2500     5.8968     8.0525  -999.2500     7.9616   131.4607    -0.0460     0.1919     2.3256
   62.5000  -999.2500     5.8964     8.0525  -999.2500     7.9621   130.0587    -0.0469     0.1934     2.3243
   63.0000  -999.2500     5.8960     8.0525  -999.2500     7.9625   132.3879    -0.0499     0.1922     2.3258
   63.5000  -999.2500     5.9410     8.0525  -999.2500     7.9630   134.1517    -0.0549     0.1883     2.3290
   64.0000  -999.2500     5.9784     8.0525  -999.2500     7.9634   136.3036    -0.0519     0.1845     2.3325
   64.5000  -999.2500     5.9780     8.1669  -999.2500     7.9638   138.4625    -0.0490     0.1824     2.3382
   65.0000  -999.2500     6.0620     8.1669  -999.2500     7.9643   139.1496    -0.0490     0.1818     2.3423
   65.5000  -999.2500     6.0615     8.2829  -999.2500     7.9647   133.5735    -0.0460     0.1810     2.3438
   66.0000  -999.2500     6.1085     8.4005  -999.2500     7.9651   132.3042    -0.0430     0.1800     2.3464
