~VERSION INFORMATION
 VERS.                2.0:   CWLS LOG ASCII STANDARD - VERSION 2.0
 WRAP.                 NO:   ONE LINE PER DEPTH STEP
~WELL INFORMATION
#MNEM.UNIT      DATA TYPE    INFORMATION
#----------   ------------   ------------------------------
 STRT.F            0.0000:   START DEPTH
 STOP.F          504.0000:   STOP DEPTH
 STEP.F            0.5000:   STEP LENGTH
 NULL.          -999.2500:   NO VALUE
 COMP.   FLUOR DANIEL INC:   COMPANY
 WELL. NAVAL PETROLEUM RESERVE 3 SX-1 #3-10:   WELL
 FLD .          N.P.R. #3:   FIELD
 LOC .      S10 T38N R78W:   LOCATION
 CNTY.            NATRONA:   COUNTY
 STAT.            WYOMING:   STATE
 CTRY. UNITED STATES OF AMERICA:   COUNTRY
 SRVC.      Western Atlas:   SERVICE COMPANY
 DATE.        22-SEP-1994:   LOGDATE
 API .       490252265600:   API NUMBER
~CURVE INFORMATION
#MNEM.UNIT       API CODE    CURVE DESCRIPTION
#----------   ------------   ------------------------------
 DEPT.F                  :   
 GRR .GAPI   07 310 01 00:   GAMMA RAY FROM RES. LOG.
 RILD.OHMM   07 120 46 00:   INDUCTION LOG DEEP RESISTIVITY
 RILM.OHMM   07 120 44 00:   INDUCTION LOG MEDIUM RESISTIVITY
~PARAMETER INFORMATION
#MNEM.UNIT          VALUE    DESCRIPTION
#----------   ------------   ------------------------------
 PD  .                 GL:   PERMANENT DATUM
 EPD .F              5168:   ELEVATION PERMANENT DATUM
 LMF .                 KB:   LOG MEASURED FROM
 DAPD.F                10:   FEET ABOVE PERMANENT DATUM
 DMF .                 KB:   DRILLING MEASURED FROM
 EKB .F              5178:   KELLING BUSHING
 EDF .F              5177:   DRILLING FLOOR
 EGL .F              5168:   GROUND LEVEL
 DATE.        22-SEP-1994:   RUN DATE
 RUN .                  1:   RUN NUMBER
 DD  .F               510:   DEPTH DRILLER
 DL  .F               512:   DEPTH LOGGER
 BLI .F               504:   BOTTOM LOG INTERVAL
 CS  .IN            9.625:   CASING SIZE
 CBD .F                55:   CASING BOTTOM DRILLER
 CBL .F                55:   CASING BOTTOM LOGGER
 BS  .IN             8.75:   BIT SIZE
 BSD .F               510:   BIT SIZE AT DEPTH
 DFT .                AIR:   DRILLING FLUID TYPE
 MRT .F                83:   MAXIMUM RECORDED TEMPERATURE
 LUN .            HL 6530:   LOGGING UNIT NUMBER
 LUL .             CASPER:   LOGGING UNIT LOCATION
 ENGI.      PAT RASMUSSEN:   RECORDING ENGINEER
 WITN.        GARY STRONG:   WITNESSED BY
 CLNT.            A2DTECH:   CLIENT CODE
 ORIG.           5" PRINT:   ORIGIN OF DATA
 UWI .       490252265600:   UNIQUE WELL ID
 DICO. A2D Technologies, Inc.:   DIGITIZING COMPANY
~OTHER INFORMATION
~A    DEPT      GRR      RILD       RILM   
# ...
  182.0000   122.1907     6.8165     6.9380
  182.5000   122.9927     6.8652     7.0822
  183.0000   125.3554     6.9127     7.2294
  183.5000   125.0697     7.0797     7.3796
  184.0000   124.0019     7.2455     7.5330
  184.5000   123.8242     7.4151     7.6895
  185.0000   125.7570     7.5887     7.8493
  185.5000   129.2602     7.7281     8.0125
  186.0000   132.9388     7.8482     8.1790
  186.5000   134.2506     8.0138     8.2390
  187.0000   128.6897     8.0138     8.2390
  187.5000   123.6353     8.0138     8.1929
  188.0000   123.0850     8.0139     8.1389
  188.5000   124.3598     8.0145     8.0873
  189.0000   125.6264     8.0147     8.0935
  189.5000   127.2225     7.8653     7.9401
  190.0000   130.0977     7.7915     7.8671
  190.5000   131.6080     7.7299     7.7231
  191.0000   128.6811     7.5828     7.5975
  191.5000   125.8349     7.2619     7.5200
  192.0000   125.7813     6.9549     7.2561
  192.5000   126.9556     6.6408     6.8807
  193.0000   128.2228     6.3401     6.5277
  193.5000   126.5021     6.0531     6.1925
  194.0000   123.5199     5.7791     5.8747
  194.5000   120.4568     5.5181     5.5381
  195.0000   116.8125     5.4871     5.6288
  195.5000   112.4155     5.4871     5.7340
  196.0000   108.4782     5.4871     5.9421
  196.5000   110.1816     5.4871     6.1695
  197.0000   116.2031     5.5894     6.4071
  197.5000   121.7894     5.8773     6.6537
  198.0000   126.6406     6.2376     6.9098
  198.5000   129.8732     6.6201     7.1758
  199.0000   128.9966     6.9243     7.4517
  199.5000   127.6564     7.2299     7.6751
  200.0000   127.5863     7.5491     7.7532
  200.5000   128.8446     7.6501     7.8320
  201.0000   130.0945     7.7268     7.9117
  201.5000   131.3243     7.8043     7.9921
  202.0000   131.6921     7.8825     8.0734
  202.5000   129.9855     7.9616     8.1555
  203.0000   128.3041     8.0414     8.2384
  203.5000   126.6369     8.1221     8.3222
  204.0000   127.3554     8.2035     8.4068
  204.5000   129.7534     8.2858     8.4923
  205.0000   132.2926     8.3689     8.5786
  205.5000   134.8377     8.4528     8.6659
  206.0000   137.3601     8.5040     8.7540
  206.5000   138.9926     8.5465     8.8430
  207.0000   135.8281     8.5893     8.9329
  207.5000   132.7310     8.6322     9.0239
  208.0000   129.6533     8.6753     9.1159
  208.5000   126.5408     8.7085     9.2049
  209.0000   125.5468     8.6972     9.2048
  209.5000   126.2002     8.6880     9.2057
  210.0000   128.5798     8.6788     9.1108
  210.5000   130.9575     8.6696     9.0363
  211.0000   131.3041     8.6605     8.9623
  211.5000   129.2982     8.6513     8.8890
  212.0000   129.1093     8.6420     8.8161
  212.5000   131.6302     8.6332     8.7449
  213.0000   133.0198     8.6006     8.6805
  213.5000   132.0520     8.5101     8.5891
  214.0000   130.6232     8.4205     8.4987
  214.5000   130.9590     8.3319     8.4092
  215.0000   132.0662     8.2390     8.3155
  215.5000   131.8389     7.9175     8.0870
  216.0000   131.4313     7.5893     7.8509
  216.5000   131.0148     7.2748     7.5245
  217.0000   131.3833     6.9733     7.1632
  217.5000   131.9959     6.5235     6.7331
  218.0000   133.7164     5.9940     6.3264
  218.5000   135.4313     5.4116     5.8560
  219.0000   136.2544     4.7551     5.0717
  219.5000   131.6668     4.1782     4.3947
  220.0000   125.8430     3.6713     3.8082
  220.5000   124.1060     3.2259     3.2999
  221.0000   126.8700     2.8477     2.8741
  221.5000   130.6281     2.7882     2.8118
  222.0000   131.3266     2.7320     2.7529
  222.5000   128.7390     2.6769     2.7444
  223.0000   125.8566     2.6693     2.9055
  223.5000   126.6160     2.8277     3.1339
  224.0000   130.7044     3.1326     3.4976
  224.5000   135.0605     3.4705     3.9673
  225.0000   134.7746     3.8449     4.4999
  225.5000   133.4620     4.2596     5.0459
  226.0000   132.3426     4.7190     5.5126
  226.5000   135.6818     5.2280     5.9026
  227.0000   139.1669     5.7877     6.0572
  227.5000   141.8646     6.3938     6.4440
  228.0000   141.5591     6.6089     6.6723
  228.5000   139.3054     6.7078     6.7701
  229.0000   136.7257     6.8491     6.9127
  229.5000   134.0877     6.6812     6.7432
  230.0000   136.3113     6.3953     6.4550
  230.5000   139.2634     6.1216     6.1785
  231.0000   141.0541     5.8596     5.9140
  231.5000   142.4797     5.6089     5.6607
  232.0000   147.4688     5.3688     5.4178
  232.5000   152.3437     5.1435     5.1893
  233.0000   157.1396     5.1435     5.1919
  233.5000   152.7571     5.0962     5.1442
  234.0000   143.8663     5.0962     5.1412
  234.5000   134.4314     5.1473     5.4766
  235.0000   133.1649     5.3658     5.7215
  235.5000   137.6486     5.6055     5.9770
  236.0000   142.2917     5.8647     6.2436
  236.5000   146.5815     6.1375     6.5222
  237.0000   145.6794     6.4228     6.8132
  237.5000   144.3343     6.7215     7.1172
  238.0000   144.5540     7.0340     7.4347
  238.5000   144.8573     7.3611     7.7948
  239.0000   144.3116     7.7034     7.9440
  239.5000   142.1498     8.0138     8.0882
  240.0000   140.0049     8.0138     8.0882
  240.5000   137.8268     8.0138     8.0882
  241.0000   137.9140     7.9563     8.0302
  241.5000   140.7876     7.7959     7.8683
  242.0000   143.6423     7.6387     7.7096
  242.5000   146.4658     7.4847     7.5542
  243.0000   148.4356     7.3338     7.4018
  243.5000   146.7373     7.1859     7.2526
  244.0000   145.3995     7.0416     7.1069
  244.5000   145.1806     6.8388     6.9023
  245.0000   144.2860     6.5309     6.5915
  245.5000   142.4172     6.0903     6.1469
  246.0000   142.8847     5.6795     5.7322
  246.5000   148.2963     5.2964     5.3455
  247.0000   153.1060     4.9391     4.9849
  247.5000   155.8432     4.7771     4.8214
  248.0000   154.6007     4.7332     4.7771
  248.5000   153.4017     4.9812     5.1774
  249.0000   148.7384     5.1863     5.5171
  249.5000   143.7257     5.4245     5.8791
  250.0000   141.4320     5.7370     6.2646
  250.5000   140.2615     6.0676     6.6800
  251.0000   139.4111     6.4172     7.0050
  251.5000   139.4179     6.7869     7.3069
  252.0000   140.5214     7.1780     7.5903
  252.5000   142.7968     7.4429     7.6647
  253.0000   145.0919     7.6101     7.7399
  253.5000   147.1530     7.6989     7.8158
  254.0000   147.0592     7.8671     7.9401
  254.5000   144.8153     7.9401     8.0138
  255.0000   142.3582     7.9401     8.0138
  255.5000   141.9225     7.9401     8.0138
  256.0000   141.5878     7.9266     8.0001
  256.5000   142.7866     7.9123     7.9857
  257.0000   145.2132     7.8980     7.9713
  257.5000   146.3460     7.8837     7.9569
  258.0000   146.5373     7.8695     7.9425
  258.5000   147.1553     7.8553     7.9282
  259.0000   150.2161     7.8411     7.9139
  259.5000   153.2893     7.8270     7.8996
  260.0000   156.1453     7.8128     7.8853
  260.5000   152.7903     7.7987     7.8711
  261.0000   149.0879     7.7846     7.8569
  261.5000   145.3402     7.7706     7.8427
  262.0000   144.8675     7.7569     7.8287
  262.5000   145.1118     7.7426     7.8144
  263.0000   145.3698     7.7286     7.8003
  263.5000   145.8873     7.4392     7.6502
  264.0000   146.3316     6.9932     7.2802
  264.5000   144.0535     6.5739     6.7448
  265.0000   141.5764     6.1797     6.2488
  265.5000   143.7022     5.9659     5.7465
  266.0000   149.1650     5.9101     5.8309
  266.5000   151.9405     5.8601     5.9348
  267.0000   153.3079     5.8215     6.0406
  267.5000   154.4356     5.7830     6.1482
  268.0000   154.5446     5.7448     6.1873
  268.5000   153.6017     5.7069     6.0289
  269.0000   152.6945     5.6692     5.7914
  269.5000   151.7771     5.6413     5.4871
  270.0000   150.5434     5.7211     5.5771
  270.5000   148.0553     5.7855     5.7167
  271.0000   146.2435     5.8507     5.8599
  271.5000   146.7516     5.9165     6.0203
  272.0000   148.8420     5.9831     6.2663
  272.5000   150.1361     6.1422     6.5224
