~VERSION INFORMATION
 VERS.                2.0:   CWLS LOG ASCII STANDARD - VERSION 2.0
 WRAP.                 NO:   ONE LINE PER DEPTH STEP
~WELL INFORMATION
#MNEM.UNIT      DATA TYPE    INFORMATION
#----------   ------------   ------------------------------
 STRT.F            8.0000:   START DEPTH
 STOP.F          420.0000:   STOP DEPTH
 STEP.F            0.5000:   STEP LENGTH
 NULL.          -999.2500:   NO VALUE
 COMP.    FENIX & SCISSON:   COMPANY
 WELL.    NPR 3 SX #61-10:   WELL
 FLD .             TEAPOT:   FIELD
 LOC .      S10 T38N R78W:   LOCATION
 CNTY.            NATRONA:   COUNTY
 STAT.            WYOMING:   STATE
 CTRY. UNITED STATES OF AMERICA:   COUNTRY
 SRVC.            Unknown:   SERVICE COMPANY
 DATE.        20-NOV-1978:   LOGDATE
 API .       490251074900:   API NUMBER
~CURVE INFORMATION
#MNEM.UNIT       API CODE    CURVE DESCRIPTION
#----------   ------------   ------------------------------
 DEPT.F                  :   
 ILD .OHMM   01 120 46 00:   LOG INDUCTION
 SN  .OHMM   01 040 00 00:   SHORT NORMAL
 SPR .MV     01 010 01 00:   SPONTANEOUS POTENSIAL
 CALD.IN     45 280 60 00:   CALIPER
 GRD .GAPI   45 310 01 00:   GAMMA RAY FROM DENSITY LOG
 DPHI.DEC    45 890 12 00:   DENSITY POROSITY SANDSTONE
 RHOB.G/C3   45 350 01 00:   BULK DENSITY
 CORR.G/C3   45 356 01 00:   DENSITY CORRECTION
~PARAMETER INFORMATION
#MNEM.UNIT          VALUE    DESCRIPTION
#----------   ------------   ------------------------------
 PD  .                 GL:   PERMANENT DATUM
 EPD .F              5145:   ELEVATION PERMANENT DATUM
 LMF .                 KB:   LOG MEASURED FROM
 DAPD.F                 4:   FEET ABOVE PERMANENT DATUM
 DMF .                 KB:   DRILLING MEASURED FROM
 EKB .F              5149:   KELLING BUSHING
 EGL .F              5145:   GROUND LEVEL
 DATE.        20-NOV-1978:   RUN DATE
 RUN .                  1:   RUN NUMBER
 DD  .F               435:   DEPTH DRILLER
 DL  .F               426:   DEPTH LOGGER
 BLI .F               420:   BOTTOM LOG INTERVAL
 TLI .F                48:   TOP LOG INTERVAL
 CS  .IN            8.625:   CASING SIZE
 CBD .F                40:   CASING BOTTOM DRILLER
 CBL .F                42:   CASING BOTTOM LOGGER
 BS  .IN            7.875:   BIT SIZE
 BSD .F               435:   BIT SIZE AT DEPTH
 DFT .                KCL:   DRILLING FLUID TYPE
 DFD .                8.6:   DRILLING FLUID DENSITY
 DFV .                 38:   DRILLING FLUID VISCOSITY
 DFPH.                9.8:   DRILLING FLUID PH
 DFL .                 10:   DRILLING FLUID LOSS
 MSS .           FLOWLINE:   MUD SAMPLE SOURCE
 RMS .OHMM            .39:   RESISTIVITY MUD SAMPLE
 MST .F                54:   MUD SAMPLE TEMPERATURE
 RMF .OHMM            .26:   RESISTIVITY MUD FILTRATE SAMPLE
 MFST.F                72:   MUD FILTRATE SAMPLE TEMPERATURE
 RMC .OHMM            .34:   RESISTIVITY MUD CAKE
 MCST.F                74:   MUD CAKE SAMPLE TEMPERATURE
 MFSS.           MEASURED:   MUD FILTRATE SAMPLE SOURCE
 RMB .OHMM            .33:   RESISTIVITY MUD AT BHT
 BHT .F                63:   BOTTOM HOLE TEMPERATURE
 TCS .HRS               1:   TIME CURCULATED STOPPED
 MRT .F                63:   MAXIMUM RECORDED TEMPERATURE
 LUN .               2958:   LOGGING UNIT NUMBER
 LUL .               CASP:   LOGGING UNIT LOCATION
 ENGI.             MILLER:   RECORDING ENGINEER
 WITN.              AMEND:   WITNESSED BY
 CLNT.            A2DTECH:   CLIENT CODE
 ORIG.        2" 5" PRINT:   ORIGIN OF DATA
 UWI .       490251074900:   UNIQUE WELL ID
 DICO. A2D Technologies, Inc.:   DIGITIZING COMPANY
~OTHER INFORMATION
~A    DEPT     ILD         SN        SPR       CALD         GRD      DPHI       RHOB       CORR   
# ...
  170.0000     3.1366     4.0370   -27.1943     7.4702    91.1313     0.2597     2.2216     0.0400
  170.5000     3.1839     4.0418   -26.5552     7.4724    90.0955     0.2110     2.2401     0.0401
  171.0000     3.3683     4.0737   -26.1102     7.5018    93.8215     0.1746     2.3006     0.0403
  171.5000     3.5882     4.4620   -26.0927     7.5326   106.5117     0.1482     2.3885     0.0359
  172.0000     3.9886     5.0596   -26.2288     7.5781   113.7737     0.1455     2.4306     0.0345
  172.5000     4.6717     5.6192   -26.3605     7.5939   113.0354     0.1370     2.4374     0.0301
  173.0000     5.6072     6.3718   -25.2939     7.5948   114.8284     0.1313     2.4472     0.0258
  173.5000     6.3139     7.1257   -23.9331     7.5956   119.0009     0.1373     2.4615     0.0214
  174.0000     6.6797     7.9138   -22.8708     7.5965   123.6198     0.1418     2.4548     0.0246
  174.5000     6.9212     8.2614   -22.5548     7.5974   125.7090     0.1346     2.4421     0.0265
  175.0000     7.0240     8.3811   -22.3881     7.5983   119.1672     0.1267     2.4535     0.0342
  175.5000     7.0302     8.3907   -21.4468     7.5991   115.8992     0.1261     2.4685     0.0401
  176.0000     6.9877     8.3986   -20.8561     7.5851   108.4645     0.1231     2.4738     0.0357
  176.5000     6.8976     8.4066   -20.5401     7.5550   110.2560     0.1149     2.4732     0.0389
  177.0000     6.8086     8.4146   -20.5226     7.4480   113.4286     0.1117     2.4867     0.0466
  177.5000     6.7208     8.4225   -20.6544     7.4838   117.1924     0.1201     2.5010     0.0468
  178.0000     6.5442     8.4305   -21.0846     7.5442   118.4580     0.1303     2.4809     0.0409
  178.5000     6.2398     8.3223   -21.5149     7.6046   118.0188     0.1453     2.4629     0.0365
  179.0000     6.1154     8.1588   -21.7959     7.6055   111.9235     0.1678     2.4359     0.0367
  179.5000     6.0379     7.9880   -22.2269     7.5617   110.4397     0.1783     2.4060     0.0368
  180.0000     5.6778     7.4717   -22.6567     7.5475   108.8101     0.1548     2.4000     0.0370
  180.5000     5.5656     7.2241   -22.7882     7.5486   108.2192     0.1554     2.4173     0.0401
  181.0000     5.5707     7.1793   -22.7701     7.5494   108.3753     0.1440     2.4279     0.0433
  181.5000     5.5371     7.2881   -22.9024     7.5205   108.5299     0.1442     2.4325     0.0480
  182.0000     5.6776     7.6047   -22.7313     7.5810   108.6846     0.1322     2.4396     0.0496
  182.5000     6.1133     7.7719   -21.8183     7.4864   104.6230     0.1225     2.4664     0.0513
  183.0000     6.2041     7.9426   -21.3530     7.3744   106.5773     0.1178     2.4709     0.0499
  183.5000     6.5182     8.0611   -21.4891     7.3755   110.3404     0.1181     2.4838     0.0501
  184.0000     6.8958     8.5336   -21.3180     7.3466   111.6855     0.1187     2.4876     0.0502
  184.5000     7.2450     9.0401   -19.9572     7.3175   117.4934     0.1220     2.4861     0.0443
  185.0000     7.5070     9.4832   -19.9397     7.3186   113.0364     0.1258     2.4817     0.0385
  185.5000     7.6714     9.8269   -19.9222     7.3790   109.3220     0.1264     2.4697     0.0371
  186.0000     7.8402    10.1126   -20.0540     7.2013   108.4335     0.1294     2.4653     0.0405
  186.5000     8.0181    10.3349   -20.0358     7.1870   110.0777     0.1312     2.4668     0.0495
  187.0000     8.1885    10.4166   -19.8653     7.2625   114.8454     0.1306     2.4662     0.0617
  187.5000     8.2527    10.4990   -19.6986     7.3229   120.2083     0.1264     2.4624     0.0800
  188.0000     8.3173    10.5089   -19.5318     7.4131   124.2320     0.1209     2.4722     0.0997
  188.5000     8.3246    10.3739   -18.9173     7.3842   117.5429     0.1061     2.4956     0.1270
  189.0000     8.2726    10.1702   -18.6013     7.4496   113.8284     0.1090     2.5032     0.1407
  189.5000     8.1659    10.0985   -18.2853     7.5350   111.3045     0.1077     2.5033     0.1424
  190.0000     8.0623     9.9109   -18.1185     7.1490   114.4353     0.1284     2.4928     0.1244
  190.5000     8.0136     9.7184   -18.1010     7.0525   117.7149     0.1326     2.4763     0.1035
  191.0000     7.9653     9.5275   -17.7850     7.0303   118.0169     0.1335     2.4614     0.0945
  191.5000     7.9172     9.4684   -17.7552     7.0303   116.0897     0.1341     2.4584     0.0885
  192.0000     7.8151     9.3491   -17.6000     7.0929   112.8217     0.1334     2.4585     0.0783
  192.5000     7.6098     9.2291   -17.4296     7.1533   115.6549     0.1319     2.4601     0.0769
  193.0000     7.3063     9.1738   -17.5658     7.1542   117.8968     0.1319     2.4609     0.0771
  193.5000     6.9664     9.0563   -17.8424     7.1997   117.8988     0.1328     2.4602     0.0803
  194.0000     6.5509     8.8116   -17.9785     7.1857   116.8642     0.1367     2.4587     0.0895
  194.5000     6.2462     8.4680   -18.1103     7.2164   116.7198     0.1502     2.4528     0.0896
  195.0000     6.0387     8.0746   -18.8347     7.2644   117.0247     0.1640     2.4408     0.0898
  195.5000     6.0023     7.5935   -19.4149     7.3076   117.7745     0.1679     2.4139     0.0929
  196.0000     6.0495     7.4426   -19.8448     7.3234   118.0765     0.1553     2.3989     0.1021
  196.5000     6.1405     7.6079   -19.9762     7.3391   116.5957     0.1264     2.4380     0.1266
  197.0000     6.2317     7.9384   -19.9582     7.3400   114.6670     0.0960     2.4839     0.1507
  197.5000     6.5020     8.3409   -20.2353     7.4004   112.4407     0.1131     2.5305     0.1207
  198.0000     7.0720     8.9479   -20.8148     7.4608   108.8751     0.1243     2.5103     0.0741
  198.5000     7.6389     9.6691   -21.2451     7.4914   110.3849     0.1167     2.4824     0.0607
  199.0000     8.0257    10.0861   -21.5305     7.5221   110.3314     0.1173     2.4804     0.0593
  199.5000     8.3159    10.1680   -21.5086     7.5527   108.4475     0.1122     2.4939     0.0579
  200.0000     8.3811    10.1776   -21.4911     7.5685   114.8531     0.1272     2.4977     0.0536
  200.5000     8.3306    10.2581   -21.3243     7.5693   115.1623     0.1281     2.4753     0.0462
  201.0000     8.3397    10.2678   -20.5547     7.5702   114.4298     0.1187     2.4716     0.0463
  201.5000     8.3470    10.2775   -20.0881     7.5415   111.3135     0.1160     2.4784     0.0661
  202.0000     8.2966    10.3587   -19.7708     7.5126   112.5155     0.1112     2.4965     0.0616
  202.5000     8.3486    10.4407   -19.6027     7.4687   107.3216     0.1277     2.4913     0.0528
  203.0000     8.4089    10.3782   -19.5839     7.4995   109.0179     0.1301     2.4748     0.0514
  203.5000     8.4693    10.3883   -19.5650     7.5302   113.6269     0.1318     2.4659     0.0546
  204.0000     8.5296    10.3992   -19.6955     7.5905   115.6896     0.1195     2.4637     0.0699
  204.5000     8.5781    10.4119   -19.8418     7.5319   115.1059     0.1174     2.4777     0.0926
  205.0000     8.5869    10.4246   -20.1009     7.4732   116.1621     0.1169     2.4856     0.1018
  205.5000     8.5958    10.4381   -20.0820     7.4741   117.8105     0.1179     2.4871     0.0974
  206.0000     8.6063    10.4487   -20.2172     7.4601   118.4173     0.1281     2.4805     0.0855
  206.5000     8.6151    10.4592   -20.1937     7.4759   112.9226     0.1413     2.4663     0.0842
  207.0000     8.5621    10.4699   -20.0256     7.4817   111.1329     0.1374     2.4588     0.0813
  207.5000     8.5115    10.3362   -19.8575     7.5374   108.3135     0.1307     2.4581     0.0966
  208.0000     8.4635    10.2043   -19.2417     7.5234   111.3236     0.1304     2.4583     0.1198
  208.5000     8.5310    10.2148   -18.6254     7.4201   116.6923     0.1121     2.4808     0.1300
  209.0000     8.5990    10.1569   -18.1545     7.3912   116.7038     0.1098     2.4966     0.1211
  209.5000     8.6676    10.1672   -17.9865     7.3621   116.8613     0.1135     2.5011     0.1047
  210.0000     8.6766    10.2483   -17.9676     7.3334   114.3460     0.1294     2.4877     0.0732
