~VERSION INFORMATION
 VERS.                2.0:   CWLS LOG ASCII STANDARD - VERSION 2.0
 WRAP.                 NO:   ONE LINE PER DEPTH STEP
~WELL INFORMATION
#MNEM.UNIT      DATA TYPE    INFORMATION
#----------   ------------   ------------------------------
 STRT.F            8.0000:   START DEPTH
 STOP.F          508.0000:   STOP DEPTH
 STEP.F            0.1000:   STEP LENGTH
 NULL.          -999.2500:   NO VALUE
 COMP. LAWRENCE/ALLISON INC:   COMPANY
 WELL. NPR 3 47-12 SX #3-3:   WELL
 FLD .             TEAPOT:   FIELD
 LOC .       S3 T38N R78W:   LOCATION
 CNTY.            NATRONA:   COUNTY
 STAT.            WYOMING:   STATE
 CTRY. UNITED STATES OF AMERICA:   COUNTRY
 SRVC.           Gearhart:   SERVICE COMPANY
 DATE.        12-AUG-1988:   LOGDATE
 API .       490251124100:   API NUMBER
~CURVE INFORMATION
#MNEM.UNIT       API CODE    CURVE DESCRIPTION
#----------   ------------   ------------------------------
 DEPT.F                  :   
 GRR .GAPI   07 310 01 00:   GAMMA RAY
 RILD.OHMM   07 120 46 00:   INDUCTION LOG DEEP RESISTIVITY
 RILM.OHMM   07 120 44 00:   INDUCTION LOG MEDIUM RESISTIVITY
~PARAMETER INFORMATION
#MNEM.UNIT          VALUE    DESCRIPTION
#----------   ------------   ------------------------------
 PD  .                 GL:   PERMANENT DATUM
 EPD .F              5208:   ELEVATION PERMANENT DATUM
 LMF .                 KB:   LOG MEASURED FROM
 DAPD.F                10:   FEET ABOVE PERMANENT DATUM
 DMF .                 KB:   DRILLING MEASURED FROM
 EKB .F              5218:   KELLING BUSHING
 EDF .F              5216:   DRILLING FLOOR
 EGL .F              5208:   GROUND LEVEL
 DATE.        12-AUG-1988:   RUN DATE
 RUN .                  1:   RUN NUMBER
 DD  .F               515:   DEPTH DRILLER
 DL  .F               516:   DEPTH LOGGER
 BLI .F               508:   BOTTOM LOG INTERVAL
 TLI .F                50:   TOP LOG INTERVAL
 CS  .IN            9.625:   CASING SIZE
 CBD .F                50:   CASING BOTTOM DRILLER
 CBL .F                50:   CASING BOTTOM LOGGER
 BS  .IN             8.75:   BIT SIZE
 BSD .F               515:   BIT SIZE AT DEPTH
 DFT .                AIR:   DRILLING FLUID TYPE
 TCS .HRS            1500:   TIME CURCULATED STOPPED
 TLAB.HRS            1640:   TIME LOGGER AT BOTTOM
 MRT .F                70:   MAXIMUM RECORDED TEMPERATURE
 LUN .               7597:   LOGGING UNIT NUMBER
 LUL .           GILLETTE:   LOGGING UNIT LOCATION
 ENGI.         WEATHERMON:   RECORDING ENGINEER
 WITN.             STRONG:   WITNESSED BY
 CLNT.            A2DTECH:   CLIENT CODE
 ORIG.       2", 5" PRINT:   ORIGIN OF DATA
 UWI .       490251124100:   UNIQUE WELL ID
 DICO. A2D Technologies, Inc.:   DIGITIZING COMPANY
~OTHER INFORMATION
~A    DEPT      GRR      RILD       RILM   
# ...
  226.4000   129.4192     6.4778     6.4802
  226.5000   129.1648     6.5581     6.5179
  226.6000   128.9105     6.6309     6.5559
  226.7000   128.7546     6.6791     6.5965
  226.8000   128.7552     6.7181     6.6325
  226.9000   128.7558     6.7574     6.6712
  227.0000   128.7565     6.7969     6.7101
  227.1000   128.7570     6.8366     6.7492
  227.2000   128.7577     6.8841     6.7816
  227.3000   128.7583     6.9169     6.7814
  227.4000   128.8267     6.9319     6.8203
  227.5000   129.1023     6.9496     6.8283
  227.6000   129.6678     6.9801     6.8522
  227.7000   130.8062     6.9824     6.8922
  227.8000   132.0817     7.0285     6.9233
  227.9000   133.2245     7.0284     6.9231
  228.0000   134.3297     7.0564     6.9229
  228.1000   135.6057     7.0772     6.9569
  228.2000   136.9332     7.0771     6.9708
  228.3000   137.6671     7.0770     6.9894
  228.4000   138.6292     7.0769     7.0191
  228.5000   139.5007     7.0768     7.0189
  228.6000   140.3680     7.0767     7.0187
  228.7000   141.2802     7.0767     7.0185
  228.8000   141.7970     7.0765     7.0183
  228.9000   142.6863     7.0693     7.0181
  229.0000   142.9007     7.0273     7.0179
  229.1000   143.3224     7.0272     7.0177
  229.2000   143.5958     7.0271     7.0175
  229.3000   143.3127     7.0022     6.9791
  229.4000   142.2693     6.9613     6.9685
  229.5000   140.8745     6.9299     6.9458
  229.6000   138.5683     6.9298     6.9051
  229.7000   137.1172     6.9297     6.8648
  229.8000   136.3690     6.8952     6.8239
  229.9000   135.8598     6.8550     6.7846
  230.0000   135.3909     6.7962     6.7139
  230.1000   135.1292     6.7395     6.6591
  230.2000   134.8821     6.7317     6.6043
  230.3000   134.8279     6.6463     6.5274
  230.4000   134.8284     6.5760     6.4514
  230.5000   134.8290     6.5269     6.3644
  230.6000   134.8296     6.4888     6.3022
  230.7000   134.8496     6.4381     6.2525
  230.8000   135.4361     6.3631     6.1829
  230.9000   135.6537     6.2865     6.0942
  231.0000   136.0788     6.2510     6.0586
  231.1000   136.4673     6.2146     6.0192
  231.2000   136.7970     6.1783     5.9570
  231.3000   137.3075     6.1422     5.9117
  231.4000   137.8603     6.0914     5.8771
  231.5000   138.0948     5.9852     5.8319
  231.6000   138.5366     5.8641     5.7682
  231.7000   138.9085     5.8072     5.7324
  231.8000   139.3466     5.7396     5.6699
  231.9000   140.0248     5.6729     5.6284
  232.0000   140.2844     5.6156     5.5774
  232.1000   140.7867     5.5828     5.5125
  232.2000   141.2974     5.5467     5.4538
  232.3000   141.6523     5.5466     5.4214
  232.4000   142.0159     5.5238     5.3594
  232.5000   142.4659     5.5081     5.3216
  232.6000   142.7086     5.5080     5.2720
  232.7000   142.7093     5.5079     5.2106
  232.8000   142.9301     5.5078     5.1499
  232.9000   143.1856     5.5078     5.0899
  233.0000   143.3162     5.5077     5.0213
  233.1000   143.2393     5.5261     4.9966
  233.2000   143.0148     5.5460     4.9674
  233.3000   143.0155     5.5459     4.9384
  233.4000   142.7788     5.5458     4.9094
  233.5000   141.9554     5.5457     4.8830
  233.6000   139.9424     5.5456     4.8828
  233.7000   137.7047     5.5455     4.8827
  233.8000   136.4768     5.5598     4.8825
  233.9000   135.4548     5.5923     4.8970
  234.0000   134.2452     5.6229     4.9163
  234.1000   133.2125     5.6228     4.9198
  234.2000   131.7792     5.6227     4.9503
  234.3000   130.0275     5.6453     5.0047
  234.4000   128.1800     5.6618     5.0634
  234.5000   126.9381     5.6617     5.1228
  234.6000   126.0794     5.6656     5.1828
  234.7000   125.8564     5.7010     5.2434
  234.8000   125.7779     5.7009     5.3058
  234.9000   125.6503     5.7257     5.3671
  235.0000   125.3960     5.7591     5.4300
  235.1000   125.1745     5.7928     5.4937
  235.2000   125.1752     5.8266     5.5445
  235.3000   125.1758     5.8611     5.5841
  235.4000   125.3692     5.9019     5.6495
  235.5000   125.6248     5.9295     5.7263
  235.6000   126.0756     5.9642     5.7828
  235.7000   126.9908     6.0140     5.8730
  235.8000   128.5185     6.0930     5.9766
  235.9000   130.0207     6.2005     6.0820
  236.0000   130.8603     6.3259     6.1862
  236.1000   131.5563     6.4219     6.2668
  236.2000   132.0669     6.5098     6.3321
  236.3000   132.5777     6.5676     6.4064
  236.4000   133.0687     6.6288     6.4815
  236.5000   133.3526     6.7417     6.5452
  236.6000   133.3531     6.8276     6.5833
  236.7000   133.3537     6.9010     6.6241
  236.8000   133.3543     6.9524     6.6239
  236.9000   133.3549     7.0151     6.6237
  237.0000   133.3555     7.0829     6.6451
  237.1000   133.3562     7.1177     6.6838
  237.2000   133.1131     7.1175     6.7159
  237.3000   133.2508     7.1988     6.7157
  237.4000   133.5064     7.2834     6.7542
  237.5000   133.6611     7.3177     6.7936
  237.6000   133.7683     7.3526     6.8575
  237.7000   134.2731     7.4293     6.9547
  237.8000   134.5708     7.4728     7.0680
  237.9000   134.9973     7.5235     7.1494
  238.0000   135.3424     7.5978     7.1977
  238.1000   135.5979     7.6577     7.2687
  238.2000   135.9237     7.7025     7.3540
  238.3000   136.4118     7.7600     7.4200
  238.4000   136.6924     7.8511     7.4751
  238.5000   137.1527     7.9527     7.5591
  238.6000   137.4810     8.0366     7.6080
  238.7000   137.7367     8.0973     7.7275
  238.8000   137.9050     8.1446     7.7997
  238.9000   137.9056     8.2082     7.8686
  239.0000   137.9062     8.3045     7.9459
  239.1000   137.9068     8.4065     7.9922
  239.2000   137.7081     8.5008     8.0418
  239.3000   137.4538     8.6006     8.0416
  239.4000   137.0953     8.6430     8.0765
  239.5000   136.6989     8.6625     8.1236
  239.6000   136.6906     8.7030     8.1710
  239.7000   136.3977     8.7034     8.2186
  239.8000   136.1820     8.7633     8.2671
  239.9000   135.9276     8.7632     8.2669
  240.0000   135.6732     8.7631     8.3052
  240.1000   135.4923     8.7630     8.3536
  240.2000   135.4929     8.7629     8.3820
  240.3000   135.4935     8.7593     8.3817
  240.4000   135.4941     8.7020     8.3815
  240.5000   135.4947     8.7019     8.3812
  240.6000   135.4953     8.7017     8.3810
  240.7000   135.4959     8.7016     8.3808
  240.8000   135.4965     8.7015     8.3806
  240.9000   135.4971     8.7014     8.3803
  241.0000   135.4977     8.7013     8.3801
  241.1000   135.4983     8.7011     8.3798
  241.2000   135.4990     8.7392     8.3797
  241.3000   135.6069     8.7330     8.3794
  241.4000   135.8027     8.7008     8.3544
  241.5000   135.8033     8.7007     8.3209
  241.6000   135.8040     8.7005     8.3207
  241.7000   135.8045     8.7004     8.3204
  241.8000   135.8052     8.6595     8.3202
  241.9000   135.8058     8.6399     8.3200
  242.0000   135.7296     8.6183     8.2929
  242.1000   135.5043     8.5679     8.2619
  242.2000   135.5050     8.5179     8.2617
  242.3000   135.5056     8.4613     8.2614
  242.4000   135.3173     8.4187     8.2612
  242.5000   135.2042     8.3696     8.2610
  242.6000   135.2048     8.3207     8.2318
  242.7000   135.2513     8.2721     8.2033
  242.8000   135.5086     8.2237     8.1924
  242.9000   135.5093     8.1718     8.1460
  243.0000   135.5098     8.1279     8.1457
  243.1000   135.6687     8.0805     8.1056
  243.2000   136.0349     8.0333     8.0582
  243.3000   136.5453     7.9864     8.0326
  243.4000   137.0557     7.9474     8.0198
  243.5000   137.6310     7.9472     7.9729
  243.6000   138.2997     7.9019     7.9210
  243.7000   138.8900     7.8558     7.9209
  243.8000   139.6553     7.8099     7.8885
  243.9000   140.5960     7.7642     7.8423
  244.0000   141.3295     7.7289     7.8108
  244.1000   141.8705     7.7273     7.8049
  244.2000   142.1107     7.6752     7.7563
  244.3000   142.1742     7.6373     7.7138
  244.4000   142.1749     7.6218     7.6687
  244.5000   141.9818     7.6010     7.6239
