~VERSION INFORMATION
 VERS.                2.0:   CWLS LOG ASCII STANDARD - VERSION 2.0
 WRAP.                 NO:   ONE LINE PER DEPTH STEP
~WELL INFORMATION
#MNEM.UNIT      DATA TYPE    INFORMATION
#----------   ------------   ------------------------------
 STRT.F           29.0000:   START DEPTH
 STOP.F          720.0000:   STOP DEPTH
 STEP.F            0.5000:   STEP LENGTH
 NULL.          -999.2500:   NO VALUE
 COMP.    FENIX & SCISSON:   COMPANY
 WELL. RES 3 TEAPOT DOM #21-S-14:   WELL
 FLD .        TEAPOT DOME:   FIELD
 LOC .      S14 T38N R78W:   LOCATION
 CNTY.            NATRONA:   COUNTY
 STAT.            WYOMING:   STATE
 CTRY. UNITED STATES OF AMERICA:   COUNTRY
 SRVC.            Unknown:   SERVICE COMPANY
 DATE.        25-MAY-1978:   LOGDATE
 API .       490251063300:   API NUMBER
~CURVE INFORMATION
#MNEM.UNIT       API CODE    CURVE DESCRIPTION
#----------   ------------   ------------------------------
 DEPT.F                  :   
 CALD.IN     45 280 60 00:   CALIPER FROM DENSITY LOG
 CORR.G/C3   45 356 01 00:   DENSITY CORRECTION
 DPHI.DEC    45 890 12 00:   DENSITY POROSITY SANDSTONE
 GRD .GAPI   45 310 01 00:   GAMMA RAY FROM DENSITY LOG
 RHOB.G/C3   45 350 01 00:   BULK DENSITY
 ILD .OHMM   05 120 46 00:   INDUCTION LOG DEEP
 SN  .OHMM   05 040 16 00:   SHORT NORMAL 16"
 SPR .MV     05 010 01 00:   SPONTANEOUS POTENTIAL FROM RES.
~PARAMETER INFORMATION
#MNEM.UNIT          VALUE    DESCRIPTION
#----------   ------------   ------------------------------
 PD  .                 GL:   PERMANENT DATUM
 EPD .F              5232:   ELEVATION PERMANENT DATUM
 LMF .                 KB:   LOG MEASURED FROM
 DAPD.F                 4:   FEET ABOVE PERMANENT DATUM
 DMF .                 KB:   DRILLING MEASURED FROM
 EKB .F              5236:   KELLING BUSHING
 EGL .F              5232:   GROUND LEVEL
 DATE.        25-MAY-1978:   RUN DATE
 RUN .                  1:   RUN NUMBER
 DD  .F               716:   DEPTH DRILLER
 DL  .F               727:   DEPTH LOGGER
 BLI .F               720:   BOTTOM LOG INTERVAL
 TLI .F                44:   TOP LOG INTERVAL
 CS  .IN            8.625:   CASING SIZE
 CBD .F                40:   CASING BOTTOM DRILLER
 CBL .F                44:   CASING BOTTOM LOGGER
 BS  .IN            7.875:   BIT SIZE
 BSD .F               716:   BIT SIZE AT DEPTH
 DFT .                KCL:   DRILLING FLUID TYPE
 DFD .                8.6:   DRILLING FLUID DENSITY
 DFV .                 31:   DRILLING FLUID VISCOSITY
 DFPH.                9.5:   DRILLING FLUID PH
 DFL .               10.8:   DRILLING FLUID LOSS
 MSS .            MUD PIT:   MUD SAMPLE SOURCE
 RMS .OHMM           0.32:   RESISTIVITY MUD SAMPLE
 MST .F                82:   MUD SAMPLE TEMPERATURE
 RMF .OHMM           0.34:   RESISTIVITY MUD FILTRATE SAMPLE
 MFST.F                72:   MUD FILTRATE SAMPLE TEMPERATURE
 RMC .OHMM            0.8:   RESISTIVITY MUD CAKE
 MCST.F                72:   MUD CAKE SAMPLE TEMPERATURE
 MFSS.               MEAS:   MUD FILTRATE SAMPLE SOURCE
 RMB .OHMM           0.35:   RESISTIVITY MUD AT BHT
 BHT .F                74:   BOTTOM HOLE TEMPERATURE
 TCS .HRS               1:   TIME CURCULATED STOPPED
 MRT .F                74:   MAXIMUM RECORDED TEMPERATURE
 LUN .               2958:   LOGGING UNIT NUMBER
 LUL .               CASP:   LOGGING UNIT LOCATION
 ENGI.             MILLER:   RECORDING ENGINEER
 WITN.           MCGINLEY:   WITNESSED BY
 CLNT.            A2DTECH:   CLIENT CODE
 ORIG.           5" PRINT:   ORIGIN OF DATA
 UWI .       490251063300:   UNIQUE WELL ID
 DICO. A2D Technologies, Inc.:   DIGITIZING COMPANY
~OTHER INFORMATION
~A   DEPT     CALD       CORR       DPHI         GRD      RHOB        ILD         SN        SPR   
# ...
  150.5000     6.9281     0.0257     0.1768    64.6457     2.3735    16.3335    15.4158   -19.2545
  151.0000     7.2006     0.0289     0.1758    61.9828     2.3772    14.4385    13.8443   -19.3095
  151.5000     7.3216     0.0306     0.1779    64.2404     2.3750    13.8650    13.0200   -19.2861
  152.0000     7.3828     0.0338     0.1794    66.1996     2.3729    13.4993    12.5013   -19.2675
  152.5000     7.4142     0.0385     0.1790    66.5170     2.3722    13.3184    12.1678   -19.2485
  153.0000     7.4302     0.0432     0.1730    66.5358     2.3753    13.1545    11.7663   -19.3790
  153.5000     7.2826     0.0494     0.1678    66.8532     2.3791    12.9883    11.5264   -19.6579
  154.0000     7.2093     0.0436     0.1591    67.4691     2.3883    12.9995    11.2310   -20.2298
  154.5000     7.2129     0.0348     0.1603    67.6372     2.4041    12.9185    11.0835   -20.8064
  155.0000     7.3172     0.0320     0.1614    67.3576     2.4049    12.7553    10.7921   -21.2342
  155.5000     7.4083     0.0262     0.1614    67.5304     2.4042    12.6785    10.6525   -21.6620
  156.0000     7.4695     0.0205     0.1610    68.7433     2.4043    12.5156    10.5147   -21.9409
  156.5000     7.5158     0.0237     0.1571    68.7622     2.4052    12.3574    10.3786   -22.0711
  157.0000     7.5472     0.0315     0.1481    68.7811     2.4090    12.0315    10.2444   -22.3454
  157.5000     7.5785     0.0511     0.1430    73.8745     2.4211    11.3953    10.1820   -22.7778
  158.0000     7.6103     0.0647     0.1393    75.8337     2.4468    10.3551    10.1200   -23.6473
  158.5000     7.6286     0.0395     0.1366    77.4944     2.4646     9.6066     9.6518   -24.3727
  159.0000     7.6580     0.0307     0.1327    79.4776     2.4431     9.0320     9.1401   -25.3957
  159.5000     7.6594     0.0250     0.1308    82.9289     2.4491     8.3271     8.5959   -26.5848
  160.0000     7.6609     0.0072     0.1357    81.2870     2.4514     7.7787     8.0284   -27.1441
  160.5000     7.6623    -0.0046     0.1403    80.8534     2.4411     7.5214     7.6929   -27.2743
  161.0000     7.6638    -0.0089     0.1450    81.1755     2.4404     7.3230     7.3013   -27.3997
  161.5000     7.6502    -0.0102     0.1465    80.8959     2.4316     7.1777     7.1080   -27.3811
  162.0000     7.6368    -0.0069     0.1494    77.6312     2.4264     6.9898     6.9197   -27.5119
  162.5000     7.6383    -0.0037     0.1515    77.2015     2.4250     6.9000     6.7832   -27.4926
  163.0000     7.6098    -0.0035     0.1503    82.4450     2.4281     6.9075     6.6955   -27.4732
  163.5000     7.6116    -0.0033     0.1481    85.7475     2.4297     6.8644     6.6547   -27.4506
  164.0000     7.5977    -0.0091     0.1465    84.5723     2.4291     6.8719     6.5699   -27.4319
  164.5000     7.5995    -0.0074     0.1480    84.5959     2.4277     6.8290     6.5299   -27.5667
  165.0000     7.5857    -0.0026     0.1450    84.7640     2.4263     6.8364     6.4888   -27.5434
  165.5000     7.5576     0.0037     0.1414    84.7829     2.4264     6.7486     6.4953   -27.5247
  166.0000     7.5441     0.0067     0.1365    84.6478     2.4355     6.7546     6.5005   -27.5061
  166.5000     7.5459     0.0039     0.1380    82.4326     2.4445     6.6690     6.4608   -27.7850
  167.0000     7.5473     0.0042     0.1388    79.7649     2.4446     6.6748     6.4662   -27.7617
  167.5000     7.5637     0.0089     0.1385    79.3360     2.4447     6.6332     6.4725   -27.8965
  168.0000     7.5652     0.0061     0.1363    78.7224     2.4448     6.5933     6.4777   -27.8732
  168.5000     7.5364     0.0033     0.1378    76.3934     2.4449     6.5549     6.4829   -27.8545
  169.0000     7.5382     0.0050     0.1396    78.8003     2.4457     6.5608     6.4421   -27.8359
  169.5000     7.5097     0.0114     0.1282    80.3117     2.4466     6.5213     6.4485   -27.8170
  170.0000     7.5112     0.0234     0.1182    80.6291     2.4548     6.5283     6.4537   -27.7939
  170.5000     7.4981     0.0205     0.1206    80.4987     2.4737     6.5340     6.4590   -27.6264
  171.0000     7.4995     0.0193     0.1202    80.3636     2.4746     6.5396     6.4653   -27.6078
  171.5000     7.5009     0.0180     0.1184    80.0881     2.4754     6.5453     6.5153   -27.5891
  172.0000     7.5024     0.0182     0.1114    79.9582     2.4770     6.5963     6.5336   -27.5704
  172.5000     7.5188     0.0244     0.0962    80.1716     2.4801     6.6478     6.5710   -27.4030
  173.0000     7.5053     0.0231     0.0922    81.9410     2.4981     6.7009     6.6678   -27.2351
  173.5000     7.4021     0.0177     0.1000    81.6614     2.5154     6.7532     6.7217   -26.9145
  174.0000     7.3737    -0.0154     0.1242    77.6504     2.5012     6.8529     6.8669   -26.5983
  174.5000     7.4502     0.0043     0.1301    76.1767     2.4640     6.9063     6.9201   -26.5796
  175.0000     7.5712     0.0090     0.1333    75.7478     2.4566     6.9602     6.9736   -27.0074
  175.5000     7.5876     0.0092     0.1330    76.2145     2.4522     6.9662     6.9311   -27.2910
  176.0000     7.5293     0.0094     0.1290    79.9647     2.4531     7.0693     6.8889   -27.4167
  176.5000     7.5005     0.0111     0.1242    79.0880     2.4599     7.0767     6.8944   -27.5466
  177.0000     7.4873     0.0113     0.1221    80.0925     2.4630     7.0828     6.9001   -27.5233
  177.5000     7.5037     0.0115     0.1229    83.6081     2.4661     7.1380     6.9547   -27.5046
  178.0000     7.5351     0.0118     0.1271    81.2389     2.4662     7.1937     7.0085   -27.4860
  178.5000     7.5668     0.0135     0.1306    80.2130     2.4566     7.2497     7.1118   -27.4673
  179.0000     7.5682     0.0121     0.1258    80.5304     2.4597     7.3080     7.1668   -27.4487
  179.5000     7.5099     0.0094     0.1302    82.1910     2.4627     7.4158     7.2723   -27.4300
  180.0000     7.4516     0.0065     0.1305    81.9114     2.4591     7.4222     7.3286   -27.4107
  180.5000     7.4530     0.0098     0.1301    78.9452     2.4569     7.4286     7.3855   -27.3880
  181.0000     7.4694     0.0100     0.1304    77.9193     2.4548     7.3331     7.3927   -27.3693
  181.5000     7.4858     0.0102     0.1327    77.9388     2.4534     7.3395     7.3986   -27.5042
  182.0000     7.4873     0.0134     0.1267    77.5092     2.4551     7.3458     7.3521   -27.6343
  182.5000     7.4891     0.0136     0.1243    78.8761     2.4596     7.3016     7.2570   -27.6110
  183.0000     7.5204     0.0078     0.1302    78.5965     2.4627     7.2593     7.2142   -27.7411
  183.5000     7.5667     0.0021     0.1311    78.6153     2.4583     7.2655     7.1702   -27.7225
  184.0000     7.5831     0.0023     0.1310    80.8730     2.4516     7.2718     7.0775   -27.8526
  184.5000     7.5845     0.0010     0.1355    83.5785     2.4487     7.2265     6.9873   -27.8318
  185.0000     7.5710     0.0027     0.1396    84.6421     2.4466     7.1843     6.9929   -27.8125
  185.5000     7.5725     0.0029     0.1348    85.1438     2.4452     7.1908     6.9011   -27.7932
  186.0000     7.5740     0.0031     0.1338    86.9194     2.4483     7.1475     6.8604   -27.7738
  186.5000     7.5758     0.0033     0.1341    85.5990     2.4484     7.1553     6.8659   -27.7545
  187.0000     7.5772     0.0035     0.1344    81.8865     2.4477     7.1107     6.8242   -27.7351
  187.5000     7.5633     0.0038     0.1355    80.7066     2.4456     7.1184     6.8309   -27.7127
  188.0000     7.5652     0.0055     0.1379    84.1630     2.4427     7.1738     6.8838   -27.7154
  188.5000     7.5666     0.0072     0.1370    82.3908     2.4398     7.2298     6.8405   -27.7186
  189.0000     7.5681     0.0029     0.1327    81.0664     2.4466     7.1608     6.8473   -27.7218
  189.5000     7.5695    -0.0029     0.1365    80.3388     2.4490     7.1430     6.8528   -27.7251
  190.0000     7.5560    -0.0042     0.1386    80.5174     2.4444     7.1507     6.8583   -27.7283
  190.5000     7.5279    -0.0055     0.1391    81.1277     2.4402     7.1569     6.8639   -27.7315
