~VERSION INFORMATION
 VERS.                2.0:   CWLS LOG ASCII STANDARD - VERSION 2.0
 WRAP.                 NO:   ONE LINE PER DEPTH STEP
~WELL INFORMATION
#MNEM.UNIT      DATA TYPE    INFORMATION
#----------   ------------   ------------------------------
 STRT.F           34.0000:   START DEPTH
 STOP.F          496.0000:   STOP DEPTH
 STEP.F            0.5000:   STEP LENGTH
 NULL.          -999.2500:   NO VALUE
 COMP. LAWRENCE/ALLISON INC:   COMPANY
 WELL.   55-55 SX FI #3-3:   WELL
 FLD .             TEAPOT:   FIELD
 LOC .       S3 T38N R78W:   LOCATION
 CNTY.            NATRONA:   COUNTY
 STAT.            WYOMING:   STATE
 CTRY. UNITED STATES OF AMERICA:   COUNTRY
 SRVC.       Schlumberger:   SERVICE COMPANY
 DATE.        18-JUL-1982:   LOGDATE
 API .       490251089500:   API NUMBER
~CURVE INFORMATION
#MNEM.UNIT       API CODE    CURVE DESCRIPTION
#----------   ------------   ------------------------------
 DEPT.F                  :   
 CALD.IN     45 280 60 00:   CALIPER FROM DENSITY LOG
 GRD .GAPI   45 310 01 00:   GAMMA RAY FROM DENSITY LOG
 CORR.G/C3   45 356 01 00:   DENSITY CORRECTION
 RHOB.G/C3   45 350 01 00:   BULK DENSITY
 DPHI.DEC    45 890 12 00:   DENSITY POROSITY SANDSTONE
 SPR .MV     07 010 01 00:   SPONTANEOUS POTENTIAL
 ILD .OHMM   07 120 46 00:   INDUCTION LOG DEEP
 ILM .OHMM   07 120 44 00:   INDUCTION LOG MEDIUM
 SFL .OHMM   07 220 01 00:   SHALLOW FOCUSED LOG RESISTIVITY
~PARAMETER INFORMATION
#MNEM.UNIT          VALUE    DESCRIPTION
#----------   ------------   ------------------------------
 PD  .                 GL:   PERMANENT DATUM
 EPD .F              5167:   ELEVATION PERMANENT DATUM
 LMF .                 KB:   LOG MEASURED FROM
 DAPD.F                 9:   FEET ABOVE PERMANENT DATUM
 DMF .                 KB:   DRILLING MEASURED FROM
 EKB .F              5176:   KELLING BUSHING
 EDF .F                  :   DRILLING FLOOR
 EGL .F              5167:   GROUND LEVEL
 DATE.        18-JUL-1982:   RUN DATE
 RUN .                  1:   RUN NUMBER
 DD  .F               500:   DEPTH DRILLER
 DL  .F               499:   DEPTH LOGGER
 BLI .F               436:   BOTTOM LOG INTERVAL
 TLI .F                50:   TOP LOG INTERVAL
 CS  .IN           13.375:   CASING SIZE
 CBD .F                50:   CASING BOTTOM DRILLER
 CBL .F                50:   CASING BOTTOM LOGGER
 BS  .IN            12.25:   BIT SIZE
 BSD .F               500:   BIT SIZE AT DEPTH
 DFT .         KCL FILLED:   DRILLING FLUID TYPE
 DFD .                   :   DRILLING FLUID DENSITY
 DFV .                   :   DRILLING FLUID VISCOSITY
 DFPH.                   :   DRILLING FLUID PH
 DFL .                   :   DRILLING FLUID LOSS
 MSS .           WELLHEAD:   MUD SAMPLE SOURCE
 RMS .OHMM           2.82:   RESISTIVITY MUD SAMPLE
 MST .F                80:   MUD SAMPLE TEMPERATURE
 RMF .OHMM               :   RESISTIVITY MUD FILTRATE SAMPLE
 MFST.F                  :   MUD FILTRATE SAMPLE TEMPERATURE
 RMC .OHMM               :   RESISTIVITY MUD CAKE
 MCST.F                  :   MUD CAKE SAMPLE TEMPERATURE
 MFSS.                   :   MUD FILTRATE SAMPLE SOURCE
 MCSS.                   :   MUD CAKE SAMPLE SOURCE
 RMB .OHMM           2.62:   RESISTIVITY MUD AT BHT
 BHT .F                86:   BOTTOM HOLE TEMPERATURE
 TCS .HRS            1530:   TIME CURCULATED STOPPED
 TLAB.HRS            1800:   TIME LOGGER AT BOTTOM
 MRT .F                86:   MAXIMUM RECORDED TEMPERATURE
 LUN .               8035:   LOGGING UNIT NUMBER
 LUL .             CASPER:   LOGGING UNIT LOCATION
 ENGI.              PENNY:   RECORDING ENGINEER
 WITN.             TAYLOR:   WITNESSED BY
 CLNT.            A2DTECH:   CLIENT CODE
 ORIG.           5" PRINT:   ORIGIN OF DATA
 UWI .       490251089500:   UNIQUE WELL ID
 DICO. A2D Technologies, Inc.:   DIGITIZING COMPANY
 OS  .                   :   OTHER SERVICES
 PWI .                   :   PRIMARY WELL IDENTIFIER
 R1  . POROSITY WITH SANDSTONE:   REMARKS 1
 R2  .                   :   REMARKS 2
 LSRV.                   :   LOG MNEMONIC
~OTHER INFORMATION
~A   DEPT     CALD         GRD      CORR       RHOB       DPHI        SPR        ILD        ILM        SFL   
# ...
  362.5000    12.0639    51.4843     0.0174     2.2831     0.2361   -88.2463    26.1536    25.7006    31.9044
  363.0000    12.0635    52.5965     0.0143     2.2777     0.2380   -88.2537    26.8756    26.4096    32.1126
  363.5000    12.0780    54.3854     0.0082     2.2754     0.2383   -88.2612    26.6693    26.5764    30.3622
  364.0000    12.0626    55.0466     0.0028     2.2783     0.2374   -88.1193    26.4687    25.8308    28.5131
  364.5000    12.0772    54.5752     0.0020     2.2836     0.2352   -88.1269    26.2696    25.4600    26.9627
  365.0000    12.0767    53.6466     0.0043     2.2873     0.2317   -87.9850    26.0720    25.0945    26.2121
  365.5000    12.0762    52.5181     0.0080     2.2911     0.2351   -87.8432    26.0558    24.9059    26.0205
  366.0000    12.1058    51.6000     0.0016     2.2781     0.2388   -87.6995    25.6813    24.8905    27.2931
  366.5000    12.1053    52.7089    -0.0043     2.2765     0.2373   -87.4104    25.3123    24.8750    28.4344
  367.0000    12.1049    54.7234    -0.0051     2.2886     0.2327   -87.1194    25.1219    25.0322    28.4187
  367.5000    12.1044    55.3884     0.0009     2.2984     0.2261   -86.6791    24.9329    25.0166    27.8194
  368.0000    12.1040    53.5644     0.0054     2.3060     0.2212   -86.3881    24.9173    25.0011    27.0450
  368.5000    12.1036    51.5187     0.0069     2.3097     0.2209   -85.9478    25.0787    24.9856    26.6585
  369.0000    12.1031    51.0520     0.0022     2.3119     0.2201   -85.6568    25.0592    24.9700    26.6438
  369.5000    12.1027    51.2619     0.0007     2.3142     0.2183   -85.3657    24.8707    24.9545    26.8139
  370.0000    12.1022    51.2463     0.0021     2.3171     0.2159   -85.0748    24.5133    24.7671    26.6143
  370.5000    12.1169    50.5540     0.0074     2.3186     0.2141   -84.7837    24.3289    24.2431    26.5996
  371.0000    12.1164    49.8617     0.0058     2.3231     0.2116   -84.7912    23.8138    23.5667    26.5849
  371.5000    12.1159    50.5267     0.0019     2.3331     0.2059   -84.6493    23.3096    22.7511    25.4896
  372.0000    12.1155    52.3117     0.0011     2.3493     0.1965   -84.3584    22.5022    21.9637    24.1035
  372.5000    12.1150    54.7773     0.0033     2.3549     0.1925   -84.2164    21.8738    21.3508    22.7928
  373.0000    12.1146    57.0173     0.0078     2.3451     0.1996   -84.0746    21.5595    20.8992    21.8538
  373.5000    12.1141    58.5807     0.0131     2.3296     0.2054   -84.0824    21.2523    20.4571    21.5415
  374.0000    12.1137    57.6628     0.0138     2.3333     0.2058   -84.0898    21.0925    20.3034    21.3811
  374.5000    12.1132    55.6171     0.0122     2.3363     0.2045   -84.0973    20.9339    20.2908    21.3693
  375.0000    12.1128    54.2481     0.0098     2.3393     0.2024   -84.1048    20.9208    20.2782    21.5088
  375.5000    12.0972    54.0070     0.0068     2.3430     0.1997   -84.1123    20.9078    20.1258    21.4939
  376.0000    12.0968    54.6680     0.0084     2.3513     0.1964   -84.1198    21.0404    20.1133    21.6342
  376.5000    12.0813    54.9090     0.0128     2.3596     0.1936   -84.1272    21.0269    20.2404    21.7723
  377.0000    12.0508    55.5805     0.0125     2.3550     0.1913   -83.9836    21.0138    20.2279    21.7573
  377.5000    12.0503    56.4218     0.0065     2.3435     0.1986   -83.6926    21.1470    20.3560    21.8993
  378.0000    12.0499    57.5340     0.0042     2.3419     0.2002   -83.2542    21.1334    20.4846    21.8841
  378.5000    12.0494    58.4246     0.0064     2.3502     0.1963   -82.9631    21.1203    20.4716    21.8720
  379.0000    12.0490    59.3073     0.0094     2.3555     0.1926   -82.5229    21.1071    20.6012    21.8600
  379.5000    12.0485    60.8746     0.0131     2.3570     0.1939   -82.3811    21.0939    20.5881    21.8479
  380.0000    12.0481    59.2761     0.0161     2.3523     0.1948   -82.3886    21.0711    20.5753    21.6852
  380.5000    12.0476    58.1327     0.0175     2.3492     0.1964   -82.2449    20.9223    20.5626    21.6732
  381.0000    12.0472    56.9893     0.0152     2.3476     0.1982   -82.1031    20.9092    20.6926    21.6612
  381.5000    12.0467    56.5225     0.0113     2.3445     0.1992   -82.1125    21.0415    20.6796    21.9510
  382.0000    12.0463    56.5069     0.0060     2.3437     0.2001   -82.1200    21.0283    20.5243    22.2446
  382.5000    12.0459    55.8146     0.0059     2.3406     0.2005   -82.2767    21.0152    20.5115    22.3897
  383.0000    12.0454    54.6712     0.0089     2.3390     0.2005   -82.1331    21.0011    20.3574    21.9146
  383.5000    12.0450    54.4300     0.0141     2.3442     0.1996   -81.9913    20.5575    20.0652    21.3045
  384.0000    12.0445    54.4144     0.0171     2.3472     0.1981   -81.8514    20.2620    19.9125    20.7114
  384.5000    12.0441    54.8499     0.0148     2.3441     0.1991   -81.5604    19.6962    19.6253    20.2747
  385.0000    12.0436    55.2858     0.0094     2.3464     0.1973   -81.2675    19.2792    19.3466    20.1237
  385.5000    12.0431    57.7510     0.0048     2.3512     0.1930   -80.8291    19.0021    19.1955    19.8362
  386.0000    12.0426    60.0151     0.0055     2.3652     0.1876   -80.6854    18.5998    18.9186    19.5527
  386.5000    12.0422    60.6522     0.0045     2.3674     0.1858   -80.6948    18.2060    18.5171    19.1404
  387.0000    12.0417    58.7505    -0.0024     2.3681     0.1861   -80.7023    17.9443    18.0082    18.6076
  387.5000    12.0413    57.9142    -0.0038     2.3650     0.1864   -80.7097    17.6865    17.6272    18.0896
  388.0000    12.0258    59.0264    -0.0023     2.3634     0.1874   -80.7172    17.5534    17.3741    17.9549
  388.5000    12.0103    60.5858     0.0014     2.3588     0.1899   -80.5754    17.4214    17.2436    17.6983
  389.0000    11.9948    60.5702     0.0059     2.3549     0.1924   -80.5829    17.2904    17.1140    17.5666
  389.5000    11.9794    60.1035     0.0141     2.3472     0.1962   -80.5904    17.1603    17.1033    17.6788
  390.0000    11.9789    60.0879     0.0156     2.3403     0.2009   -80.5979    17.1496    16.9748    17.7917
  390.5000    11.9785    60.0723     0.0049     2.3379     0.2022   -80.4542    17.1389    16.8473    17.9053
  391.0000    11.9780    59.8350     0.0018     2.3478     0.1958   -80.4636    16.6602    16.4734    17.2868
  391.5000    11.9926    60.0450     0.0033     2.3637     0.1888   -80.4711    15.9722    16.1238    16.3468
  392.0000    11.9922    59.5743     0.0070     2.3773     0.1791   -80.4786    15.1020    15.7816    15.4579
  392.5000    11.9767    57.7581    -0.0006     2.3818     0.1785   -80.4860    14.4783    15.4662    14.8211
  393.0000    11.9913    55.0318    -0.0045     2.3795     0.1788   -80.4935    14.0739    15.2239    14.5085
  393.5000    11.9908    53.2117    -0.0015     2.3786     0.1795   -80.5010    13.7759    14.9198    14.3012
  394.0000    11.9904    52.0683     0.0015     2.3816     0.1780   -80.5085    13.6723    14.6042    14.1947
  394.5000    12.0050    51.6016    -0.0001     2.3861     0.1747   -80.5160    13.5695    14.2953    14.0890
  395.0000    12.0045    51.5859     0.0006     2.3922     0.1707   -80.5234    13.3745    13.9929    13.9841
  395.5000    12.0040    52.4726     0.0043     2.3974     0.1680   -80.3798    13.2739    13.7920    13.9764
  396.0000    12.0187    53.3594     0.0088     2.3882     0.1766   -80.3892    13.1741    13.5002    13.8724
  396.5000    12.0181    54.9255     0.0133     2.3782     0.1790   -80.2455    13.1658    13.3064    13.7691
  397.0000    12.0177    57.6617     0.0186     2.3838     0.1718   -79.9564    13.0668    13.1154    13.5723
  397.5000    12.0172    59.8986     0.0239     2.4008     0.1633   -79.8127    12.8790    13.0168    13.3784
  398.0000    12.0168    59.5129     0.0336     2.4160     0.1551   -79.6709    12.7822    12.8300    13.1872
  398.5000    12.0163    57.5630     0.0237     2.4267     0.1499   -79.5292    12.6860    12.7336    12.9988
