~VERSION INFORMATION
 VERS.                2.0:   CWLS LOG ASCII STANDARD - VERSION 2.0
 WRAP.                 NO:   ONE LINE PER DEPTH STEP
~WELL INFORMATION
#MNEM.UNIT      DATA TYPE    INFORMATION
#----------   ------------   ------------------------------
 STRT.F           16.0000:   START DEPTH
 STOP.F         1334.0000:   STOP DEPTH
 STEP.F            0.5000:   STEP LENGTH
 NULL.          -999.2500:   NO VALUE
 COMP. U S NAVY/INTEX OIL CO:   COMPANY
 WELL.  S-11 NPR 3 #87-11:   WELL
 FLD .             TEAPOT:   FIELD
 LOC .      S11 T38N R78W:   LOCATION
 CNTY.            NATRONA:   COUNTY
 STAT.            WYOMING:   STATE
 CTRY. UNITED STATES OF AMERICA:   COUNTRY
 SRVC.       Schlumberger:   SERVICE COMPANY
 DATE.        17-JUN-1966:   LOGDATE
 API .       490250958900:   API NUMBER
~CURVE INFORMATION
#MNEM.UNIT       API CODE    CURVE DESCRIPTION
#----------   ------------   ------------------------------
 DEPT.F                  :   
 GRD .GAPI   45 310 01 00:   GAMMA RAY FROM DENSITY LOG
 CALD.IN     45 280 60 00:   CALIPER
 RHOB.G/C3   45 350 01 00:   BULK DENSITY
 DPOR.DEC    45 890 12 00:   DENSITY POROSITY SANDSTONE
 DRHO.G/C3   45 356 01 00:   DENSITY CORRECTION
 ASN .OHMM   05 041 16 00:   AMPLIFIED SHORT NORMAL 16"
 ILD .OHMM   05 120 46 00:   INDUCTION LOG DEEP
 CILD.MMHO   05 110 46 00:   CONDUCTIVITY INDUCTION LOG DEEP
 SPR .MV     05 010 01 00:   SPONTANEOUS POTENTIAL FROM RES.
~PARAMETER INFORMATION
#MNEM.UNIT          VALUE    DESCRIPTION
#----------   ------------   ------------------------------
 PD  .                 GL:   PERMANENT DATUM
 EPD .F              5284:   ELEVATION PERMANENT DATUM
 LMF .                 KB:   LOG MEASURED FROM
 DAPD.F                 5:   FEET ABOVE PERMANENT DATUM
 DMF .                 KB:   DRILLING MEASURED FROM
 EKB .F              5289:   KELLING BUSHING
 EGL .F              5284:   GROUND LEVEL
 DATE.          8-17-1966:   RUN DATE
 RUN .                  1:   RUN NUMBER
 DD  .F              1335:   DEPTH DRILLER
 DL  .F              1335:   DEPTH LOGGER
 BLI .F              1334:   BOTTOM LOG INTERVAL
 TLI .F                50:   TOP LOG INTERVAL
 CS  .IN            8.625:   CASING SIZE
 CBD .F                10:   CASING BOTTOM DRILLER
 BS  .IN            7.875:   BIT SIZE
 BSD .F              1335:   BIT SIZE AT DEPTH
 DFT .           GEL-CHEM:   DRILLING FLUID TYPE
 DFD .                9.3:   DRILLING FLUID DENSITY
 DFV .                 50:   DRILLING FLUID VISCOSITY
 MSS .          FLOW LINE:   MUD SAMPLE SOURCE
 RMS .OHMM           1.38:   RESISTIVITY MUD SAMPLE
 MST .F                80:   MUD SAMPLE TEMPERATURE
 RMF .OHMM           1.09:   RESISTIVITY MUD FILTRATE SAMPLE
 MFST.F                77:   MUD FILTRATE SAMPLE TEMPERATURE
 MFSS.                  M:   MUD FILTRATE SAMPLE SOURCE
 RMB .OHMM           1.70:   RESISTIVITY MUD AT BHT
 BHT .F               108:   BOTTOM HOLE TEMPERATURE
 TCS .HRS               1:   TIME CURCULATED STOPPED
 MRT .F               108:   MAXIMUM RECORDED TEMPERATURE
 LUN .               4507:   LOGGING UNIT NUMBER
 LUL .               CSPR:   LOGGING UNIT LOCATION
 ENGI.            MANGOLD:   RECORDING ENGINEER
 WITN.                MAY:   WITNESSED BY
 CLNT.            A2DTECH:   CLIENT CODE
 ORIG.       2", 5" PRINT:   ORIGIN OF DATA
 UWI .       490250958900:   UNIQUE WELL ID
 DICO. A2D Technologies, Inc.:   DIGITIZING COMPANY
~OTHER INFORMATION
~A   DEPT       GRD      CALD       RHOB       DPOR       DRHO        ASN        ILD       CILD        SPR   
# ...
 1220.5000    93.5597     8.3859     2.5140     0.0823     0.0570    10.4685     9.4868   109.2692   -37.8602
 1221.0000    91.6796     8.3846     2.5312     0.0750     0.0460    10.4477     9.4185   110.3567   -37.5838
 1221.5000    93.5115     8.3832     2.5216     0.0726     0.0535    10.4268     9.3499   111.4441   -37.3111
 1222.0000    95.4712     8.3819     2.5069     0.0872     0.0615    10.4058     9.2885   112.5377   -37.1660
 1222.5000    93.2850     8.3805     2.4975     0.0932     0.0394    10.3868     9.3420   112.7115   -37.2883
 1223.0000    89.5159     8.3792     2.5126     0.0843     0.0382    10.3836     9.3983   112.7166   -37.4056
 1223.5000    85.6490     8.3778     2.5274     0.0781     0.0499    10.3177     9.4542   112.7081   -37.5235
 1224.0000    85.6443     8.3765     2.5179     0.0850     0.0582    10.3730     9.5099   111.7532   -37.6408
 1224.5000    87.1173     8.3751     2.5030     0.0920     0.0667    10.4301     9.5656   110.8046   -37.7917
 1225.0000    88.6227     8.3738     2.4882     0.0989     0.0583    10.4883     9.6214   109.8586   -38.0201
 1225.5000    90.1192     8.3724     2.4743     0.1071     0.0445    10.5464     9.6771   108.9136   -38.2458
 1226.0000    91.6190     8.3711     2.4643     0.0972     0.0417    10.6045     9.7328   107.9685   -38.5090
 1226.5000    90.8159     8.3697     2.4907     0.0848     0.0343    10.6625     9.7885   107.0234   -38.7814
 1227.0000    87.7138     8.3684     2.5137     0.0794     0.0238    10.7205     9.8442   106.0783   -39.0562
 1227.5000    84.7036     8.3670     2.5279     0.0787     0.0570    10.7779     9.9000   105.1332   -39.3326
 1228.0000    82.8234     8.3658     2.5071     0.0835     0.0897    10.8381     9.9550   104.1907   -39.6004
 1228.5000    88.7353     8.3589     2.4896     0.0935     0.0785    10.9530    10.0933   102.7093   -40.2305
 1229.0000    87.5368     8.3499     2.4720     0.1103     0.0682    11.1752    10.2940   100.8111   -41.0353
 1229.5000    86.1453     8.3408     2.4546     0.1338     0.0581    11.3850    10.4951    98.9115   -42.1470
 1230.0000    83.8058     8.3316     2.4419     0.1308     0.0466    11.5949    10.6965    97.0132   -43.6963
 1230.5000    81.4512     8.3123     2.4544     0.1255     0.0683    11.8052    10.8974    95.1150   -45.2375
 1231.0000    79.1435     8.2665     2.4607     0.1215     0.0609    12.0154    11.1009    93.0766   -46.7813
 1231.5000    80.6979     8.2179     2.4480     0.1272     0.0532    12.2256    11.2815    90.7016   -48.3260
 1232.0000    77.9709     8.1433     2.4380     0.1330     0.0716    12.4358    11.4664    88.3422   -49.8854
 1232.5000    76.9192     8.0682     2.4330     0.1366     0.0628    12.6461    11.6516    85.9882   -51.0676
 1233.0000    80.8349     7.9931     2.4469     0.1282     0.0485    12.8567    11.8367    83.6225   -52.0702
 1233.5000    83.5518     7.9264     2.4513     0.1250     0.0630    13.0660    12.0218    82.9196   -52.4440
 1234.0000    85.1593     7.9360     2.4428     0.1306     0.0821    13.2476    12.2099    82.9196   -52.7533
 1234.5000    83.8587     7.9857     2.4403     0.1285     0.0889    13.4555    12.2287    82.9196   -52.5837
 1235.0000    82.6106     8.0305     2.4449     0.1271     0.0913    13.3903    12.1817    83.9921   -52.0329
 1235.5000    81.2932     8.0747     2.4409     0.1299     0.0823    13.2978    12.0969    84.9791   -51.3120
 1236.0000    83.6253     8.1110     2.4411     0.1326     0.0704    13.2036    11.9994    85.9662   -50.5836
 1236.5000    84.4343     8.1269     2.4607     0.1224     0.0584    13.1095    11.8913    86.9533   -49.8331
 1237.0000    82.3534     8.1432     2.4804     0.0973     0.0445    13.0155    11.7806    87.9404   -49.2749
 1237.5000    80.2634     8.1594     2.4865     0.1002     0.0654    12.9214    11.6692    88.9275   -48.7078
 1238.0000    78.2243     8.1756     2.4842     0.1000     0.0851    12.8272    11.5575    89.9146   -48.6038
 1238.5000    80.3931     8.1919     2.4925     0.0978     0.0757    12.7333    11.4460    90.9017   -48.4760
 1239.0000    83.0793     8.2081     2.4804     0.1017     0.0801    12.6581    11.3359    91.8971   -47.7778
 1239.5000    85.2607     8.2244     2.4609     0.1168     0.0847    12.7197    11.3134    92.8472   -47.0881
 1240.0000    83.3345     8.2409     2.4415     0.1320     0.0784    12.7902    11.4680    91.8626   -46.3936
 1240.5000    81.3340     8.2516     2.4260     0.1393     0.0297    12.8610    11.7014    90.5983   -46.2219
 1241.0000    79.4110     8.2640     2.4197     0.1398     0.0236    12.9315    11.9350    89.3644   -46.8847
 1241.5000    81.9474     8.2764     2.4126     0.1466     0.0313    13.0020    12.1558    88.1306   -47.6509
 1242.0000    85.0371     8.2887     2.4237     0.1417     0.0376    13.0728    12.0855    86.8967   -48.4178
 1242.5000    88.0942     8.3010     2.4290     0.1394     0.0323    13.1462    11.9518    86.1009   -49.0174
 1243.0000    89.7015     8.3133     2.4086     0.1494     0.0273    13.0982    11.8080    87.1585   -49.1927
 1243.5000    87.5770     8.3257     2.4246     0.1366     0.0224    13.0225    11.6643    88.2154   -48.2804
 1244.0000    88.3058     8.3380     2.4609     0.1190     0.0225    12.9257    11.5207    89.3712   -47.3540
 1244.5000    91.3618     8.3504     2.4809     0.1000     0.0415    12.7245    11.3771    90.6976   -46.4125
 1245.0000    89.3672     8.3627     2.4738     0.1084     0.0606    12.5236    11.2336    92.0217   -46.2386
 1245.5000    87.3789     8.3750     2.4730     0.1060     0.0618    12.3231    11.0900    93.3458   -46.2392
 1246.0000    87.4987     8.3874     2.4659     0.1096     0.0499    12.1226    10.9464    94.6700   -46.2231
 1246.5000    89.7483     8.3997     2.4578     0.1136     0.0415    11.9216    10.8028    95.9941   -45.5708
 1247.0000    91.9896     8.4120     2.4497     0.1174     0.0332    11.7124    10.6589    97.3183   -44.8724
 1247.5000    93.8689     8.4244     2.4568     0.1139     0.0249    11.7595    10.5087    98.6424   -44.1739
 1248.0000    94.6422     8.4367     2.4653     0.1096     0.0211    11.8841    10.5368    99.5431   -43.4785
 1248.5000    89.3877     8.4491     2.4741     0.1048     0.0340    12.0028    10.6698    97.4728   -42.8419
 1249.0000    83.2873     8.4618     2.4742     0.1073     0.0328    12.1238    10.8531    95.4024   -42.7617
 1249.5000    82.9761     8.4522     2.4715     0.1081     0.0276    12.2447    11.0353    93.3321   -42.6687
 1250.0000    84.9723     8.4341     2.4711     0.0991     0.0344    12.3657    11.2176    91.2617   -42.5734
 1250.5000    84.8696     8.4159     2.4938     0.0940     0.0353    12.4866    11.3998    89.1914   -42.4782
 1251.0000    83.6671     8.3979     2.4783     0.1022     0.0294    12.6075    11.5822    87.1210   -42.3823
 1251.5000    83.7212     8.3854     2.4540     0.1143     0.0236    12.7286    11.7650    85.0464   -42.2846
 1252.0000    82.5732     8.3868     2.4706     0.1057     0.0180    12.8507    11.9471    82.9497   -42.1149
 1252.5000    82.3543     8.3880     2.4911     0.0913     0.0164    12.9644    11.9069    83.3108   -41.7808
 1253.0000    81.5669     8.3891     2.5074     0.0950     0.0298    12.7579    11.7706    86.0824   -41.6781
 1253.5000    79.7890     8.3903     2.4903     0.1033     0.0384    12.5299    11.5714    88.8698   -41.5523
 1254.0000    83.9148     8.3915     2.4734     0.1156     0.0296    12.3014    11.3736    91.3340   -41.6442
 1254.5000    90.3041     8.3927     2.4533     0.1287     0.0202    12.0737    11.1754    92.8501   -41.9751
 1255.0000    89.2032     8.3939     2.4604     0.1187     0.0108    11.8459    10.9772    95.1079   -42.3034
 1255.5000    86.6786     8.3951     2.4717     0.1076     0.0139    11.6183    10.7789    97.1944   -42.6334
 1256.0000    84.1275     8.3962     2.4729     0.1086     0.0391    11.3910    10.5807    99.2808   -42.9634
 1256.5000    84.9797     8.3974     2.4712     0.1097     0.0538    11.2700    10.3825   100.9888   -43.2906
