~VERSION INFORMATION
 VERS.                2.0:   CWLS LOG ASCII STANDARD - VERSION 2.0
 WRAP.                 NO:   ONE LINE PER DEPTH STEP
~WELL INFORMATION
#MNEM.UNIT      DATA TYPE    INFORMATION
#----------   ------------   ------------------------------
 STRT.F           80.0000:   START DEPTH
 STOP.F          660.0000:   STOP DEPTH
 STEP.F            0.5000:   STEP LENGTH
 NULL.          -999.2500:   NO VALUE
 COMP. U S NAVY-INTEX OIL:   COMPANY
 WELL.    NPR #3 #34 S-11:   WELL
 FLD .             TEAPOT:   FIELD
 LOC .      S11 T38N R78W:   LOCATION
 CNTY.            NATRONA:   COUNTY
 STAT.            WYOMING:   STATE
 CTRY. UNITED STATES OF AMERICA:   COUNTRY
 SRVC.       Schlumberger:   SERVICE COMPANY
 DATE.        10-JUL-1962:   LOGDATE
 API .       490250635000:   API NUMBER
~CURVE INFORMATION
#MNEM.UNIT       API CODE    CURVE DESCRIPTION
#----------   ------------   ------------------------------
 DEPT.F                  :   
 SPR .MV     05 010 01 00:   SPONTANEOUS POTENTIAL FROM RES.
 ASN .OHMM   05 041 16 00:   AMPLIFIED SHORT NORMAL 16"
 ILD .OHMM   05 120 46 00:   INDUCTION LOG DEEP
 GR  .GAPI   30 310 01 00:   GAMMA RAY
 CALM.IN     15 280 01 00:   CALIPER FROM MICRO LOG
 CILD.MMHO   05 110 46 00:   CONDUCTIVITY INDUCTION LOG DEEP
~PARAMETER INFORMATION
#MNEM.UNIT          VALUE    DESCRIPTION
#----------   ------------   ------------------------------
 CLNT.            A2DTECH:   CLIENT CODE
 UWI .       490250635000:   UNIQUE WELL ID
 DICO. A2D Technologies, Inc.:   DIGITIZING COMPANY
~OTHER INFORMATION
~A   DEPT      SPR        ASN        ILD         GR       CALM        CILD  
# ...
  444.0000   -65.7676     6.1190     5.4650   135.4652     7.6601   189.9714
  444.5000   -65.6132     6.0124     5.0096   142.1352     7.6588   214.1122
  445.0000   -65.6113     5.5114     4.4787   130.8949     7.6574   224.6988
  445.5000   -65.6098     5.0406     4.0988   127.2440     7.6716   230.0653
  446.0000   -65.4554     4.9190     3.8700   124.7790     7.6699   235.5321
  446.5000   -65.1481     4.9551     3.7922   131.9301     7.6993   243.6685
  447.0000   -64.8408     4.7059     3.7900   143.7734     7.8651   251.2431
  447.5000   -64.2276     4.6297     3.7878   148.8769     7.9779   253.5355
  448.0000   -63.9207     4.9400     4.0121   156.7894     7.7558   246.8139
  448.5000   -64.3779     5.2270     4.1810   149.8001     7.6479   229.5391
  449.0000   -64.8351     5.3420     4.6113   155.8609     7.6313   210.0052
  449.5000   -64.9865     5.4024     4.9112   151.2996     7.6300   197.2484
  450.0000   -65.1864     5.5832     5.0889   158.1191     7.6286   184.2450
  450.5000   -65.4808     6.2062     5.4335   149.4634     7.6129   173.6253
  451.0000   -65.7406     6.4185     5.7781   144.7518     7.6580   163.4998
  451.5000   -65.7350     6.6460     6.1228   141.8641     7.7181   157.5201
  452.0000   -66.0363     6.9797     6.4800   145.6517     7.7175   151.5404
  452.5000   -66.1858     7.3133     6.7784   134.1115     7.7014   144.0547
  453.0000   -66.3342     7.4801     7.0768   143.2102     7.6554   138.0750
  453.5000   -66.1757     7.6317     7.2242   148.9705     7.6244   132.0953
  454.0000   -65.8653     7.7074     7.3716   155.3378     7.6236   126.8687
  454.5000   -65.5550     7.7225     7.3678   156.8507     7.6535   123.9010
  455.0000   -65.5505     7.7071     7.3640   150.4699     7.6529   127.7359
  455.5000   -65.6989     7.6463     7.3525   131.9509     7.6523   133.1049
  456.0000   -65.8473     7.5686     7.1923   128.4563     7.6517   137.8516
  456.5000   -65.9957     7.4453     7.0499   135.4290     7.6511   142.9150
  457.0000   -65.9901     7.2916     6.8951   127.3805     7.6505   145.9715
  457.5000   -65.9856     7.1297     6.7404   128.8919     7.6499   149.0279
  458.0000   -66.1351     6.9626     6.5101   121.7539     7.6493   151.3314
  458.5000   -65.9766     6.7956     6.2798   121.8996     7.6487   155.1408
  459.0000   -65.8203     6.6437     6.2005   134.9437     7.6481   164.2214
  459.5000   -67.3449     6.4463     5.8947   135.2411     7.6475   173.3019
  460.0000   -66.2689     6.2488     5.4378   132.9589     7.6469   186.1475
  460.5000   -65.8057     6.0059     4.9809   137.6570     7.6463   202.7582
  461.0000   -65.4954     5.6416     4.6751   146.7557     7.6455   222.3809
  461.5000   -65.6438     5.3683     4.5959   153.7299     7.6603   226.1904
  462.0000   -65.4862     5.1709     4.6677   145.5297     7.6443   223.2131
  462.5000   -65.2778     5.2314     4.7395   147.6481     7.6590   220.1310
  463.0000   -64.7117     5.5044     4.8228   142.6345     7.6584   215.6678
  463.5000   -64.7072     5.4587     5.0333   148.0913     7.6578   209.8128
  464.0000   -65.0085     5.5504     5.2561   146.0072     7.6725   203.8331
  464.5000   -65.6156     5.9670     5.5545   152.3266     7.6718   191.0763
  465.0000   -66.2227     6.4568     5.8529   157.0261     7.6866   174.5545
  465.5000   -66.6769     6.8541     6.1514   143.5133     7.7010   159.5386
  466.0000   -66.6724     7.0513     6.3752   145.9352     7.7004   149.0409
  466.5000   -66.5150     7.1725     6.6726   147.2949     7.6998   141.5552
  467.0000   -66.0518     7.3089     6.8200   159.5802     7.6992   136.3285
  467.5000   -65.8944     7.4302     6.9682   160.1812     7.6986   134.8558
  468.0000   -65.5841     7.5362     6.9636   173.8322     7.7131   135.6643
  468.5000   -65.5795     7.6271     7.0355   168.5151     7.7125   136.4617
  469.0000   -65.4220     7.7029     7.0317   147.2648     7.7119   135.7531
  469.5000   -65.4165     7.7786     7.0279   137.5486     7.7113   134.2915
  470.0000   -65.8707     7.8695     6.9486   170.9249     7.7107   131.9779
  470.5000   -66.1732     7.9300     6.8686   177.5957     7.7101   130.6152
  471.0000   -66.1675     7.9602     6.7894   172.1269     7.7095   130.6707
  471.5000   -66.0101     7.9753     6.8621   171.8173     7.7089   132.2211
  472.0000   -65.2411     7.9599     6.9339   161.4926     7.7083   133.7716
  472.5000   -65.0837     7.9598     6.9293   163.3076     7.7077   136.0750
  473.0000   -65.0792     7.9265     7.0020   151.3137     7.7071   136.8724
  473.5000   -65.3816     7.8509     6.9974   145.9966     7.6913   137.6698
  474.0000   -65.5291     7.8076     6.9181   142.5019     7.6907   137.7142
  474.5000   -65.3715     7.7619     6.9144   167.3806     7.6901   137.7587
  475.0000   -64.9083     7.7466     6.9107   177.6932     7.6895   137.0482
  475.5000   -64.7508     7.7464     6.9070   175.1075     7.7041   136.3414
  476.0000   -64.7462     7.7615     6.9033   176.0120     7.7034   135.6325
  476.5000   -64.8947     7.7613     6.9751   156.1274     7.7182   133.3861
  477.0000   -64.8891     7.7763     6.8958   154.5827     7.7326   131.2036
  477.5000   -65.0375     7.7306     6.8920   159.9089     7.7320   132.0030
  478.0000   -65.3399     7.6850     6.7365   152.7527     7.7468   137.3276
  478.5000   -65.4883     7.6241     6.6572   157.9572     7.7461   143.3961
  479.0000   -65.6356     7.5329     6.4269   163.6216     7.7455   151.7236
  479.5000   -65.4782     7.3810     6.1211   176.9843     7.7449   159.2981
  480.0000   -65.4737     7.1229     6.1174   186.5655     7.7443   161.6016
  480.5000   -65.4692     6.7737     6.0382   185.2290     7.7437   162.3990
  481.0000   -65.3118     6.7281     6.0344   178.6831     7.7431   162.4434
  481.5000   -64.6957     6.6755     5.9552   165.3221     7.7425   163.2408
  482.0000   -64.3853     6.2719     5.7249   144.2235     7.7419   164.7912
  482.5000   -64.5489     6.3482     5.6457   140.2736     7.7411   170.8597
  483.0000   -64.6822     6.5453     5.4154   145.2736     7.7558   179.9403
  483.5000   -64.5236     6.4693     5.1833   142.2327     7.7552   195.0807
  484.0000   -64.5191     6.3478     4.8721   151.7866     7.7546   207.4185
  484.5000   -64.3617     5.9986     4.7875   155.1205     7.7540   216.2199
  485.0000   -64.3572     5.5584     4.7198   133.1114     7.7534   211.0025
  485.5000   -64.1998     5.4369     4.7161   146.3057     7.7528   206.5288
  486.0000   -64.0424     5.7705     4.7124   151.4590     7.7522   205.8091
  486.5000   -62.9675     5.6035     4.7087   160.7094     7.7516   211.1357
  487.0000   -63.2688     5.4516     4.6295   162.5259     7.7510   210.4160
  487.5000   -64.0289     5.9218     4.9279   151.8962     7.7504   205.9534
  488.0000   -64.6360     6.4832     5.3773   149.9190     7.7498   184.1605
  488.5000   -65.2431     6.7258     5.9023   152.3409     7.7492   165.3796
  489.0000   -65.7054     6.8778     6.2762   150.9676     7.7638   152.6228
  489.5000   -65.9986     6.9531     6.5746   153.9980     7.7630   142.1250
  490.0000   -65.6872     6.9985     6.7976   147.9207     7.7624   135.3923
  490.5000   -65.0711     7.0287     6.4156   156.1089     7.7618   141.4706
  491.0000   -65.2194     7.0285     5.9537   169.4565     7.7613   154.4727
  491.5000   -65.6737     6.9677     5.5670   168.9952     7.7454   164.7889
  492.0000   -65.8232     6.8309     5.1201   153.3594     7.7602   182.2678
  492.5000   -65.8176     6.4666     5.0409   144.4004     7.7442   192.1013
  493.0000   -65.6601     5.9353     4.9616   137.1106     7.7436   192.8987
  493.5000   -65.3498     5.8728     4.9579   131.3383     7.7430   194.4492
  494.0000   -64.8866     6.0109     4.9542   139.6783     7.7424   196.7526
  494.5000   -64.5763     5.8735     4.9505   163.5056     7.7418   200.5621
  495.0000   -64.2660     5.6920     4.9468   167.4356     7.7412   202.1014
  495.5000   -64.2615     5.8912     4.9431   147.7392     7.7406   196.8858
