~VERSION INFORMATION
 VERS.                2.0:   CWLS LOG ASCII STANDARD - VERSION 2.0
 WRAP.                 NO:   ONE LINE PER DEPTH STEP
~WELL INFORMATION
#MNEM.UNIT      DATA TYPE    INFORMATION
#----------   ------------   ------------------------------
 STRT.F          350.0000:   START DEPTH
 STOP.F         2259.0000:   STOP DEPTH
 STEP.F            0.5000:   STEP LENGTH
 NULL.          -999.2500:   NO VALUE
 COMP. LAWRENCE/ALLISON INC:   COMPANY
 WELL.        45 X #33-33:   WELL
 FLD .             TEAPOT:   FIELD
 LOC .      S33 T39N R78W:   LOCATION
 CNTY.            NATRONA:   COUNTY
 STAT.            WYOMING:   STATE
 CTRY. UNITED STATES OF AMERICA:   COUNTRY
 SRVC.      NL McCullough:   SERVICE COMPANY
 DATE.        19-MAY-1988:   LOGDATE
 API .       490251119400:   API NUMBER
~CURVE INFORMATION
#MNEM.UNIT       API CODE    CURVE DESCRIPTION
#----------   ------------   ------------------------------
 DEPT.F                  :   
 ROP .MIN/FT 91 810 01 00:   RATE OF DRILLING PENETRATION
 GR  .GAPI   81 310 01 00:   GAMMA RAY
 TGAS.UNITS  91 830 01 00:   TOTAL GAS FROM HOTWIRE
~PARAMETER INFORMATION
#MNEM.UNIT          VALUE    DESCRIPTION
#----------   ------------   ------------------------------
 PD  .                 GL:   PERMANENT DATUM
 EPD .F              5198:   ELEVATION PERMANENT DATUM
 LMF .                 KB:   LOG MEASURED FROM
 DAPD.F                11:   FEET ABOVE PERMANENT DATUM
 DMF .                 KB:   DRILLING MEASURED FROM
 EKB .F              5209:   KELLING BUSHING
 EGL .F              5198:   GROUND LEVEL
 DATE.            5-19-88:   RUN DATE
 RUN .                  1:   RUN NUMBER
 DD  .F              2232:   DEPTH DRILLER
 DL  .F               750:   DEPTH LOGGER
 BLI .F               746:   BOTTOM LOG INTERVAL
 TLI .F               350:   TOP LOG INTERVAL
 CS  .IN                7:   CASING SIZE
 CBD .F               808:   CASING BOTTOM DRILLER
 DFT .              WATER:   DRILLING FLUID TYPE
 TCS .HRS            0830:   TIME CURCULATED STOPPED
 TLAB.HRS            0930:   TIME LOGGER AT BOTTOM
 ENGI.          SANGERTER:   RECORDING ENGINEER
 WITN.             NORMAN:   WITNESSED BY
 CLNT.            A2DTECH:   CLIENT CODE
 ORIG.           5" PRINT:   ORIGIN OF DATA
 UWI .       490251119400:   UNIQUE WELL ID
 DICO. A2D Technologies, Inc.:   DIGITIZING COMPANY
~OTHER INFORMATION
~A   DEPT      ROP          GR      TGAS   
# ...
 1624.0000     0.3681  -999.2500     3.0094
 1624.5000     0.3889  -999.2500     2.9917
 1625.0000     0.3888  -999.2500     2.9739
 1625.5000     0.3679  -999.2500     2.9562
 1626.0000     0.3574  -999.2500     2.9385
 1626.5000     0.3574  -999.2500     2.9207
 1627.0000     0.3573  -999.2500     2.9030
 1627.5000     0.3572  -999.2500     2.8853
 1628.0000     0.3885  -999.2500     2.8675
 1628.5000     0.4093  -999.2500     2.8498
 1629.0000     0.4406  -999.2500     2.8321
 1629.5000     0.4510  -999.2500     2.8143
 1630.0000     0.4823  -999.2500     2.7966
 1630.5000     0.4927  -999.2500     2.7789
 1631.0000     0.5135  -999.2500     2.7612
 1631.5000     0.5134  -999.2500     2.7434
 1632.0000     0.5134  -999.2500     2.7257
 1632.5000     0.5133  -999.2500     2.7080
 1633.0000     0.5237  -999.2500     2.6902
 1633.5000     0.5236  -999.2500     2.6725
 1634.0000     0.5236  -999.2500     2.6548
 1634.5000     0.5235  -999.2500     2.6370
 1635.0000     0.5235  -999.2500     2.6193
 1635.5000     0.5234  -999.2500     2.6016
 1636.0000     0.5129  -999.2500     2.5838
 1636.5000     0.4920  -999.2500     2.5661
 1637.0000     0.4815  -999.2500     2.5484
 1637.5000     0.4501  -999.2500     2.5306
 1638.0000     0.4397  -999.2500     2.5129
 1638.5000     0.4292  -999.2500     2.4952
 1639.0000     0.4291  -999.2500     2.4775
 1639.5000     0.4395  -999.2500     2.4597
 1640.0000     0.4395  -999.2500     2.4420
 1640.5000     0.4499  -999.2500     2.4243
 1641.0000     0.4707  -999.2500     2.4065
 1641.5000     0.4915  -999.2500     2.3888
 1642.0000     0.5228  -999.2500     2.3711
 1642.5000     0.5645  -999.2500     2.3533
 1643.0000     0.5748  -999.2500     2.3356
 1643.5000     0.5748  -999.2500     2.3179
 1644.0000     0.5956  -999.2500     2.3001
 1644.5000     0.5851  -999.2500     2.2824
 1645.0000     0.5746  -999.2500     2.2647
 1645.5000     0.5641  -999.2500     2.2470
 1646.0000     0.5328  -999.2500     2.2292
 1646.5000     0.5223  -999.2500     2.2115
 1647.0000     0.4909  -999.2500     2.1938
 1647.5000     0.4804  -999.2500     2.1760
 1648.0000     0.4804  -999.2500     2.1583
 1648.5000     0.4699  -999.2500     2.1406
 1649.0000     0.4489  -999.2500     2.1228
 1649.5000     0.4385  -999.2500     2.1051
 1650.0000     0.4384  -999.2500     2.0874
 1650.5000     0.4279  -999.2500     2.0696
 1651.0000     0.4174  -999.2500     2.0519
 1651.5000     0.4278  -999.2500     2.0342
 1652.0000     0.4382  -999.2500     2.0164
 1652.5000     0.4695  -999.2500     1.9987
 1653.0000     0.4903  -999.2500     1.9810
 1653.5000     0.5216  -999.2500     1.9633
 1654.0000     0.5320  -999.2500     1.9455
 1654.5000     0.5319  -999.2500     1.9278
 1655.0000     0.5214  -999.2500     1.9101
 1655.5000     0.5109  -999.2500     1.8923
 1656.0000     0.4900  -999.2500     1.8746
 1656.5000     0.4899  -999.2500     1.8569
 1657.0000     0.4794  -999.2500     1.8391
 1657.5000     0.4794  -999.2500     1.8214
 1658.0000     0.4793  -999.2500     1.8037
 1658.5000     0.4793  -999.2500     1.7859
 1659.0000     0.4792  -999.2500     1.7682
 1659.5000     0.4896  -999.2500     1.7505
 1660.0000     0.5209  -999.2500     1.7328
 1660.5000     0.5208  -999.2500     1.7150
 1661.0000     0.5521  -999.2500     1.6973
 1661.5000     0.5625  -999.2500     1.6796
 1662.0000     0.5729  -999.2500     1.6618
 1662.5000     0.5728  -999.2500     1.6441
 1663.0000     0.5936  -999.2500     1.6264
 1663.5000     0.6040  -999.2500     1.6086
 1664.0000     0.6040  -999.2500     1.5909
 1664.5000     0.6039  -999.2500     1.5732
 1665.0000     0.6039  -999.2500     1.5554
 1665.5000     0.6038  -999.2500     1.5377
 1666.0000     0.6037  -999.2500     1.5200
 1666.5000     0.6037  -999.2500     1.5022
 1667.0000     0.6036  -999.2500     1.4845
 1667.5000     0.5723  -999.2500     1.4668
 1668.0000     0.5305  -999.2500     1.4491
 1668.5000     0.4887  -999.2500     1.4313
 1669.0000     0.4677  -999.2500     1.4136
 1669.5000     0.4364  -999.2500     1.3959
 1670.0000     0.4363  -999.2500     1.3781
 1670.5000     0.4363  -999.2500     1.3604
 1671.0000     0.4371  -999.2500     1.3427
 1671.5000     0.4466  -999.2500     1.3249
 1672.0000     0.4779  -999.2500     1.3072
 1672.5000     0.4882  -999.2500     1.2895
 1673.0000     0.5091  -999.2500     1.2717
 1673.5000     0.5195  -999.2500     1.2540
 1674.0000     0.5194  -999.2500     1.2363
 1674.5000     0.5298  -999.2500     1.2185
 1675.0000     0.5506  -999.2500     1.2008
 1675.5000     0.5610  -999.2500     1.1831
 1676.0000     0.5610  -999.2500     1.1654
 1676.5000     0.5609  -999.2500     1.1476
 1677.0000     0.5713  -999.2500     1.1299
 1677.5000     0.5712  -999.2500     1.1122
 1678.0000     0.6025  -999.2500     1.0944
 1678.5000     0.6442  -999.2500     1.0767
 1679.0000     0.6859  -999.2500     1.0617
 1679.5000     0.7276  -999.2500     1.0903
 1680.0000     0.7589  -999.2500     1.1150
 1680.5000     0.7588  -999.2500     1.1397
 1681.0000     0.7588  -999.2500     1.1644
 1681.5000     0.7587  -999.2500     1.1891
 1682.0000     0.7795  -999.2500     1.2139
 1682.5000     0.8317  -999.2500     1.2386
 1683.0000     0.8943  -999.2500     1.2633
 1683.5000     0.9360  -999.2500     1.2880
 1684.0000     0.9359  -999.2500     1.3127
 1684.5000     0.8001  -999.2500     1.3374
 1685.0000     0.7375  -999.2500     1.3622
 1685.5000     0.6643  -999.2500     1.3869
 1686.0000     0.5182  -999.2500     1.4116
 1686.5000     0.5599  -999.2500     1.4363
 1687.0000     0.6224  -999.2500     1.4610
 1687.5000     0.6537  -999.2500     1.4857
 1688.0000     0.6536  -999.2500     1.5104
 1688.5000     0.6327  -999.2500     1.5352
 1689.0000     0.6014  -999.2500     1.5599
 1689.5000     0.5595  -999.2500     1.5846
 1690.0000     0.5282  -999.2500     1.6093
 1690.5000     0.5177  -999.2500     1.6340
 1691.0000     0.4863  -999.2500     1.6587
 1691.5000     0.5072  -999.2500     1.6834
 1692.0000     0.5175  -999.2500     1.7082
 1692.5000     0.5592  -999.2500     1.7329
 1693.0000     0.5696  -999.2500     1.7576
 1693.5000     0.6009  -999.2500     1.7823
 1694.0000     0.6217  -999.2500     1.8070
 1694.5000     0.6425  -999.2500     1.8317
 1695.0000     0.6425  -999.2500     1.8565
 1695.5000     0.6529  -999.2500     1.8812
 1696.0000     0.6633  -999.2500     1.9059
 1696.5000     0.6736  -999.2500     1.9306
 1697.0000     0.6631  -999.2500     1.9553
 1697.5000     0.6527  -999.2500     1.9800
 1698.0000     0.6526  -999.2500     2.0047
 1698.5000     0.6421  -999.2500     2.0295
 1699.0000     0.6107  -999.2500     2.0542
 1699.5000     0.5689  -999.2500     2.0789
 1700.0000     0.5584  -999.2500     2.1016
 1700.5000     0.5271  -999.2500     2.0993
 1701.0000     0.5479  -999.2500     2.0972
 1701.5000     0.5583  -999.2500     2.0951
 1702.0000     0.5478  -999.2500     2.0930
 1702.5000     0.5164  -999.2500     2.0909
 1703.0000     0.4851  -999.2500     2.0888
 1703.5000     0.4641  -999.2500     2.0867
 1704.0000     0.4641  -999.2500     2.0846
 1704.5000     0.4640  -999.2500     2.0825
 1705.0000     0.4744  -999.2500     2.0804
 1705.5000     0.5057  -999.2500     2.0783
 1706.0000     0.5265  -999.2500     2.0762
 1706.5000     0.5682  -999.2500     2.0740
 1707.0000     0.5995  -999.2500     2.0719
 1707.5000     0.6412  -999.2500     2.0698
 1708.0000     0.6549  -999.2500     2.0677
 1708.5000     0.6029  -999.2500     2.0656
 1709.0000     0.5613  -999.2500     2.0635
 1709.5000     0.5197  -999.2500     2.0614
 1710.0000     0.4990  -999.2500     2.0593
 1710.5000     0.4782  -999.2500     2.0572
 1711.0000     0.4679  -999.2500     2.0551
 1711.5000     0.4577  -999.2500     2.0530
 1712.0000     0.4579  -999.2500     2.0508
 1712.5000     0.4684  -999.2500     2.0487
 1713.0000     0.5104  -999.2500     2.0466
 1713.5000     0.5210  -999.2500     2.0445
 1714.0000     0.5524  -999.2500     2.0424
 1714.5000     0.5108  -999.2500     2.0403
