~VERSION INFORMATION
 VERS.                2.0:   CWLS LOG ASCII STANDARD - VERSION 2.0
 WRAP.                 NO:   ONE LINE PER DEPTH STEP
~WELL INFORMATION
#MNEM.UNIT      DATA TYPE    INFORMATION
#----------   ------------   ------------------------------
 STRT.F           27.0000:   START DEPTH
 STOP.F          760.0000:   STOP DEPTH
 STEP.F            0.5000:   STEP LENGTH
 NULL.          -999.2500:   NO VALUE
 COMP. FENIX & SCISSON INC:   COMPANY
 WELL.    NPR #3 #33-S-14:   WELL
 FLD .             TEAPOT:   FIELD
 LOC .      S14 T38N R78W:   LOCATION
 CNTY.            NATRONA:   COUNTY
 STAT.            WYOMING:   STATE
 CTRY. UNITED STATES OF AMERICA:   COUNTRY
 SRVC.              Welex:   SERVICE COMPANY
 DATE.        02-FEB-1977:   LOGDATE
 API .       490251027700:   API NUMBER
~CURVE INFORMATION
#MNEM.UNIT       API CODE    CURVE DESCRIPTION
#----------   ------------   ------------------------------
 DEPT.F                  :   
 SPR .MV     07 010 01 00:   SPONTANEOUS POTENTIAL
 SGRD.OHMM   07 220 05 00:   SHALLOW RESISTIVITY
 ILD .OHMM   07 120 46 00:   INDUCTION LOG DEEP
 ILM .OHMM   07 120 44 00:   INDUCTION LOG MEDIUM
 GRD .GAPI   45 310 01 00:   GAMMA RAY FROM DENSITY LOG
 CALD.IN     45 280 60 00:   CALIPER
 RHOB.G/C3   45 350 01 00:   BULK DENSITY
 CORR.G/C3   45 356 01 00:   DENSITY CORRECTION
 DPHI.DEC    45 890 00 00:   DENSITY POROSITY
~PARAMETER INFORMATION
#MNEM.UNIT          VALUE    DESCRIPTION
#----------   ------------   ------------------------------
 PD  .                 GL:   PERMANENT DATUM
 EPD .F              5219:   ELEVATION PERMANENT DATUM
 LMF .                 GL:   LOG MEASURED FROM
 DMF .                 GL:   DRILLING MEASURED FROM
 EKB .F              5224:   KELLING BUSHING
 EGL .F              5219:   GROUND LEVEL
 DATE.           2-2-1977:   RUN DATE
 RUN .                  1:   RUN NUMBER
 DD  .F               761:   DEPTH DRILLER
 DL  .F               762:   DEPTH LOGGER
 BLI .F               760:   BOTTOM LOG INTERVAL
 TLI .F                25:   TOP LOG INTERVAL
 CS  .IN            8.625:   CASING SIZE
 CBD .F              42.5:   CASING BOTTOM DRILLER
 CBL .F                46:   CASING BOTTOM LOGGER
 BS  .IN            7.875:   BIT SIZE
 BSD .F               761:   BIT SIZE AT DEPTH
 DFT .           CHEM-GEL:   DRILLING FLUID TYPE
 DFD .                8.9:   DRILLING FLUID DENSITY
 DFV .                 37:   DRILLING FLUID VISCOSITY
 DFPH.                  7:   DRILLING FLUID PH
 DFL .                8.4:   DRILLING FLUID LOSS
 MSS .          FLOW LINE:   MUD SAMPLE SOURCE
 RMS .OHMM           .231:   RESISTIVITY MUD SAMPLE
 MST .F                45:   MUD SAMPLE TEMPERATURE
 RMF .OHMM           .322:   RESISTIVITY MUD FILTRATE SAMPLE
 MFST.F                45:   MUD FILTRATE SAMPLE TEMPERATURE
 RMC .OHMM           .439:   RESISTIVITY MUD CAKE
 MCST.F                45:   MUD CAKE SAMPLE TEMPERATURE
 MFSS.           MEASURED:   MUD FILTRATE SAMPLE SOURCE
 MCSS.           MEASURED:   MUD CAKE SAMPLE SOURCE
 RMB .OHMM           .182:   RESISTIVITY MUD AT BHT
 BHT .F                57:   BOTTOM HOLE TEMPERATURE
 TCS .HRS             5.5:   TIME CURCULATED STOPPED
 MRT .F                57:   MAXIMUM RECORDED TEMPERATURE
 LUN .               8611:   LOGGING UNIT NUMBER
 LUL .           GILLETTE:   LOGGING UNIT LOCATION
 ENGI.             LAWSON:   RECORDING ENGINEER
 WITN. VOORHEES/RHOADES/JAPP/PETTINGILL/STUEBINGER:   WITNESSED BY
 CLNT.            A2DTECH:   CLIENT CODE
 ORIG.     1", 2.5" PRINT:   ORIGIN OF DATA
 UWI .       490251027700:   UNIQUE WELL ID
 DICO. A2D Technologies, Inc.:   DIGITIZING COMPANY
~OTHER INFORMATION
~A   DEPT      SPR       SGRD        ILD        ILM        GRD       CALD         RHOB      CORR      DPHI   
# ...
  501.5000   -32.6749    10.1688     6.5391     7.5595   117.8744     8.4700     2.4894     0.0683     0.0944
  502.0000   -32.4522    10.0808     6.7830     7.8268   117.1135     8.4905     2.4850     0.0679     0.0946
  502.5000   -32.3176     9.9936     7.0361     8.1036   115.9420     8.5110     2.4916     0.0676     0.0905
  503.0000   -32.2972     9.9072     7.2986     8.2479   114.7536     8.5315     2.4985     0.0672     0.0857
  503.5000   -32.2633    10.4167     7.3913     8.2997   113.5950     8.5520     2.5051     0.0669     0.0788
  504.0000   -32.2300    11.2442     7.4406     8.3518   113.5359     8.5726     2.5066     0.0666     0.0820
  504.5000   -32.1995    11.2182     7.4901     8.4043   115.4645     8.5934     2.4985     0.0642     0.0876
  505.0000   -32.1666    11.1664     7.5277     8.4575   116.7389     8.5936     2.4906     0.0606     0.0932
  505.5000   -32.1348    11.1147     7.5654     8.5104   115.8413     8.5899     2.4827     0.0568     0.0989
  506.0000   -32.1026    11.0634     7.6034     8.5637   114.9974     8.5863     2.4749     0.0531     0.1045
  506.5000   -32.0704    11.3647     7.6414     8.6174   114.1542     8.5827     2.4709     0.0495     0.1089
  507.0000   -32.0390    11.6490     7.6797     8.6715   113.3122     8.5790     2.4741     0.0482     0.1020
  507.5000   -32.0045    11.4705     7.7183     8.7260   112.4698     8.5754     2.4829     0.0526     0.0960
  508.0000   -31.9752    11.2599     7.7571     8.7808   111.6189     8.5718     2.4915     0.0569     0.0900
  508.5000   -31.9513    12.1262     7.7960     8.8359   110.7670     8.5682     2.5001     0.0611     0.0840
  509.0000   -32.0473    12.0303     7.8351     8.8914   110.4630     8.5645     2.5087     0.0654     0.0781
  509.5000   -32.1385    11.8721     7.8745     8.9473   110.1738     8.5609     2.5172     0.0697     0.0721
  510.0000   -32.2357    11.7160     7.9140     9.0035   110.5760     8.5573     2.5258     0.0740     0.0688
  510.5000   -32.3300    12.0177     7.9538     9.0395   110.9948     8.5537     2.5334     0.0758     0.0662
  511.0000   -32.4248    12.3270     7.9937     9.0706   111.4107     8.5500     2.5364     0.0727     0.0663
  511.5000   -32.5200    12.1841     8.0334     9.1018   111.8281     8.5464     2.5341     0.0697     0.0693
  512.0000   -32.6148    12.0435     8.0597     9.1331   112.2228     8.5428     2.5294     0.0667     0.0723
  512.5000   -32.7097    11.9046     8.0311     9.1645   113.0788     8.5392     2.5223     0.0637     0.0764
  513.0000   -32.8056    11.9840     8.0026     9.1960   114.3443     8.5356     2.5136     0.0607     0.0811
  513.5000   -32.9021    12.1020     7.9743     9.2276   115.6095     8.5319     2.5050     0.0577     0.0859
  514.0000   -32.9985    12.0367     7.9460     9.2593   116.8663     8.5283     2.4963     0.0547     0.0906
  514.5000   -33.0948    11.5987     7.9177     9.2912   116.8617     8.5247     2.4876     0.0516     0.0954
  515.0000   -33.1912    11.3436     7.8894     9.3231   114.9973     8.5211     2.4789     0.0488     0.1002
  515.5000   -33.2873    11.7720     7.8618     9.3551   113.1387     8.5174     2.4737     0.0538     0.1017
  516.0000   -33.3835    12.0144     7.8338     9.0240   112.7895     8.5138     2.4777     0.0591     0.0986
  516.5000   -33.4800    11.4705     7.8062     8.7046   114.8415     8.5102     2.4869     0.0644     0.0954
  517.0000   -33.5752    10.9512     7.7787     8.3966   116.5139     8.5065     2.4961     0.0697     0.0922
  517.5000   -33.6727    10.7643     7.6105     8.1703   116.9154     8.5029     2.5059     0.0751     0.0891
  518.0000   -33.7687    10.6585     7.4117     8.0546   116.2843     8.5001     2.4989     0.0802     0.0894
  518.5000   -33.8599    10.5535     7.2182     7.9406   115.5902     8.5016     2.4879     0.0799     0.0955
  519.0000   -34.0838    10.4493     7.0297     7.8282   117.2751     8.5030     2.4767     0.0793     0.1015
  519.5000   -34.5357    10.3457     6.8451     7.7174   119.3525     8.5043     2.4660     0.0788     0.1076
  520.0000   -34.9804    10.1219     6.5854     7.5246   121.0743     8.5057     2.4580     0.0782     0.1137
  520.5000   -35.4287     9.4417     6.0336     7.0194   120.1189     8.5070     2.4499     0.0831     0.1197
  521.0000   -35.8813     8.8071     5.5280     6.5482   119.2049     8.5084     2.4396     0.0894     0.1258
  521.5000   -36.3254     8.2151     5.0648     5.9632   118.2978     8.5097     2.4289     0.0933     0.1315
  522.0000   -36.7744     7.6653     4.6261     5.3978   117.3897     8.5111     2.4144     0.0877     0.1420
  522.5000   -37.2476     7.0848     4.2167     4.8861   116.4715     8.5124     2.3860     0.0825     0.1557
  523.0000   -37.6130     6.4578     3.8259     4.4228   115.5931     8.5138     2.3586     0.0772     0.1709
  523.5000   -37.8508     5.6372     3.4534     4.0035   116.8860     8.5151     2.3311     0.0719     0.1862
  524.0000   -38.0931     4.8680     3.1171     3.6239   118.4181     8.5165     2.2995     0.0667     0.2069
  524.5000   -38.2615     4.2037     2.8140     3.2803   119.9440     8.5178     2.3151     0.0614     0.1969
  525.0000   -37.8346     3.6301     2.6862     2.9693   121.5071     8.5192     2.3398     0.0562     0.1812
  525.5000   -37.4852     2.9928     2.6519     2.8049   123.2884     8.5193     2.3645     0.0527     0.1655
  526.0000   -37.0996     3.0488     2.6709     2.8375   125.2259     8.5193     2.3893     0.0534     0.1523
  526.5000   -36.7275     6.3392     2.7026     2.9583   127.2145     8.5193     2.4141     0.0540     0.1409
  527.0000   -36.3545     5.4153     2.9411     3.2268   126.4134     8.5193     2.4389     0.0546     0.1296
  527.5000   -35.9802     3.6526     3.2003     3.5197   125.0633     8.5192     2.4638     0.0552     0.1182
  528.0000   -35.6037     4.3759     3.4825     3.8391   123.7045     8.5196     2.4855     0.0558     0.1068
  528.5000   -35.2309     8.8492     3.7895     4.1875   123.4577     8.5475     2.4784     0.0564     0.1002
  529.0000   -34.8691     9.7987     4.1235     4.5675   124.6398     8.5782     2.4715     0.0570     0.1025
  529.5000   -34.5418     9.3551     4.4870     4.9820   125.5872     8.5953     2.4646     0.0576     0.1049
  530.0000   -34.2646     8.8328     4.8455     5.2878   125.1712     8.5878     2.4577     0.0582     0.1072
  530.5000   -33.9544     8.0661     5.0752     5.6124   124.7646     8.5807     2.4568     0.0588     0.1096
  531.0000   -34.1104     8.2308     5.1278     5.8954   124.5511     8.5763     2.4569     0.0594     0.1119
  531.5000   -34.3167     8.5129     5.1808     5.9411   125.6968     8.5742     2.4503     0.0600     0.1153
  532.0000   -34.5371     8.8046     5.2669     5.9872   126.8385     8.5722     2.4384     0.0606     0.1191
  532.5000   -34.7492     9.1063     5.2530     5.8707   127.9826     8.5702     2.4267     0.0612     0.1229
  533.0000   -34.9710     9.2689     5.2183     5.7174   129.1466     8.5682     2.4221     0.0617     0.1264
  533.5000   -35.0486     8.1866     5.1839     5.5680   128.1574     8.5662     2.4339     0.0624     0.1211
  534.0000   -34.7791     5.5680     5.1497     5.4827   126.9027     8.5642     2.4434     0.0630     0.1160
  534.5000   -34.5207     6.1086     5.1157     5.3654   125.6463     8.5622     2.4529     0.0636     0.1110
  535.0000   -34.2527     7.4207     5.0820     5.4082   124.3962     8.5602     2.4624     0.0641     0.1062
  535.5000   -33.9864     7.7726     5.1022     5.4802   123.1450     8.5582     2.4657     0.0644     0.1045
  536.0000   -33.7212     6.2614     5.1361     5.5533   122.3075     8.5562     2.4658     0.0642     0.1030
  536.5000   -33.4547     7.3523     5.1702     5.7656   121.9272     8.5542     2.4667     0.0641     0.1014
  537.0000   -33.1892     8.9178     5.4014     6.0226   121.5463     8.5522     2.4697     0.0639     0.0998
  537.5000   -32.9199     8.4486     5.6430     6.2910   121.1688     8.5502     2.4726     0.0638     0.0982
