~VERSION INFORMATION
 VERS.                2.0:   CWLS LOG ASCII STANDARD - VERSION 2.0
 WRAP.                 NO:   ONE LINE PER DEPTH STEP
~WELL INFORMATION
#MNEM.UNIT      DATA TYPE    INFORMATION
#----------   ------------   ------------------------------
 STRT.F           16.0000:   START DEPTH
 STOP.F          306.0000:   STOP DEPTH
 STEP.F            0.5000:   STEP LENGTH
 NULL.          -999.2500:   NO VALUE
 COMP. LAWRENCE-ALLISON &AS:   COMPANY
 WELL. NPR ##3 51-66SX10UI2:   WELL
 FLD .             TEAPOT:   FIELD
 LOC .      S10 T38N R78W:   LOCATION
 CNTY.            NATRONA:   COUNTY
 STAT.            WYOMING:   STATE
 CTRY. UNITED STATES OF AMERICA:   COUNTRY
 SRVC.      Dresser Atlas:   SERVICE COMPANY
 DATE.        16-JAN-1985:   LOGDATE
 API .       490251100300:   API NUMBER
~CURVE INFORMATION
#MNEM.UNIT       API CODE    CURVE DESCRIPTION
#----------   ------------   ------------------------------
 DEPT.F                  :   
 AC  .US/F   60 520 00 00:   ACOUSTIC SONIC
 CALD.IN     45 280 60 00:   CALIPER FROM DENSITY LOG
 CNC .DEC    42 890 03 00:   COMPENSATED NEUTRON POROSITY SANDSTONE
 CORR.G/C3   45 356 01 00:   DENSITY CORRECTION
 GRD .GAPI   45 310 01 00:   GAMMA RAY FROM DENSITY LOG
 PORD.DEC    45 890 12 00:   POROSITY DENSITY SANDSTONE
 RHOB.G/C3   45 350 01 00:   BULK DENSITY
~PARAMETER INFORMATION
#MNEM.UNIT          VALUE    DESCRIPTION
#----------   ------------   ------------------------------
 PD  .                 GL:   PERMANENT DATUM
 EPD .F              5156:   ELEVATION PERMANENT DATUM
 LMF .                 GL:   LOG MEASURED FROM
 DMF .                 GL:   DRILLING MEASURED FROM
 EGL .F              5156:   GROUND LEVEL
 DATE.        16-JAN-1985:   RUN DATE
 RUN .                  1:   RUN NUMBER
 DD  .F               308:   DEPTH DRILLER
 DL  .F               308:   DEPTH LOGGER
 BLI .F               306:   BOTTOM LOG INTERVAL
 TLI .F                20:   TOP LOG INTERVAL
 CS  .IN            8.625:   CASING SIZE
 CBD .F                20:   CASING BOTTOM DRILLER
 CBL .F                20:   CASING BOTTOM LOGGER
 BS  .IN            7.875:   BIT SIZE
 BSD .F               308:   BIT SIZE AT DEPTH
 DFT .          KCL-WATER:   DRILLING FLUID TYPE
 MSS .               TANK:   MUD SAMPLE SOURCE
 RMS .OHMM           0.11:   RESISTIVITY MUD SAMPLE
 MST .F                88:   MUD SAMPLE TEMPERATURE
 RMF .OHMM           0.08:   RESISTIVITY MUD FILTRATE SAMPLE
 MFST.F                88:   MUD FILTRATE SAMPLE TEMPERATURE
 RMC .OHMM           0.13:   RESISTIVITY MUD CAKE
 MCST.F                88:   MUD CAKE SAMPLE TEMPERATURE
 MFSS.               CALC:   MUD FILTRATE SAMPLE SOURCE
 MCSS.               CALC:   MUD CAKE SAMPLE SOURCE
 BHT .F               100:   BOTTOM HOLE TEMPERATURE
 TCS .HRS               2:   TIME CURCULATED STOPPED
 MRT .F               100:   MAXIMUM RECORDED TEMPERATURE
 LUN .               6270:   LOGGING UNIT NUMBER
 LUL .                 FM:   LOGGING UNIT LOCATION
 ENGI.          E. GOVETT:   RECORDING ENGINEER
 WITN.             GROOMS:   WITNESSED BY
 CLNT.            A2DTECH:   CLIENT CODE
 ORIG.           5" PRINT:   ORIGIN OF DATA
 UWI .       490251100300:   UNIQUE WELL ID
 DICO. A2D Technologies, Inc.:   DIGITIZING COMPANY
~OTHER INFORMATION
~A   DEPT        AC      CALD          CNC     CORR         GRD      PORD       RHOB   
   16.0000    40.5973  -999.2500     0.3629  -999.2500    76.4394  -999.2500  -999.2500
   16.5000    39.4651  -999.2500     0.3572  -999.2500    75.9894  -999.2500  -999.2500
   17.0000    47.1197  -999.2500     0.3656  -999.2500    77.4950  -999.2500  -999.2500
   17.5000    55.6026  -999.2500     0.3913  -999.2500    82.4588  -999.2500  -999.2500
   18.0000    93.9126  -999.2500     0.3985  -999.2500    85.0167  -999.2500  -999.2500
   18.5000   127.7147  -999.2500     0.3798  -999.2500    83.3640  -999.2500  -999.2500
   19.0000   136.9489  -999.2500     0.3699  -999.2500    82.6132  -999.2500  -999.2500
   19.5000   177.2112  -999.2500     0.3708  -999.2500    88.4797  -999.2500  -999.2500
   20.0000   183.5152     8.0752     0.3759     0.0596   100.5113     0.2970     2.2744
   20.5000   187.1896     8.0301     0.3742     0.0628   104.0316     0.1840     2.3667
   21.0000   190.1128     8.0150     0.3674     0.0583   105.7774     0.1892     2.3702
   21.5000   189.2042     8.0000     0.3662     0.0522    99.7642     0.1938     2.3582
   22.0000   168.4609     8.0000     0.3693     0.0552    98.8630     0.1837     2.3506
   22.5000   156.4328     8.0000     0.3572     0.0628   100.3686     0.1659     2.3929
   23.0000   141.7000     8.0150     0.3370     0.0689   101.8738     0.1572     2.4110
   23.5000   139.1374     8.0150     0.3207     0.0625   104.4317     0.1515     2.4238
   24.0000   137.7046     8.0150     0.3072     0.0567   107.1399     0.1533     2.4268
   24.5000   139.0482     8.0301     0.3150     0.0642   109.2467     0.1584     2.4185
   25.0000   139.6422     8.0301     0.3180     0.0808   109.0977     0.1599     2.4132
   25.5000   137.5316     8.0451     0.3162     0.1004   110.0466     0.1566     2.4143
   26.0000   135.0452     8.0451     0.3207     0.1125   112.4093     0.1511     2.4260
   26.5000   133.5356     8.0602     0.3104     0.1231   113.0123     0.1500     2.4336
   27.0000   132.0259     8.0602     0.2999     0.1351   108.5025     0.1563     2.4185
   27.5000   131.3427     8.0602     0.2932     0.1489   105.6468     0.1597     2.4154
   28.0000   131.7113     8.0602     0.2993     0.1563   103.9941     0.1452     2.4298
   28.5000   132.1551     8.0595     0.3334     0.1260   106.4016     0.1301     2.4524
   29.0000   132.0639     8.0451     0.3301     0.1185   109.8617     0.1240     2.4667
   29.5000   131.2949     8.0451     0.3189     0.1018   112.4196     0.1207     2.4750
   30.0000   130.5546     8.0451     0.3089     0.0867   111.2180     0.1238     2.4727
   30.5000   129.9465     8.0602     0.3026     0.1093   108.9188     0.1329     2.4632
   31.0000   128.9628     8.0602     0.2981     0.1622   108.2135     0.1420     2.4509
   31.5000   128.3547     8.0752     0.2963     0.2015   109.2679     0.1440     2.4441
   32.0000   127.2207     8.0902     0.3041     0.1924   109.5701     0.1371     2.4403
   32.5000   125.9365     8.0976     0.3313     0.1099   110.3235     0.1295     2.4508
   33.0000   125.4035     8.1131     0.3410     0.0866   110.6257     0.1238     2.4629
   33.5000   125.0209     8.1203     0.3419     0.0790   110.0257     0.1202     2.4719
   34.0000   124.5631     8.1353     0.3331     0.0866   109.2753     0.1241     2.4787
   34.5000   124.2555     8.1504     0.3277     0.1032   109.2617     0.1274     2.4741
   35.0000   124.7744     8.1654     0.3232     0.1183   109.2782     0.1302     2.4679
   35.5000   125.6678     8.1805     0.3171     0.1228   107.3850     0.1288     2.4636
   36.0000   125.9613     8.1805     0.3038     0.1137   103.1161     0.1205     2.4681
   36.5000   125.7289     8.1955     0.2978     0.1001   101.7642     0.1151     2.4802
   37.0000   122.6415     8.1955     0.2866     0.0956   101.0134     0.1163     2.4877
   37.5000   119.6292     8.1955     0.2866     0.1076   103.2709     0.1169     2.4870
   38.0000   117.7439     8.1879     0.2860     0.1318   104.7761     0.1082     2.4870
   38.5000   116.6851     8.1805     0.2833     0.1136   106.7324     0.1048     2.4990
   39.0000   113.8982     8.1805     0.2882     0.0592   108.2377     0.1024     2.5028
   39.5000   111.6373     8.1805     0.3002     0.0230   109.2918     0.0994     2.5082
   40.0000   110.6535     8.1654     0.3371     0.0214   105.5338     0.1049     2.5156
   40.5000   110.1957     8.1353     0.3310     0.0213   100.9489     0.1154     2.5081
   41.0000   110.5111     8.1173     0.3126     0.0184    98.4695     0.1218     2.4945
   41.5000   111.8023     8.1053     0.3011     0.0121   101.4785     0.1275     2.4779
   42.0000   113.2533     8.0902     0.2903     0.0063   106.5927     0.1305     2.4688
   42.5000   113.3983     8.0752     0.2894     0.0048   109.1506     0.1315     2.4635
   43.0000   113.3144     8.0752     0.2891     0.0138   107.9490     0.1330     2.4620
   43.5000   113.2323     8.0902     0.2975     0.0032   107.4990     0.1387     2.4544
   44.0000   113.1501     8.0902     0.3108    -0.0195   109.4557     0.1433     2.4438
   44.5000   112.9929     8.0902     0.3257    -0.0331   109.3068     0.1436     2.4400
   45.0000   112.9858     8.0902     0.3103    -0.0376   107.2030     0.1457     2.4401
   45.5000   113.0539     8.0902     0.2994    -0.0300   103.7158     0.1490     2.4386
   46.0000   113.1238     8.0752     0.2915    -0.0256   102.8450     0.1505     2.4325
   46.5000   113.1905     8.0902     0.2990    -0.0316   109.1627     0.1508     2.4302
   47.0000   112.8826     8.1053     0.3063    -0.0301   111.2694     0.1496     2.4310
   47.5000   112.2746     8.1053     0.3027    -0.0165   111.7220     0.1460     2.4348
   48.0000   111.1205     8.1203     0.2888     0.0257   109.7686     0.1357     2.4446
   48.5000   109.8283     8.1353     0.2789     0.0212   104.5069     0.1300     2.4536
   49.0000   108.5703     8.1525     0.2716     0.0106   100.4482     0.1275     2.4613
   49.5000   107.6617     8.1805     0.2665     0.0045    99.2466     0.1249     2.4687
   50.0000   107.1288     8.1805     0.2722     0.0060   101.0526     0.1240     2.4717
   50.5000   106.8213     8.1505     0.2871     0.0136   104.1463     0.1269     2.4694
   51.0000   106.5137     8.1206     0.3060     0.0151   106.6136     0.1297     2.4656
   51.5000   105.8305     8.1057     0.3003     0.0317   104.0554     0.1319     2.4603
   52.0000   105.0722     8.1059     0.2734     0.0529   101.1968     0.1340     2.4557
   52.5000   104.3890     8.1060     0.2574     0.0423    99.8420     0.1352     2.4535
   53.0000   103.7809     8.0761     0.2562     0.0332    99.8405     0.1307     2.4558
   53.5000   103.0226     8.0462     0.2568     0.0136    99.9898     0.1252     2.4679
   54.0000   100.8368     8.0313     0.2553    -0.0181    98.7849     0.1171     2.4769
   54.5000    98.7261     8.0314     0.2529    -0.0378    93.3023     0.1074     2.4875
   55.0000    97.9627     8.0316     0.2620    -0.0272    90.4611     0.1026     2.5018
   55.5000    97.2688     8.0317     0.2723     0.0051    92.6148     0.0996     2.5124
   56.0000    96.8134     8.0469     0.2766     0.0347    95.7712     0.1035     2.5053
   56.5000    97.0434     8.0471     0.2801     0.0498    98.4765     0.1141     2.4882
   57.0000    97.5623     8.0472     0.2780     0.0302    95.7683     0.1195     2.4799
   57.5000    97.9309     8.0624     0.2722     0.0136    91.7067     0.1240     2.4738
   58.0000    98.5250     8.0626     0.2668     0.0030    89.7503     0.1250     2.4716
   58.5000    99.4195     8.0662     0.2716     0.0136    92.0045     0.1219     2.4746
   59.0000    99.8633     8.0779     0.2816     0.0287    96.4241     0.1242     2.4768
   59.5000   100.0817     8.0780     0.2831     0.0292    99.6704     0.1306     2.4663
   60.0000   100.1516     8.0782     0.2752     0.0151    98.3155     0.1346     2.4565
   60.5000    99.2412     8.0633     0.2692    -0.0018    95.4569     0.1313     2.4557
   61.0000    98.6331     8.0635     0.2702    -0.0106    93.6510     0.1262     2.4678
