~VERSION INFORMATION
 VERS.                2.0:   CWLS LOG ASCII STANDARD - VERSION 2.0
 WRAP.                 NO:   ONE LINE PER DEPTH STEP
~WELL INFORMATION
#MNEM.UNIT      DATA TYPE    INFORMATION
#----------   ------------   ------------------------------
 STRT.F           15.0000:   START DEPTH
 STOP.F          531.0000:   STOP DEPTH
 STEP.F            0.1000:   STEP LENGTH
 NULL.          -999.2500:   NO VALUE
 COMP. LAWRENCE/ALLISON INC:   COMPANY
 WELL.   NPR 3 #42-61SX10:   WELL
 FLD .          N.P.R. #3:   FIELD
 LOC .      S10 T38N R78W:   LOCATION
 CNTY.            NATRONA:   COUNTY
 STAT.            WYOMING:   STATE
 CTRY. UNITED STATES OF AMERICA:   COUNTRY
 SRVC.           Gearhart:   SERVICE COMPANY
 DATE.        06-JUL-1986:   LOGDATE
 API .       490251109500:   API NUMBER
~CURVE INFORMATION
#MNEM.UNIT       API CODE    CURVE DESCRIPTION
#----------   ------------   ------------------------------
 DEPT.F                  :   
 GRR .GAPI   07 310 01 00:   GAMMA RAY
 RILD.OHMM   07 120 46 00:   INDUCTION LOG DEEP
 RILM.OHMM   07 120 44 00:   INDUCTION LOG MEDIUM
~PARAMETER INFORMATION
#MNEM.UNIT          VALUE    DESCRIPTION
#----------   ------------   ------------------------------
 PD  .                 GL:   PERMANENT DATUM
 EPD .F              5196:   ELEVATION PERMANENT DATUM
 LMF .                 KB:   LOG MEASURED FROM
 DAPD.F                 5:   FEET ABOVE PERMANENT DATUM
 DMF .                 KB:   DRILLING MEASURED FROM
 EKB .F              5201:   KELLING BUSHING
 EGL .F              5196:   GROUND LEVEL
 DATE.        06-JUL-1986:   RUN DATE
 RUN .                  1:   RUN NUMBER
 DD  .F               548:   DEPTH DRILLER
 DL  .F               541:   DEPTH LOGGER
 BLI .F               531:   BOTTOM LOG INTERVAL
 TLI .F                15:   TOP LOG INTERVAL
 CS  .IN            8.625:   CASING SIZE
 CBD .F                47:   CASING BOTTOM DRILLER
 CBL .F                47:   CASING BOTTOM LOGGER
 BS  .IN            7.875:   BIT SIZE
 BSD .F               548:   BIT SIZE AT DEPTH
 DFT .                AIR:   DRILLING FLUID TYPE
 BHT .F                82:   BOTTOM HOLE TEMPERATURE
 TCS .HRS            2000:   TIME CURCULATED STOPPED
 TLAB.HRS            2130:   TIME LOGGER AT BOTTOM
 MRT .F                82:   MAXIMUM RECORDED TEMPERATURE
 LUN .               7609:   LOGGING UNIT NUMBER
 LUL .           GILLETTE:   LOGGING UNIT LOCATION
 ENGI.              BAUER:   RECORDING ENGINEER
 WITN.           JENNINGS:   WITNESSED BY
 CLNT.            A2DTECH:   CLIENT CODE
 ORIG.           5" PRINT:   ORIGIN OF DATA
 UWI .       490251109500:   UNIQUE WELL ID
 DICO. A2D Technologies, Inc.:   DIGITIZING COMPANY
~OTHER INFORMATION
~A   DEPT      GRR       RILD       RILM   
# ...
  506.4000   104.6962     8.4331     8.4184
  506.5000   104.5344     8.4219     8.3622
  506.6000   104.5313     8.3742     8.3620
  506.7000   104.5280     8.3743     8.3618
  506.8000   104.5252     8.3744     8.3403
  506.9000   104.8763     8.3744     8.3029
  507.0000   105.3740     8.3745     8.3027
  507.1000   105.9389     8.3686     8.3025
  507.2000   106.6748     8.3160     8.3023
  507.3000   107.2575     8.3161     8.3022
  507.4000   107.6702     8.3162     8.2823
  507.5000   108.3205     8.3163     8.2437
  507.6000   108.8732     8.3163     8.2435
  507.7000   109.1206     8.3164     8.2433
  507.8000   109.3800     8.3165     8.2431
  507.9000   109.6153     8.3165     8.2429
  508.0000   109.8626     8.3166     8.2427
  508.1000   110.1099     8.3167     8.2507
  508.2000   110.2840     8.3168     8.3004
  508.3000   110.2992     8.3168     8.3002
  508.4000   110.5828     8.3169     8.3000
  508.5000   110.5801     8.3170     8.2998
  508.6000   110.4183     8.3171     8.2996
  508.7000   110.1649     8.3171     8.3061
  508.8000   109.9114     8.3172     8.3577
  508.9000   109.6518     8.3173     8.3575
  509.0000   109.1603     8.3174     8.3573
  509.1000   108.4671     8.3174     8.3571
  509.2000   107.8473     8.3175     8.3569
  509.3000   107.4229     8.3176     8.3567
  509.4000   107.1207     8.3176     8.3565
  509.5000   106.2744     8.3177     8.4002
  509.6000   105.6123     8.3506     8.4150
  509.7000   104.6932     8.3765     8.4148
  509.8000   103.6886     8.3766     8.4146
  509.9000   102.7939     8.3767     8.4144
  510.0000   102.2901     8.3767     8.4142
  510.1000   101.7862     8.3768     8.4140
  510.2000   101.2824     8.3769     8.4138
  510.3000   100.9191     8.3769     8.4359
  510.4000   100.6656     8.3770     8.4727
  510.5000   100.4122     8.3771     8.4725
  510.6000   100.1341     8.4211     8.4723
  510.7000   100.1313     8.4363     8.4721
  510.8000    99.9573     8.4364     8.4719
  510.9000    99.8198     8.4364     8.4717
  511.0000    99.8168     8.4365     8.4715
  511.1000    99.8137     8.4366     8.4713
  511.2000    99.8101     8.4367     8.4711
  511.3000   100.0092     8.4648     8.4709
  511.4000   100.2565     8.4963     8.4707
  511.5000   100.5955     8.4964     8.4705
  511.6000   101.0565     8.4965     8.4703
  511.7000   101.3219     8.4965     8.4701
  511.8000   101.7832     8.4966     8.4699
  511.9000   102.4579     8.4967     8.4697
  512.0000   103.0839     8.4967     8.4419
  512.1000   103.5816     8.4957     8.4101
  512.2000   104.0794     8.4374     8.4099
  512.3000   104.6621     8.4375     8.4097
  512.4000   104.8672     8.4376     8.4095
  512.5000   105.2672     8.4376     8.4093
  512.6000   105.7648     8.4377     8.3832
  512.7000   106.2623     8.4378     8.3501
  512.8000   106.7846     8.4379     8.3499
  512.9000   106.7817     8.4046     8.3497
  513.0000   106.5954     8.3564     8.3054
  513.1000   106.3419     8.3203     8.2909
  513.2000   106.0885     8.3204     8.2667
  513.3000   105.8167     8.3205     8.2325
  513.4000   105.2393     8.2823     8.2282
  513.5000   104.8090     8.2624     8.1745
  513.6000   104.3052     8.2455     8.1743
  513.7000   103.9053     8.1983     8.1423
  513.8000   103.6519     8.1473     8.1168
  513.9000   103.3923     8.1047     8.1044
  514.0000   103.1451     8.0583     8.0571
  514.1000   102.8917     8.0339     8.0030
  514.2000   102.6382     8.0225     7.9635
  514.3000   102.6228     7.9765     7.9467
  514.4000   103.1449     7.9220     7.9265
  514.5000   103.9844     7.8855     7.8907
  514.6000   104.4213     7.8666     7.8896
  514.7000   104.9190     7.8505     7.8351
  514.8000   105.5267     7.8055     7.8350
  514.9000   106.2198     7.7571     7.8071
  515.0000   106.7176     7.6760     7.7798
  515.1000   107.2150     7.6490     7.7708
  515.2000   107.7129     7.6284     7.7250
  515.3000   108.2107     7.5847     7.6805
  515.4000   108.6229     7.5412     7.6706
  515.5000   108.9008     7.4897     7.6448
  515.6000   109.4470     7.4552     7.6003
  515.7000   109.6703     7.4374     7.5560
  515.8000   109.5755     7.4221     7.5101
  515.9000   109.3221     7.3855     7.5099
  516.0000   109.0686     7.3856     7.4770
  516.1000  -999.2500     7.3467     7.4570
  516.2000  -999.2500     7.3047     7.4422
  516.3000  -999.2500     7.2629     7.3989
  516.4000  -999.2500     7.2213     7.3525
  516.5000  -999.2500     7.1812     7.3524
  516.6000  -999.2500     7.1813     7.3216
  516.7000  -999.2500     7.1481     7.2789
  516.8000  -999.2500     7.1072     7.2493
  516.9000  -999.2500     7.0665     7.2450
  517.0000  -999.2500     7.0317     7.1983
  517.1000  -999.2500     7.0318     7.1981
  517.2000  -999.2500     6.9948     7.1693
  517.3000  -999.2500     6.9827     7.1474
  517.4000  -999.2500     6.9828     7.1359
  517.5000  -999.2500     6.9828     7.0971
  517.6000  -999.2500     6.9842     7.0969
  517.7000  -999.2500     7.0322     7.0968
  517.8000  -999.2500     7.0651     7.0966
  517.9000  -999.2500     7.0819     7.0964
  518.0000  -999.2500     7.0969     7.1063
  518.1000  -999.2500     7.1379     7.1476
  518.2000  -999.2500     7.1823     7.1962
  518.3000  -999.2500     7.1823     7.2309
  518.4000  -999.2500     7.2114     7.2729
  518.5000  -999.2500     7.2331     7.2975
  518.6000  -999.2500     7.2439     7.3152
  518.7000  -999.2500     7.2857     7.4005
  518.8000  -999.2500     7.3357     7.4435
  518.9000  -999.2500     7.3701     7.4868
  519.0000  -999.2500     7.4127     7.5563
  519.1000  -999.2500     7.4714     7.6274
  519.2000  -999.2500     7.5514     7.6717
  519.3000  -999.2500     7.5983     7.7176
  519.4000  -999.2500     7.5983     7.8052
  519.5000  -999.2500     7.6602     7.8613
  519.6000  -999.2500     7.7273     7.9070
  519.7000  -999.2500     7.7719     7.9693
  519.8000  -999.2500     7.8185     8.0555
  519.9000  -999.2500     7.9258     8.1052
  520.0000  -999.2500     8.0006     8.1941
  520.1000  -999.2500     8.0656     8.2545
  520.2000  -999.2500     8.1121     8.3281
  520.3000  -999.2500     8.1660     8.4096
  520.4000  -999.2500     8.2674     8.4585
  520.5000  -999.2500     8.3117     8.5122
  520.6000  -999.2500     8.3597     8.5571
  520.7000  -999.2500     8.4315     8.6068
  520.8000  -999.2500     8.5161     8.6569
  520.9000  -999.2500     8.5653     8.7072
  521.0000  -999.2500     8.6238     8.7619
  521.1000  -999.2500     8.7054     8.8772
  521.2000  -999.2500     8.7760     8.9223
  521.3000  -999.2500     8.8266     8.9742
  521.4000  -999.2500     8.8776     9.0263
  521.5000  -999.2500     8.9325     9.0788
  521.6000  -999.2500     8.9804     9.1289
  521.7000  -999.2500     9.0323     9.1287
  521.8000  -999.2500     9.0845     9.1734
  521.9000  -999.2500     9.1369     9.2267
  522.0000  -999.2500     9.1896     9.2803
  522.1000  -999.2500     9.2523     9.3342
  522.2000  -999.2500     9.2524     9.3876
  522.3000  -999.2500     9.2844     9.3873
  522.4000  -999.2500     9.3178     9.4315
  522.5000  -999.2500     9.3261     9.4531
  522.6000  -999.2500     9.3837     9.4748
  522.7000  -999.2500     9.4341     9.5298
  522.8000  -999.2500     9.4500     9.5860
  522.9000  -999.2500     9.4766     9.5858
  523.0000  -999.2500     9.5168     9.5856
  523.1000  -999.2500     9.5169     9.6174
  523.2000  -999.2500     9.5170     9.6527
  523.3000  -999.2500     9.5170     9.6525
  523.4000  -999.2500     9.5500     9.6522
  523.5000  -999.2500     9.5843     9.7056
  523.6000  -999.2500     9.5844     9.7198
  523.7000  -999.2500     9.5845     9.7195
  523.8000  -999.2500     9.5845     9.7382
  523.9000  -999.2500     9.6239     9.7876
  524.0000  -999.2500     9.6523     9.7873
  524.1000  -999.2500     9.6672     9.7871
  524.2000  -999.2500     9.7205     9.7869
  524.3000  -999.2500     9.7206     9.8156
  524.4000  -999.2500     9.7207     9.8554
  524.5000  -999.2500     9.7208     9.8551
