~VERSION INFORMATION
 VERS.                2.0:   CWLS LOG ASCII STANDARD - VERSION 2.0
 WRAP.                 NO:   ONE LINE PER DEPTH STEP
~WELL INFORMATION
#MNEM.UNIT      DATA TYPE    INFORMATION
#----------   ------------   ------------------------------
 STRT.F           15.0000:   START DEPTH
 STOP.F          557.0000:   STOP DEPTH
 STEP.F            0.5000:   STEP LENGTH
 NULL.          -999.2500:   NO VALUE
 COMP. FENIX & SICISSOR INC.:   COMPANY
 WELL.       NPR #85-S-10:   WELL
 FLD .             TEAPOT:   FIELD
 LOC .      S10 T38N R78W:   LOCATION
 CNTY.            NATRONA:   COUNTY
 STAT.            WYOMING:   STATE
 CTRY. UNITED STATES OF AMERICA:   COUNTRY
 SRVC.           BIRDWELL:   SERVICE COMPANY
 DATE.        27-NOV-1978:   LOGDATE
 API .       490251075300:   API NUMBER
~CURVE INFORMATION
#MNEM.UNIT       API CODE    CURVE DESCRIPTION
#----------   ------------   ------------------------------
 DEPT.F                  :   
 CALD.IN     45 280 60 00:   CALIPER FROM DENSITY LOG
 DPHI.DEC    45 890 12 00:   DENSITY POROSITY SANDSTONE
 GRD .GAPI   45 310 01 00:   GAMMA RAY FROM DENSITY LOG
 RHOB.G/C3   45 350 01 00:   BULK DENSITY
 CORR.G/C3   45 356 01 00:   DENSITY CORRECTION
 ILD .OHMM   05 120 46 00:   INDUCTION LOG DEEP
 SN  .OHMM   05 040 00 00:   SHORT NORMAL
 SPR .MV     05 010 01 00:   SPONTANEOUS POTENTIAL
~PARAMETER INFORMATION
#MNEM.UNIT          VALUE    DESCRIPTION
#----------   ------------   ------------------------------
 PD  .                 GL:   PERMANENT DATUM
 EPD .F              5196:   ELEVATION PERMANENT DATUM
 LMF .                 KB:   LOG MEASURED FROM
 DAPD.F                 4:   FEET ABOVE PERMANENT DATUM
 DMF .                 KB:   DRILLING MEASURED FROM
 EKB .F              5200:   KELLING BUSHING
 EGL .F              5196:   GROUND LEVEL
 DATE.        27-NOV-1978:   RUN DATE
 RUN .                  1:   RUN NUMBER
 DD  .F               557:   DEPTH DRILLER
 DL  .F               551:   DEPTH LOGGER
 BLI .F               545:   BOTTOM LOG INTERVAL
 TLI .F                48:   TOP LOG INTERVAL
 CS  .IN            8.625:   CASING SIZE
 CBD .F                40:   CASING BOTTOM DRILLER
 CBL .F                35:   CASING BOTTOM LOGGER
 BS  .IN            7.875:   BIT SIZE
 BSD .F               557:   BIT SIZE AT DEPTH
 DFT .                KCL:   DRILLING FLUID TYPE
 DFD .                8.8:   DRILLING FLUID DENSITY
 DFV .                 38:   DRILLING FLUID VISCOSITY
 DFPH.               11.1:   DRILLING FLUID PH
 DFL .                 14:   DRILLING FLUID LOSS
 MSS .           FLOWLINE:   MUD SAMPLE SOURCE
 RMS .OHMM           0.32:   RESISTIVITY MUD SAMPLE
 MST .F                58:   MUD SAMPLE TEMPERATURE
 RMF .OHMM           0.31:   RESISTIVITY MUD FILTRATE SAMPLE
 MFST.F                74:   MUD FILTRATE SAMPLE TEMPERATURE
 RMC .OHMM           0.53:   RESISTIVITY MUD CAKE
 MCST.F                75:   MUD CAKE SAMPLE TEMPERATURE
 MFSS.               MEAS:   MUD FILTRATE SAMPLE SOURCE
 MCSS.               MEAS:   MUD CAKE SAMPLE SOURCE
 RMB .OHMM           0.31:   RESISTIVITY MUD AT BHT
 BHT .F                59:   BOTTOM HOLE TEMPERATURE
 TCS .HRS               2:   TIME CURCULATED STOPPED
 MRT .F                59:   MAXIMUM RECORDED TEMPERATURE
 LUN .               2958:   LOGGING UNIT NUMBER
 LUL .             CASPER:   LOGGING UNIT LOCATION
 ENGI.             MILLER:   RECORDING ENGINEER
 WITN.           DINSMORE:   WITNESSED BY
 CLNT.            A2DTECH:   CLIENT CODE
 ORIG.         2.5" PRINT:   ORIGIN OF DATA
 UWI .       490251075300:   UNIQUE WELL ID
 DICO. A2D Technologies, Inc.:   DIGITIZING COMPANY
~OTHER INFORMATION
~A   DEPT     CALD       DPHI         GRD      RHOB       CORR        ILD         SN        SPR   
# ...
  379.5000     8.0607     0.2331    77.4016     2.2672     0.0265    24.1294    22.0905    -4.3928
  380.0000     8.0859     0.2199    76.1730     2.2989     0.0416    24.8112    22.0935    -4.3899
  380.5000     8.0865     0.2092    74.3272     2.3201     0.0476    25.1869    22.0965    -4.3869
  381.0000     8.0871     0.2056    74.4198     2.3262     0.0506    25.5683    22.0995    -4.3840
  381.5000     8.0877     0.2050    76.6281     2.3323     0.0476    26.2294    22.1024    -4.3811
  382.0000     8.0883     0.2074    78.5495     2.3323     0.0413    26.3485    22.1055    -4.3780
  382.5000     8.0891     0.2128    79.9923     2.3278     0.0323    26.7474    22.1086    -4.3750
  383.0000     8.1203     0.2164    80.5309     2.3214     0.0266    26.7749    22.1117    -4.3720
  383.5000     8.1209     0.2080    80.5370     2.3172     0.0304    26.2135    22.1148    -4.6742
  384.0000     8.1215     0.2037    80.5432     2.3287     0.0366    25.4864    22.1179    -4.6707
  384.5000     8.1528     0.2037    80.5494     2.3362     0.0417    25.4830    22.1210    -4.6677
  385.0000     8.1534     0.2037    80.5567     2.3384     0.0361    24.7762    22.1241    -4.6646
  385.5000     8.1540     0.2030    79.9454     2.3384     0.0282    24.0889    22.1278    -4.6610
  386.0000     8.1549     0.2018    78.7168     2.3407     0.0237    24.0857    21.8227    -4.6581
  386.5000     8.1631     0.2012    77.1796     2.3423     0.0267    23.4175    21.5218    -4.3503
  387.0000     8.1714     0.2005    77.4942     2.3430     0.0297    23.3065    21.5247    -4.0425
  387.5000     8.1796     0.1992    79.3520     2.3446     0.0297    22.6855    21.5276     5.4116
  388.0000     8.1878     0.1988    86.3953     2.3446     0.0298    22.1331    20.9352     4.8048
  388.5000     8.1961     0.1999    88.7999     2.3461     0.0298    22.0018    20.3248     4.8079
  389.0000     8.2043     0.2100    87.7057     2.3325     0.0298    21.6677    19.7989     4.8110
  389.5000     8.2125     0.2145    86.4352     2.3189     0.0268    21.5130    19.2541     4.8140
  390.0000     8.2209     0.2156    84.6307     2.3144     0.0270    21.5095    18.8921     4.8171
  390.5000     8.2521     0.2150    82.4762     2.3145     0.0366    21.2077    18.7273     4.8201
  391.0000     8.2528     0.2132    83.7167     2.3213     0.0485    20.9101    18.7300     4.8232
  391.5000     8.2534     0.2072    84.3400     2.3356     0.0547    20.9073    18.7331     4.8268
  392.0000     8.2540     0.1987    84.3460     2.3528     0.0600    20.9045    18.7356     4.8297
  392.5000     8.2853     0.1750    83.7346     2.3775     0.0600    20.9016    18.7381     4.8326
  393.0000     8.2859     0.1352    83.1101     2.4132     0.0600    21.2430    19.0052     4.8356
  393.5000     8.2865     0.1267    82.4434     2.4387     0.0600    21.6415    19.2761     4.8385
  394.0000     8.2871     0.1255    81.5370     2.4658     0.0583    23.1594    19.5564     4.8415
  394.5000     8.3184     0.1291    80.6721     2.4690     0.0510    24.8557    19.8582     4.8135
  395.0000     8.3498     0.1436    80.2726     2.4582     0.0420    25.4086    20.1125     4.1260
  395.5000     8.3504     0.1643    79.4495     2.4334     0.0300    25.4051    20.1905     3.6307
  396.0000     8.3510     0.1872    79.1481     2.4100     0.0180    25.4010    20.4021     3.6341
  396.5000     8.3516     0.2088    79.1543     2.3774     0.0150    25.3975    20.4050     3.6372
  397.0000     8.3522     0.2148    81.9395     2.3358     0.0120    24.3498    20.2990     3.6402
  397.5000     8.2914     0.2179    82.1554     2.3176     0.0211    23.3454    20.2961     3.6439
  398.0000     8.2920     0.2153    81.3342     2.3146     0.0273    22.3823    20.2933     3.3415
  398.5000     8.2926     0.2130    80.7228     2.3224     0.0305    21.7362    20.0431     3.3449
  399.0000     8.2933     0.2118    80.7288     2.3255     0.0331    20.7676    19.4462     3.3478
  399.5000     8.2939     0.2082    81.0434     2.3283     0.0331    19.9333    18.6502     3.0457
  400.0000     8.2944     0.2076    81.0494     2.3298     0.0293    19.1080    17.8808     3.0488
  400.5000     8.2942     0.2075    81.9753     2.3298     0.0240    18.6710    17.3849     3.0503
  401.0000     8.2941     0.2081    82.1276     2.3298     0.0187    18.2339    16.6677     2.7468
  401.5000     8.2940     0.2111    82.5926     2.3298     0.0134    17.7968    16.2054     2.3781
  402.0000     8.2939     0.2148    84.1358     2.3238     0.0089    17.3598    15.7559     2.1400
  402.5000     8.2937     0.2202    86.2963     2.3162     0.0058    17.1399    15.7537     2.1418
  403.0000     8.2936     0.2226    86.9136     2.3117     0.0071    17.1387    15.7515     2.1433
  403.5000     8.2934     0.2238    86.9136     2.3072     0.0118    17.1375    15.7493     1.8399
  404.0000     8.2626     0.2238    86.9136     2.3041     0.0237    17.1363    15.7471     1.6667
  404.5000     8.2624     0.2224    86.5885     2.3026     0.0267    17.1351    15.7449     1.5381
  405.0000     8.2316     0.2209    85.6378     2.3059     0.0267    17.1339    15.7427     1.2348
  405.5000     8.2314     0.2181    85.0617     2.3090     0.0266    17.1327    15.7405     1.2364
  406.0000     8.2313     0.2156    86.4773     2.3122     0.0296    17.1315    15.7383     0.9329
  406.5000     8.2262     0.2103    87.2222     2.3163     0.0325    17.1301    15.7357     0.9345
  407.0000     8.2210     0.2007    86.9136     2.3207     0.0356    17.1289    15.7336     0.9360
  407.5000     8.2158     0.1886    86.4403     2.3301     0.0388    17.1278    16.1781     0.3277
  408.0000     8.2106     0.1681    85.0617     2.3526     0.0450    17.1266    16.1759    -0.0203
  408.5000     8.2054     0.1384    81.9753     2.3931     0.0474    17.1255    16.1737    -0.2791
  409.0000     8.2002     0.1168    78.8889     2.4428     0.0355    17.1243    16.1715    -0.6707
  409.5000     8.1951     0.1090    77.9630     2.4903     0.0167    17.3792    16.1692    -1.1062
  410.0000     8.1899     0.1126    77.9630     2.4994     0.0023    17.6411    16.1670    -1.4939
  410.5000     8.1847     0.1183    77.9630     2.4903    -0.0040    18.1594    16.3928    -1.7973
  411.0000     8.1795     0.1174    77.9630     2.4885    -0.0040    18.8430    16.6217    -2.1006
  411.5000     8.1743     0.1168    77.9630     2.4858    -0.0041    20.0673    16.7107    -2.4037
  412.0000     8.1681     0.1177    77.4980     2.4809    -0.0011    20.1278    16.9617    -2.7073
  412.5000     8.1986     0.1649    75.8025     2.4495    -0.0011    19.9650    17.0860    -3.0105
  413.0000     8.2291     0.1957    74.1317     2.4101    -0.0012    19.3746    17.0832    -3.0090
  413.5000     8.2290     0.1999    73.4897     2.3604    -0.0012    18.0989    17.0809    -3.0076
  414.0000     8.2288     0.1891    73.6873     2.3503     0.0205    17.1122    16.6071    -3.0061
  414.5000     8.2287     0.1867    76.4198     2.3588     0.0382    15.7327    16.3740    -3.0046
  415.0000     8.2285     0.1944    79.1977     2.3618     0.0360    15.0847    16.1443    -3.0030
  415.5000     8.1977     0.2017    83.5748     2.3452     0.0219    14.4634    15.4783    -3.0015
  416.0000     8.1669     0.2081    85.6790     2.3285     0.0267    14.0605    14.8397    -3.0000
  416.5000     8.1667     0.2115    84.8724     2.3240     0.0359    13.6739    14.8084    -2.9985
  417.0000     8.1359     0.2091    84.3251     2.3317     0.0421    13.6730    14.4260    -3.3018
  417.5000     8.1357     0.2066    83.6831     2.3378     0.0436    13.6277    14.0258    -3.3003
  418.0000     8.1356     0.2024    84.9507     2.3413     0.0466    13.4810    13.9523    -3.2988
  418.5000     8.1661     0.1994    86.2963     2.3437     0.0465    13.2927    13.7420    -3.2970
  419.0000     8.1659     0.1964    86.2963     2.3458     0.0465    13.2918    13.5349    -3.9053
  419.5000     8.1658     0.1928    85.0617     2.3555     0.0464    13.1936    13.2543    -3.9038
