~VERSION INFORMATION
 VERS.                2.0:   CWLS LOG ASCII STANDARD - VERSION 2.0
 WRAP.                 NO:   ONE LINE PER DEPTH STEP
~WELL INFORMATION
#MNEM.UNIT      DATA TYPE    INFORMATION
#----------   ------------   ------------------------------
 STRT.F           36.0000:   START DEPTH
 STOP.F          557.0000:   STOP DEPTH
 STEP.F            0.5000:   STEP LENGTH
 NULL.          -999.2500:   NO VALUE
 COMP. FENIX & SCISSON U.S. NAVY:   COMPANY
 WELL.        NPR #62-S-3:   WELL
 FLD .             TEAPOT:   FIELD
 LOC .       S3 T38N R78W:   LOCATION
 CNTY.            NATRONA:   COUNTY
 STAT.            WYOMING:   STATE
 CTRY. UNITED STATES OF AMERICA:   COUNTRY
 SRVC.              Welex:   SERVICE COMPANY
 DATE.        07-MAY-1977:   LOGDATE
 API .       490251035000:   API NUMBER
~CURVE INFORMATION
#MNEM.UNIT       API CODE    CURVE DESCRIPTION
#----------   ------------   ------------------------------
 DEPT.F                  :   
 SPR .MV     07 010 01 00:   SPONTANEOUS POTENTIAL
 ILD .OHMM   07 120 46 00:   INDUCTION LOG DEEP
 ILM .OHMM   07 120 44 00:   INDUCTION LOG MEDIUM
 SGRD.OHMM   07 221 05 00:   SHALLOW SHORT GUARD RESISTIVITY
 GRD .GAPI   45 310 01 00:   GAMMA RAY FROM DENSITY LOG
 CALD.IN     45 280 60 00:   CALIPER FROM DENSITY LOG
 CORR.G/C3   45 356 01 00:   DENSITY CORRECTION
 RHOB.G/C3   45 350 01 00:   BULK DENSITY
 DPHI.DEC    45 890 12 00:   DENSITY POROSITY SANDSTONE
 NEUT.NAPI   35 330 01 00:   NEUTRON
~PARAMETER INFORMATION
#MNEM.UNIT          VALUE    DESCRIPTION
#----------   ------------   ------------------------------
 PD  .                 GL:   PERMANENT DATUM
 EPD .F              5136:   ELEVATION PERMANENT DATUM
 LMF .                 GL:   LOG MEASURED FROM
 DMF .                 GL:   DRILLING MEASURED FROM
 EGL .F              5136:   GROUND LEVEL
 DATE.        07-MAY-1977:   RUN DATE
 RUN .                  1:   RUN NUMBER
 DD  .F               560:   DEPTH DRILLER
 DL  .F               560:   DEPTH LOGGER
 BLI .F               558:   BOTTOM LOG INTERVAL
 TLI .F                35:   TOP LOG INTERVAL
 CS  .IN            8.625:   CASING SIZE
 CBD .F                40:   CASING BOTTOM DRILLER
 CBL .F                42:   CASING BOTTOM LOGGER
 BS  .IN            7.875:   BIT SIZE
 BSD .F               560:   BIT SIZE AT DEPTH
 DFT .             KCLMUD:   DRILLING FLUID TYPE
 DFD .                8.8:   DRILLING FLUID DENSITY
 MSS .           FLOWLINE:   MUD SAMPLE SOURCE
 RMS .OHMM           0.24:   RESISTIVITY MUD SAMPLE
 MST .F                60:   MUD SAMPLE TEMPERATURE
 RMF .OHMM           0.20:   RESISTIVITY MUD FILTRATE SAMPLE
 MFST.F                60:   MUD FILTRATE SAMPLE TEMPERATURE
 RMC .OHMM           0.29:   RESISTIVITY MUD CAKE
 MCST.F                60:   MUD CAKE SAMPLE TEMPERATURE
 MFSS.               MEAS:   MUD FILTRATE SAMPLE SOURCE
 MCSS.               MEAS:   MUD CAKE SAMPLE SOURCE
 RMB .OHMM             17:   RESISTIVITY MUD AT BHT
 BHT .F                71:   BOTTOM HOLE TEMPERATURE
 TCS .HRS            0230:   TIME CURCULATED STOPPED
 MRT .F                71:   MAXIMUM RECORDED TEMPERATURE
 LUN .               8611:   LOGGING UNIT NUMBER
 LUL .           GILLETTE:   LOGGING UNIT LOCATION
 ENGI.            C. DOCK:   RECORDING ENGINEER
 WITN.           ROB LYON:   WITNESSED BY
 CLNT.            A2DTECH:   CLIENT CODE
 ORIG.           5" PRINT:   ORIGIN OF DATA
 UWI .       490251035000:   UNIQUE WELL ID
 DICO. A2D Technologies, Inc.:   DIGITIZING COMPANY
~OTHER INFORMATION
~A   DEPT      SPR        ILD        ILM       SGRD        GRD       CALD       CORR       RHOB       DPHI       NEUT   
# ...
  538.5000   -34.8277     9.9937    13.7708    16.7627    96.2817     7.7270    -0.0009     2.4893     0.1098  -999.2500
  539.0000   -35.2692     9.8611    14.5597    16.3063    50.0010     7.7285    -0.0020     2.4833     0.1155  -999.2500
  539.5000   -35.4138     9.7965    14.9539    15.8624  -999.2500     7.7300    -0.0031     2.4804     0.1172  -999.2500
  540.0000   -35.5595     9.6665    14.1550    15.1128  -999.2500     7.7387    -0.0035     2.4820     0.1187  -999.2500
  540.5000   -35.8519     9.5393    12.6769    15.0104  -999.2500     7.7558    -0.0035     2.4723     0.1232  -999.2500
  541.0000   -35.8475     9.4769    12.2503    15.1170  -999.2500     7.7580    -0.0034     2.4633     0.1247  -999.2500
  541.5000   -35.8430     9.3521    12.3396    15.4369  -999.2500     7.7603    -0.0025     2.4701     0.1231  -999.2500
  542.0000   -35.9887     9.2280    12.8667    15.6547  -999.2500     7.7774    -0.0017     2.4807     0.1180  -999.2500
  542.5000   -35.9831     9.1056    13.3239    15.6623  -999.2500     7.7797    -0.0009     2.4853     0.1144  -999.2500
  543.0000   -35.9787     8.9229    13.5141    15.1253  -999.2500     7.7819    -0.0008     2.4921     0.1102  -999.2500
  543.5000   -35.9742     8.6838    13.7071    14.7135  -999.2500     7.7842     0.0008     2.5004     0.1057  -999.2500
  544.0000   -36.1199     8.4510    13.7118    15.6634  -999.2500     7.7710     0.0024     2.5057     0.1019  -999.2500
  544.5000   -36.4124     8.3379    13.4349    16.6746  -999.2500     7.7590     0.0041     2.5087     0.0995  -999.2500
  545.0000   -36.5569     8.2273    13.0729    15.6677  -999.2500     7.7608     0.0049     2.5058     0.1002  -999.2500
  545.5000   -36.8516     8.1753    12.5460    14.5189  -999.2500     7.7316     0.0049     2.5036     0.1037  -999.2500
  546.0000   -36.5480     8.1789    12.1238    14.6220  -999.2500     7.7206     0.0057     2.5029     0.1049  -999.2500
  546.5000   -35.7984     8.1826    12.0434    14.6240  -999.2500     7.7080     0.0064     2.5060     0.1027  -999.2500
  547.0000   -34.4526     8.2430    12.4714    13.8366  -999.2500     7.7103     0.0072     2.5130     0.0999  -999.2500
  547.5000   -31.3185     8.3614    12.0528    12.7334  -999.2500     7.7125     0.0094     2.5174     0.0972  -999.2500
  548.0000   -26.3960    10.0100    11.9728    12.1317  -999.2500     7.6999     0.0125     2.5181     0.0955  -999.2500
  548.5000   -17.5987    12.0667    12.3139    12.8256  -999.2500     7.7022     0.0155     2.5159     0.0951  -999.2500
  549.0000    -3.5853    13.0246    12.4897    15.1505  -999.2500     7.6742     0.0185     2.5137     0.0957  -999.2500
  549.5000    -0.8983    13.5816    12.1532    20.1364  -999.2500     7.6770     0.0222     2.5100     0.0969  -999.2500
  550.0000    -0.5958    13.6808    11.9893    13.9445  -999.2500     7.6638     0.0260     2.5071     0.0998  -999.2500
  550.5000    -0.5913  -999.2500    12.0777    12.4816  -999.2500     7.6512     0.0290     2.5102     0.0998  -999.2500
  551.0000    -0.5868  -999.2500    13.4023    14.5453  -999.2500     7.6238     0.0313     2.5125     0.0992  -999.2500
  551.5000    -0.5824  -999.2500    16.3839    14.7462  -999.2500     7.6111     0.0336     2.5028     0.1028  -999.2500
  552.0000    -0.5779  -999.2500    15.0880    12.8369  -999.2500     7.5540     0.0343     2.4894     0.1100  -999.2500
  552.5000    -0.5734  -999.2500  -999.2500    12.2286  -999.2500     7.4676     0.0343     2.4707     0.1189  -999.2500
  553.0000    -0.5690  -999.2500  -999.2500    10.6414  -999.2500     7.3659     0.0343     2.4588     0.1282  -999.2500
  553.5000    -0.5645  -999.2500  -999.2500     8.5123  -999.2500     7.2047     0.0343     2.4454     0.1348  -999.2500
  554.0000    -0.5600  -999.2500  -999.2500     7.0746  -999.2500     6.9692     0.0358     2.4357     0.1423  -999.2500
  554.5000    -0.5556  -999.2500  -999.2500    10.3147  -999.2500     6.7337     0.0381     2.4335     0.1420  -999.2500
  555.0000    -0.5511  -999.2500  -999.2500    13.0375  -999.2500     6.5944     0.0419     2.4433     0.1386  -999.2500
  555.5000    -0.6968  -999.2500  -999.2500    13.5837  -999.2500     6.4537     0.0449     2.4509     0.1371  -999.2500
  556.0000    -1.2873  -999.2500  -999.2500    13.8790  -999.2500     6.3665     0.0479     2.4359     0.1488  -999.2500
  556.5000    -1.8790  -999.2500  -999.2500    14.3627  -999.2500     6.2962     0.0494     2.4143     0.1587  -999.2500
  557.0000    -2.9955  -999.2500  -999.2500    14.4646  -999.2500     6.2689     0.0486     2.3993     0.1657  -999.2500
