~VERSION INFORMATION
 VERS.                2.0:   CWLS LOG ASCII STANDARD - VERSION 2.0
 WRAP.                 NO:   ONE LINE PER DEPTH STEP
~WELL INFORMATION
#MNEM.UNIT      DATA TYPE    INFORMATION
#----------   ------------   ------------------------------
 STRT.F            0.0000:   START DEPTH
 STOP.F          484.0000:   STOP DEPTH
 STEP.F            0.5000:   STEP LENGTH
 NULL.          -999.2500:   NO VALUE
 COMP. LAWRENCE/ALLISON INC:   COMPANY
 WELL.  NPR 3 #68-63-SX-3:   WELL
 FLD .             TEAPOT:   FIELD
 LOC .       S3 T38N R78W:   LOCATION
 CNTY.            NATRONA:   COUNTY
 STAT.            WYOMING:   STATE
 CTRY. UNITED STATES OF AMERICA:   COUNTRY
 SRVC.           Gearhart:   SERVICE COMPANY
 DATE.        29-JUN-1988:   LOGDATE
 API .       490251122900:   API NUMBER
~CURVE INFORMATION
#MNEM.UNIT       API CODE    CURVE DESCRIPTION
#----------   ------------   ------------------------------
 DEPT.F                  :   
 GRR .GAPI   07 310 01 00:   GAMMA RAY FROM RES. LOG.
 ILD .OHMM   07 120 46 00:   INDUCTION LOG DEEP
 ILM .OHMM   07 120 44 00:   INDUCTION LOG MEDIUM
 CALI.IN     70 280 01 00:   CALIPER
~PARAMETER INFORMATION
#MNEM.UNIT          VALUE    DESCRIPTION
#----------   ------------   ------------------------------
 PD  .                 GL:   PERMANENT DATUM
 EPD .F              5158:   ELEVATION PERMANENT DATUM
 LMF .                 KB:   LOG MEASURED FROM
 DAPD.F                10:   FEET ABOVE PERMANENT DATUM
 DMF .                 KB:   DRILLING MEASURED FROM
 EKB .F              5168:   KELLING BUSHING
 EGL .F              5158:   GROUND LEVEL
 DATE.            6-29-88:   RUN DATE
 RUN .                  1:   RUN NUMBER
 DD  .F               490:   DEPTH DRILLER
 DL  .F             492.5:   DEPTH LOGGER
 BLI .F               484:   BOTTOM LOG INTERVAL
 TLI .F                49:   TOP LOG INTERVAL
 CS  .IN            9.625:   CASING SIZE
 CBD .F                49:   CASING BOTTOM DRILLER
 CBL .F                49:   CASING BOTTOM LOGGER
 BS  .IN             8.75:   BIT SIZE
 BSD .F               490:   BIT SIZE AT DEPTH
 DFT .                AIR:   DRILLING FLUID TYPE
 TLAB.HRS            1000:   TIME LOGGER AT BOTTOM
 MRT .F                70:   MAXIMUM RECORDED TEMPERATURE
 LUN .               7597:   LOGGING UNIT NUMBER
 LUL .           GILLETTE:   LOGGING UNIT LOCATION
 ENGI.          HUCKFELDT:   RECORDING ENGINEER
 WITN.              FIVAS:   WITNESSED BY
 CLNT.            A2DTECH:   CLIENT CODE
 ORIG.  2", 5", 10" PRINT:   ORIGIN OF DATA
 UWI .       490251122900:   UNIQUE WELL ID
 DICO. A2D Technologies, Inc.:   DIGITIZING COMPANY
~OTHER INFORMATION
~A    DEPT      GRR       ILD        ILM       CALI   
# ...
   73.0000   120.2595     9.0389     8.7162    10.3322
   73.5000   119.6742     8.9614     8.6582    10.2923
   74.0000   118.4063     8.8847     8.6006    10.4211
   74.5000   117.0597     8.8612     8.5435    10.5749
   75.0000   117.5244     8.9714     8.5375    10.7217
   75.5000   119.3951     9.0731     8.5601    10.6861
   76.0000   119.9645     9.1759     8.5774    10.5595
   76.5000   119.4624     9.2800     8.5948    10.3726
   77.0000   119.8491     9.3852     8.6124    10.3079
   77.5000   120.2624     9.4737     8.6470    10.3754
   78.0000   120.6759     9.6098     8.7407    10.4948
   78.5000   120.5412     9.7479     8.8354    10.7045
   79.0000   120.3367     9.8881     9.0554    10.8023
   79.5000   119.7790    10.0302     9.2694    10.6757
   80.0000   117.5695    10.1743     9.4884    10.4422
   80.5000   115.5524    10.3206     9.7125    10.2124
   81.0000   114.3373    10.4766     9.9420    10.2596
   81.5000   112.8581    10.6943    10.0506    10.3969
   82.0000   110.1227    10.9287    10.1178    10.6154
   82.5000   110.0556    11.1683    10.1883    10.7585
   83.0000   110.8692    11.4131    10.4193    10.7216
   83.5000   109.3861    11.6632    10.6655    10.5899
   84.0000   107.5101    11.9189    10.9174    10.4484
   84.5000   106.0541    12.1802    11.2597    10.3484
   85.0000   106.0897    12.4472    11.6384    10.4975
   85.5000   106.1370    12.7202    12.0299    10.6977
   86.0000   104.0971    12.9988    12.4354    10.8954
   86.5000   102.4176    13.2838    12.8556    11.0736
   87.0000   103.0454    13.3661    13.2225    11.0305
   87.5000   104.3188    13.3945    13.2219    10.9058
   88.0000   105.6136    13.4233    13.1069    10.7845
   88.5000   105.9220    13.4512    13.0142    10.7050
   89.0000   106.4303    13.4701    12.9034    10.7583
   89.5000   107.5423    13.1891    12.7273    10.9100
   90.0000   108.6871    12.9629    12.5537    11.1235
   90.5000   108.8978    12.7406    12.3865    11.0981
   91.0000   107.4809    12.5221    12.2669    10.9970
   91.5000   105.9390    12.3074    12.1254    10.8859
   92.0000   104.3970    12.2718    11.9846    10.8254
   92.5000   102.8741    12.3582    11.8455    10.9039
   93.0000   102.1652    12.4194    11.7814    11.0817
   93.5000   101.6074    12.4808    11.7315    11.3340
   94.0000   101.6211    12.5423    11.6818    11.4494
   94.5000   101.6220    12.6041    11.6323    11.0185
   95.0000   101.6268    12.6662    11.6056    10.7977
   95.5000   101.3196    12.7286    11.7774    10.6669
   96.0000   100.8425    12.7371    11.9157    10.6491
   96.5000   100.3566    12.5311    12.0456    10.6569
   97.0000    99.7741    12.3926    12.0058    10.6650
   97.5000   100.2516    12.2555    11.9469    10.6585
   98.0000   101.6793    12.1582    11.8883    10.6392
   98.5000   103.0845    12.0434    11.8300    10.6202
   99.0000   103.5509    11.9383    11.6735    10.6092
   99.5000   101.4463    11.8343    11.5070    10.6245
  100.0000    99.4075    11.6411    11.2758    10.6392
  100.5000    99.2582    11.4958    10.8969    10.6681
  101.0000   102.9880    11.3525    10.5306    10.7078
  101.5000   106.5282    11.2109    10.2857    10.6904
  102.0000   105.6891    11.0710    10.2849    10.6711
  102.5000   104.0999    10.9588    10.2653    10.6900
  103.0000   104.4480    10.9052    10.2520    10.7351
  103.5000   104.8411    10.8514    10.2383    10.7675
  104.0000   104.7418    10.8028    10.2247    10.7491
  104.5000   102.3441    10.6595    10.2111    10.6823
  105.0000   101.5216    10.5895    10.1975    10.6036
  105.5000   101.5989    10.5150    10.1883    10.5559
  106.0000   102.4362    10.4410    10.1039    10.5827
  106.5000   103.9733    10.3674    10.0131    10.6533
  107.0000   106.3728    10.2943     9.9232    10.6860
  107.5000   108.4137    10.2226     9.8341    10.6867
  108.0000   109.5327    10.1883     9.7458    10.6866
  108.5000   109.5619    10.1607     9.6582    10.6865
  109.0000   107.6522    10.1311     9.6309    10.6870
  109.5000   104.9057    10.0932     9.6000    10.7112
  110.0000   102.1697    10.0937     9.5692    10.7160
  110.5000    99.5413    10.0614     9.5385    10.6877
  111.0000    99.5880    10.0331     9.5080    10.6297
  111.5000   100.4720    10.0048     9.4771    10.5716
  112.0000   101.3649     9.9766     9.4498    10.5563
  112.5000   102.4839     9.9484     9.3945    10.5741
  113.0000   104.5586     9.9204     9.3399    10.5924
  113.5000   106.5871     9.7997     9.2832    10.6108
  114.0000   108.6069     9.5001     9.0947    10.6291
  114.5000   110.3083     9.2104     8.8507    10.6475
  115.0000   110.9187     8.9454     8.6173    10.6659
  115.5000   111.5614     8.8341     8.4168    10.6740
  116.0000   112.4110     8.6907     8.2128    10.6816
  116.5000   113.3714     8.5493     8.0138    10.6926
  117.0000   112.0569     8.4119     7.8518    10.7189
  117.5000   109.8860     8.3026     7.8518    10.7949
  118.0000   107.7244     8.3699     7.9212    10.8724
  118.5000   105.6229     8.4398     7.9723    10.8982
  119.0000   103.5849     8.5104     8.0237    10.9117
  119.5000   101.6362     8.5815     8.0755    10.9247
  120.0000   102.9423     8.6532     8.1276    10.9633
  120.5000   104.5741     8.7107     8.1495    11.0068
  121.0000   105.5509     8.7816     8.1495    11.0027
  121.5000   106.3892     8.8531     8.1528    10.9962
  122.0000   107.2124     8.9251     8.1453    10.9906
  122.5000   107.4272     8.9978     8.3246    10.9486
  123.0000   105.8714     9.0880     8.4286    10.8972
  123.5000   104.3072     9.1914     8.5327    10.8880
  124.0000   105.4352     9.2958     8.6380    10.8963
  124.5000   107.6781     9.4015     8.7446    10.9196
  125.0000   109.6743     9.5086     8.8526    10.8973
  125.5000   109.7481     9.6176     8.9625    10.8476
  126.0000   109.7445     9.7302     9.0285    10.8062
  126.5000   109.9233     9.6124     9.0277    10.8012
  127.0000   111.6995     9.5566     9.0277    10.7885
  127.5000   113.9752     9.5011     9.0277    10.8148
  128.0000   114.7107     9.4459     9.0282    10.8430
  128.5000   114.4659     9.3910     9.0288    10.8418
  129.0000   113.5651     9.3364     8.9279    10.8347
  129.5000   112.6511     9.1972     8.8305    10.8268
  130.0000   111.7362     9.2026     8.7341    10.8023
  130.5000   110.9586     9.2114     8.6979    10.7997
  131.0000   111.9607     9.2203     8.7475    10.8303
  131.5000   112.1720     9.2289     8.7884    10.8605
  132.0000   112.3948     9.2377     8.8295    10.8902
  132.5000   112.9987     9.2465     8.8707    10.8836
  133.0000   113.3118     9.2553     8.9122    10.8254
  133.5000   113.0782     9.2641     8.9538    10.7715
  134.0000   112.8511     9.2729     8.9958    10.7272
  134.5000   112.5907     9.2837     9.0283    10.6795
  135.0000   113.9708     9.2569     8.9835     9.2412
  135.5000   115.8387     9.2158     8.9135     6.2325
  136.0000   116.0906     9.1751     8.8445     6.3480
  136.5000   115.1816     9.1344     8.7761     0.7913
  137.0000   114.2614     9.0940     8.7082    -0.2450
  137.5000   113.3503     9.0537     8.6408    -0.3281
  138.0000   112.5544     9.0136     8.5375    -0.3547
  138.5000   112.5747     8.9737     8.5103    -0.4598
  139.0000   112.5858     8.9042     8.4686    -0.5769
  139.5000   112.5476     8.7499     8.4271    -0.6364
  140.0000   110.7973     8.5983     8.3859    -0.6263
  140.5000   108.8908     8.4585     8.1821    -0.5327
  141.0000   106.9192     8.1916     7.9268    -0.4016
  141.5000   106.6546     7.9150     7.6795    -0.2793
  142.0000   106.8986     7.6478     7.4400    -0.2882
  142.5000   108.2546     7.3896     7.2078    -0.5018
  143.0000   109.7207     7.2211     6.9479    -0.7145
  143.5000   111.1676     7.0880     6.6577    -0.8574
  144.0000   112.2476     7.0880     6.4003    -0.9683
  144.5000   112.4142     7.0880     6.4511    -1.0575
  145.0000   112.4876     7.0883     6.5821    -1.1366
  145.5000   111.7100     7.1782     6.7961    -1.1136
