~VERSION INFORMATION
 VERS.                2.0:   CWLS LOG ASCII STANDARD - VERSION 2.0
 WRAP.                 NO:   ONE LINE PER DEPTH STEP
~WELL INFORMATION
#MNEM.UNIT      DATA TYPE    INFORMATION
#----------   ------------   ------------------------------
 STRT.F           84.0000:   START DEPTH
 STOP.F         1141.0000:   STOP DEPTH
 STEP.F            0.5000:   STEP LENGTH
 NULL.          -999.2500:   NO VALUE
 COMP.           U S NAVY:   COMPANY
 WELL.     NPR#3 #78-S-11:   WELL
 FLD .             TEAPOT:   FIELD
 LOC .      S11 T38N R78W:   LOCATION
 CNTY.            NATRONA:   COUNTY
 STAT.            WYOMING:   STATE
 CTRY. UNITED STATES OF AMERICA:   COUNTRY
 SRVC.       Schlumberger:   SERVICE COMPANY
 DATE.        28-AUG-1966:   LOGDATE
 API .       490250970700:   API NUMBER
~CURVE INFORMATION
#MNEM.UNIT       API CODE    CURVE DESCRIPTION
#----------   ------------   ------------------------------
 DEPT.F                  :   
 SPR .MV     05 010 01 00:   SPONTANEOUS POTENTIAL FROM RES.
 ASN .OHMM   05 041 16 00:   AMPLIFIED SHORT NORMAL 16"
 ILD .OHMM   05 120 46 00:   INDUCTION LOG DEEP
 CILD.MMHO   05 110 46 00:   CONDUCTIVITY INDUCTION LOG DEEP
 GRD .GAPI   45 310 01 00:   GAMMA RAY FROM DENSITY LOG
 CALD.IN     45 280 60 00:   CALIPER FROM DENSITY LOG
 DPHI.DEC    45 890 12 00:   DENSITY POROSITY SANDSTONE
 RHOB.G/C3   45 350 01 00:   BULK DENSITY
~PARAMETER INFORMATION
#MNEM.UNIT          VALUE    DESCRIPTION
#----------   ------------   ------------------------------
 PD  .                 GL:   PERMANENT DATUM
 EPD .F              5245:   ELEVATION PERMANENT DATUM
 LMF .                 KB:   LOG MEASURED FROM
 DAPD.F                 5:   FEET ABOVE PERMANENT DATUM
 DMF .                 KB:   DRILLING MEASURED FROM
 EKB .F              5250:   KELLING BUSHING
 EGL .F              5245:   GROUND LEVEL
 DATE.            8-28-66:   RUN DATE
 RUN .                  1:   RUN NUMBER
 DD  .F              1142:   DEPTH DRILLER
 DL  .F              1142:   DEPTH LOGGER
 BLI .F              1141:   BOTTOM LOG INTERVAL
 TLI .F                85:   TOP LOG INTERVAL
 CS  .IN            8.625:   CASING SIZE
 CBD .F                10:   CASING BOTTOM DRILLER
 BS  .IN             6.75:   BIT SIZE
 BSD .F              1142:   BIT SIZE AT DEPTH
 DFT .           CHEM GEL:   DRILLING FLUID TYPE
 DFD .               10.7:   DRILLING FLUID DENSITY
 DFV .                 40:   DRILLING FLUID VISCOSITY
 MSS .          FLOW LINE:   MUD SAMPLE SOURCE
 RMS .OHMM           1.58:   RESISTIVITY MUD SAMPLE
 MST .F                70:   MUD SAMPLE TEMPERATURE
 RMF .OHMM            .93:   RESISTIVITY MUD FILTRATE SAMPLE
 MFST.F                70:   MUD FILTRATE SAMPLE TEMPERATURE
 MFSS.                  M:   MUD FILTRATE SAMPLE SOURCE
 RMB .OHMM           1.19:   RESISTIVITY MUD AT BHT
 BHT .F                94:   BOTTOM HOLE TEMPERATURE
 TCS .HRS               1:   TIME CURCULATED STOPPED
 MRT .F                94:   MAXIMUM RECORDED TEMPERATURE
 LUN .               4507:   LOGGING UNIT NUMBER
 LUL .               CSPR:   LOGGING UNIT LOCATION
 ENGI.             KNOBEL:   RECORDING ENGINEER
 WITN.         MAY/TUTTLE:   WITNESSED BY
 CLNT.            A2DTECH:   CLIENT CODE
 ORIG.           5" PRINT:   ORIGIN OF DATA
 UWI .       490250970700:   UNIQUE WELL ID
 DICO. A2D Technologies, Inc.:   DIGITIZING COMPANY
~OTHER INFORMATION
~A   DEPT      SPR          ASN        ILD      CILD       GRD       CALD       DPHI       RHOB   
# ...
  813.0000   -30.7692     9.5685     8.2911   126.9726    96.2111     7.3860     0.1010     2.4969
  813.5000   -30.7692     9.5836     8.2866   125.5639    96.9307     7.3860     0.1079     2.4685
  814.0000   -30.9201     9.5988     8.2821   124.0602    97.8289     7.3860     0.1067     2.4655
  814.5000   -30.9201     9.6140     8.2026   124.8120    97.4771     7.3860     0.1007     2.4866
  815.0000   -31.0709     9.6166     8.1982   129.3233    97.6610     7.3860     0.0869     2.5032
  815.5000   -31.5234     9.5242     8.1929   133.0827    98.7377     7.3860     0.0803     2.5098
  816.0000   -31.5234     9.4042     8.1141   138.3459    97.8502     7.3860     0.0964     2.4941
  816.5000   -30.9201     8.9539     8.0345   142.8571    97.3196     7.3860     0.1051     2.4696
  817.0000   -30.6184     8.8339     7.8798   146.6165    96.9679     7.3860     0.0994     2.4838
  817.5000   -30.3167     8.8028     7.6502   151.1278    96.9733     7.4009     0.0958     2.4984
  818.0000   -30.1659     8.6761     7.4196   154.1353    97.5143     7.4158     0.1056     2.4887
  818.5000   -30.3167     8.2323     7.2650   156.3910    98.2339     7.4158     0.1071     2.4616
  819.0000   -30.3167     7.9637     7.1103   157.1429    96.4465     7.4158     0.1056     2.4676
  819.5000   -30.1659     8.0689     7.1059   154.8872    96.1017     7.4158     0.1032     2.4751
  820.0000   -30.0151     8.2192     7.0264   151.8797    97.5715     7.4158     0.0999     2.4834
  820.5000   -30.0151     8.2494     7.0219   151.1278    99.9125     7.4158     0.0966     2.4909
  821.0000   -30.0151     8.1895     7.0174   149.6241   101.5180     7.4158     0.0933     2.4977
  821.5000   -30.1659     8.1446     7.0130   149.6241   102.8088     7.4158     0.0917     2.5045
  822.0000   -30.1659     8.1147     7.0085   148.8722   104.4356     7.4158     0.0923     2.5120
  822.5000   -29.8643     8.2050     7.0803   148.8722   106.1350     7.4307     0.0881     2.5196
  823.0000   -29.7134     8.4303     7.0747   147.3684   106.1403     7.4307     0.0790     2.5263
  823.5000   -29.5626     8.4906     7.0702   145.8647   105.0742     7.4307     0.0719     2.5279
  824.0000   -29.5626     8.3556     7.0658   145.0527   105.4367     7.4307     0.0817     2.4823
  824.5000   -29.2609     8.2806     7.1375   142.8571   106.1563     7.4307     0.1069     2.4600
  825.0000   -29.1101     8.3108     7.2072   141.9799   107.0545     7.4307     0.0972     2.4832
  825.5000   -28.9593     8.4311     7.2777   139.8496   107.7741     7.4307     0.0826     2.5019
  826.0000   -28.9593     8.5363     7.3483   137.5940   104.7437     7.4307     0.0733     2.5154
  826.5000   -28.9593     8.6116     7.4189   136.0902   104.0334     7.4307     0.0715     2.5237
  827.0000   -28.8084     8.6873     7.4138   133.8346   104.9329     7.4307     0.0766     2.5312
  827.5000   -28.8084     8.7483     7.3348   133.8346   106.0096     7.4307     0.0825     2.5126
  828.0000   -28.6557     8.7942     7.3303   136.0902   107.0864     7.4307     0.0789     2.5171
  828.5000   -28.5068     8.8401     7.2507   137.5940   108.6989     7.4307     0.0723     2.5321
  829.0000   -28.3560     8.8826     7.2462   140.6015   109.7756     7.4307     0.0699     2.5382
  829.5000   -28.3404     8.8828     7.3171   142.8571   111.2095     7.4307     0.0765     2.5270
  830.0000   -28.3760     8.7478     7.2375   143.8253   108.3577     7.4307     0.0857     2.5129
  830.5000   -28.5068     8.5828     7.3082   145.3626   107.2902     7.4307     0.0947     2.4935
  831.0000   -28.5068     8.4778     7.3026   146.9002   107.8326     7.4307     0.0983     2.4800
  831.5000   -28.5068     8.4479     7.2981   148.2832   108.1951     7.4307     0.1052     2.4667
  832.0000   -28.5068     8.4180     7.2937   148.2647   109.0932     7.4307     0.1096     2.4555
  832.5000   -28.5068     8.4933     7.3654   148.2462   111.7771     7.4307     0.1120     2.4507
  833.0000   -28.6576     8.6285     7.4360   148.2276   112.4954     7.4307     0.1108     2.4706
  833.5000   -28.9593     8.7488     7.4305   147.4561   109.1092     7.4307     0.1075     2.4975
  834.0000   -29.1101     8.8691     7.5022   145.9316   105.3645     7.4307     0.1018     2.4781
  834.5000   -29.2609     8.9593     7.4215   144.4070   105.9056     7.4307     0.0946     2.5066
  835.0000   -29.4118     8.8844     7.4171   142.8825   105.0179     7.4307     0.0895     2.4962
  835.5000   -29.7134     8.7344     7.4126   141.3580   107.5234     7.4307     0.0921     2.4738
  836.0000   -30.1659     8.4493     7.4082   139.0804   109.4930     7.4307     0.0951     2.4964
  836.5000   -30.3167     8.4644     7.2536   139.8155   109.1411     7.4158     0.0969     2.4971
  837.0000   -29.4118     8.6913     7.2491   141.3027   108.6107     7.4158     0.0966     2.4799
  837.5000   -29.1101     8.7650     7.2447   142.0369   107.1875     7.4158     0.0965     2.4890
  838.0000   -29.2609     8.7031     7.1651   143.5742   100.0259     7.4158     0.0980     2.5147
  838.5000   -29.7134     8.6097     7.1607   144.3587   101.5787     7.4158     0.0992     2.4740
  839.0000   -30.1659     8.4502     7.1561   144.2357   106.3679     7.4158     0.0959     2.4967
  839.5000   -30.4676     8.3753     7.0766   144.2172   109.0327     7.4158     0.0894     2.5252
  840.0000   -30.7692     8.3153     7.0721   144.9517   110.6309     7.4009     0.0767     2.5027
  840.5000   -30.6184     8.2554     6.9792   145.6862   111.1480     7.4009     0.0835     2.4908
  841.0000   -30.4676     8.1955     6.9120   147.9267   108.8111     7.4009     0.0812     2.5185
  841.5000   -30.3167     8.1056     6.8325   148.6659   104.1957     7.4009     0.0760     2.5283
  842.0000   -30.1659     7.9556     6.7530   150.1488   101.8796     7.4009     0.0834     2.5037
  842.5000   -30.0151     7.8506     6.5984   150.1302    99.0264     7.4009     0.0952     2.4888
  843.0000   -29.8643     7.7907     6.4438   150.8694    99.9259     7.4009     0.0964     2.5008
  843.5000   -29.8643     7.7308     6.2892   153.8629   102.7884     7.4009     0.0895     2.5090
  844.0000   -29.8643     7.6709     6.1346   157.6048   104.7580     7.4009     0.0825     2.5166
  844.5000   -29.7134     7.6110     5.9049   162.8574   106.5490     7.3860     0.0783     2.5203
  845.0000   -29.5626     7.5060     5.2998   168.1099   108.5187     7.3860     0.0897     2.5032
  845.5000   -29.2514     7.1908     4.9951   178.0808   109.4155     7.3860     0.0963     2.4876
  846.0000   -28.9593     6.8907     4.9906   190.2111   107.9923     7.3860     0.0849     2.4973
  846.5000   -28.9779     6.5455     5.0623   195.9112   108.5346     7.3860     0.0807     2.5153
  847.0000   -29.1101     6.2884     5.2820   195.8927   107.6471     7.3860     0.0860     2.5042
  847.5000   -29.1101     6.2305     5.5028   194.3681   105.6881     7.4009     0.0989     2.4878
  848.0000   -29.1101     6.2947     5.9488   192.8436   103.7292     7.4009     0.1034     2.4706
  848.5000   -29.2609     6.4520     6.3948   189.0600   101.4131     7.4009     0.1004     2.4969
  849.0000   -29.4118     6.9367     6.8407   181.5114   105.3469     7.4009     0.0949     2.5193
  849.5000   -29.5626     7.3722     7.3618   172.4567   108.0308     7.4158     0.0859     2.5336
  850.0000   -29.5769     7.4515     7.6577   161.8960   109.2848     7.4145     0.0904     2.4903
  850.5000   -29.7495     7.5007     7.6539   158.1325   105.0042     7.3989     0.0967     2.4813
  851.0000   -30.3167     7.5535     7.6499   156.6265   100.0078     7.3860     0.0913     2.5105
  851.5000   -30.9201     7.6140     7.8714   155.8735    97.8685     7.4009     0.0973     2.4964
  852.0000   -31.5234     7.6745     7.9430   155.8735    96.6220     7.4009     0.1020     2.4785
  852.5000   -30.7692     7.7350     8.0142   155.8735    96.4462     7.3860     0.0933     2.5151
  853.0000   -30.1659     7.8556     8.1606   155.8735    97.8792     7.3860     0.1038     2.4808
