~VERSION INFORMATION
 VERS.                2.0:   CWLS LOG ASCII STANDARD - VERSION 2.0
 WRAP.                 NO:   ONE LINE PER DEPTH STEP
~WELL INFORMATION
#MNEM.UNIT      DATA TYPE    INFORMATION
#----------   ------------   ------------------------------
 STRT.F           21.0000:   START DEPTH
 STOP.F          495.0000:   STOP DEPTH
 STEP.F            0.5000:   STEP LENGTH
 NULL.          -999.2500:   NO VALUE
 COMP. FENIX & SCISSON U.S. NAVY:   COMPANY
 WELL.        NPR #42-S-3:   WELL
 FLD .             TEAPOT:   FIELD
 LOC .       S3 T38N R78W:   LOCATION
 CNTY.            NATRONA:   COUNTY
 STAT.            WYOMING:   STATE
 CTRY. UNITED STATES OF AMERICA:   COUNTRY
 SRVC.              Welex:   SERVICE COMPANY
 DATE.        05-MAY-1977:   LOGDATE
 API .       490251034800:   API NUMBER
~CURVE INFORMATION
#MNEM.UNIT       API CODE    CURVE DESCRIPTION
#----------   ------------   ------------------------------
 DEPT.F                  :   
 SPR .MV     07 010 01 00:   SPONTANEOUS POTENTIAL
 SGRD.OHMM   07 221 05 00:   SHALLOW SHORT GUARD RESISTIVITY
 ILD .OHMM   07 120 46 00:   INDUCTION LOG DEEP
 ILM .OHMM   07 120 44 00:   INDUCTION LOG MEDIUM
 GRD .GAPI   45 310 01 00:   GAMMA RAY FROM DENSITY LOG
 CALD.IN     45 280 60 00:   CALIPER FROM DENSITY LOG
 CORR.G/C3   45 356 01 00:   DENSITY CORRECTION
 RHOB.G/C3   45 350 01 00:   BULK DENSITY
 DPHI.DEC    45 890 12 00:   DENSITY POROSITY SANDSTONE
~PARAMETER INFORMATION
#MNEM.UNIT          VALUE    DESCRIPTION
#----------   ------------   ------------------------------
 PD  .                 GL:   PERMANENT DATUM
 EPD .F              5120:   ELEVATION PERMANENT DATUM
 LMF .                 GL:   LOG MEASURED FROM
 DMF .                 GL:   DRILLING MEASURED FROM
 EGL .F              5120:   GROUND LEVEL
 DATE.        05-MAY-1977:   RUN DATE
 RUN .                  1:   RUN NUMBER
 DD  .F               490:   DEPTH DRILLER
 DL  .F               495:   DEPTH LOGGER
 BLI .F               493:   BOTTOM LOG INTERVAL
 TLI .F                20:   TOP LOG INTERVAL
 CS  .IN            8.625:   CASING SIZE
 CBD .F                25:   CASING BOTTOM DRILLER
 CBL .F                25:   CASING BOTTOM LOGGER
 BS  .IN            7.875:   BIT SIZE
 BSD .F               490:   BIT SIZE AT DEPTH
 DFT .            KCL MUD:   DRILLING FLUID TYPE
 DFD .                8.8:   DRILLING FLUID DENSITY
 DFV .                 34:   DRILLING FLUID VISCOSITY
 DFPH.                8.0:   DRILLING FLUID PH
 DFL .                8.4:   DRILLING FLUID LOSS
 MSS .           FLOWLINE:   MUD SAMPLE SOURCE
 RMS .OHMM           0.26:   RESISTIVITY MUD SAMPLE
 MST .F                60:   MUD SAMPLE TEMPERATURE
 RMF .OHMM           0.14:   RESISTIVITY MUD FILTRATE SAMPLE
 MFST.F                60:   MUD FILTRATE SAMPLE TEMPERATURE
 RMC .OHMM           0.41:   RESISTIVITY MUD CAKE
 MCST.F                60:   MUD CAKE SAMPLE TEMPERATURE
 MFSS.           FANN KIT:   MUD FILTRATE SAMPLE SOURCE
 MCSS.            FANNKIT:   MUD CAKE SAMPLE SOURCE
 RMB .OHMM           0.21:   RESISTIVITY MUD AT BHT
 BHT .F                71:   BOTTOM HOLE TEMPERATURE
 TCS .HRS            0130:   TIME CURCULATED STOPPED
 MRT .F                71:   MAXIMUM RECORDED TEMPERATURE
 LUN .               8611:   LOGGING UNIT NUMBER
 LUL .             CASPER:   LOGGING UNIT LOCATION
 ENGI.            C. DOAK:   RECORDING ENGINEER
 WITN.            R. LYON:   WITNESSED BY
 CLNT.            A2DTECH:   CLIENT CODE
 ORIG.           5" PRINT:   ORIGIN OF DATA
 UWI .       490251034800:   UNIQUE WELL ID
 DICO. A2D Technologies, Inc.:   DIGITIZING COMPANY
~OTHER INFORMATION
~A   DEPT      SPR       SGRD        ILD        ILM         GRD        CALD       CORR       RHOB       DPHI 
# ...
  313.0000   -32.5818    35.1888    23.4311    29.4046    74.7007     7.9500     0.0022     2.4209     0.1537
  313.5000   -33.0211    34.2227    23.2625    29.6093    74.7025     7.9501     0.0000     2.4313     0.1418
  314.0000   -33.0311    32.5312    23.0952    32.3770    74.2528     7.9354     0.0015     2.4650     0.1284
  314.5000   -33.1899    38.2392    22.7730    37.4109    73.5024     7.9355     0.0067     2.4945     0.1065
  315.0000   -33.1999    53.8953    22.6106    37.1441    73.5038     7.9356     0.0105     2.5264     0.0897
  315.5000   -33.2099    78.1833    22.1420    34.9949    74.1068     7.9208     0.0142     2.5369     0.0852
  316.0000   -33.2202    97.4625    21.5281    29.7733    75.4075     7.9359     0.0157     2.5294     0.0897
  316.5000   -33.2323    30.7493    20.7977    29.3598    79.8243     7.9211     0.0157     2.4995     0.1095
  317.0000   -33.2423    27.2058    20.2267    31.0144    82.5325     7.9363     0.0135     2.4763     0.1227
  317.5000   -33.2523    26.6420    19.8075    30.7862    85.5415     7.9214     0.0150     2.4688     0.1197
  318.0000   -33.2623    27.3797    19.2637    29.9460    86.7459     7.9216     0.0165     2.4831     0.1167
  318.5000   -33.1235    28.9246    18.7347    27.9437    84.9429     7.9367     0.0187     2.4763     0.1179
  319.0000   -33.1360    29.9312    18.0942    25.7183    81.9919     7.9368     0.0210     2.4696     0.1214
  319.5000   -33.1459    30.1304    17.5974    25.0123    77.2769     7.9519     0.0195     2.4599     0.1273
  320.0000   -33.1559    29.1000    17.2327    24.8339    76.2254     7.9521     0.0165     2.4344     0.1394
  320.5000   -33.0146    28.3011    16.8755    25.6965    77.5806     7.9523     0.0127     2.4172     0.1520
  321.0000   -32.8780    27.9062    16.7541    29.2851    79.5369     7.9524     0.0105     2.4111     0.1577
  321.5000   -32.8883    28.0902    16.9823    32.9178    81.4932     7.9675     0.0105     2.4038     0.1618
  322.0000   -32.7495    28.2789    17.6949    34.7752    83.1930     7.9677     0.0120     2.4000     0.1606
  322.5000   -32.7619    29.0601    18.4373    35.4926    82.3987     7.9528     0.0142     2.4195     0.1523
  323.0000   -32.7719    29.8648    18.2906    34.9952    80.8961     7.9530     0.0143     2.4098     0.1585
  323.5000   -32.6306    30.4790    17.9253    34.0345    81.9505     7.9382     0.0127     2.3971     0.1651
  324.0000   -32.6431    30.6838    17.7987    32.1998    83.7565     7.9383     0.0120     2.3828     0.1717
  324.5000   -32.5043    30.4631    18.2903    30.2310    85.5624     7.9385     0.0127     2.3821     0.1744
  325.0000   -32.5168    29.8317    18.6677    29.0194    87.3687     7.9386     0.0127     2.3874     0.1693
  325.5000   -32.5267    29.6189    18.7919    28.4179    88.7235     7.9238     0.0150     2.3986     0.1666
  326.0000   -32.6855    29.8161    18.9169    28.0215    90.0784     7.9239     0.0150     2.3941     0.1680
  326.5000   -32.6955    30.6398    18.9108    27.8217    88.8768     7.9241     0.0127     2.3866     0.1738
  327.0000   -32.7055    31.4882    18.7759    26.6856    86.1715     7.9243     0.0105     2.3776     0.1780
  327.5000   -32.7158    31.2637    18.6419    25.4218    83.4536     7.9244     0.0090     2.3716     0.1804
  328.0000   -32.7280    31.0388    18.6360    24.5540    80.9116     7.9246     0.0090     2.3702     0.1801
  328.5000   -32.7380    30.8175    18.6311    25.4085    79.7100     7.9247     0.0097     2.3724     0.1789
  329.0000   -32.8968    30.3876    18.6262    27.0278    78.9596     7.9398     0.0112     2.3777     0.1761
  329.5000   -33.0556    29.3503    18.4934    26.1035    79.2618     7.9250     0.0127     2.3912     0.1696
  330.0000   -33.3632    28.1535    18.1090    24.6964    81.5188     7.9252     0.0135     2.4016     0.1648
  330.5000   -33.3735    28.5352    18.1042    23.6895    83.4917     7.9253     0.0119     2.3987     0.1639
  331.0000   -33.5345    28.9257    18.0995    23.8471    84.0781     7.9255     0.0097     2.3859     0.1693
  331.5000   -33.8421    28.7176    18.3462    24.3391    82.1247     7.9256     0.0075     2.3777     0.1768
  332.0000   -34.0009    28.5129    18.3411    24.3312    83.4799     7.9257     0.0067     2.3777     0.1753
  332.5000   -34.1597    27.9201    18.0841    23.5006    84.9851     7.9259     0.0045     2.3852     0.1717
  333.0000   -34.1697    26.0533    18.0794    22.2338    84.9865     7.9261     0.0045     2.3807     0.1732
  333.5000   -34.4798    25.5134    17.8272    21.6233    85.1469     7.9262     0.0045     2.3770     0.1767
  334.0000   -34.4897    26.9530    17.4577    22.0695    86.7943     7.9264     0.0045     2.3786     0.1752
  334.5000   -34.4997    26.1854    16.6298    22.2164    85.1416     7.9265     0.0067     2.3882     0.1696
  335.0000   -34.5097    25.1427    16.2851    22.2091    86.9475     7.9266     0.0090     2.3927     0.1681
  335.5000   -34.5197    25.4851    16.2809    21.8993    89.8061     7.9268     0.0105     2.3942     0.1675
  336.0000   -34.6786    25.8338    16.3903    21.0051    91.3113     7.9270     0.0120     2.3995     0.1651
  336.5000   -34.6910    25.1230    15.9326    20.8553    89.7514     7.9271     0.0127     2.4025     0.1636
  337.0000   -34.7010    23.9316    16.4929    22.1845    85.6003     7.9273     0.0128     2.4047     0.1621
  337.5000   -34.7110    22.9559    17.0680    22.8003    85.1502     7.9274     0.0135     2.4056     0.1606
  338.0000   -34.7210    23.5915    16.3710    21.2511    88.0092     7.9275     0.0150     2.4085     0.1591
  338.5000   -34.7309    25.0951    16.3667    19.9893    88.4614     7.9277     0.0157     2.4070     0.1588
  339.0000   -34.8899    26.5428    16.9352    21.4090    86.3579     7.9279     0.0157     2.4010     0.1614
  339.5000   -34.9022    27.6217    17.2857    22.7735    87.0482     7.9280     0.0165     2.3988     0.1638
  340.0000   -35.0610    26.6788    16.4660    18.5138    92.2258     7.9131     0.0165     2.3988     0.1641
  340.5000   -35.0710    25.7681    16.6902    19.9363    92.8284     7.9283     0.0165     2.4004     0.1632
  341.0000   -35.2298    25.0607    16.9175    21.6821    91.1761     7.9284     0.0157     2.4026     0.1617
  341.5000   -35.3886    25.0525    16.2267    20.3724    90.1249     7.9286     0.0150     2.3988     0.1611
  342.0000   -35.3988    24.8739    15.8904    19.6770    90.1182     7.9288     0.0135     2.3958     0.1645
  342.5000   -35.5599    24.3584    15.9972    21.8250    92.3033     7.9289     0.0135     2.3973     0.1659
  343.0000   -35.8675    24.1847    15.8821    21.3615    93.4375     7.9291     0.0135     2.3996     0.1638
  343.5000   -35.8775    23.6834    15.6604    18.6053    90.4318     7.9292     0.0135     2.4033     0.1617
  344.0000   -35.8875    23.1911    15.4410    20.2047    88.6287     7.9144     0.0142     2.4088     0.1590
  344.5000   -36.0463    23.0258    15.3309    20.5170    88.9309     7.9145     0.0150     2.4131     0.1563
  345.0000   -36.0565    22.8616    15.2216    18.0851    90.2857     7.9147     0.0165     2.4138     0.1560
  345.5000   -36.2176    22.3878    15.1110    19.1043    91.0390     7.9148     0.0172     2.4131     0.1551
  346.0000   -36.5252    21.4751    14.9013    17.7045    89.0860     7.9300     0.0180     2.4154     0.1548
  346.5000   -36.6840    22.0683    14.7951    15.8524    86.8318     7.9301     0.0150     2.4101     0.1572
  347.0000   -36.6939    22.0625    14.7912    18.8386    86.3817     7.9302     0.0127     2.4048     0.1605
  347.5000   -36.8527    21.7547    14.6857    20.1664    88.1880     7.9304     0.0120     2.4004     0.1605
  348.0000   -36.9067    21.4354    14.3694    18.6876    90.4451     7.9306     0.0112     2.4131     0.1566
  348.5000   -37.3216    20.7176    14.2779    17.9257    92.8762     7.9307     0.0112     2.4199     0.1521
  349.0000   -37.3316    20.1489    14.5724    16.9594    93.0044     7.9309     0.0112     2.4229     0.1500
