~VERSION INFORMATION
 VERS.                2.0:   CWLS LOG ASCII STANDARD - VERSION 2.0
 WRAP.                 NO:   ONE LINE PER DEPTH STEP
~WELL INFORMATION
#MNEM.UNIT      DATA TYPE    INFORMATION
#----------   ------------   ------------------------------
 STRT.F           70.0000:   START DEPTH
 STOP.F          853.0000:   STOP DEPTH
 STEP.F            0.5000:   STEP LENGTH
 NULL.          -999.2500:   NO VALUE
 COMP. U S NAVY/INTEX OIL CO:   COMPANY
 WELL.     31S-2 NPR #3-2:   WELL
 FLD .             TEAPOT:   FIELD
 LOC .       S2 T38N R78W:   LOCATION
 CNTY.            NATRONA:   COUNTY
 STAT.            WYOMING:   STATE
 CTRY. UNITED STATES OF AMERICA:   COUNTRY
 SRVC.         Lane Wells:   SERVICE COMPANY
 DATE.        17-MAR-1960:   LOGDATE
 API .       490250648000:   API NUMBER
~CURVE INFORMATION
#MNEM.UNIT       API CODE    CURVE DESCRIPTION
#----------   ------------   ------------------------------
 DEPT.F                  :   
 ASN .OHMM   05 041 16 00:   AMPLIFIED SHORT NORMAL 16"
 CILD.MMHO   05 110 46 00:   CONDUCTIVITY INDUCTION LOG DEEP
 ILD .OHMM   05 120 46 00:   INDUCTION LOG DEEP
 SPR .MV     05 010 01 00:   SPONTANEOUS POTENTIAL FROM RES.
~PARAMETER INFORMATION
#MNEM.UNIT          VALUE    DESCRIPTION
#----------   ------------   ------------------------------
 PD  .                 GL:   PERMANENT DATUM
 EPD .F              5118:   ELEVATION PERMANENT DATUM
 LMF .                 KB:   LOG MEASURED FROM
 DAPD.F                 5:   FEET ABOVE PERMANENT DATUM
 DMF .                 KB:   DRILLING MEASURED FROM
 EKB .F              5123:   KELLING BUSHING
 EGL .F              5118:   GROUND LEVEL
 DATE.        17-MAR-1960:   RUN DATE
 RUN .                  1:   RUN NUMBER
 DD  .F               860:   DEPTH DRILLER
 DL  .F               855:   DEPTH LOGGER
 BLI .F               853:   BOTTOM LOG INTERVAL
 TLI .F                70:   TOP LOG INTERVAL
 CS  .IN            8.625:   CASING SIZE
 CBD .F                12:   CASING BOTTOM DRILLER
 BS  .IN            7.875:   BIT SIZE
 BSD .F               860:   BIT SIZE AT DEPTH
 DFT .  GEL- OIL EMULSION:   DRILLING FLUID TYPE
 DFD .                9.7:   DRILLING FLUID DENSITY
 DFV .                 40:   DRILLING FLUID VISCOSITY
 MSS .    CIRC.- FLOWLINE:   MUD SAMPLE SOURCE
 RMS .OHMM           1.75:   RESISTIVITY MUD SAMPLE
 MST .F                60:   MUD SAMPLE TEMPERATURE
 RMF .OHMM            1.2:   RESISTIVITY MUD FILTRATE SAMPLE
 MFST.F                60:   MUD FILTRATE SAMPLE TEMPERATURE
 RMC .OHMM            2.4:   RESISTIVITY MUD CAKE
 MCST.F                60:   MUD CAKE SAMPLE TEMPERATURE
 MFSS.                MUD:   MUD FILTRATE SAMPLE SOURCE
 MCSS.              PRESS:   MUD CAKE SAMPLE SOURCE
 RMB .OHMM            1.5:   RESISTIVITY MUD AT BHT
 BHT .F                70:   BOTTOM HOLE TEMPERATURE
 MRT .F                70:   MAXIMUM RECORDED TEMPERATURE
 LUN .            HL 4474:   LOGGING UNIT NUMBER
 LUL .             CASPER:   LOGGING UNIT LOCATION
 ENGI.             NELSON:   RECORDING ENGINEER
 WITN.   JORGENSEN-HUDSON:   WITNESSED BY
 CLNT.            A2DTECH:   CLIENT CODE
 ORIG.        2" 5" PRINT:   ORIGIN OF DATA
 UWI .       490250648000:   UNIQUE WELL ID
 DICO. A2D Technologies, Inc.:   DIGITIZING COMPANY
~OTHER INFORMATION
~A   DEPT        ASN      CILD         ILD      SPR   
# ...
  727.0000    14.0932    71.9541    13.4921   -42.6528
  727.5000    14.0238    72.0024    13.4889   -42.6528
  728.0000    14.0212    72.0424    13.4863   -42.7869
  728.5000    14.0186    72.0825    13.4838   -42.7869
  729.0000    14.0160    72.1225    13.4812   -42.7869
  729.5000    14.0128    72.1625    13.5455   -42.7703
  730.0000    14.0103    72.2018    13.6854   -42.5186
  730.5000    14.0752    72.2431    13.7408   -42.3845
  731.0000    14.0720    72.2925    13.7376   -42.2504
  731.5000    14.0694    72.3326    13.7350   -41.9821
  732.0000    14.0668    72.3726    13.7324   -41.8480
  732.5000    14.0642    72.4126    13.7299   -41.8480
  733.0000    14.0610    72.4526    13.7941   -41.8480
  733.5000    13.9916    72.4908    13.8690   -41.9821
  734.0000    13.9890    72.5326    13.9895   -41.8480
  734.5000    13.9864    71.1965    14.0018   -41.9821
  735.0000    14.0508    71.2465    14.1180   -41.8480
  735.5000    14.1818    71.2866    14.1823   -41.8480
  736.0000    14.4554    71.3266    14.2460   -41.7139
  736.5000    15.0450    71.3666    14.2433   -41.3115
  737.0000    15.7109    71.4066    14.3745   -40.9091
  737.5000    16.9115    71.4466    14.5056   -40.7750
  738.0000    17.9784    71.4866    14.5023   -40.3726
  738.5000    18.3769    68.7744    14.2324   -39.9702
  739.0000    18.0356    68.8244    13.9624   -39.9702
  739.5000    16.9674    71.6167    13.6925   -39.8361
  740.0000    16.1627    77.1613    13.2798   -39.9702
  740.5000    15.0237    82.7059    12.5503   -40.1043
  741.0000    13.6843    86.8744    12.0130   -40.2384
  741.5000    12.9464    91.0428    11.6762   -40.2384
  742.0000    12.2754    92.4590    11.4730   -40.2384
  742.5000    11.9329    93.8761    11.4036   -39.9702
  743.0000    11.7348    95.2980    11.3342   -39.8361
  743.5000    11.5985    93.9518    11.2647   -39.8269
  744.0000    11.5291    94.0019    11.2615   -39.7019
  744.5000    11.4447    95.4180    11.1921   -39.7019
  745.0000    11.3903    95.3672    11.1227   -39.5678
  745.5000    11.3435    95.5081    11.1201   -39.4337
  746.0000    11.3182    95.5481    11.1175   -39.2996
  746.5000    11.2487    95.5881    11.0481   -39.1654
  747.0000    11.2456    97.0043    10.9786   -39.1654
  747.5000    11.2430    97.0443    10.9755   -39.1654
  748.0000    11.2406    97.0826    10.9729   -39.2996
  748.5000    11.2379    97.1243    10.9703   -39.2996
  749.0000    11.2353    97.1651    10.9677   -39.4337
  749.5000    11.2321    97.2144    10.9651   -39.7019
  750.0000    11.2295    97.2544    10.9626   -39.7019
  750.5000    11.2270    97.2944    10.9590   -39.6011
  751.0000    11.2235    97.1714    10.9323   -39.4061
  751.5000    11.2200    97.0298    10.9056   -39.1717
  752.0000    11.2166    96.8883    10.8206   -38.6396
  752.5000    11.2126    96.7467    10.6850   -38.2404
  753.0000    11.2094    96.6052    10.6830   -37.8407
  753.5000    11.2062    96.4636    10.6142   -37.5744
  754.0000    11.2029    96.3221    10.6791   -37.5776
  754.5000    11.1997    96.1805    10.6771   -37.4455
  755.0000    11.1296    96.1426    10.6747   -37.5828
  755.5000    11.1263    96.1759    10.7401   -37.7196
  756.0000    11.1230    94.8257    10.8045   -37.8599
  756.5000    11.1190    94.8531    10.8026   -38.0119
  757.0000    11.1279    93.5036    10.8675   -38.1304
  757.5000    11.1802    94.9130    10.8655   -38.1330
  758.0000    11.1761    94.9397    10.8636   -38.1357
  758.5000    11.1731    94.9663    10.7948   -38.1383
  759.0000    11.1698    94.9930    10.7821   -38.1409
  759.5000    11.1664    93.6368    10.6567   -38.1434
  760.0000    11.1631    93.6702    10.5879   -38.1460
  760.5000    11.1598    93.6972    10.5194   -38.1487
  761.0000    11.1559    93.7248    10.5172   -38.1514
  761.5000    11.1526    92.3807    10.5153   -38.2887
  762.0000    11.1494    92.4073    10.5133   -38.4254
  762.5000    11.1464    92.4312    10.4445   -38.4280
  763.0000    11.1255    92.4587    10.3757   -38.5648
  763.5000    11.0728    92.4862    10.3733   -38.7015
  764.0000    11.0027    92.5139    10.3713   -38.9724
  764.5000    10.9993    92.5413    10.3694   -38.4385
  765.0000    10.9954    92.5739    10.3675   -37.8957
  765.5000    10.9253    92.6006    10.3655   -37.5055
  766.0000    10.8552    92.6239    10.3636   -37.2392
  766.5000    10.8523    92.6539    10.3616   -37.3765
  767.0000    10.8487    92.6805    10.3596   -37.3792
  767.5000    10.8455    92.7072    10.3572   -37.3818
  768.0000    10.8422    92.7339    10.3553   -37.5185
  768.5000    10.8389    92.7615    10.3683   -37.6552
  769.0000    10.8349    92.7938    10.4187   -37.6578
  769.5000    10.8985    92.8205    10.4836   -37.6605
  770.0000    10.8953    92.8471    10.5480   -37.6637
  770.5000    10.9597    92.8738    10.6130   -37.8004
  771.0000    11.0901    92.9005    10.6805   -37.9372
  771.5000    11.1529    90.1748    10.8977   -38.0739
  772.0000    11.2834    87.4313    11.2082   -38.2107
  772.5000    11.3559    85.9747    11.4073   -38.3474
  773.0000    11.8108    82.0206    11.6727   -38.4841
  773.5000    12.1418    76.5266    12.1382   -38.7550
  774.0000    12.8070    73.8010    12.6710   -38.9061
  774.5000    13.6059    69.6992    13.2707   -39.2974
  775.0000    14.4717    65.5963    14.0709   -39.8365
  775.5000    15.2705    60.1193    15.4379   -40.6439
  776.0000    16.4037    54.6416    17.0077   -41.4513
  776.5000    17.6143    51.9159    17.8078   -42.5269
  777.0000    18.9862    49.1903    18.7417   -43.3343
  777.5000    20.0027    49.2236    19.2077   -43.8734
  778.0000    20.5343    49.2503    19.3399   -43.8760
  778.5000    20.8652    49.2769    19.2038   -43.8787
  779.0000    20.7952    50.6789    19.0682   -43.8819
  779.5000    20.6582    50.7064    18.9271   -43.8845
  780.0000    20.3876    52.1101    18.7964   -43.8871
  780.5000    20.2507    52.1425    18.5939   -43.8897
  781.0000    20.0397    53.5453    18.3914   -43.7582
  781.5000    19.7086    53.5720    18.2558   -43.6267
  782.0000    19.3711    54.9725    18.0533   -43.6293
  782.5000    19.2342    55.0000    17.7840   -43.3591
  783.0000    18.9636    55.0281    17.6484   -43.0980
  783.5000    18.7598    55.9923    17.3763   -42.8323
  784.0000    18.5285    56.4587    17.1658   -42.7008
  784.5000    18.2185    57.8624    16.9067   -42.3017
  785.0000    17.9434    59.2661    16.5706   -41.9553
  785.5000    17.5428    60.6726    16.3012   -41.5021
  786.0000    17.3390    60.6993    16.0988   -41.2364
  786.5000    17.0015    62.1021    15.8963   -41.1050
  787.0000    16.5972    63.5049    15.6938   -41.1076
  787.5000    16.3266    63.5321    15.6250   -40.9760
  788.0000    16.0560    64.9410    15.4893   -40.8452
  788.5000    15.8522    66.3438    15.4201   -40.7133
  789.0000    15.7135    64.9943    15.5518   -40.4474
  789.5000    15.6451    65.0210    15.6172   -40.3165
  790.0000    15.7088    63.6648    15.6816   -40.0508
  790.5000    15.8384    62.3211    15.8134   -39.9192
  791.0000    16.0365    63.7248    15.8783   -39.7878
  791.5000    16.2998    63.7523    16.0100   -39.7905
  792.0000    16.5640    63.7848    16.1418   -40.0619
  792.5000    16.8282    62.4286    16.3399   -40.1987
  793.0000    17.0922    62.4620    16.4052   -39.9324
  793.5000    16.8144    62.4886    16.2023   -39.5326
  794.0000    16.5561    63.8914    15.8661   -39.1335
  794.5000    16.2795    65.2942    15.6636   -38.5996
  795.0000    16.0089    66.6972    15.5280   -38.6022
  795.5000    15.7383    66.7248    15.2587   -38.7389
  796.0000    15.5544    66.7523    14.9866   -38.7416
  796.5000    15.1971    68.1560    14.7868   -38.7448
  797.0000    14.8596    68.1865    14.5170   -38.7474
  797.5000    14.5131    68.2131    14.2477   -38.8841
  798.0000    14.1170    69.6159    13.9784   -38.7520
  798.5000    13.8464    69.6426    13.7091   -38.6204
  799.0000    13.5757    71.0459    13.4397   -38.6237
  799.5000    13.3051    72.4548    13.1704   -38.6263
