~VERSION INFORMATION
 VERS.                2.0:   CWLS LOG ASCII STANDARD - VERSION 2.0
 WRAP.                 NO:   ONE LINE PER DEPTH STEP
~WELL INFORMATION
#MNEM.UNIT      DATA TYPE    INFORMATION
#----------   ------------   ------------------------------
 STRT.F           20.0000:   START DEPTH
 STOP.F          505.0000:   STOP DEPTH
 STEP.F            0.5000:   STEP LENGTH
 NULL.          -999.2500:   NO VALUE
 COMP.    FENIX & SCISSON:   COMPANY
 WELL.   NPR #3 #56-SX-10:   WELL
 FLD .             TEAPOT:   FIELD
 LOC .      S10 T38N R78W:   LOCATION
 CNTY.            NATRONA:   COUNTY
 STAT.            WYOMING:   STATE
 CTRY. UNITED STATES OF AMERICA:   COUNTRY
 SRVC.              Welex:   SERVICE COMPANY
 DATE.        01-MAY-1980:   LOGDATE
 API .       490251081300:   API NUMBER
~CURVE INFORMATION
#MNEM.UNIT       API CODE    CURVE DESCRIPTION
#----------   ------------   ------------------------------
 DEPT.F                  :   
 ILD .OHMM   07 120 46 00:   INDUCTION LOG DEEP
 ILM .OHMM   07 120 44 00:   INDUCTION LOG MEDIUM
 SGRD.OHMM   07 220 05 00:   SHALLOW GUARD RESISTIVITY
 SPR .MV     07 010 01 00:   SPONATANEOUS POTENTIAL FROM RES.
 CALD.IN     45 280 60 00:   CALIPER FROM DENSITY LOG
 DPHI.DEC    45 890 12 00:   DENSITY POROSITY SANDSTONE
 DRHO.G/C3   45 356 01 00:   DENSITY CORRECTION
 GRD .GAPI   45 310 01 00:   GAMMA RAY FROM DENSITY LOG
 RHOB.G/C3   45 350 01 00:   BULK DENSITY
~PARAMETER INFORMATION
#MNEM.UNIT          VALUE    DESCRIPTION
#----------   ------------   ------------------------------
 PD  .                 GL:   PERMANENT DATUM
 EPD .F              5180:   ELEVATION PERMANENT DATUM
 LMF .                 KB:   LOG MEASURED FROM
 DAPD.F                 4:   FEET ABOVE PERMANENT DATUM
 DMF .                 KB:   DRILLING MEASURED FROM
 EKB .F              5184:   KELLING BUSHING
 EGL .F              5180:   GROUND LEVEL
 DATE.        01-MAY-1980:   RUN DATE
 RUN .                  1:   RUN NUMBER
 DD  .F               489:   DEPTH DRILLER
 DL  .F               506:   DEPTH LOGGER
 BLI .F               504:   BOTTOM LOG INTERVAL
 TLI .F                30:   TOP LOG INTERVAL
 BS  .IN            7.875:   BIT SIZE
 BSD .F               489:   BIT SIZE AT DEPTH
 DFT .    WATER BASED MUD:   DRILLING FLUID TYPE
 DFD .                9.9:   DRILLING FLUID DENSITY
 DFV .                 46:   DRILLING FLUID VISCOSITY
 MSS .                PIT:   MUD SAMPLE SOURCE
 RMS .OHMM           0.99:   RESISTIVITY MUD SAMPLE
 MST .F                75:   MUD SAMPLE TEMPERATURE
 RMF .OHMM           0.78:   RESISTIVITY MUD FILTRATE SAMPLE
 MFST.F                75:   MUD FILTRATE SAMPLE TEMPERATURE
 RMC .OHMM           1.18:   RESISTIVITY MUD CAKE
 MCST.F                75:   MUD CAKE SAMPLE TEMPERATURE
 MFSS.               MEAS:   MUD FILTRATE SAMPLE SOURCE
 MCSS.               MEAS:   MUD CAKE SAMPLE SOURCE
 BHT .F               100:   BOTTOM HOLE TEMPERATURE
 TCS .HRS               1:   TIME CURCULATED STOPPED
 MRT .F               100:   MAXIMUM RECORDED TEMPERATURE
 LUN .               9685:   LOGGING UNIT NUMBER
 LUL .             CASPER:   LOGGING UNIT LOCATION
 ENGI.            TOTHILL:   RECORDING ENGINEER
 WITN.           DINSMORE:   WITNESSED BY
 CLNT.            A2DTECH:   CLIENT CODE
 ORIG.           5" PRINT:   ORIGIN OF DATA
 UWI .       490251081300:   UNIQUE WELL ID
 DICO. A2D Technologies, Inc.:   DIGITIZING COMPANY
~OTHER INFORMATION
~A   DEPT       ILD        ILM      SGRD        SPR       CALD       DPHI       DRHO        GRD       RHOB   
# ...
   56.5000     6.2004     9.7047    10.1161   -22.9414     7.8399     0.1301     0.0110   108.8657     2.4179
   57.0000     6.2014     9.7047    10.1161   -22.9355     7.7813     0.1346     0.0095   108.2034     2.4097
   57.5000     6.2022     9.7720     9.9770   -22.9297     7.8272     0.1391     0.0036   107.7523     2.4150
   58.0000     6.2461     9.8399     9.9082   -22.9238     7.9031     0.1397    -0.0130   106.1657     2.3887
   58.5000     6.2470     9.8399    10.0463   -22.9178     7.9490     0.1475    -0.0250   105.9907     2.3798
   59.0000     6.2912     9.9082    10.3283   -22.9107     7.9650     0.1565    -0.0323   106.0101     2.4001
   59.5000     6.2486     9.9416    10.4000   -22.9048     7.9361     0.1402     0.0007   105.3478     2.4339
   60.0000     6.2064    10.0463    10.3235   -22.7495     7.8473     0.1231     0.0277   104.4596     2.4489
   60.5000     6.2073    10.0463    10.1863   -22.5942     7.7884     0.1183     0.0368   103.7974     2.4512
   61.0000     6.2153    10.0463     9.9770   -22.4388     7.9095     0.1198     0.0338   103.3572     2.4425
   61.5000     6.2523    10.1161     9.9082   -22.1340     7.9554     0.1245     0.0323   102.9247     2.4303
   62.0000     6.2531    10.1161     9.8399   -22.1282     7.9564     0.1278     0.0279   103.6178     2.4228
   62.5000     6.2974    10.1161     9.8399   -21.9729     7.9574     0.1314     0.0264   105.4405     2.4214
   63.0000     6.2981    10.0814     9.8399   -21.6680     7.9735     0.1290     0.0430   106.6280     2.4312
   63.5000     6.2991    10.0463     9.8399   -21.5127     7.9745     0.1229     0.0704   108.1861     2.4507
   64.0000     6.2999    10.0362     9.9082   -21.3572     7.9905     0.1153     0.0935   108.8793     2.4695
   64.5000     6.3008     9.9082     9.9770   -21.3513     8.0215     0.1016     0.1045   108.8947     2.4756
   65.0000     6.2582     9.9082    10.1161   -21.3926     8.0075     0.1067     0.0896   109.1361     2.4613
   65.5000     6.2159     9.9082    10.1161   -21.4893     7.9471     0.1154     0.0821   109.3775     2.4523
   66.0000     6.2167     9.9082    10.1161   -21.4820     7.8397     0.1118     0.0927   109.8447     2.4667
   66.5000     6.2176    10.0463     9.9770   -21.4761     7.7563     0.1072     0.1047   109.8602     2.4797
   67.0000     6.2185    10.1161     9.9082   -21.4703     7.7421     0.0988     0.1152   109.1979     2.4840
   67.5000     6.2195    10.3283     9.9770   -21.4649     7.7282     0.0961     0.1123   108.9875     2.4645
   68.0000     6.2203    10.4000    10.1863   -21.4586     7.7444     0.1039     0.0958   108.5452     2.4578
   68.5000     6.2644    10.3283    10.4000   -21.4527     7.7454     0.1111     0.0823   108.1147     2.4609
   69.0000     6.3087    10.1863    10.4722   -21.4469     7.6865     0.1074     0.0746   107.6784     2.4624
   69.5000     6.4419    10.1856    10.2571   -21.4410     7.7325     0.1155     0.0554   108.1495     2.4564
   70.0000     6.6236    10.4000    10.1161   -21.4350     7.7016     0.1116     0.0525   109.2945     2.4610
   70.5000     6.5788    10.5554    10.1863   -21.4279     7.6150     0.1125     0.0480   110.2136     2.4557
   71.0000     6.6752    10.6919    10.3283   -21.4220     7.5709     0.1142     0.0346   110.2290     2.4520
   71.5000     6.7245    10.6919    10.4722   -21.2667     7.6320     0.1139     0.0286   110.0147     2.4513
   72.0000     6.7664    10.6181    10.4722   -21.2616     7.7378     0.1130     0.0286   110.9376     2.4514
   72.5000     6.7673    10.6181    10.4722   -21.2550     7.7987     0.1142     0.0287   112.0826     2.4529
   73.0000     6.7682    10.5449    10.4722   -21.2496     7.8446     0.1136     0.0287   113.0017     2.4537
   73.5000     6.7691    10.4722    10.4722   -21.0933     7.9205     0.1139     0.0272   113.9209     2.4522
   74.0000     6.7700    10.4722    10.1863   -21.0264     7.9365     0.1147     0.0228   114.1627     2.4560
   74.5000     6.7710    10.4000    10.0463   -20.9327     7.9527     0.1132     0.0228   114.1814     2.4651
   75.0000     6.7719    10.3283     9.9770   -20.9268     7.8188     0.1072     0.0304   113.9671     2.4734
   75.5000     6.7728    10.3283    10.1863   -20.7713     7.8200     0.1024     0.0379   113.7566     2.4771
   76.0000     6.7737    10.2582    10.3283   -20.7653     7.9408     0.1000     0.0394   113.7759     2.4712
   76.5000     6.7241    10.1161    10.1161   -20.6088     8.0017     0.1023     0.0290   113.7914     2.4645
   77.0000     6.5906    10.0366     9.9761   -20.6029     7.9279     0.1080     0.0155   114.2587     2.4495
   77.5000     6.4953     9.8399     9.7653   -20.7480     7.7193     0.1170     0.0051   114.9518     2.4433
   78.0000     6.3684     9.5713     9.5713   -21.3386     7.6305     0.1177     0.0126   115.6450     2.4533
   78.5000     6.2817     9.3746     9.4397   -21.7812     7.6517     0.1148     0.0111   115.8863     2.4484
   79.0000     6.2390     9.1820     9.3746   -22.3732     7.7825     0.1182    -0.0023   115.2063     2.4342
   79.5000     6.1541     8.9934     9.3100   -23.1148     7.9332     0.1274    -0.0006   114.7877     2.4309
   80.0000     6.0704     8.8698     9.1820   -23.7068     8.0690     0.1232     0.0113   114.5773     2.4437
   80.5000     6.0714     8.8086     9.1187   -23.7010     8.1748     0.1246     0.0098   114.1409     2.4317
   81.0000     6.0303     8.9934     9.1187   -23.6891     8.1758     0.1270     0.0053   114.1602     2.4355
   81.5000     6.0311     9.2458     9.1820   -23.2407     8.1469     0.1246     0.0054   113.9459     2.4385
   82.0000     6.0112     9.5713     9.3746   -23.0841     8.1329     0.1264     0.0054   113.9652     2.4326
   82.5000     5.9912     9.7720     9.6377   -22.7792     8.0531     0.1258     0.0054   113.5289     2.4334
   83.0000     6.0336     9.9124     9.9119   -22.6239     8.0152     0.1224     0.0070   113.5443     2.4439
   83.5000     6.1187    10.1161    10.1161   -22.6181     8.0614     0.1164     0.0145   113.3336     2.4650
   84.0000     6.2479     9.8399    10.1161   -22.7632     8.0175     0.1068     0.0340   113.3494     2.4808
   84.5000     6.3798     9.7720     9.9770   -22.7558     7.9736     0.0975     0.0476   113.1389     2.4784
   85.0000     6.4696     9.8399     9.9082   -22.6005     7.9447     0.1005     0.0414   112.9284     2.4700
   85.5000     6.6062    10.3283    10.1863   -22.5947     7.9457     0.1076     0.0356   112.4921     2.4606
   86.0000     6.6530    10.4722    10.4722   -22.4393     7.9617     0.1121     0.0372   111.6078     2.4674
   86.5000     6.7466    10.4000    10.4000   -22.4335     7.9941     0.1016     0.0477   110.2678     2.4780
   87.0000     6.7476    10.1863    10.2571   -22.4275     8.0239     0.0992     0.0358   109.1538     2.4660
   87.5000     6.7485    10.1161    10.1863   -22.4215     8.0698     0.1067     0.0268   108.4915     2.4630
   88.0000     6.7494    10.4000    10.1863   -22.4145     8.1007     0.1078     0.0238   108.7329     2.4533
   88.5000     6.7503    10.6919    10.3283   -22.4086     8.1616     0.1135     0.0224   108.9742     2.4654
   89.0000     6.7513    10.9162    10.2571   -22.4027     8.1028     0.1086     0.0284   108.7636     2.4670
   89.5000     6.7524    10.8409    10.1737   -22.0987     7.9840     0.1066     0.0345   108.5444     2.4654
   90.0000     6.7533    10.6820     9.9082   -22.0916     7.9701     0.1069     0.0423   107.6054     2.4775
   90.5000     6.7541    10.4000     9.7720   -21.9363     7.9711     0.0996     0.0540   106.3252     2.4866
   91.0000     6.7550    10.3283     9.6377   -21.9304     7.9897     0.0909     0.0645   106.1147     2.4914
   91.5000     6.7560    10.5449     9.6377   -21.7751     7.9584     0.0870     0.0676   107.0377     2.4964
   92.0000     6.7569    10.6919     9.6377   -21.7692     7.9594     0.0861     0.0586   108.1826     2.4957
   92.5000     6.7579    10.4722     9.6377   -21.7634     7.9604     0.1023     0.0362   109.7794     2.4747
