~VERSION INFORMATION
 VERS.                2.0:   CWLS LOG ASCII STANDARD - VERSION 2.0
 WRAP.                 NO:   ONE LINE PER DEPTH STEP
~WELL INFORMATION
#MNEM.UNIT      DATA TYPE    INFORMATION
#----------   ------------   ------------------------------
 STRT.F           66.0000:   START DEPTH
 STOP.F         1030.5000:   STOP DEPTH
 STEP.F            0.5000:   STEP LENGTH
 NULL.          -999.2500:   NO VALUE
 COMP. U S NAVY/INTEX OIL CO:   COMPANY
 WELL.      NRP-3 #68S-11:   WELL
 FLD .             TEAPOT:   FIELD
 LOC .      S11 T38N R78W:   LOCATION
 CNTY.            NATRONA:   COUNTY
 STAT.            WYOMING:   STATE
 CTRY. UNITED STATES OF AMERICA:   COUNTRY
 SRVC.       Schlumberger:   SERVICE COMPANY
 DATE.        07-JUL-1962:   LOGDATE
 API .       490250632700:   API NUMBER
~CURVE INFORMATION
#MNEM.UNIT       API CODE    CURVE DESCRIPTION
#----------   ------------   ------------------------------
 DEPT.F                  :   
 SPR .MV     05 010 01 00:   SPONTANEOUS POTENTIAL FROM RES.
 ASN .OHMM   05 041 16 00:   AMPLIFIED SHORT NORMAL 16"
 ILD .OHMM   05 120 46 00:   INDUCTION LOG DEEP
 CILD.MMHO   05 110 46 00:   CONDUCTIVITY INDUCTION LOG DEEP
 GRN .GAPI   35 310 30 00:   GAMMA RAY
 GR  .GAPI   81 310 01 00:   GAMMA RAY
~PARAMETER INFORMATION
#MNEM.UNIT          VALUE    DESCRIPTION
#----------   ------------   ------------------------------
 LMF .                 KB:   LOG MEASURED FROM
 DMF .                 KB:   DRILLING MEASURED FROM
 EKB .F              5226:   KELLING BUSHING
 EGL .F              5221:   GROUND LEVEL
 DATE.           7-7-1962:   RUN DATE
 RUN .                  1:   RUN NUMBER
 DD  .F              1030:   DEPTH DRILLER
 DL  .F              1031:   DEPTH LOGGER
 BLI .F              1030:   BOTTOM LOG INTERVAL
 TLI .F                90:   TOP LOG INTERVAL
 CBD .F                10:   CASING BOTTOM DRILLER
 BS  .IN             6.75:   BIT SIZE
 BSD .F              1030:   BIT SIZE AT DEPTH
 DFT .            GEL-OIL:   DRILLING FLUID TYPE
 DFD .               10.2:   DRILLING FLUID DENSITY
 DFV .                 50:   DRILLING FLUID VISCOSITY
 DFL .                3.6:   DRILLING FLUID LOSS
 RMS .OHMM           5.06:   RESISTIVITY MUD SAMPLE
 MST .F                71:   MUD SAMPLE TEMPERATURE
 RMF .OHMM           4.89:   RESISTIVITY MUD FILTRATE SAMPLE
 MFST.F                71:   MUD FILTRATE SAMPLE TEMPERATURE
 RMC .OHMM           4.85:   RESISTIVITY MUD CAKE
 MCST.F                71:   MUD CAKE SAMPLE TEMPERATURE
 MFSS.                  M:   MUD FILTRATE SAMPLE SOURCE
 MCSS.                  M:   MUD CAKE SAMPLE SOURCE
 RMB .OHMM           4.54:   RESISTIVITY MUD AT BHT
 BHT .F                82:   BOTTOM HOLE TEMPERATURE
 TCS .HRS               1:   TIME CURCULATED STOPPED
 MRT .F                82:   MAXIMUM RECORDED TEMPERATURE
 LUN .               2503:   LOGGING UNIT NUMBER
 LUL .              CSPR.:   LOGGING UNIT LOCATION
 ENGI.             KNOBEL:   RECORDING ENGINEER
 WITN.          JORGENSEN:   WITNESSED BY
 CLNT.            A2DTECH:   CLIENT CODE
 ORIG.      2" & 5" PRINT:   ORIGIN OF DATA
 UWI .       490250632700:   UNIQUE WELL ID
 DICO. A2D Technologies, Inc.:   DIGITIZING COMPANY
~OTHER INFORMATION
~A   DEPT      SPR        ASN        ILD       CILD        GRN          GR  
# ...
  950.0000   -32.1793    10.9749    10.0475   103.1079    71.9000    93.9310
  950.5000   -31.5847    10.9675    10.0754   102.5976    71.9292    97.0985
  951.0000   -31.0600    10.9601    10.1035   102.0836    69.1507   100.1733
  951.5000   -31.1514    10.9527    10.1316   101.5701    68.1907   100.3063
  952.0000   -31.2488    10.9453    10.1596   101.0572    68.4141    97.1220
  952.5000   -31.3433    10.9380    10.1877   100.5443    66.4948    94.4116
  953.0000   -31.4336    10.9310    10.2158   100.5687    65.6715    95.5105
  953.5000   -31.5870    10.9209    10.2438   101.1799    64.1982    95.2978
  954.0000   -31.7439    10.8603    10.2721   101.7912    63.2040    94.1639
  954.5000   -31.9021    10.8004    10.3006   102.4024    63.0463    93.0226
  955.0000   -32.0316    10.7409    10.3224   103.0137    63.2208    92.8223
  955.5000   -31.8171    10.6815    10.2450   103.6249    64.5500    95.6012
  956.0000   -31.6026    10.6236    10.1668   104.2362    63.7377    95.4164
  956.5000   -31.3901    10.5649    10.0892   104.8475    58.7837    93.2827
  957.0000   -31.1780    10.5076    10.0118   105.4587    60.2765    91.1456
  957.5000   -30.9658    10.4504     9.9343   106.0700    61.6027    91.7207
  958.0000   -30.7535    10.3930     9.8564   106.6812    58.4135    95.5447
  958.5000   -30.5420    10.3350     9.8090   107.2925    58.3465    93.0191
  959.0000   -30.3229    10.3421     9.7778   107.9037    55.4799    89.1538
  959.5000   -30.4783    10.3666     9.7470   108.5150    52.1342    88.4805
  960.0000   -30.8085    10.3915     9.7288   109.1263    50.5131   106.0977
  960.5000   -31.3445    10.4163     9.7290   108.6564    48.9162    85.2731
  961.0000   -32.6508    10.4411     9.7289   107.9482    46.6552  -999.2500
  961.5000   -33.1780    10.4658     9.7289   107.2399    45.5802  -999.2500
  962.0000   -33.5739    10.4910     9.7299   106.5316    45.4631  -999.2500
  962.5000   -33.9701    10.5133     9.7900   105.8233    40.4429  -999.2500
  963.0000   -34.3695    10.7286     9.9457   104.8208    39.8239  -999.2500
  963.5000   -34.3495    11.0630    10.1009   102.6173    33.1137  -999.2500
  964.0000   -34.2546    11.3994    10.3070   100.4137    35.0102  -999.2500
  964.5000   -34.4242    11.7359    10.7601    98.2102    41.6692  -999.2500
  965.0000   -34.6905    12.0720    11.2101    94.4026    46.4249  -999.2500
  965.5000   -36.5850    12.4168    11.6595    89.4447    48.6407  -999.2500
  966.0000   -39.2900    12.9004    12.1087    84.4867    37.2248  -999.2500
  966.5000   -42.0115    13.3963    12.5578    79.8924    37.3309  -999.2500
  967.0000   -44.0711    13.8920    13.0093    77.0900    41.3970  -999.2500
  967.5000   -43.4270    14.3936    13.6042    74.2877    43.6236  -999.2500
  968.0000   -43.4066    14.9391    14.2457    71.4854    45.9263  -999.2500
  968.5000   -45.7551    15.5050    14.8806    68.6937    35.3681  -999.2500
  969.0000   -48.0709    16.0697    15.3109    66.6315    24.7602  -999.2500
  969.5000   -48.5859    16.6406    15.3035    65.4440    24.2222  -999.2500
  970.0000   -48.0928    16.8670    15.3047    65.6505    23.5493  -999.2500
  970.5000   -48.7200    16.4051    15.2902    65.8394    24.8577  -999.2500
  971.0000   -49.9829    16.0734    15.1840    66.0301    31.1148  -999.2500
  971.5000   -51.2862    16.0497    15.0775    66.2195    37.1679  -999.2500
  972.0000   -50.3947    16.2652    14.9266    66.4241    37.0518  -999.2500
  972.5000   -48.6970    16.0159    14.6770    67.6743    36.2067  -999.2500
  973.0000   -46.9940    15.7042    14.4288    69.0280    37.6795  -999.2500
  973.5000   -45.2981    15.3807    14.1842    70.3803    43.9584  -999.2500
  974.0000   -43.8109    15.3050    14.0067    71.7325    43.7517  -999.2500
  974.5000   -44.0499    15.3033    14.0104    72.4004    43.7477  -999.2500
  975.0000   -44.5427    15.3046    14.0099    72.4004    43.8975  -999.2500
  975.5000   -44.9547    15.3075    14.0096    72.4004    44.1699  -999.2500
  976.0000   -44.9459    15.1936    14.0125    72.4004    44.4533  -999.2500
  976.5000   -44.1653    15.0696    13.8706    72.4004    43.7321  -999.2500
  977.0000   -42.6433    14.9454    13.6745    73.1091    43.7948  -999.2500
  977.5000   -41.1375    14.8249    13.4763    74.5673    41.4143  -999.2500
  978.0000   -39.6322    14.6819    13.2851    76.0255    37.2037  -999.2500
  978.5000   -38.1373    14.5408    13.1005    77.4837    33.6716  -999.2500
  979.0000   -37.0871    14.4037    12.9145    78.9420    32.4192  -999.2500
  979.5000   -36.8297    14.2642    12.7277    80.4002    35.5682  -999.2500
  980.0000   -36.6524    14.1285    12.5400    81.8584    30.7739  -999.2500
  980.5000   -36.9751    13.9934    12.5770    81.9022    28.0576  -999.2500
  981.0000   -37.2895    13.8565    12.6477    80.9106    30.0086  -999.2500
  981.5000   -37.5961    13.8413    12.7191    79.9190    33.1147  -999.2500
  982.0000   -37.6022    13.8823    12.7906    78.9274    38.4741  -999.2500
  982.5000   -37.0491    13.7804    12.8628    79.0804    47.7612  -999.2500
  983.0000   -36.5056    13.4837    12.9041    80.6798    45.4606  -999.2500
  983.5000   -35.9646    13.3480    12.5962    82.2791    43.1708  -999.2500
  984.0000   -35.5396    13.4686    12.2842    83.8781    40.1657  -999.2500
  984.5000   -35.3455    13.1842    11.9737    85.4767    45.9822  -999.2500
  985.0000   -35.1465    12.9564    11.6642    87.0803    45.1826  -999.2500
  985.5000   -34.9486    12.7273    11.3807    88.8417    44.7065  -999.2500
  986.0000   -34.7528    12.4985    11.2013    91.2026    44.2114  -999.2500
  986.5000   -34.6365    12.2729    11.0249    93.5635    44.5107  -999.2500
  987.0000   -34.6843    12.0574    10.9221    95.9245    46.0856  -999.2500
  987.5000   -34.7283    11.9826    10.8273    98.2789    48.6358  -999.2500
  988.0000   -34.7708    11.9371    10.8365    98.0806    49.1128  -999.2500
  988.5000   -34.8305    11.8924    10.8501    97.8569    47.8278  -999.2500
  989.0000   -35.4624    11.8474    10.8633    97.6387    49.6743  -999.2500
  989.5000   -36.1461    11.8023    10.8763    97.4231    51.0134  -999.2500
  990.0000   -36.8523    11.7572    10.8894    96.9115    45.1198  -999.2500
  990.5000   -36.9255    11.7148    10.9024    95.9199    44.5528  -999.2500
  991.0000   -36.8244    11.6883    10.9153    94.9283    31.2171  -999.2500
  991.5000   -36.7168    11.6613    10.9180    93.9367    32.7898  -999.2500
  992.0000   -36.6149    11.6342    10.9017    93.4801    32.1057  -999.2500
  992.5000   -36.8207    11.6072    10.8858    93.9523    32.1719  -999.2500
  993.0000   -37.0529    11.5801    10.8698    94.4245  -999.2500  -999.2500
  993.5000   -37.2844    11.5531    10.8538    94.8967  -999.2500  -999.2500
  994.0000   -37.5157    11.5260    10.8378    95.3689  -999.2500  -999.2500
  994.5000   -37.7497    11.4990    10.8203    95.8411  -999.2500  -999.2500
  995.0000   -37.9886    11.4720    10.7958    96.3133  -999.2500  -999.2500
  995.5000   -37.9543    11.4449    10.7709    96.7856  -999.2500  -999.2500
  996.0000   -37.5104    11.4161    10.7461    97.2578  -999.2500  -999.2500
  996.5000   -37.0967    11.3804    10.7232    97.7300  -999.2500  -999.2500
  997.0000   -36.6939    11.3441    10.7176    98.2022  -999.2500  -999.2500
  997.5000   -36.3445    11.3078    10.7115    98.6744  -999.2500  -999.2500
  998.0000   -36.1498    11.2715    10.7054    99.1466  -999.2500  -999.2500
  998.5000   -35.9507    11.2353    10.6993    99.6188  -999.2500  -999.2500
  999.0000   -35.7526    11.1990    10.6931   100.0910  -999.2500  -999.2500
  999.5000   -35.5544    11.1625    10.6870   100.5632  -999.2500  -999.2500
 1000.0000   -35.3562    11.1266    10.6809   101.0354  -999.2500  -999.2500
 1000.5000   -35.1580    11.1227    10.6748   101.2211  -999.2500  -999.2500
 1001.0000   -34.9594    11.1227    10.6686   101.0498  -999.2500  -999.2500
 1001.5000   -34.7604    11.1228    10.6625   100.8786  -999.2500  -999.2500
