~VERSION INFORMATION
 VERS.                2.0:   CWLS LOG ASCII STANDARD - VERSION 2.0
 WRAP.                 NO:   ONE LINE PER DEPTH STEP
~WELL INFORMATION
#MNEM.UNIT      DATA TYPE    INFORMATION
#----------   ------------   ------------------------------
 STRT.F            1.0000:   START DEPTH
 STOP.F          886.0000:   STOP DEPTH
 STEP.F            0.5000:   STEP LENGTH
 NULL.          -999.2500:   NO VALUE
 COMP. BROWN JOHN E&C INC:   COMPANY
 WELL. NAVAL PETROLEUM RESERVE 3 SHX-1 #33-2:   WELL
 FLD .             NPR #3:   FIELD
 LOC .       S2 T38N R78W:   LOCATION
 CNTY.            NATRONA:   COUNTY
 STAT.            WYOMING:   STATE
 CTRY. UNITED STATES OF AMERICA:   COUNTRY
 SRVC.      Western Atlas:   SERVICE COMPANY
 DATE.        26-NOV-1991:   LOGDATE
 API .       490252248300:   API NUMBER
~CURVE INFORMATION
#MNEM.UNIT       API CODE    CURVE DESCRIPTION
#----------   ------------   ------------------------------
 DEPT.F                  :   
 RILD.OHMM   07 120 46 00:   INDUCTION LOG DEEP RESISTIVITY
 RILM.OHMM   07 120 44 00:   INDUCTION LOG MEDIUM RESISTIVITY
 RFOC.OHMM   07 220 04 00:   RESISTIVITY FOCUSED LOG
 SPR .MV     07 010 01 00:   SPONTANEOUS POTENTIAL
 GRR .GAPI   07 310 01 00:   GAMMA RAY
~PARAMETER INFORMATION
#MNEM.UNIT          VALUE    DESCRIPTION
#----------   ------------   ------------------------------
 PD  .                 GL:   PERMANENT DATUM
 EPD .F              5133:   ELEVATION PERMANENT DATUM
 LMF .                 KB:   LOG MEASURED FROM
 DAPD.F                10:   FEET ABOVE PERMANENT DATUM
 DMF .                 KB:   DRILLING MEASURED FROM
 EKB .F              5143:   KELLING BUSHING
 EGL .F              5133:   GROUND LEVEL
 DATE.        26-NOV-1991:   RUN DATE
 RUN .                  1:   RUN NUMBER
 DD  .F               892:   DEPTH DRILLER
 DL  .F               889:   DEPTH LOGGER
 BLI .F               837:   BOTTOM LOG INTERVAL
 CS  .IN            8.625:   CASING SIZE
 CBD .F                40:   CASING BOTTOM DRILLER
 CBL .F                55:   CASING BOTTOM LOGGER
 BS  .IN            7.875:   BIT SIZE
 BSD .F               892:   BIT SIZE AT DEPTH
 DFT .            POLYMER:   DRILLING FLUID TYPE
 DFD .                9.8:   DRILLING FLUID DENSITY
 DFV .                 38:   DRILLING FLUID VISCOSITY
 DFPH.                9.5:   DRILLING FLUID PH
 DFL .               10.6:   DRILLING FLUID LOSS
 MSS .           FLOWLINE:   MUD SAMPLE SOURCE
 RMS .OHMM           2.08:   RESISTIVITY MUD SAMPLE
 MST .F                78:   MUD SAMPLE TEMPERATURE
 RMF .OHMM           1.66:   RESISTIVITY MUD FILTRATE SAMPLE
 MFST.F                78:   MUD FILTRATE SAMPLE TEMPERATURE
 RMC .OHMM           2.60:   RESISTIVITY MUD CAKE
 MCST.F                78:   MUD CAKE SAMPLE TEMPERATURE
 MFSS.               MEAS:   MUD FILTRATE SAMPLE SOURCE
 MCSS.               CALC:   MUD CAKE SAMPLE SOURCE
 RMB .OHMM           1.08:   RESISTIVITY MUD AT BHT
 BHT .F               150:   BOTTOM HOLE TEMPERATURE
 TCS .HRS               2:   TIME CURCULATED STOPPED
 MRT .F               150:   MAXIMUM RECORDED TEMPERATURE
 LUN .            HL-6307:   LOGGING UNIT NUMBER
 LUL .         CASPER, WY:   LOGGING UNIT LOCATION
 ENGI.             ZIEGER:   RECORDING ENGINEER
 WITN.             STRONG:   WITNESSED BY
 CLNT.            A2DTECH:   CLIENT CODE
 ORIG.           5" PRINT:   ORIGIN OF DATA
 UWI .       490252248300:   UNIQUE WELL ID
 DICO. A2D Technologies, Inc.:   DIGITIZING COMPANY
~OTHER INFORMATION
~A    DEPT    RILD       RILM       RFOC        SPR         GRR  
# ...
  855.0000     9.6417     9.9890    10.6675   -93.6190   102.4416
  855.5000     9.5738     9.9883    10.9119   -93.4784   102.7345
  856.0000     9.4406     9.9876    11.0995   -93.6419   100.9100
  856.5000     9.4393     9.9870    11.3833   -93.6522    99.9933
  857.0000     9.4381     9.9861    11.4612   -93.6624   100.8866
  857.5000     9.4368     9.9166    11.3686   -93.8235   102.7149
  858.0000     9.3703     9.9159    11.0777   -93.9870   105.3853
  858.5000     9.3688     9.8466    10.8377   -94.1480   106.5831
  859.0000     9.3028     9.8459    10.6873   -94.3091   104.7586
  859.5000     9.3015     9.8453    10.8113   -94.6209   101.7303
  860.0000     9.3003     9.8446    10.9972   -94.7820    99.9087
  860.5000     9.2347     9.8439    10.9830   -94.7922   102.9137
  861.0000     9.1697     9.7751    10.9058   -94.8024   106.2222
  861.5000     9.1051     9.7069    10.9043   -94.6618   107.7169
  862.0000     8.9782     9.5064    10.8624   -94.3703   105.2890
  862.5000     8.9149     9.3748    10.7508   -94.2297   101.6574
  863.0000     8.9137     9.1811    10.5242   -94.0891    99.5341
  863.5000     8.8509     8.9915    10.1679   -93.9485   100.1258
  864.0000     8.6675     8.8057     9.9234   -93.8078   102.6205
  864.5000     8.6064     8.7441     9.8870   -93.8206  -999.2500
  865.0000     8.4867     8.8045     9.8856   -93.6800  -999.2500
  865.5000     8.4192     8.7430     9.8159   -93.6927  -999.2500
  866.0000     8.1950     8.6219     9.7541   -93.7030  -999.2500
  866.5000     8.1373     8.5026     9.6321   -93.4115  -999.2500
  867.0000     7.9686     8.2694     9.5434   -93.1175  -999.2500
  867.5000     7.8578     8.0986     9.4654   -93.1303  -999.2500
  868.0000     7.7485     7.9791     9.4094   -93.7438  -999.2500
  868.5000     7.6408     7.8214     9.2835   -94.5169  -999.2500
  869.0000     7.5345     7.7131     9.1493   -95.4259  -999.2500
  869.5000     7.4812     7.7126     9.0697   -96.1902  -999.2500
  870.0000     7.3771     7.7659     8.9362   -96.5021  -999.2500
  870.5000     7.3761     7.8194     8.8953   -96.8140  -999.2500
  871.0000     7.3752     7.8188     8.9558   -97.1258  -999.2500
  871.5000     7.3742     7.8182     9.0945   -97.4377  -999.2500
  872.0000     7.3222     7.7635     9.3104   -97.9025  -999.2500
  872.5000     7.3212     7.7094     9.5073   -98.2354  -999.2500
  873.0000     7.3202     7.6556     9.6604   -98.6775  -999.2500
  873.5000     7.2182     7.6022     9.3865   -98.8386  -999.2500
  874.0000     7.1178     7.6016     9.0687   -98.8488  -999.2500
  874.5000     7.0677     7.6011     8.8229   -98.5573  -999.2500
  875.0000     6.9694     7.4441     8.7164   -98.1151  -999.2500
  875.5000     6.9203     7.2836     8.6400   -97.8236  -999.2500
  876.0000     6.7769     7.1396     8.6252   -97.5322  -999.2500
  876.5000  -999.2500     7.0408     8.5433  -999.2500  -999.2500
  877.0000  -999.2500     6.9917     8.4758  -999.2500  -999.2500
  877.5000  -999.2500     6.9912     8.3989  -999.2500  -999.2500
  878.0000  -999.2500     6.9907     8.3186  -999.2500  -999.2500
  878.5000  -999.2500     6.9419     8.1996  -999.2500  -999.2500
  879.0000  -999.2500     6.9415     8.1657  -999.2500  -999.2500
  879.5000  -999.2500  -999.2500     8.1645  -999.2500  -999.2500
  880.0000  -999.2500  -999.2500     8.1634  -999.2500  -999.2500
  880.5000  -999.2500  -999.2500     8.1623  -999.2500  -999.2500
  881.0000  -999.2500  -999.2500     8.1612  -999.2500  -999.2500
  881.5000  -999.2500  -999.2500     8.2167  -999.2500  -999.2500
  882.0000  -999.2500  -999.2500     8.2730  -999.2500  -999.2500
  882.5000  -999.2500  -999.2500     7.3740  -999.2500  -999.2500
  883.0000  -999.2500  -999.2500     6.4430  -999.2500  -999.2500
  883.5000  -999.2500  -999.2500     6.0105  -999.2500  -999.2500
  884.0000  -999.2500  -999.2500     5.9683  -999.2500  -999.2500
  884.5000  -999.2500  -999.2500     7.3987  -999.2500  -999.2500
  885.0000  -999.2500  -999.2500     8.5128  -999.2500  -999.2500
  885.5000  -999.2500  -999.2500     8.8582  -999.2500  -999.2500
  886.0000  -999.2500  -999.2500     8.8572  -999.2500  -999.2500
