~VERSION INFORMATION
 VERS.                2.0:   CWLS LOG ASCII STANDARD - VERSION 2.0
 WRAP.                 NO:   ONE LINE PER DEPTH STEP
~WELL INFORMATION
#MNEM.UNIT      DATA TYPE    INFORMATION
#----------   ------------   ------------------------------
 STRT.F           88.0000:   START DEPTH
 STOP.F          919.0000:   STOP DEPTH
 STEP.F            0.5000:   STEP LENGTH
 NULL.          -999.2500:   NO VALUE
 COMP. U S NAVY-INTEX OIL:   COMPANY
 WELL. RES 3 TEAPOT DOM #51S-11:   WELL
 FLD .             TEAPOT:   FIELD
 LOC .      S11 T38N R78W:   LOCATION
 CNTY.            NATRONA:   COUNTY
 STAT.            WYOMING:   STATE
 CTRY. UNITED STATES OF AMERICA:   COUNTRY
 SRVC.      NL McCullough:   SERVICE COMPANY
 DATE.        08-AUG-1961:   LOGDATE
 API .       490250638400:   API NUMBER
~CURVE INFORMATION
#MNEM.UNIT       API CODE    CURVE DESCRIPTION
#----------   ------------   ------------------------------
 DEPT.F                  :   
 NEUT.CPS    35 330 30 00:   NEUTRON
 GRN .MG/TON 35 310 01 00:   GAMMA RAY
~PARAMETER INFORMATION
#MNEM.UNIT          VALUE    DESCRIPTION
#----------   ------------   ------------------------------
 PD  .                 GL:   PERMANENT DATUM
 EPD .F              5176:   ELEVATION PERMANENT DATUM
 LMF .                 KB:   LOG MEASURED FROM
 DAPD.F                 6:   FEET ABOVE PERMANENT DATUM
 DMF .                 KB:   DRILLING MEASURED FROM
 EKB .F              5182:   KELLING BUSHING
 EGL .F              5176:   GROUND LEVEL
 DATE.           8-8-1961:   RUN DATE
 RUN .                  1:   RUN NUMBER
 DD  .F               920:   DEPTH DRILLER
 DL  .F             920.5:   DEPTH LOGGER
 BLI .F               919:   BOTTOM LOG INTERVAL
 TLI .F                90:   TOP LOG INTERVAL
 BSD .F               920:   BIT SIZE AT DEPTH
 DFT .       OIL EMULSION:   DRILLING FLUID TYPE
 DFD .                  9:   DRILLING FLUID DENSITY
 TCS .HRS               2:   TIME CURCULATED STOPPED
 ENGI.            JACKSON:   RECORDING ENGINEER
 WITN.          JORGENSEN:   WITNESSED BY
 CLNT.            A2DTECH:   CLIENT CODE
 ORIG.      2" & 5" PRINT:   ORIGIN OF DATA
 UWI .       490250638400:   UNIQUE WELL ID
 DICO. A2D Technologies, Inc.:   DIGITIZING COMPANY
~OTHER INFORMATION
~A   DEPT     NEUT          GRN 
# ...
  574.0000   351.8267     7.0919
  574.5000   367.3596     7.1319
  575.0000   377.0756     7.1389
  575.5000   392.5304     7.0506
  576.0000   394.0181     6.7893
  576.5000   365.0278     6.7665
  577.0000   349.4033     6.8430
  577.5000   356.5518     6.8417
  578.0000   366.7199     6.6364
  578.5000   368.2062     6.6213
  579.0000   362.2894     6.6417
  579.5000   355.3088     6.7038
  580.0000   354.7835     6.7496
  580.5000   356.0150     6.7677
  581.0000   367.8220     6.7719
  581.5000   375.9528     6.7371
  582.0000   385.3895     6.6193
  582.5000   365.7318     6.4526
  583.0000   352.1078     6.5813
  583.5000   362.7292     6.8950
  584.0000   374.0084     6.9169
  584.5000   379.2164     6.7100
  585.0000   382.5906     6.3300
  585.5000   386.3154     5.9801
  586.0000   392.7298     5.9730
  586.5000   404.8303     5.9272
  587.0000   411.5629     5.8768
  587.5000   418.7130     5.8888
  588.0000   422.2357     5.9055
  588.5000   422.8135     5.9222
  589.0000   423.5424     5.9792
  589.5000   423.4407     6.0128
  590.0000   419.4612     5.8726
  590.5000   414.5130     5.6523
  591.0000   412.1056     5.4928
  591.5000   407.8637     5.3904
  592.0000   398.5578     5.1086
  592.5000   388.6100     5.0367
  593.0000   398.9590     4.9500
  593.5000   422.5488     5.0902
  594.0000   429.0176     5.1341
  594.5000   435.6635     5.1516
  595.0000   430.0199     5.2557
  595.5000   417.1180     5.5289
  596.0000   409.5266     5.7375
  596.5000   407.2796     5.8240
  597.0000   404.6149     5.9828
  597.5000   400.4329     5.9147
  598.0000   399.3002     6.0407
  598.5000   414.0520     6.1012
  599.0000   430.5627     6.1871
  599.5000   455.8304     6.2248
  600.0000   508.2972     6.2170
  600.5000   504.8758     5.5300
  601.0000   507.1907     5.5675
  601.5000   510.2188     5.3833
  602.0000   490.3934     5.3053
  602.5000   489.6003     5.4237
  603.0000   501.6567     5.7178
  603.5000   509.1780     5.9383
  604.0000   514.4318     5.8158
  604.5000   486.4278     5.7771
  605.0000   478.0854     5.7537
  605.5000   471.2361     6.0886
  606.0000   413.7536     6.2176
  606.5000   428.8336     6.0722
  607.0000   406.8764     5.8050
  607.5000   438.5851     5.6215
  608.0000   482.3876     5.4381
  608.5000   490.6648     5.3156
  609.0000   501.2824     5.3379
  609.5000   496.2861     5.5889
  610.0000   505.3159     5.9085
  610.5000   492.7740     5.5403
  611.0000   472.3286     5.4121
  611.5000   454.1507     5.5708
  612.0000   451.0993     5.6620
  612.5000   479.0195     5.7382
  613.0000   455.5507     5.3031
  613.5000   460.0485     5.4474
  614.0000   501.5835     5.3327
  614.5000   485.6732     5.4846
  615.0000   476.5749     5.1790
  615.5000   506.0068     5.3995
  616.0000   516.5515     5.1856
  616.5000   487.7917     5.3680
  617.0000   475.6607     5.5657
  617.5000   520.2190     5.6794
  618.0000   545.8809     5.6484
  618.5000   501.2481     5.3049
  619.0000   514.8162     5.4492
  619.5000   519.3048     5.4563
  620.0000   483.7422     5.5397
  620.5000   463.3061     5.4400
  621.0000   439.8279     6.0075
  621.5000   449.6261     6.2248
  622.0000   383.0641     6.1930
  622.5000   380.7686     6.1543
  623.0000   389.0364     6.3290
  623.5000   405.6280     6.1914
  624.0000   429.0223     6.1450
  624.5000   445.6139     6.2741
  625.0000   427.4361     6.8223
  625.5000   457.6331     7.1267
  626.0000   490.2195     6.9813
  626.5000   464.3613     7.0570
  627.0000   471.1268     7.0336
  627.5000   450.2421     6.8503
  628.0000   428.4601     6.5981
  628.5000   436.2362     6.8796
  629.0000   444.5227     6.7494
  629.5000   433.1382     6.9776
  630.0000   452.7533     6.5198
  630.5000   484.4621     6.3897
  631.0000   479.8896     6.4653
  631.5000   458.6852     6.4802
  632.0000   445.0425     5.9917
  632.5000   453.3290     5.9837
  633.0000   483.5168     6.2346
  633.5000   458.5362     6.3483
  634.0000   480.4188     6.4470
  634.5000   469.7995     6.1263
  635.0000   444.0631     6.0648
  635.5000   447.8144     6.0033
  636.0000   464.3967     6.1933
  636.5000   440.1720     6.0403
  637.0000   481.7069     6.1617
  637.5000   473.3553     6.2222
  638.0000   477.0973     5.6652
  638.5000   478.5717     6.0077
  639.0000   470.9759     6.1977
  639.5000   492.3170     6.1896
  640.0000   498.8588     5.9070
  640.5000   467.8406     5.9484
  641.0000   476.1178     6.3221
  641.5000   468.5220     6.3017
  642.0000   496.4421     6.6315
  642.5000   510.0197     6.7047
  643.0000   469.1567     6.3231
  643.5000   458.5374     6.4140
  644.0000   440.3689     6.1466
  644.5000   459.2188     6.2527
  645.0000   451.6229     6.5342
  645.5000   459.1442     6.5567
  646.0000   462.1315     6.1139
  646.5000   431.8588     5.8695
  647.0000   431.7992     5.7622
  647.5000   459.7510     5.8533
  648.0000   453.4559     6.1347
  648.5000   415.0809     6.1953
  649.0000   437.7194     6.0652
  649.5000   421.8091     6.1027
  650.0000   439.1566     6.1479
  650.5000   403.6958     6.6428
  651.0000   347.9951     6.5583
  651.5000   327.6363     6.4057
  652.0000   331.3051     6.3831
  652.5000   341.9581     5.9689
  653.0000   374.5445     6.1069
  653.5000   369.1933     6.2894
  654.0000   374.1191     6.4871
  654.5000   357.6716     6.6620
  655.0000   378.0681     6.6310
  655.5000   408.9981     6.8288
  656.0000   380.9712     6.8742
  656.5000   401.3192     6.5458
  657.0000   479.1174     6.4767
  657.5000   492.6777     6.3162
  658.0000   483.5472     6.1633
  658.5000   469.8666     5.9952
  659.0000   457.7278     5.8957
  659.5000   431.9533     6.0553
  660.0000   423.5788     6.2987
  660.5000   403.8663     6.4736
  661.0000   418.1674     6.7780
  661.5000   450.6091     6.7090
  662.0000   417.2912     6.4722
  662.5000   382.4616     6.1441
  663.0000   402.0537     6.0490
  663.5000   403.5146     6.4099
  664.0000   395.0862     6.1015
  664.5000   400.4604     5.9164
  665.0000   392.6429     6.0129
  665.5000   367.7393     5.8583
  666.0000   371.4584     5.7827
  666.5000   377.4451     6.1174
  667.0000   427.4934     6.1628
  667.5000   454.4716     6.0785
  668.0000   437.5284     6.1694
  668.5000   428.6028     6.2452
  669.0000   448.1949     6.4430
  669.5000   457.5460     6.5187
  670.0000   472.7659     6.7698
  670.5000   480.5163     6.7312
  671.0000   472.1391     7.0203
  671.5000   447.8940     6.9971
  672.0000   436.4810     7.2024
  672.5000   454.5614     7.5830
  673.0000   464.3274     7.7197
  673.5000   479.3844     7.7576
  674.0000   466.4746     7.1853
  674.5000   460.3676     7.3373
  675.0000   445.1903     7.1539
  675.5000   468.5617     6.8257
  676.0000   491.1772     6.5738
  676.5000   477.5117     6.4590
  677.0000   483.4984     6.4584
  677.5000   539.3867     6.9155
  678.0000   493.2042     6.8984
  678.5000   457.6187     6.8688
  679.0000   485.5253     7.0580
  679.5000   496.8180     6.9205
  680.0000   493.7194     6.6007
  680.5000   452.0870     6.6229
  681.0000   440.7040     6.5539
  681.5000   451.2259     6.7669
  682.0000   433.0251     6.6292
  682.5000   452.6172     6.0266
  683.0000   422.3077     6.2624
  683.5000   457.7729     6.5212
  684.0000   472.0740     6.6045
  684.5000   456.1408     6.7032
  685.0000   447.7662     6.2835
  685.5000   437.1240     6.0544
  686.0000   426.4969     6.1607
  686.5000   420.3748     6.2137
  687.0000   413.5119     6.1597
  687.5000   395.3112     6.4260
  688.0000   385.3165     6.6543
  688.5000   377.8061     6.7986
  689.0000   371.6991     6.5009
  689.5000   312.6820     6.5188
  690.0000   269.5379     6.1723
  690.5000   249.7203     5.8059
  691.0000   250.5215     5.6606
  691.5000   252.7286     5.5986
  692.0000   280.6735     5.6131
  692.5000   288.2610     5.9142
  693.0000   319.3075     6.6801
  693.5000   311.8128     6.7712
  694.0000   327.6290     6.8545
  694.5000   343.6685     6.9532
  695.0000   387.2950     7.3033
