~VERSION INFORMATION
 VERS.                2.0:   CWLS LOG ASCII STANDARD - VERSION 2.0
 WRAP.                 NO:   ONE LINE PER DEPTH STEP
~WELL INFORMATION
#MNEM.UNIT      DATA TYPE    INFORMATION
#----------   ------------   ------------------------------
 STRT.F            2.0000:   START DEPTH
 STOP.F          508.0000:   STOP DEPTH
 STEP.F            0.1000:   STEP LENGTH
 NULL.          -999.2500:   NO VALUE
 COMP. LAWRENCE/ALLISON INC:   COMPANY
 WELL.      48-41 SX #3-3:   WELL
 FLD .             TEAPOT:   FIELD
 LOC .       S3 T38N R78W:   LOCATION
 CNTY.            NATRONA:   COUNTY
 STAT.            WYOMING:   STATE
 CTRY. UNITED STATES OF AMERICA:   COUNTRY
 SRVC.           Gearhart:   SERVICE COMPANY
 DATE.        09-JUL-1988:   LOGDATE
 API .       490251123300:   API NUMBER
~CURVE INFORMATION
#MNEM.UNIT       API CODE    CURVE DESCRIPTION
#----------   ------------   ------------------------------
 DEPT.F                  :   
 GRR .GAPI   07 310 01 00:   GAMMA RAY
 RILD.OHMM   07 120 46 00:   INDUCTION LOG DEEP RESISTIVITY
 RILM.OHMM   07 120 44 00:   INDUCTION LOG MEDIUM RESISTIVITY
~PARAMETER INFORMATION
#MNEM.UNIT          VALUE    DESCRIPTION
#----------   ------------   ------------------------------
 PD  .                 GL:   PERMANENT DATUM
 EPD .F              5200:   ELEVATION PERMANENT DATUM
 LMF .                 KB:   LOG MEASURED FROM
 DAPD.F                 5:   FEET ABOVE PERMANENT DATUM
 DMF .                 KB:   DRILLING MEASURED FROM
 EKB .F              5205:   KELLING BUSHING
 EDF .F              5204:   DRILLING FLOOR
 EGL .F              5200:   GROUND LEVEL
 DATE.        09-JUL-1988:   RUN DATE
 RUN .                  1:   RUN NUMBER
 DD  .F               510:   DEPTH DRILLER
 DL  .F               516:   DEPTH LOGGER
 BLI .F               508:   BOTTOM LOG INTERVAL
 TLI .F               1.5:   TOP LOG INTERVAL
 CS  .IN            9.625:   CASING SIZE
 CBD .F                40:   CASING BOTTOM DRILLER
 CBL .F                45:   CASING BOTTOM LOGGER
 BS  .IN             8.75:   BIT SIZE
 BSD .F               510:   BIT SIZE AT DEPTH
 DFT .                AIR:   DRILLING FLUID TYPE
 TCS .HRS            1800:   TIME CURCULATED STOPPED
 TLAB.HRS            1843:   TIME LOGGER AT BOTTOM
 MRT .F                70:   MAXIMUM RECORDED TEMPERATURE
 LUN .               7597:   LOGGING UNIT NUMBER
 LUL .           GILLETTE:   LOGGING UNIT LOCATION
 ENGI.         WEATHERMON:   RECORDING ENGINEER
 WITN.              FIVAS:   WITNESSED BY
 CLNT.            A2DTECH:   CLIENT CODE
 ORIG.           5" PRINT:   ORIGIN OF DATA
 UWI .       490251123300:   UNIQUE WELL ID
 DICO. A2D Technologies, Inc.:   DIGITIZING COMPANY
~OTHER INFORMATION
~A    DEPT      GRR      RILD       RILM   
# ...
  347.8000    87.9144    15.9812    15.7096
  347.9000    88.1643    15.9805    15.7089
  348.0000    88.4143    15.9298    15.7082
  348.1000    88.6763    15.8689    15.7075
  348.2000    89.1516    15.8682    15.6256
  348.3000    89.4658    15.8675    15.5979
  348.4000    89.7159    15.8669    15.5973
  348.5000    89.9659    15.8662    15.5966
  348.6000    90.2158    15.8656    15.5959
  348.7000    90.4900    15.8649    15.5952
  348.8000    90.7158    15.8563    15.5169
  348.9000    90.9658    15.7539    15.4864
  349.0000    91.0950    15.7533    15.4857
  349.1000    91.1640    15.7527    15.4851
  349.2000    91.3979    15.7520    15.4805
  349.3000    91.3986    15.7288    15.3769
  349.4000    91.3991    15.6420    15.3763
  349.5000    91.5605    15.6412    15.3757
  349.6000    91.7020    15.5661    15.3750
  349.7000    91.7026    15.4764    15.3552
  349.8000    91.7072    15.4241    15.2677
  349.9000    92.0055    15.4183    15.2669
  350.0000    91.8049    15.3928    15.1962
  350.1000    91.4073    15.3674    15.1604
  350.2000    91.0057    15.3419    15.1598
  350.3000    90.6686    15.3164    15.1592
  350.4000    89.8969    15.2910    15.1585
  350.5000    89.6561    15.2655    15.1579
  350.6000    89.0295    15.2400    15.1573
  350.7000    89.9031    15.2145    15.1566
  350.8000    89.9040    15.1891    15.1471
  350.9000    89.7525    15.1636    15.1215
  351.0000    89.5021    15.1381    15.0959
  351.1000    89.2518    15.1078    15.0703
  351.2000    89.0039    15.0376    15.0447
  351.3000    89.6087    15.0039    15.0191
  351.4000    89.8135    15.0041    14.9935
  351.5000    90.2199    15.0043    14.9679
  351.6000    90.6208    15.0034    14.9415
  351.7000    90.8738    14.9011    14.8387
  351.8000    91.1263    14.9012    14.7687
  351.9000    91.4259    14.9015    14.6831
  352.0000    91.6320    14.8660    14.6329
  352.1000    91.7297    14.7990    14.6323
  352.2000    91.7309    14.7992    14.6317
  352.3000    91.7322    14.7994    14.6310
  352.4000    91.7333    14.7995    14.6305
  352.5000    91.7348    14.7470    14.5777
  352.6000    91.7358    14.6978    14.5283
  352.7000    91.7370    14.6980    14.5092
  352.8000    91.7382    14.6982    14.4269
  352.9000    91.7394    14.6984    14.4261
  353.0000    91.7405    14.6986    14.3573
  353.1000    91.7420    14.6460    14.3255
  353.2000    91.9506    14.5975    14.3249
  353.3000    92.3609    14.5787    14.3243
  353.4000    92.9727    14.4971    14.3237
  353.5000    93.7286    14.4973    14.3230
  353.6000    94.4919    14.4974    14.3225
  353.7000    95.6708    14.4451    14.3219
  353.8000    96.0894    14.4336    14.3213
  353.9000    96.5938    14.4981    14.3208
  354.0000    96.9894    14.4983    14.3202
  354.1000    97.2420    14.4985    14.3194
  354.2000    97.4865    14.4986    14.3189
  354.3000    97.4880    14.4989    14.3709
  354.4000    97.6989    14.4991    14.4172
  354.5000    97.7918    14.4993    14.4167
  354.6000    97.7930    14.4995    14.4161
  354.7000    97.8540    14.4997    14.4154
  354.8000    98.0971    14.4998    14.4848
  354.9000    98.0985    14.5001    14.5144
  355.0000    98.0995    14.5003    14.5138
  355.1000    98.1007    14.5005    14.5335
  355.2000    98.1020    14.5042    14.6135
  355.3000    98.1032    14.6018    14.6128
  355.4000    98.1044    14.6019    14.6122
  355.5000    98.1058    14.6021    14.6661
  355.6000    98.1068    14.6399    14.7125
  355.7000    98.1080    14.7041    14.7329
  355.8000    97.9970    14.7082    14.8176
  355.9000    97.7466    14.8068    14.9158
  356.0000    97.5082    14.8069    14.9153
  356.1000    97.5097    14.8628    14.9707
  356.2000    97.2971    14.9103    15.0177
  356.3000    97.0467    14.9105    15.0388
  356.4000    96.7963    14.9151    15.1208
  356.5000    96.4825    15.0147    15.1201
  356.6000    95.9806    15.0148    15.1942
  356.7000    95.4053    15.0719    15.2816
  356.8000    94.9766    15.1197    15.3291
  356.9000    94.4747    15.1423    15.3511
  357.0000    94.0874    15.2253    15.4344
  357.1000    93.7724    15.2255    15.4336
  357.2000    93.2704    15.3013    15.5097
  357.3000    92.6976    15.3318    15.5397
  357.4000    92.4827    15.3320    15.5390
  357.5000    92.0666    15.3554    15.5384
  357.6000    91.6803    15.4390    15.5433
  357.7000    91.3642    15.4393    15.6450
  357.8000    90.8779    15.5166    15.6444
  357.9000    90.5932    15.5471    15.7039
  358.0000    90.3771    15.5891    15.7518
  358.1000    90.4609    15.6556    15.7511
  358.2000    90.8306    15.6558    15.7506
  358.3000    91.2681    15.6561    15.7498
  358.4000    91.5209    15.6562    15.8282
  358.5000    91.8071    15.7171    15.8580
  358.6000    91.8081    15.7656    15.8573
  358.7000    91.9776    15.7658    15.8566
  358.8000    92.1122    15.7660    15.8561
  358.9000    92.1134    15.7663    15.8553
  359.0000    92.1146    15.7664    15.8547
  359.1000    92.1160    15.8281    15.8541
  359.2000    92.1170    15.8765    15.8534
  359.3000    92.1182    15.8768    15.8527
  359.4000    92.0000    15.8770    15.8520
  359.5000    91.8190    15.8772    15.8513
  359.6000    91.8202    15.8774    15.8507
  359.7000    91.8216    15.8777    15.8500
  359.8000    91.8226    15.8779    15.8494
  359.9000    92.1650    15.8781    15.8233
  360.0000    92.5489    15.8710    15.7387
  360.1000    92.8017    15.7689    15.7380
  360.2000    93.0545    15.7691    15.7374
  360.3000    93.3371    15.7693    15.6750
  360.4000    93.5601    15.7257    15.6275
  360.5000    93.8128    15.6608    15.6014
  360.6000    94.0656    15.6533    15.5184
  360.7000    94.3184    15.5531    15.5177
  360.8000    94.5712    15.5533    15.4380
  360.9000    94.8526    15.5535    15.4093
  361.0000    94.8537    15.5101    15.4087
  361.1000    95.0280    15.4465    15.3825
  361.2000    95.2808    15.4387    15.3011
  361.3000    95.4606    15.3403    15.3004
  361.4000    95.4847    15.3405    15.2999
  361.5000    95.7648    15.3407    15.2384
  361.6000    95.7659    15.2974    15.1930
  361.7000    95.4185    15.2352    15.1668
  361.8000    94.9165    15.2272    15.0869
  361.9000    94.4145    15.1304    15.0862
  362.0000    93.9124    15.1306    15.0857
  362.1000    93.3588    15.0702    15.0850
  362.2000    92.9085    15.0265    15.0413
  362.3000    92.4065    15.0010    14.9797
  362.4000    92.0301    14.9146    14.9705
  362.5000    91.7797    14.8203    14.8750
  362.6000    91.5546    14.8205    14.8745
  362.7000    91.5561    14.7609    14.8738
  362.8000    91.3303    14.6760    14.8302
  362.9000    91.2567    14.5915    14.7442
  363.0000    91.1311    14.5076    14.6674
  363.1000    91.0341    14.4163    14.6667
  363.2000    91.3395    14.4165    14.5898
  363.3000    92.1666    14.3581    14.5644
  363.4000    92.8517    14.2755    14.5638
  363.5000    93.6076    14.1934    14.5373
  363.6000    94.4914    14.1206    14.4620
  363.7000    95.4212    14.1209    14.4614
  363.8000    96.1771    14.0470    14.3851
  363.9000    97.0004    14.0237    14.3017
  364.0000    97.6890    13.9826    14.2608
  364.1000    98.4450    13.9273    14.2346
  364.2000    99.2011    13.9183    14.1519
  364.3000    99.8781    13.8315    14.0628
  364.4000   100.3825    13.8317    13.9883
  364.5000   100.9292    13.7749    13.9072
  364.6000   101.1608    13.7365    13.8265
  364.7000   101.2332    13.7367    13.7463
  364.8000   101.4950    13.7274    13.6758
  364.9000   101.9191    13.6422    13.6752
  365.0000   102.1416    13.6424    13.6024
  365.1000   101.8414    13.6426    13.5235
  365.2000   101.6108    13.6428    13.4855
  365.3000   101.3604    13.6430    13.4599
  365.4000   101.1100    13.6431    13.3818
  365.5000   100.8597    13.6433    13.2983
  365.6000   100.5778    13.6435    13.2978
  365.7000   100.0387    13.6437    13.2417
  365.8000    99.5738    13.6439    13.1649
  365.9000    99.0719    13.6441    13.1132
