~VERSION INFORMATION
 VERS.                2.0:   CWLS LOG ASCII STANDARD - VERSION 2.0
 WRAP.                 NO:   ONE LINE PER DEPTH STEP
~WELL INFORMATION
#MNEM.UNIT      DATA TYPE    INFORMATION
#----------   ------------   ------------------------------
 STRT.F           28.0000:   START DEPTH
 STOP.F          551.0000:   STOP DEPTH
 STEP.F            0.5000:   STEP LENGTH
 NULL.          -999.2500:   NO VALUE
 COMP. FENIX & SCISSON, INC.:   COMPANY
 WELL.        NPR #85-S-3:   WELL
 FLD .             TEAPOT:   FIELD
 LOC .       S3 T38N R78W:   LOCATION
 CNTY.            NATRONA:   COUNTY
 STAT.            WYOMING:   STATE
 CTRY. UNITED STATES OF AMERICA:   COUNTRY
 SRVC.            Unknown:   SERVICE COMPANY
 DATE.        22-JAN-1977:   LOGDATE
 API .       490251055800:   API NUMBER
~CURVE INFORMATION
#MNEM.UNIT       API CODE    CURVE DESCRIPTION
#----------   ------------   ------------------------------
 DEPT.F                  :   
 ILD .OHMM   05 120 46 00:   INDUCTION LOG DEEP
 SN  .OHMM   05 040 16 00:   SHORT NORMAL 16"
 SPR .MV     05 010 01 00:   SPONTANEOUS POTENTIAL FROM RES.
 CALD.IN     45 280 60 00:   CALIPER FROM DENSITY LOG
 CORR.G/C3   45 356 01 00:   DENSITY CORRECTION
 DPHI.DEC    45 890 12 00:   DENSITY POROSITY SANDSTONE
 GRD .GAPI   45 310 01 00:   GAMMA RAY FROM DENSITY LOG
 RHOB.G/C3   45 350 01 00:   BULK DENSITY
~PARAMETER INFORMATION
#MNEM.UNIT          VALUE    DESCRIPTION
#----------   ------------   ------------------------------
 PD  .                 GL:   PERMANENT DATUM
 EPD .F              5132:   ELEVATION PERMANENT DATUM
 LMF .                 KB:   LOG MEASURED FROM
 DAPD.F                 4:   FEET ABOVE PERMANENT DATUM
 DMF .                 KB:   DRILLING MEASURED FROM
 EKB .F              5136:   KELLING BUSHING
 EGL .F              5132:   GROUND LEVEL
 DATE.          1-22-1977:   RUN DATE
 RUN .                  1:   RUN NUMBER
 DD  .F               550:   DEPTH DRILLER
 DL  .F               550:   DEPTH LOGGER
 BLI .F               545:   BOTTOM LOG INTERVAL
 TLI .F                50:   TOP LOG INTERVAL
 CS  .IN            8.625:   CASING SIZE
 CBD .F                40:   CASING BOTTOM DRILLER
 CBL .F                40:   CASING BOTTOM LOGGER
 BS  .IN            7.875:   BIT SIZE
 BSD .F               550:   BIT SIZE AT DEPTH
 DFT .                KCL:   DRILLING FLUID TYPE
 DFD .                8.6:   DRILLING FLUID DENSITY
 DFV .                 36:   DRILLING FLUID VISCOSITY
 DFPH.                 10:   DRILLING FLUID PH
 DFL .                7.2:   DRILLING FLUID LOSS
 MSS .           FLOWLINE:   MUD SAMPLE SOURCE
 RMS .OHMM             .3:   RESISTIVITY MUD SAMPLE
 MST .F                56:   MUD SAMPLE TEMPERATURE
 RMF .OHMM             .3:   RESISTIVITY MUD FILTRATE SAMPLE
 MFST.F                58:   MUD FILTRATE SAMPLE TEMPERATURE
 RMC .OHMM             .3:   RESISTIVITY MUD CAKE
 MCST.F                58:   MUD CAKE SAMPLE TEMPERATURE
 MFSS.           MEASURED:   MUD FILTRATE SAMPLE SOURCE
 MCSS.           MEASURED:   MUD CAKE SAMPLE SOURCE
 RMB .OHMM            .25:   RESISTIVITY MUD AT BHT
 BHT .F                68:   BOTTOM HOLE TEMPERATURE
 TCS .HRS               3:   TIME CURCULATED STOPPED
 MRT .F                68:   MAXIMUM RECORDED TEMPERATURE
 LUN .               2958:   LOGGING UNIT NUMBER
 LUL .             CASPER:   LOGGING UNIT LOCATION
 ENGI.           REYNOLDS:   RECORDING ENGINEER
 WITN.             GINLEY:   WITNESSED BY
 CLNT.            A2DTECH:   CLIENT CODE
 ORIG.           5" PRINT:   ORIGIN OF DATA
 UWI .       490251055800:   UNIQUE WELL ID
 DICO. A2D Technologies, Inc.:   DIGITIZING COMPANY
~OTHER INFORMATION
~A   DEPT      ILD         SN        SPR       CALD       CORR       DPHI         GRD      RHOB   
   28.0000  -999.2500  -999.2500  -999.2500  -999.2500  -999.2500  -999.2500    92.0119  -999.2500
   28.5000  -999.2500  -999.2500  -999.2500  -999.2500  -999.2500  -999.2500    92.0156  -999.2500
   29.0000  -999.2500  -999.2500  -999.2500  -999.2500  -999.2500  -999.2500    92.1691  -999.2500
   29.5000  -999.2500  -999.2500  -999.2500  -999.2500  -999.2500  -999.2500    92.6199  -999.2500
   30.0000  -999.2500  -999.2500  -999.2500  -999.2500  -999.2500  -999.2500    93.5177  -999.2500
   30.5000  -999.2500  -999.2500  -999.2500  -999.2500  -999.2500  -999.2500    92.6272  -999.2500
   31.0000  -999.2500  -999.2500  -999.2500  -999.2500  -999.2500  -999.2500    90.0974  -999.2500
   31.5000  -999.2500  -999.2500  -999.2500  -999.2500  -999.2500  -999.2500    88.6098  -999.2500
   32.0000  -999.2500  -999.2500  -999.2500  -999.2500  -999.2500  -999.2500    90.1048  -999.2500
   32.5000  -999.2500  -999.2500  -999.2500  -999.2500  -999.2500  -999.2500    90.5546  -999.2500
   33.0000  -999.2500  -999.2500  -999.2500  -999.2500  -999.2500  -999.2500    89.0689  -999.2500
   33.5000  -999.2500  -999.2500  -999.2500  -999.2500  -999.2500  -999.2500    82.0681  -999.2500
   34.0000  -999.2500  -999.2500  -999.2500  -999.2500  -999.2500  -999.2500    76.4086  -999.2500
   34.5000  -999.2500  -999.2500  -999.2500  -999.2500  -999.2500  -999.2500    75.3681  -999.2500
   35.0000  -999.2500  -999.2500  -999.2500  -999.2500  -999.2500  -999.2500    76.5650  -999.2500
   35.5000  -999.2500  -999.2500  -999.2500  -999.2500  -999.2500  -999.2500    78.8041  -999.2500
   36.0000  -999.2500  -999.2500  -999.2500  -999.2500  -999.2500  -999.2500    75.3801  -999.2500
   36.5000  -999.2500  -999.2500  -999.2500  -999.2500  -999.2500  -999.2500    75.3688  -999.2500
   37.0000  -999.2500  -999.2500  -999.2500  -999.2500  -999.2500  -999.2500    72.9782  -999.2500
   37.5000  -999.2500  -999.2500  -999.2500  -999.2500  -999.2500  -999.2500    70.8209  -999.2500
   38.0000  -999.2500  -999.2500  -999.2500  -999.2500  -999.2500  -999.2500    67.7745  -999.2500
   38.5000  -999.2500  -999.2500  -999.2500  -999.2500  -999.2500  -999.2500    67.8254  -999.2500
   39.0000  -999.2500  -999.2500  -999.2500  -999.2500  -999.2500  -999.2500    68.6967  -999.2500
   39.5000  -999.2500  -999.2500  -999.2500  -999.2500  -999.2500  -999.2500    70.0416  -999.2500
   40.0000  -999.2500  -999.2500  -999.2500     9.0700  -999.2500  -999.2500    66.4686  -999.2500
   40.5000  -999.2500  -999.2500  -999.2500     9.0704  -999.2500  -999.2500    66.0242  -999.2500
   41.0000  -999.2500  -999.2500  -999.2500     9.0856  -999.2500  -999.2500    69.7546  -999.2500
   41.5000  -999.2500  -999.2500  -999.2500     9.1157  -999.2500  -999.2500    74.0802  -999.2500
   42.0000  -999.2500  -999.2500  -999.2500     9.1310    -0.2329  -999.2500    79.3000  -999.2500
   42.5000  -999.2500  -999.2500  -999.2500     9.1611    -0.1113  -999.2500    81.3901  -999.2500
   43.0000  -999.2500  -999.2500  -999.2500     9.1764     0.0588     0.3922    84.8215     1.7129
   43.5000  -999.2500  -999.2500  -999.2500     9.1767     0.2155     0.3146    88.4019     1.9082
   44.0000  -999.2500  -999.2500  -999.2500     9.1027     0.2757     0.2571    93.7707     2.2419
   44.5000  -999.2500  -999.2500  -999.2500     8.9840     0.3284     0.1859    99.7357     2.3353
   45.0000   465.7371   263.1732   -13.4503     8.8653     0.3587     0.1835   103.3161     2.3402
   45.5000    15.2477    15.8626   -13.7519     8.8062     0.3693     0.1745   103.3718     2.3486
   46.0000     0.8152     0.6774   -19.5117     8.8066     0.3695     0.1577   102.8664     2.3700
   46.5000     1.4674     1.5761   -23.6846     8.8218     0.3471     0.1553   104.9665     2.3941
   47.0000     2.5695     3.0844   -27.0553     8.8371     0.3397     0.1739   105.7203     2.3747
   47.5000     2.6786     5.7110   -30.3438     8.7742     0.3429     0.1889   107.2963     2.3425
   48.0000    10.4605     5.9131   -33.9312     8.6404     0.3490     0.1838   114.1580     2.3320
   48.5000     8.5018     5.9552   -37.2197     8.6001     0.3462     0.1567   117.9469     2.3621
   49.0000     5.3872     5.9562   -38.1166     8.5838     0.3373     0.1534   115.2680     2.3877
   49.5000     5.2408     5.9162   -38.2661     8.5562     0.3284     0.1567   118.9984     2.3945
   50.0000     5.2053     5.8761   -38.2661     8.5417     0.3060     0.1774   120.6414     2.4021
   50.5000     5.1344     5.8366   -38.2914     8.5271     0.2729     0.1804   121.5393     2.3542
   51.0000     5.0996     5.7974   -38.3167     8.5127     0.2535     0.1834   122.4372     2.3467
   51.5000     5.1002     5.7584   -38.3421     8.5131     0.2417     0.1813   121.8447     2.3408
   52.0000     5.1008     5.7596   -38.3674     8.4985     0.2404     0.1696   118.5697     2.3251
   52.5000     5.1378     5.7606   -38.3927     8.5414     0.2436     0.1654   113.6554     2.3139
   53.0000     5.2855     5.8016   -38.4199     8.6792     0.1851     0.1753   109.0391     2.3853
   53.5000     5.5090     5.8026   -38.4637    10.5251     0.1672     0.1705   108.2967     2.3531
   54.0000     5.7045     5.8845   -38.6667     8.5168     0.1674     0.1546   110.6858     2.4027
   54.5000     5.9127     6.1350   -39.5441     8.5174     0.1675     0.1461   112.3288     2.4135
   55.0000     6.2522     6.4406   -40.1495     8.5031     0.1647     0.1446   113.5247     2.4105
   55.5000     6.5203     6.8556   -41.1898     8.5186     0.1588     0.1491   110.6968     2.4188
   56.0000     6.8735     7.2974   -42.5291     8.5489     0.1590     0.1503   110.6706     2.4135
   56.5000     7.0670     7.5556   -44.0374     8.5793     0.1591     0.1416   111.5984     2.4075
   57.0000     7.3165     7.7690   -45.0374     8.6245     0.1577     0.1386   112.5162     2.4181
   57.5000     7.5225     7.8243   -45.6057     8.6548     0.1459     0.1392   113.8413     2.4398
   58.0000     7.6282     7.9347   -45.5964     8.6852     0.1263     0.1689   103.5740     2.3933
   58.5000     7.5240     7.9361   -45.5874     8.7005     0.1594     0.1692   102.9821     2.3686
   59.0000     7.3706     7.9374   -45.7284     8.6269     0.1775     0.1677   105.0732     2.3604
   59.5000     7.3205     7.9388   -46.0184     8.5678     0.1881     0.1605   109.1015     2.3694
   60.0000     7.2210     7.9402   -46.6051     8.7024     0.1776     0.1603   113.5769     2.4016
   60.5000     7.1224     7.9415   -47.0468     8.7626     0.1807     0.1608   114.4755     2.3867
   61.0000     7.0254     7.7797   -47.4841     8.7929     0.1957     0.1592   114.9271     2.3889
   61.5000     6.9297     7.6212   -47.4751     8.7935     0.2063     0.1583   115.0806     2.3912
   62.0000     6.8827     7.5177   -47.6179     8.8090     0.2094     0.1592   114.7870     2.3942
   62.5000     6.8837     7.4157   -47.7584     8.8096     0.2124     0.1697   113.3011     2.3960
   63.0000     6.9323     7.4170   -48.0484     8.8102     0.2185     0.1814   108.5366     2.3650
   63.5000     7.0296     7.3671   -48.0431     8.8107     0.2426     0.1808   104.9643     2.3522
   64.0000     7.0792     7.3684   -48.0475     8.7369     0.2862     0.1691   103.0314     2.3635
   64.5000     7.1786     7.3696   -48.0519     8.6780     0.3239     0.1510   104.6752     2.3883
   65.0000     7.2292     7.3709   -48.0563     8.6786     0.3254     0.1234   106.3190     2.4221
   65.5000     7.2802     7.3722   -48.0607     8.6643     0.3270     0.1114   106.6215     2.4933
   66.0000     7.3316     7.3735   -48.0651     8.6500     0.2729     0.1090   106.0298     2.5504
   66.5000     7.3833     7.3747   -48.0695     8.6655     0.2113     0.1082   103.7988     2.4911
   67.0000     7.4870     7.4275   -48.0739     8.6661     0.1752     0.1218   100.9697     2.4542
   67.5000     7.5398     7.5323   -48.0783     8.6667     0.1783     0.1530    98.5767     2.4100
   68.0000     7.6456     7.5859   -48.0827     8.6512     0.2084     0.1582    96.5057     2.3988
