~VERSION INFORMATION
 VERS.                2.0:   CWLS LOG ASCII STANDARD - VERSION 2.0
 WRAP.                 NO:   ONE LINE PER DEPTH STEP
~WELL INFORMATION
#MNEM.UNIT      DATA TYPE    INFORMATION
#----------   ------------   ------------------------------
 STRT.F           20.0000:   START DEPTH
 STOP.F         1363.5000:   STOP DEPTH
 STEP.F            0.5000:   STEP LENGTH
 NULL.          -999.2500:   NO VALUE
 COMP.   FLUOR DANIEL INC:   COMPANY
 WELL.   NPR 3 "S" #83-14:   WELL
 FLD .             TEAPOT:   FIELD
 LOC .      S14 T38N R78W:   LOCATION
 CNTY.            NATRONA:   COUNTY
 STAT.            WYOMING:   STATE
 CTRY. UNITED STATES OF AMERICA:   COUNTRY
 SRVC. Schlumberger Well Surveying Corp:   SERVICE COMPANY
 DATE.        22-AUG-1966:   LOGDATE
 API .       490250971000:   API NUMBER
~CURVE INFORMATION
#MNEM.UNIT       API CODE    CURVE DESCRIPTION
#----------   ------------   ------------------------------
 DEPT.F                  :   
 SPR .MV     05 010 01 00:   SPONTANEOUS POTENTIAL FROM RES.
 ASN .OHMM   05 041 16 00:   AMPLIFIED SHORT NORMAL 16"
 CILD.MMHO   05 110 00 00:   CONDUCTIVITY INDUCTION LOG
 ILD .OHMM   05 120 46 00:   INDUCTION LOG DEEP
 CALD.IN     45 280 60 00:   CALIPER
 GRD .GAPI   45 310 01 00:   GAMMA RAY FROM DENSITY LOG
 CORR.G/C3   45 356 01 00:   DENSITY CORRECTION
 RHOB.G/C3   45 350 01 00:   BULK DENSITY
 DPOR.DEC    45 890 12 00:   DENSITY POROSITY SANDSTONE
~PARAMETER INFORMATION
#MNEM.UNIT          VALUE    DESCRIPTION
#----------   ------------   ------------------------------
 PD  .                 GL:   PERMANENT DATUM
 EPD .F              5300:   ELEVATION PERMANENT DATUM
 LMF .                 KB:   LOG MEASURED FROM
 DAPD.F                 5:   FEET ABOVE PERMANENT DATUM
 DMF .                 KB:   DRILLING MEASURED FROM
 EKB .F              5305:   KELLING BUSHING
 EGL .F              5300:   GROUND LEVEL
 DATE.          8-22-1966:   RUN DATE
 RUN .                  1:   RUN NUMBER
 DD  .F              1365:   DEPTH DRILLER
 DL  .F              1363:   DEPTH LOGGER
 BLI .F              1362:   BOTTOM LOG INTERVAL
 TLI .F                20:   TOP LOG INTERVAL
 CS  .IN            8.625:   CASING SIZE
 CBD .F                15:   CASING BOTTOM DRILLER
 CBL .F                20:   CASING BOTTOM LOGGER
 BS  .IN            7.875:   BIT SIZE
 BSD .F              1365:   BIT SIZE AT DEPTH
 DFT .           GEL-CHEM:   DRILLING FLUID TYPE
 DFD .                 10:   DRILLING FLUID DENSITY
 DFV .                 55:   DRILLING FLUID VISCOSITY
 DFL .                  8:   DRILLING FLUID LOSS
 MSS .          FLOW LINE:   MUD SAMPLE SOURCE
 RMS .OHMM           1.86:   RESISTIVITY MUD SAMPLE
 MST .F                73:   MUD SAMPLE TEMPERATURE
 RMF .OHMM           1.13:   RESISTIVITY MUD FILTRATE SAMPLE
 MFST.F                70:   MUD FILTRATE SAMPLE TEMPERATURE
 MFSS.                  M:   MUD FILTRATE SAMPLE SOURCE
 RMB .OHMM           1.32:   RESISTIVITY MUD AT BHT
 BHT .F               102:   BOTTOM HOLE TEMPERATURE
 TCS .HRS               1:   TIME CURCULATED STOPPED
 MRT .F               102:   MAXIMUM RECORDED TEMPERATURE
 LUN .               3527:   LOGGING UNIT NUMBER
 LUL .               CSPR:   LOGGING UNIT LOCATION
 ENGI.          TOLLEFSON:   RECORDING ENGINEER
 WITN.         MAY/TUTTLE:   WITNESSED BY
 CLNT.            A2DTECH:   CLIENT CODE
 ORIG.       2", 5" PRINT:   ORIGIN OF DATA
 UWI .       490250971000:   UNIQUE WELL ID
 DICO. A2D Technologies, Inc.:   DIGITIZING COMPANY
~OTHER INFORMATION
~A   DEPT       SPR       ASN         CILD      ILD         CALD       GRD       CORR        RHOB     DPOR   
# ...
  896.0000   -49.4003    10.6090   122.8964     8.0995     8.0180   103.6313     0.0228     2.5232     0.0751
  896.5000   -49.3923    10.7038   121.5649     8.1853     8.0118   104.1246     0.0269     2.5357     0.0670
  897.0000   -49.1597    10.7988   121.0894     8.2713     8.0180   110.2329     0.0314     2.5410     0.0713
  897.5000   -48.9189    10.8940   120.6140     8.3493     8.0219   113.8799     0.0368     2.5208     0.0799
  898.0000   -48.9281    10.9879   120.1385     8.3508     8.0266   110.8845     0.0322     2.5021     0.0886
  898.5000   -49.3708    11.0446   119.6630     8.3487     8.0315   105.4549     0.0194     2.4887     0.0973
  899.0000   -49.7909    11.0020   119.1875     8.2815     8.0348   103.9319     0.0033     2.4824     0.1018
  899.5000   -49.5797    10.9607   118.7375     8.2101     8.0415   102.9982     0.0063     2.5107     0.0836
  900.0000   -49.2351    10.9192   119.5891     8.1389     8.0413   104.6101     0.0287     2.5545     0.0661
  900.5000   -48.9989    10.8779   120.5751     8.0678     8.0549   107.4448     0.0518     2.5468     0.0615
  901.0000   -49.2665    10.8365   121.5645     7.9967     8.0059   104.8712     0.0466     2.5365     0.0706
  901.5000   -49.5553    10.7951   122.5527     7.9255     7.9424   102.4356     0.0364     2.5358     0.0727
  902.0000   -49.5487    10.7537   123.5406     7.8546     7.8307   103.8841     0.0256     2.5122     0.0834
  902.5000   -49.4702    10.7124   124.5285     7.7834     7.7915   105.5092     0.0239     2.5223     0.0858
  903.0000   -49.3904    10.6710   125.5164     7.7552     7.9697   106.3437     0.0351     2.5408     0.0654
  903.5000   -49.3112    10.6295   125.7515     7.7632     8.0974   106.0938     0.0426     2.5332     0.0709
  904.0000   -49.2321    10.5876   125.7515     7.7719     8.1118   108.0500     0.0382     2.5143     0.0806
  904.5000   -49.1530    10.5528   125.7515     7.7807     8.0930   110.4425     0.0330     2.5130     0.0862
  905.0000   -49.0739    10.6068   125.7515     7.7893     8.0736   112.8496     0.0305     2.5348     0.0752
  905.5000   -48.9948    10.6608   125.7515     7.7980     8.0539   115.0961     0.0644     2.5647     0.0526
  906.0000   -48.9157    10.7143   125.7515     7.8067     8.0327   117.2569     0.0600     2.5530     0.0589
  906.5000   -48.8366    10.7677   125.7515     7.8154     8.0317   115.4499     0.0420     2.5324     0.0746
  907.0000   -48.7574    10.8214   125.7515     7.8241     8.0343   111.5409     0.0542     2.5408     0.0694
  907.5000   -48.6776    10.8735   125.7515     7.8328     8.0364   112.2479     0.0492     2.5327     0.0736
  908.0000   -48.5964    10.9334   125.7515     7.8418     8.0387   113.5776     0.0297     2.5241     0.0781
  908.5000   -48.7449    10.8003   126.2363     7.8485     8.0411   112.8948     0.0217     2.5454     0.0652
  909.0000   -48.9355    10.6954   127.0708     7.8089     8.0434   111.5373     0.0355     2.5694     0.0464
  909.5000   -48.9186    10.5763   127.9017     7.7678     8.0457   110.1150     0.0527     2.5934     0.0335
  910.0000   -48.7544    10.5570   128.7325     7.7269     8.0482   109.1944     0.0720     2.5846     0.0394
  910.5000   -48.5894    10.4509   129.5630     7.6860     8.0499   110.0712     0.0666     2.5715     0.0488
  911.0000   -48.4224    10.3201   130.3935     7.6451     8.0500   113.1451     0.0501     2.5680     0.0531
  911.5000   -48.3963    10.2261   131.2247     7.6043     8.0500   112.1213     0.0476     2.5467     0.0661
  912.0000   -48.3964    10.1542   132.0497     7.5634     8.0500   107.4992     0.0644     2.5292     0.0762
  912.5000   -48.3968     9.9792   132.7745     7.5228     8.0500   109.2141     0.0545     2.5551     0.0554
  913.0000   -48.3968     9.8992   133.3048     7.4818     8.0500   110.7947     0.0313     2.5454     0.0653
  913.5000   -48.3968     9.8090   134.2540     7.4273     8.0500   109.6463     0.0287     2.5126     0.0854
  914.0000   -48.3969     9.7230   135.2031     7.3143     8.0500   109.7936     0.0302     2.5161     0.0862
  914.5000   -48.3971     9.6534   136.1523     7.2034     8.0500   111.4975     0.0534     2.5377     0.0713
  915.0000   -48.4004     9.5749   137.7755     7.0925     8.0500   113.4387     0.0728     2.5635     0.0575
  915.5000   -48.2360     9.4940   141.4668     6.9817     8.0500   113.9651     0.0776     2.5814     0.0410
  916.0000   -48.0239     9.4043   145.3053     6.8709     8.0499   113.2147     0.0692     2.5668     0.0478
  916.5000   -48.1449     9.1591   149.1439     6.7600     8.0506   117.0203     0.0615     2.5558     0.0626
  917.0000   -48.3682     8.9160   152.9824     6.6489     8.0526   114.9844     0.0481     2.5601     0.0566
  917.5000   -48.5875     8.6740   156.8210     6.5381     8.0546   111.9420     0.0350     2.5368     0.0698
  918.0000   -48.5072     8.4319   160.6595     6.4434     8.0567   113.5194     0.0236     2.5401     0.0686
  918.5000   -48.4104     8.1883   163.8277     6.4214     8.0587   113.2384     0.0289     2.5163     0.0938
  919.0000   -48.3152     8.0633   164.8297     6.3977     8.0608   113.0662     0.0377     2.5245     0.0750
  919.5000   -48.2201     8.0664   162.5491     6.3733     8.0628   114.5343     0.0494     2.5144     0.0781
  920.0000   -48.1255     8.1420   160.4609     6.3534     8.0649   117.0980     0.0624     2.5206     0.0830
  920.5000   -48.0283     8.3529   158.3728     6.4627     8.0668   116.1374     0.0764     2.5829     0.0631
  921.0000   -48.1005     8.6114   156.2846     6.5792     8.0692   114.0102     0.0892     2.5781     0.0486
  921.5000   -48.2593     8.8774   154.1964     6.6952     8.0689   113.1195     0.0975     2.5467     0.0646
  922.0000   -48.4036     8.8922   152.1082     6.8112     8.0647   113.1349     0.0635     2.5928     0.0492
  922.5000   -48.2723     8.8902   150.0200     6.9308     8.0607   112.2153     0.0422     2.5845     0.0386
  923.0000   -48.1068     8.8905   148.7976     6.8854     8.0565   107.8270     0.0455     2.5376     0.0714
  923.5000   -47.9408     8.9192   149.8193     6.8041     8.0525   105.1273     0.0503     2.5479     0.0690
  924.0000   -47.7840     8.9838   151.0374     6.7222     8.0483   101.6085     0.0552     2.5532     0.0586
  924.5000   -48.0351     9.0479   152.2555     6.6407     8.0443   100.9142     0.0597     2.5460     0.0666
  925.0000   -48.0720     9.0039   153.4736     6.5596     8.0400   102.3710     0.0513     2.5618     0.0542
  925.5000   -47.8693     8.9232   154.6917     6.4755     8.0362   105.7534     0.0397     2.5391     0.0604
  926.0000   -47.6563     8.8519   155.8116     6.4403     8.0315   110.3625     0.0379     2.5641     0.0678
  926.5000   -47.6152     8.8355   155.8116     6.5695     8.0322   112.4906     0.0363     2.5573     0.0494
  927.0000   -47.6804     8.8615   155.8116     6.7615     8.0382   111.9143     0.0354     2.5362     0.0718
  927.5000   -47.7460     8.8869   152.8056     6.9738     8.0433   111.5428     0.0454     2.5481     0.0634
  928.0000   -47.8114     9.0390   147.8279     7.1072     8.0488   109.5475     0.0495     2.5406     0.0674
  928.5000   -47.8768     9.3365   142.8975     7.1997     8.0541   107.6853     0.0416     2.5270     0.0798
  929.0000   -47.9421     9.6334   137.9671     7.2915     8.0596   107.4824     0.0367     2.5398     0.0708
  929.5000   -47.9975    10.3321   135.2147     7.3834     8.0649   108.3088     0.0414     2.5568     0.0562
  930.0000   -47.9960    10.9089   134.2107     7.4758     8.0693   110.8766     0.0468     2.5469     0.0666
  930.5000   -47.9954    11.1609   133.2068     7.5685     8.0589   112.1711     0.0516     2.5433     0.0618
  931.0000   -47.9971    11.1275   132.2029     7.6302     8.0445   110.1603     0.0577     2.5621     0.0510
  931.5000   -48.0900    10.9647   131.1989     7.4428     8.0307   105.9099     0.0593     2.5812     0.0401
  932.0000   -48.3722    10.4996   131.5806     7.2523     8.0168    99.7489     0.0530     2.5993     0.0311
