~VERSION INFORMATION
 VERS.                2.0:   CWLS LOG ASCII STANDARD - VERSION 2.0
 WRAP.                 NO:   ONE LINE PER DEPTH STEP
~WELL INFORMATION
#MNEM.UNIT      DATA TYPE    INFORMATION
#----------   ------------   ------------------------------
 STRT.F           26.0000:   START DEPTH
 STOP.F          543.5000:   STOP DEPTH
 STEP.F            0.5000:   STEP LENGTH
 NULL.          -999.2500:   NO VALUE
 COMP. LAWRENCE/ALLISON INC:   COMPANY
 WELL. NPR 3 #68-61-STX-3:   WELL
 FLD .             TEAPOT:   FIELD
 LOC .       S3 T38N R78W:   LOCATION
 CNTY.            NATRONA:   COUNTY
 STAT.            WYOMING:   STATE
 CTRY. UNITED STATES OF AMERICA:   COUNTRY
 SRVC.           Gearhart:   SERVICE COMPANY
 DATE.        30-MAY-1987:   LOGDATE
 API .       490251112800:   API NUMBER
~CURVE INFORMATION
#MNEM.UNIT       API CODE    CURVE DESCRIPTION
#----------   ------------   ------------------------------
 DEPT.F                  :   
 GRR .GAPI   07 310 01 00:   GAMMA RAY FROM RES. LOG.
 RILD.OHMM   07 120 46 00:   INDUCTION LOG DEEP RESISTIVITY
 RILM.OHMM   07 120 44 00:   INDUCTION LOG MEDIUM
~PARAMETER INFORMATION
#MNEM.UNIT          VALUE    DESCRIPTION
#----------   ------------   ------------------------------
 PD  .                 GL:   PERMANENT DATUM
 EPD .F              5176:   ELEVATION PERMANENT DATUM
 LMF .                 KB:   LOG MEASURED FROM
 DAPD.F                 8:   FEET ABOVE PERMANENT DATUM
 DMF .                 KB:   DRILLING MEASURED FROM
 EKB .F              5184:   KELLING BUSHING
 EDF .F              5182:   DRILLING FLOOR
 EGL .F              5176:   GROUND LEVEL
 DATE.          5-30-1987:   RUN DATE
 RUN .                  1:   RUN NUMBER
 DD  .F               550:   DEPTH DRILLER
 DL  .F               552:   DEPTH LOGGER
 BLI .F               544:   BOTTOM LOG INTERVAL
 TLI .F                30:   TOP LOG INTERVAL
 CS  .IN            8.625:   CASING SIZE
 CBD .F                50:   CASING BOTTOM DRILLER
 CBL .F                49:   CASING BOTTOM LOGGER
 BS  .IN            7.875:   BIT SIZE
 BSD .F               550:   BIT SIZE AT DEPTH
 DFT .                AIR:   DRILLING FLUID TYPE
 TLAB.HRS            0735:   TIME LOGGER AT BOTTOM
 MRT .F                80:   MAXIMUM RECORDED TEMPERATURE
 LUN .               7597:   LOGGING UNIT NUMBER
 LUL .           GILLETTE:   LOGGING UNIT LOCATION
 ENGI.         WEATHERMON:   RECORDING ENGINEER
 WITN.             STRONG:   WITNESSED BY
 CLNT.            A2DTECH:   CLIENT CODE
 ORIG.       2", 5" PRINT:   ORIGIN OF DATA
 UWI .       490251112800:   UNIQUE WELL ID
 DICO. A2D Technologies, Inc.:   DIGITIZING COMPANY
~OTHER INFORMATION
~A   DEPT       GRR      RILD       RILM   
# ...
  390.0000    82.5202    28.6933    29.9130
  390.5000    85.7681    28.8238    30.0485
  391.0000    88.0885    28.9904    30.1846
  391.5000    88.0922    28.8105    30.3214
  392.0000    85.9697    28.4706    30.3852
  392.5000    83.1381    28.1350    29.7979
  393.0000    83.5427    27.8030    29.3659
  393.5000    85.0407    27.4752    28.9402
  394.0000    86.5476    27.1509    28.5206
  394.5000    86.7865    26.8060    28.1845
  395.0000    85.8687    26.3608    27.7799
  395.5000    84.8472    25.9229    27.3771
  396.0000    83.8176    25.4923    26.9802
  396.5000    82.7960    25.2064    26.5891
  397.0000    81.8533    24.7204    26.2036
  397.5000    81.5968    24.2437    25.5693
  398.0000    84.0954    23.7762    24.9044
  398.5000    89.0459    23.3177    24.2558
  399.0000    93.8974    22.8681    23.6238
  399.5000    92.9896    22.4271    23.0099
  400.0000    89.7233    21.9947    22.5771
  400.5000    86.3825    21.7466    22.3200
  401.0000    85.6267    21.5752    22.0657
  401.5000    87.1130    21.4052    21.8144
  402.0000    89.8745    21.2154    21.5659
  402.5000    91.7324    20.8974    21.3202
  403.0000    91.7364    20.5842    21.0899
  403.5000    89.9258    20.2757    20.7867
  404.0000    87.3528    19.9718    20.4879
  404.5000    84.8908    19.6725    20.1934
  405.0000    83.7279    19.3776    19.9031
  405.5000    83.0205    19.0872    19.6169
  406.0000    84.3457    18.8011    19.3349
  406.5000    85.6103    18.5193    19.0570
  407.0000    85.6478    18.2418    18.7831
  407.5000    84.8233    17.9684    18.5130
  408.0000    84.4901    17.6991    18.2469
  408.5000    86.0741    17.4338    17.9846
  409.0000    86.5697    17.1725    17.7228
  409.5000    85.7167    16.9151    17.4643
  410.0000    84.8517    16.6616    17.2097
  410.5000    85.6551    16.4119    16.9587
  411.0000    87.1930    16.1659    16.7114
  411.5000    88.7109    15.9236    16.4677
  412.0000    89.2786    15.6849    16.2275
  412.5000    88.1578    15.4480    15.9909
  413.0000    87.0622    15.2983    15.8594
  413.5000    85.9632    15.3010    15.8106
  414.0000    87.4591    15.3004    15.7620
  414.5000    88.1759    15.3004    15.7135
  415.0000    87.4622    15.3004    15.6651
  415.5000    86.7664    15.3014    15.6169
  416.0000    86.6150    15.2337    15.5689
  416.5000    90.2877    15.1516    15.5210
  417.0000    94.0315    15.0702    15.4732
  417.5000    95.1193    14.9891    15.4256
  418.0000    93.4285    14.9085    15.3781
  418.5000    91.6894    14.8283    15.3308
  419.0000    89.9697    14.7485    15.2837
  419.5000    88.3428    14.6692    15.2367
  420.0000    87.6232    14.5903    15.1896
  420.5000    88.0536    14.5118    15.1165
  421.0000    88.5579    14.4337    14.9820
  421.5000    88.8830    14.3561    14.8493
  422.0000    89.2812    14.2789    14.7177
  422.5000    89.6534    14.2021    14.5873
  423.0000    90.5979    14.1257    14.4581
  423.5000    92.9998    14.0497    14.3262
  424.0000    96.7346    13.9741    14.3122
  424.5000    99.7111    13.9279    14.2988
  425.0000   100.6076    13.9279    14.2851
  425.5000   100.0993    13.9280    14.2712
  426.0000    99.6301    13.9279    14.2574
  426.5000    99.1601    13.9279    14.2436
  427.0000    98.6973    13.9281    14.2298
  427.5000    98.8774    13.9288    14.2160
  428.0000   100.2284    13.9291    14.2025
  428.5000   102.3888    13.8124    14.1696
  429.0000   104.5524    13.7030    14.0763
  429.5000   106.6215    13.5949    13.9855
  430.0000   105.0663    13.4878    13.8953
  430.5000   101.8303    13.3815    13.8056
  431.0000    98.5670    13.2761    13.7166
  431.5000    95.3108    13.1715    13.6281
  432.0000    92.7953    13.0677    13.5402
  432.5000    92.8929    12.9648    13.4528
  433.0000    96.3930    12.8626    13.3380
  433.5000    99.4838    12.7397    13.2018
  434.0000    98.9905    12.5809    13.0670
  434.5000    98.1524    12.4242    12.9336
  435.0000    97.8661    12.2694    12.8016
  435.5000    98.2287    12.1166    12.6709
  436.0000   100.2461    11.9656    12.5415
  436.5000   102.4571    11.8165    12.4425
  437.0000   104.3237    11.6693    11.8105
  437.5000   103.1003    11.5240    11.2275
  438.0000   102.2828    11.3798    10.7054
  438.5000   103.7989    11.2412    10.5274
  439.0000   103.7062    10.9681    10.3622
  439.5000   103.4867    10.6855    10.1995
  440.0000   104.3687    10.4102     9.7516
  440.5000   106.6188    10.1184     8.8886
  441.0000   109.7968     9.2042     8.1018
  441.5000   110.3117     8.2953     7.3891
  442.0000   109.5043     7.4752     6.8122
  442.5000   110.3123     6.7395     6.3161
  443.0000   116.6947     6.3778     5.8225
  443.5000   123.1235     6.3789     5.3402
  444.0000   128.6098     6.6903     5.2903
  444.5000   127.7598     6.9351     5.6895
  445.0000   123.6700     7.1465     6.2068
  445.5000   118.1368     7.7962     6.7710
  446.0000   112.6210     8.5049     7.3508
  446.5000   107.5319     9.2781     8.0660
  447.0000   105.9623     9.8477     8.8474
  447.5000   105.1163    10.2914     9.7042
  448.0000   104.2930    10.7551    10.1202
  448.5000   103.8253    11.0665    10.4671
  449.0000   104.9090    11.2745    10.6052
  449.5000   106.4570    11.4864    10.5518
  450.0000   108.0023    11.7023    10.5060
  450.5000   109.0035    11.9223    10.7988
  451.0000   107.7785    12.1457    11.2310
  451.5000   107.5733    12.3747    11.6525
  452.0000   108.2309    12.5749    12.0240
  452.5000   108.6224    12.7647    12.4425
  453.0000   107.8900    12.9574    12.6396
  453.5000   107.1969    13.1530    12.8597
  454.0000   107.9329    13.3515    13.0836
  454.5000   110.7587    13.5531    13.3115
  455.0000   109.6057    13.7576    13.5433
  455.5000   108.4174    13.9653    13.7977
  456.0000   107.2045    14.1908    13.8867
  456.5000   106.7702    14.3095    13.9839
  457.0000   107.9306    14.4355    14.0818
  457.5000   109.0792    14.5634    14.1804
  458.0000   110.2190    14.6926    14.2796
  458.5000   111.3644    14.8233    14.3346
  459.0000   112.5054    15.0155    14.3596
  459.5000   113.1748    14.9889    14.3847
  460.0000   112.0570    14.9395    14.4097
  460.5000   107.9536    14.8902    14.4347
  461.0000   103.8107    14.8411    14.4618
  461.5000   103.5537    14.7921    14.3942
  462.0000   104.9214    14.7433    14.3042
  462.5000   105.4631    14.6947    14.1909
  463.0000   105.1615    14.6462    14.1931
  463.5000   104.7815    14.5979    14.1923
  464.0000   104.3958    14.5497    14.1923
  464.5000   104.2818    14.5017    14.1922
  465.0000   104.3499    14.4398    14.1164
  465.5000   104.4199    14.3044    14.0170
  466.0000   104.4899    14.1704    13.9184
  466.5000   104.5617    14.0375    13.8204
  467.0000   104.6219    13.9061    13.6491
  467.5000   105.3141    13.7773    13.4576
  468.0000   106.3120    13.6671    13.2689
  468.5000   107.0631    13.3169    13.0828
  469.0000   108.2224    12.9606    12.9150
  469.5000   109.3478    12.5627    12.7538
  470.0000   110.4808    12.3877    12.5947
  470.5000   111.6067    12.2139    12.4451
  471.0000   112.7410    12.0426    12.2995
  471.5000   114.0550    11.8737    12.1556
  472.0000   116.1451    11.7071    12.0133
  472.5000   118.1767    11.5429    11.8727
  473.0000   119.2396    11.3810    11.7338
  473.5000   118.9322    11.2214    11.5965
  474.0000   118.5146    11.0640    11.4608
  474.5000   118.0947    10.9073    11.3264
  475.0000   117.6039    10.9092    11.2204
  475.5000   113.7706    10.8487    11.1155
  476.0000   110.1864    10.8063    11.0604
  476.5000   110.7190    10.7640    11.0057
  477.0000   114.9993    10.7218    10.9513
  477.5000   115.3041    10.6798    10.8972
  478.0000   113.0845    10.6380    10.8433
  478.5000   110.8561    10.5963    10.7899
  479.0000   110.6523    10.5548    10.7357
  479.5000   113.2533    10.5135    10.6603
  480.0000   115.8524    10.4723    10.4455
  480.5000   118.4677    10.4313    10.2369
