~VERSION INFORMATION
 VERS.                2.0:   CWLS LOG ASCII STANDARD - VERSION 2.0
 WRAP.                 NO:   ONE LINE PER DEPTH STEP
~WELL INFORMATION
#MNEM.UNIT      DATA TYPE    INFORMATION
#----------   ------------   ------------------------------
 STRT.F           25.0000:   START DEPTH
 STOP.F          832.0000:   STOP DEPTH
 STEP.F            0.5000:   STEP LENGTH
 NULL.          -999.2500:   NO VALUE
 COMP.          U.S. NAVY:   COMPANY
 WELL. RES 3 TEAPOT DOM #32-S-2:   WELL
 FLD .        TEAPOT DOME:   FIELD
 LOC .       S2 T38N R78W:   LOCATION
 CNTY.            NATRONA:   COUNTY
 STAT.            WYOMING:   STATE
 CTRY. UNITED STATES OF AMERICA:   COUNTRY
 SRVC. Schlumberger Well Surveying Corp:   SERVICE COMPANY
 DATE.        03-AUG-1959:   LOGDATE
 API .       490250646800:   API NUMBER
~CURVE INFORMATION
#MNEM.UNIT       API CODE    CURVE DESCRIPTION
#----------   ------------   ------------------------------
 DEPT.F                  :   
 SPR .MV     05 010 01 00:   SPONTANEOUS POTENTIAL FROM RES.
 ILD .OHMM   05 120 46 00:   INDUCTION LOG DEEP
 CILD.MMHO   05 110 46 00:   CONDUCTIVITY INDUCTION LOG DEEP
 ASN .OHMM   05 041 16 00:   AMPLIFIED SHORT NORMAL 16"
~PARAMETER INFORMATION
#MNEM.UNIT          VALUE    DESCRIPTION
#----------   ------------   ------------------------------
 LMF .                 KB:   LOG MEASURED FROM
 DMF .                 KB:   DRILLING MEASURED FROM
 EKB .F              5126:   KELLING BUSHING
 EGL .F              5122:   GROUND LEVEL
 DATE.           8-3-1959:   RUN DATE
 RUN .                  1:   RUN NUMBER
 DD  .F               840:   DEPTH DRILLER
 DL  .F               841:   DEPTH LOGGER
 BLI .F               835:   BOTTOM LOG INTERVAL
 TLI .F                17:   TOP LOG INTERVAL
 CBD .F                17:   CASING BOTTOM DRILLER
 CBL .F                17:   CASING BOTTOM LOGGER
 BS  .IN             6.75:   BIT SIZE
 BSD .F               840:   BIT SIZE AT DEPTH
 DFT .                GEL:   DRILLING FLUID TYPE
 DFD .                9.5:   DRILLING FLUID DENSITY
 DFV .                100:   DRILLING FLUID VISCOSITY
 DFPH.                9.5:   DRILLING FLUID PH
 DFL .                  4:   DRILLING FLUID LOSS
 RMS .OHMM              4:   RESISTIVITY MUD SAMPLE
 MST .F                73:   MUD SAMPLE TEMPERATURE
 RMF .OHMM            3.9:   RESISTIVITY MUD FILTRATE SAMPLE
 MFST.F                73:   MUD FILTRATE SAMPLE TEMPERATURE
 RMC .OHMM            4.1:   RESISTIVITY MUD CAKE
 MCST.F                73:   MUD CAKE SAMPLE TEMPERATURE
 RMB .OHMM              4:   RESISTIVITY MUD AT BHT
 BHT .F                73:   BOTTOM HOLE TEMPERATURE
 TCS .HRS               1:   TIME CURCULATED STOPPED
 LUN .               2523:   LOGGING UNIT NUMBER
 LUL .              CSPR.:   LOGGING UNIT LOCATION
 ENGI.             ATWOOD:   RECORDING ENGINEER
 WITN.             MARTIN:   WITNESSED BY
 CLNT.            A2DTECH:   CLIENT CODE
 ORIG.           5" PRINT:   ORIGIN OF DATA
 UWI .       490250646800:   UNIQUE WELL ID
 DICO. A2D Technologies, Inc.:   DIGITIZING COMPANY
~OTHER INFORMATION
~A   DEPT      SPR        ILD       CILD        ASN   
# ...
  244.0000  -109.0387     9.8821    99.5882    10.0925
  244.5000  -109.2207    10.1929    97.7798    10.3584
  245.0000  -109.4051    10.5249    95.9714    10.6246
  245.5000  -109.5854    10.7914    94.1629    10.8948
  246.0000  -109.7739    10.9391    92.3545    11.1529
  246.5000  -109.9168    11.0686    90.8684    11.3224
  247.0000  -109.9474    11.1921    89.8999    11.4370
  247.5000  -109.9702    11.2857    89.0779    11.5523
  248.0000  -109.9927    11.3644    88.2559    11.6657
  248.5000  -110.0155    11.4386    87.4339    11.7810
  249.0000  -110.0383    11.5143    86.6119    11.8935
  249.5000  -110.0610    11.5892    86.2502    12.0109
  250.0000  -110.0837    11.6737    86.0564    12.1194
  250.5000  -110.1065    11.7305    85.8626    12.2485
  251.0000  -110.1292    11.7923    85.6689    12.3354
  251.5000  -110.1521    11.8549    85.4751    12.3509
  252.0000  -110.1746    11.9171    85.2814    12.3814
  252.5000  -110.1980    11.9795    85.0876    12.4045
  253.0000  -110.2196    12.0418    84.8939    12.4316
  253.5000  -110.2445    12.1042    84.7001    12.4565
  254.0000  -110.2632    12.1661    84.5063    12.4830
  254.5000  -110.3271    12.2287    84.3126    12.5179
  255.0000  -110.4620    12.2899    84.1188    12.5682
  255.5000  -110.5956    12.3539    83.9250    12.6193
  256.0000  -110.7312    12.4126    83.7064    12.6809
  256.5000  -110.8657    12.4809    82.8579    12.8329
  257.0000  -111.0007    12.5310    81.8842    13.0186
  257.5000  -111.1355    12.7044    80.9104    13.1996
  258.0000  -111.2704    13.0405    79.9366    13.3945
  258.5000  -111.4052    13.3657    78.9629    13.6609
  259.0000  -111.5400    13.6987    77.9891    13.9541
  259.5000  -111.6747    14.0270    76.5533    14.2451
  260.0000  -111.8095    14.3586    74.5188    14.5365
  260.5000  -111.9439    14.6873    72.4843    14.8285
  261.0000  -112.0790    15.0206    70.4499    15.1210
  261.5000  -112.2125    15.3404    68.4154    15.4120
  262.0000  -112.3492    15.5361    66.3809    15.7068
  262.5000  -112.4800    15.7118    64.3465    15.9869
  263.0000  -112.6218    15.8994    62.3120    16.1815
  263.5000  -112.7417    16.0153    61.5112    16.3557
  264.0000  -112.9800    16.0432    61.8729    16.5185
  264.5000  -113.3279    16.0923    62.2202    16.4109
  265.0000  -113.6557    15.9023    63.7243    16.1258
  265.5000  -113.9897    15.5339    65.1710    15.8754
  266.0000  -114.3282    15.1995    66.6177    15.6045
  266.5000  -114.6186    14.8509    68.0645    15.3724
  267.0000  -114.7345    14.5100    69.5112    15.2357
  267.5000  -114.8163    14.2717    70.9579    15.1167
  268.0000  -114.9266    14.1244    72.4047    14.9951
  268.5000  -114.9306    13.9605    73.2805    14.8748
  269.0000  -114.3957    13.8397    73.7972    14.7541
  269.5000  -113.8550    13.8184    74.3132    14.6336
  270.0000  -113.3173    13.7996    74.7508    14.5140
  270.5000  -112.7829    13.7778    74.5446    14.3930
  271.0000  -112.2411    13.7651    74.3680    14.2753
  271.5000  -111.7148    13.7270    74.1942    14.1506
  272.0000  -111.1694    13.6333    74.0123    14.0388
  272.5000  -110.9986    13.5023    73.8463    13.9098
  273.0000  -111.0030    13.4593    75.6579    13.7891
  273.5000  -111.0372    12.9555    77.1526    13.7545
  274.0000  -110.8478    12.1695    78.6558    12.6523
  274.5000  -109.5006    11.5053    82.7540    11.7473
  275.0000  -108.3059    10.7889    87.8245    11.0663
  275.5000  -107.0468    10.0997    92.9371     9.9463
  276.0000  -105.8905     9.3970    98.0837     8.9794
  276.5000  -104.5115     8.6265   106.1099     8.6153
  277.0000  -103.6551     8.0838   121.2444     8.0853
  277.5000  -103.6553     7.4507   136.6159     7.5113
  278.0000  -103.5008     7.1322   148.6571     7.3278
  278.5000  -103.4246     6.8427   153.1782     7.0993
  279.0000  -103.3063     6.5214   157.6992     6.8398
  279.5000  -103.2099     6.4830   161.0027     6.8763
  280.0000  -103.1031     6.4879   161.5936     6.9185
  280.5000  -103.0009     6.5146   161.5936     6.9735
  281.0000  -102.8965     6.5962   160.1916     7.0249
  281.5000  -102.7914     6.6725   158.5640     7.0756
  282.0000  -102.6878     6.7483   156.9364     7.1284
  282.5000  -102.5815     6.7121   155.3089     7.0734
  283.0000  -102.4801     6.6528   153.5363     7.0067
  283.5000  -102.3680     6.5993   154.4348     6.9349
  284.0000  -102.2966     6.5413   155.4212     6.8667
  284.5000  -102.2737     6.4884   156.4076     6.8021
  285.0000  -102.2415     6.4269   157.3940     6.8138
  285.5000  -102.2139     6.4034   158.3804     6.8757
  286.0000  -102.1839     6.4751   158.9078     6.9418
  286.5000  -102.1551     6.5528   158.1916     7.0086
  287.0000  -102.1257     6.6304   156.6846     7.0511
  287.5000  -102.0966     6.7088   155.1776     7.1000
  288.0000  -102.0673     6.7849   153.6705     7.0984
  288.5000  -102.0381     6.8661   152.1635     7.0459
  289.0000  -102.0088     6.9236   150.6565     7.0022
  289.5000  -101.9796     6.8239   150.7463     6.9540
  290.0000  -101.9507     6.7093   152.2259     6.9080
  290.5000  -101.9180     6.5941   153.7055     6.8612
  291.0000  -101.8857     6.4985   155.1852     6.8146
  291.5000  -101.8535     6.5023   156.6648     6.7782
  292.0000  -101.8213     6.5155   158.0125     6.7482
  292.5000  -101.7891     6.5266   158.2939     6.7265
  293.0000  -101.7569     6.5397   158.5522     6.7496
  293.5000  -101.7247     6.5500   158.8106     6.7722
  294.0000  -101.6925     6.5652   158.2632     6.8031
  294.5000  -101.6602     6.5709   157.2298     6.8892
  295.0000  -101.6280     6.6274   156.1964     6.9754
  295.5000  -101.5958     6.7202   155.3268     7.0472
  296.0000  -101.5636     6.8007   153.5112     7.1044
  296.5000  -101.5314     6.8867   151.9439     7.1505
  297.0000  -101.4992     6.9698   150.3766     7.2071
  297.5000  -101.4670     7.0544   148.8093     7.2339
  298.0000  -101.4348     7.1383   147.2420     7.3189
  298.5000  -101.4026     7.2225   145.6747     7.4639
  299.0000  -101.3704     7.3068   144.1074     7.5771
  299.5000  -101.3382     7.3907   141.8819     7.6665
  300.0000  -101.3060     7.4756   139.4163     7.7358
  300.5000  -101.2738     7.5583   136.9506     7.8032
  301.0000  -101.2415     7.6452   134.4849     7.8686
  301.5000  -101.2094     7.7245   133.8406     7.9098
  302.0000  -101.1771     7.8164   133.8406     7.9308
  302.5000  -101.1449     7.7774   133.8406     7.8674
  303.0000  -101.1127     7.6656   133.8406     7.7669
  303.5000  -101.0805     7.5771   133.8406     7.6818
  304.0000  -101.0483     7.4785   136.0320     7.5904
  304.5000  -101.0161     7.3849   137.8087     7.5021
  305.0000  -100.9839     7.2893   139.5830     7.4126
  305.5000  -100.9517     7.1931   141.3576     7.3228
  306.0000  -100.9195     7.1130   143.1361     7.2349
  306.5000  -100.8873     7.0532   144.9169     7.1446
  307.0000  -100.8551     6.9995   146.6985     7.1154
  307.5000  -100.8229     6.9464   148.4812     7.1330
  308.0000  -100.7906     6.8921   149.9552     7.1446
  308.5000  -100.7584     6.8489   149.5381     7.1576
  309.0000  -100.7262     6.8622   149.1817     7.1722
  309.5000  -100.6940     6.8895   148.6365     7.1809
  310.0000  -100.6618     6.9127   147.9931     7.2238
  310.5000  -100.6296     6.9377   147.3498     7.2906
  311.0000  -100.5974     6.9616   146.7065     7.3492
  311.5000  -100.5652     6.9862   146.0631     7.4104
  312.0000  -100.5330     7.0102   145.4198     7.4709
  312.5000  -100.5008     7.0351   144.7764     7.5053
  313.0000  -100.4686     7.0584   144.1331     7.4711
  313.5000  -100.4364     7.0844   143.4897     7.4356
  314.0000  -100.4042     7.1049   142.8464     7.3987
  314.5000  -100.3719     7.1500   142.2031     7.3720
  315.0000  -100.3398     7.2140   141.5597     7.3988
  315.5000  -100.3075     7.2721   140.9164     7.5063
  316.0000  -100.2753     7.3320   140.2731     7.6206
  316.5000  -100.2431     7.3923   139.6297     7.7282
