~VERSION INFORMATION
 VERS.                2.0:   CWLS LOG ASCII STANDARD - VERSION 2.0
 WRAP.                 NO:   ONE LINE PER DEPTH STEP
~WELL INFORMATION
#MNEM.UNIT      DATA TYPE    INFORMATION
#----------   ------------   ------------------------------
 STRT.F           20.5000:   START DEPTH
 STOP.F          725.0000:   STOP DEPTH
 STEP.F            0.5000:   STEP LENGTH
 NULL.          -999.2500:   NO VALUE
 COMP. FENIX & SCISSON INC:   COMPANY
 WELL.       NPR 3 #67-27:   WELL
 FLD .             TEAPOT:   FIELD
 LOC .      S27 T39N R78W:   LOCATION
 CNTY.            NATRONA:   COUNTY
 STAT.            WYOMING:   STATE
 CTRY. UNITED STATES OF AMERICA:   COUNTRY
 SRVC.           BIRDWELL:   SERVICE COMPANY
 DATE.        15-SEP-1978:   LOGDATE
 API .       490251069400:   API NUMBER
~CURVE INFORMATION
#MNEM.UNIT       API CODE    CURVE DESCRIPTION
#----------   ------------   ------------------------------
 DEPT.F                  :   
 CALD.IN     45 280 60 00:   CALIPER
 GRD .GAPI   45 310 01 00:   GAMMA RAY FROM DENSITY LOG
 RHOB.G/C3   45 350 01 00:   BULK DENSITY
 DPHI.DEC    45 890 12 00:   DENSITY POROSITY SANDSTONE
 CORR.G/C3   45 356 01 00:   DENSITY CORRECTION
 SPR .MV     05 010 01 00:   SPONTANEOUS POTENTIAL FROM RES.
 ILD .OHMM   05 120 46 00:   INDUCTION LOG DEEP
 SN  .OHMM   05 040 16 00:   SHORT NORMAL 16"
~PARAMETER INFORMATION
#MNEM.UNIT          VALUE    DESCRIPTION
#----------   ------------   ------------------------------
 PD  .                 GL:   PERMANENT DATUM
 EPD .F              5027:   ELEVATION PERMANENT DATUM
 LMF .                 KB:   LOG MEASURED FROM
 DAPD.F                 4:   FEET ABOVE PERMANENT DATUM
 DMF .                 KB:   DRILLING MEASURED FROM
 EKB .F              5031:   KELLING BUSHING
 EGL .F              5027:   GROUND LEVEL
 DATE.            9-15-78:   RUN DATE
 RUN .                  1:   RUN NUMBER
 DD  .F               728:   DEPTH DRILLER
 DL  .F               719:   DEPTH LOGGER
 BLI .F               713:   BOTTOM LOG INTERVAL
 TLI .F                30:   TOP LOG INTERVAL
 CS  .IN            8.625:   CASING SIZE
 CBD .F                34:   CASING BOTTOM DRILLER
 CBL .F                34:   CASING BOTTOM LOGGER
 BS  .IN            7.875:   BIT SIZE
 BSD .F               728:   BIT SIZE AT DEPTH
 DFT .            KCL MUD:   DRILLING FLUID TYPE
 DFD .                  9:   DRILLING FLUID DENSITY
 DFV .                 46:   DRILLING FLUID VISCOSITY
 DFPH.                  9:   DRILLING FLUID PH
 DFL .                7.6:   DRILLING FLUID LOSS
 MSS .          FLOW LINE:   MUD SAMPLE SOURCE
 RMS .OHMM            .34:   RESISTIVITY MUD SAMPLE
 MST .F                68:   MUD SAMPLE TEMPERATURE
 RMF .OHMM             .3:   RESISTIVITY MUD FILTRATE SAMPLE
 MFST.F                68:   MUD FILTRATE SAMPLE TEMPERATURE
 RMC .OHMM            .38:   RESISTIVITY MUD CAKE
 MCST.F                70:   MUD CAKE SAMPLE TEMPERATURE
 MFSS.               MEAS:   MUD FILTRATE SAMPLE SOURCE
 MCSS.               MEAS:   MUD CAKE SAMPLE SOURCE
 RMB .OHMM            .32:   RESISTIVITY MUD AT BHT
 BHT .F                72:   BOTTOM HOLE TEMPERATURE
 TCS .HRS               2:   TIME CURCULATED STOPPED
 MRT .F                72:   MAXIMUM RECORDED TEMPERATURE
 LUN .               2958:   LOGGING UNIT NUMBER
 LUL .               CASP:   LOGGING UNIT LOCATION
 ENGI.           REYNOLDS:   RECORDING ENGINEER
 WITN.           DINSMORE:   WITNESSED BY
 CLNT.            A2DTECH:   CLIENT CODE
 ORIG.           5" PRINT:   ORIGIN OF DATA
 UWI .       490251069400:   UNIQUE WELL ID
 DICO. A2D Technologies, Inc.:   DIGITIZING COMPANY
~OTHER INFORMATION
~A   DEPT     CALD        GRD       RHOB       DPHI       CORR        SPR        ILD         SN   
# ...
  628.0000     8.0190    92.7969     2.5054     0.1072     0.0344   -33.0304    12.6133    12.2013
  628.5000     8.0124    92.7944     2.5162     0.1028     0.0274   -33.1064    12.6133    12.1899
  629.0000     8.0059    92.6541     2.5172     0.1020     0.0249   -33.1840    12.6133    12.1783
  629.5000     7.9993    92.5094     2.5091     0.1120     0.0240   -33.2601    12.6133    12.1664
  630.0000     7.9927    92.3657     2.5048     0.1106     0.0231   -33.2244    12.6133    12.1560
  630.5000     7.9861    92.2223     2.5044     0.1089     0.0223   -33.0749    12.6131    12.2212
  631.0000     7.9795    92.0785     2.5038     0.1098     0.0218   -32.9255    12.6140    12.2809
  631.5000     7.9729    91.9348     2.5024     0.1115     0.0244   -32.7700    12.6115    12.3409
  632.0000     7.9692    91.7959     2.5010     0.1131     0.0270   -32.4369    12.7816    12.4247
  632.5000     7.9677    91.8540     2.4987     0.1174     0.0304   -31.9044    12.9388    12.5652
  633.0000     7.9663    92.3061     2.4941     0.1242     0.0397   -31.3766    13.0967    12.7073
  633.5000     7.9648    92.3184     2.4834     0.1311     0.0491   -30.8471    13.2490    12.8510
  634.0000     7.9634    91.8224     2.4629     0.1379     0.0559   -30.3183    13.3855    12.9963
  634.5000     7.9619    91.3152     2.4606     0.1398     0.0430   -29.7851    13.5233    13.1432
  635.0000     7.9605    90.1936     2.4663     0.1157     0.0374   -29.2541    13.6625    13.2918
  635.5000     7.9590    85.9363     2.5119     0.0585     0.0347   -28.0973    14.1257    13.4421
  636.0000     7.9576    81.8937     2.5691     0.0561     0.0392   -26.7044    15.2183    13.5788
  636.5000     7.9561    78.8807     2.5872     0.0756     0.0450   -25.2963    16.4930    13.8315
  637.0000     7.9546    77.9791     2.5734     0.0974     0.0520   -23.9020    16.4571    13.7573
  637.5000     7.9532    78.2082     2.5021     0.1388     0.0526   -22.6956    16.3836    13.6520
  638.0000     7.9517    79.2727     2.4304     0.1790     0.0469   -21.9662    16.3283    13.5788
  638.5000     7.9503    81.1894     2.3661     0.1954     0.0412   -21.2067    16.4416    13.6217
  639.0000     7.9467    82.7713     2.3664     0.1942     0.0355   -19.8393    16.6345    13.6548
  639.5000     7.9426    82.8891     2.3671     0.1931     0.0297   -18.5017    16.6356    13.6880
  640.0000     7.9385    81.9336     2.3678     0.1931     0.0241   -17.2301    16.2556    13.7046
  640.5000     7.9344    80.6932     2.3674     0.1944     0.0285   -16.6252    15.9162    13.2106
  641.0000     7.9303    79.5032     2.3658     0.1967     0.0442   -16.0067    15.5862    13.2056
  641.5000     7.9262    80.4381     2.3642     0.1995     0.0650   -15.6626    15.1674    13.2082
  642.0000     7.9221    81.1140     2.3676     0.1927     0.0722   -15.4958    15.2313    13.2084
  642.5000     7.9180    81.1760     2.3728     0.1850     0.0606   -15.4987    15.3232    13.2084
  643.0000     7.9138    81.2340     2.3866     0.1774     0.0490   -15.4998    15.4156    13.2084
  643.5000     7.9106    81.2435     2.3995     0.1756     0.0373   -15.5000    15.5086    13.2084
  644.0000     7.9245    83.3086     2.3954     0.1807     0.0257   -15.5025    15.5927    13.2084
  644.5000     7.9385    84.0797     2.3910     0.1862     0.0178   -15.6334    15.4615    13.2081
  645.0000     7.9525    84.2252     2.3879     0.1829     0.0196   -15.8999    15.3432    13.2084
  645.5000     7.9664    84.3725     2.3944     0.1779     0.0213   -16.1667    15.2854    13.2084
  646.0000     7.9804    84.5301     2.3983     0.1783     0.0230   -16.3037    15.2534    13.4000
  646.5000     7.9945    83.3086     2.3937     0.1809     0.0246   -16.3316    15.2215    13.8315
  647.0000     8.0091    82.2831     2.3805     0.1903     0.0235   -16.3563    15.1896    13.5788
  647.5000     7.9804    82.2917     2.3670     0.2005     0.0195   -16.3805    15.1674    13.7299
  648.0000     7.9701    81.9130     2.3571     0.2019     0.0179   -16.4049    15.8171    13.8997
  648.5000     7.9697    81.1077     2.3668     0.1879     0.0195   -16.4293    16.1785    14.0889
  649.0000     7.9759    80.3091     2.3786     0.1804     0.0211   -16.4526    15.8829    14.0889
  649.5000     7.9560    80.0235     2.3907     0.1742     0.0227   -16.4731    16.1854    14.0889
  650.0000     7.9316    80.2767     2.3963     0.1733     0.0243   -16.5345    16.5282    14.0880
  650.5000     7.9397    80.5247     2.3992     0.1747     0.0259   -17.1765    16.6521    14.1584
  651.0000     7.9472    80.7644     2.3994     0.1744     0.0275   -17.8024    16.6811    14.2353
  651.5000     7.9546    80.9612     2.3997     0.1734     0.0291   -18.4274    16.7093    14.3127
  652.0000     7.9621    81.0285     2.4000     0.1738     0.0307   -19.0690    16.7376    14.3639
  652.5000     7.9698    80.7905     2.4030     0.1747     0.0332   -19.3207    16.7662    14.4054
  653.0000     7.9795    80.5583     2.4085     0.1714     0.0365   -19.5556    16.8499    14.4471
  653.5000     7.9896    80.3244     2.4140     0.1621     0.0399   -19.7932    17.0560    14.4888
  654.0000     7.9996    80.0919     2.4203     0.1510     0.0455   -20.0318    17.2646    14.5307
  654.5000     8.0097    79.8989     2.4538     0.1358     0.0532   -20.6411    17.5782    14.5727
  655.0000     8.0199    80.1833     2.4904     0.0944     0.0609   -21.3799    17.4848    14.6182
  655.5000     8.0295    80.9627     2.5134     0.1081     0.0670   -21.8305    17.3062    14.5529
  656.0000     8.0239    81.7371     2.4965     0.1348     0.0555   -21.5494    17.1295    14.4825
  656.5000     8.0177    82.4769     2.4590     0.1396     0.0421   -21.9263    16.9417    14.4125
  657.0000     8.0127    82.6828     2.4503     0.1440     0.0286   -22.5006    16.8545    14.3347
  657.5000     7.9462    82.8981     2.4486     0.1433     0.0214   -22.9567    16.7351    14.2094
  658.0000     7.8680    82.6737     2.4472     0.1432     0.0215   -23.1094    16.6322    14.0850
  658.5000     7.7895    82.4963     2.4458     0.1444     0.0215   -23.2683    16.3952    13.9616
  659.0000     7.7180    82.4995     2.4341     0.1573     0.0215   -23.4275    16.1434    13.8315
  659.5000     7.6672    82.4999     2.4151     0.1682     0.0215   -23.4409    15.8804    13.8315
  660.0000     7.6167    82.5000     2.4039     0.1672     0.0214   -23.3350    15.9086    13.8315
  660.5000     7.5712    82.5011     2.3990     0.1751     0.0198   -23.2278    15.9468    13.8315
  661.0000     7.5816    82.5031     2.3983     0.1747     0.0154   -23.1201    15.9837    13.8316
  661.5000     7.5931    82.4459     2.3975     0.1743     0.0110   -23.0115    16.0206    13.8218
  662.0000     7.6045    82.4513     2.3967     0.1739     0.0070   -22.9062    16.2328    13.8041
  662.5000     7.6190    82.6085     2.3952     0.1755     0.0084   -23.0021    16.5056    13.7864
  663.0000     7.6375    82.7744     2.3901     0.1796     0.0142   -23.1115    16.6345    13.7688
  663.5000     7.6763    82.9393     2.3851     0.1867     0.0236   -23.5703    16.6336    13.7511
  664.0000     7.7677    83.1039     2.3801     0.1886     0.0390   -23.9498    16.7288    13.7335
  664.5000     7.9198    83.2685     2.3772     0.1905     0.0542   -24.1109    17.0038    13.7159
  665.0000     8.0346    83.4332     2.3790     0.1925     0.0692   -24.9704    17.2833    13.6872
  665.5000     8.0416    83.5985     2.3808     0.1852     0.0832   -25.9032    17.5782    13.6385
  666.0000     8.0508    83.7626     2.3818     0.1799     0.1591   -26.3526    17.3545    13.5902
  666.5000     8.0597    83.8720     2.3729     0.1827     0.2722   -26.7031    17.0654    13.2187
  667.0000     8.0685    83.6664     2.3641     0.1872     0.3607   -27.3445    16.7812    12.9170
  667.5000     8.0776    83.5433     2.3575     0.1977     0.4186   -28.0123    16.5017    12.6221
  668.0000     8.0852    83.8385     2.3511     0.2019     0.4259   -28.6822    16.0813    12.2692
