~VERSION INFORMATION
 VERS.                2.0:   CWLS LOG ASCII STANDARD - VERSION 2.0
 WRAP.                 NO:   ONE LINE PER DEPTH STEP
~WELL INFORMATION
#MNEM.UNIT      DATA TYPE    INFORMATION
#----------   ------------   ------------------------------
 STRT.F            2.0000:   START DEPTH
 STOP.F          595.0000:   STOP DEPTH
 STEP.F            0.5000:   STEP LENGTH
 NULL.          -999.2500:   NO VALUE
 COMP.       F D SERV INC:   COMPANY
 WELL.    73-5 SX-3 #73-3:   WELL
 FLD .             TEAPOT:   FIELD
 LOC .       S3 T38N R78W:   LOCATION
 CNTY.            NATRONA:   COUNTY
 STAT.            WYOMING:   STATE
 CTRY. UNITED STATES OF AMERICA:   COUNTRY
 SRVC.     Atlas Wireline:   SERVICE COMPANY
 DATE.        01-MAY-1992:   LOGDATE
 API .       490252252200:   API NUMBER
~CURVE INFORMATION
#MNEM.UNIT       API CODE    CURVE DESCRIPTION
#----------   ------------   ------------------------------
 DEPT.F                  :   
 CALD.IN     45 280 60 00:   CALIPER FROM DENSITY
 CORR.G/C3   45 356 01 00:   DENSITY CORRECTION
 DEN .G/C3   45 350 01 00:   COMPENSATED BULK DENSTIY
 GRD .GAPI   45 310 01 00:   GAMMA RAY FROM DENSITY LOG
 RILD.OHMM   07 120 46 00:   INDUCTION LOG DEEP RESISTIVITY
 RILM.OHMM   07 120 44 00:   INDUCTION LOG MEDIUM RESISTIVITY
 PORD.DEC    45 890 12 00:   POROSITY DENSITY SANDSTONE
~PARAMETER INFORMATION
#MNEM.UNIT          VALUE    DESCRIPTION
#----------   ------------   ------------------------------
 PD  .                 GL:   PERMANENT DATUM
 EPD .F              5147:   ELEVATION PERMANENT DATUM
 LMF .                 KB:   LOG MEASURED FROM
 DAPD.F                 5:   FEET ABOVE PERMANENT DATUM
 DMF .                 KB:   DRILLING MEASURED FROM
 EKB .F              5152:   KELLING BUSHING
 EGL .F              5147:   GROUND LEVEL
 DATE.        01-MAY-1992:   RUN DATE
 RUN .                  1:   RUN NUMBER
 DD  .F               600:   DEPTH DRILLER
 DL  .F               603:   DEPTH LOGGER
 BLI .F               601:   BOTTOM LOG INTERVAL
 TLI .F                 2:   TOP LOG INTERVAL
 CS  .IN            8.625:   CASING SIZE
 CBD .F                46:   CASING BOTTOM DRILLER
 CBL .F                53:   CASING BOTTOM LOGGER
 BS  .IN            7.875:   BIT SIZE
 BSD .F               600:   BIT SIZE AT DEPTH
 DFT .                AIR:   DRILLING FLUID TYPE
 TCS .HRS               1:   TIME CURCULATED STOPPED
 LUN .            HL-6274:   LOGGING UNIT NUMBER
 LUL .             CASPER:   LOGGING UNIT LOCATION
 ENGI.             ZIEGER:   RECORDING ENGINEER
 WITN.             STRONG:   WITNESSED BY
 CLNT.            A2DTECH:   CLIENT CODE
 ORIG.           5" PRINT:   ORIGIN OF DATA
 UWI .       490252252200:   UNIQUE WELL ID
 DICO. A2D Technologies, Inc.:   DIGITIZING COMPANY
~OTHER INFORMATION
~A    DEPT    CALD       CORR        DEN         GRD      RILD       RILM       PORD   
# ...
  366.0000     8.1240    -0.0051     2.5404   158.1313     9.9345    10.0742     0.0676
  366.5000     8.1236    -0.0022     2.5418   160.2305    10.0713    10.4290     0.0688
  367.0000     8.1231    -0.0024     2.5417   161.4016    10.4260    10.8769     0.0682
  367.5000     8.1379     0.0035     2.5372   158.2502    10.8688    11.3467     0.0679
  368.0000     8.1373     0.0033     2.5205   146.6581    11.5710    12.0031     0.0715
  368.5000     8.1369     0.0031     2.4917   121.3919    12.1560    12.9096     0.0966
  369.0000     8.1516     0.0060     2.4403   114.7724    12.9585    14.7614     0.1192
  369.5000     8.1510     0.0118     2.3813   112.0627    14.0023    16.1586     0.1533
  370.0000     8.1657     0.0177     2.3480   108.4507    16.1540    18.8343     0.1778
  370.5000     8.1652     0.0205     2.3585   102.1319    18.6980    21.6489     0.1808
  371.0000     8.1647     0.0113     2.3615    91.6026    21.1944    23.6979     0.1763
  371.5000     8.1643     0.0020     2.3358    90.0959    24.7040    25.0514     0.1751
  372.0000     8.1488    -0.0012     2.2723    89.7922    26.2979    26.8544     0.2025
  372.5000     8.1634     0.0017     2.1801    87.0824    27.2240    28.3883     0.2533
  373.0000     8.1630     0.0045     2.1634    86.7787    27.6009    28.9808     0.2879
  373.5000     8.1625     0.0134     2.1938    92.1893    27.7865    28.7713     0.2923
  374.0000     8.1621     0.0163     2.2478    93.3900    27.9733    28.3648     0.2657
  374.5000     8.1616     0.0221     2.2946    93.6871    28.1614    28.3570     0.2452
  375.0000     8.1612     0.0159     2.3293    93.9849    28.5473    28.3492     0.2166
  375.5000     8.1606     0.0036     2.3443    94.5835    28.9425    28.9409     0.1852
  376.0000     8.1602    -0.0026     2.3186    95.7834    29.7514    29.7518     0.1846
  376.5000     8.1749     0.0002     2.2823    97.8857    31.2320    31.2324     0.2118
  377.0000     8.1743     0.0061     2.2309    96.3732    32.7863    34.6931     0.2483
  377.5000     8.1890     0.0120     2.1825    91.1728    33.9409    38.5284     0.2746
  378.0000     8.1885     0.0148     2.1628    82.9530    35.3823    39.8757     0.2882
  378.5000     8.1880     0.0146     2.1808    75.9186    36.3737    40.3876     0.2936
  379.0000     8.1876     0.0053     2.2110    80.4269    37.4032    39.8141     0.2771
  379.5000     8.1872    -0.0100     2.2351    88.5443    38.4406    39.5264     0.2584
  380.0000     8.1716    -0.0131     2.2622    93.3533    38.9701    39.2408     0.2394
  380.5000     8.1712    -0.0043     2.2528    96.0571    39.0078    39.2299     0.2355
  381.0000     8.1557     0.0046     2.2264    94.2313    40.0482    38.9464     0.2428
  381.5000     8.1552     0.0044     2.1910    91.2010    41.4586    38.9357     0.2627
  382.0000     8.1548    -0.0018     2.1774    89.0666    42.9186    39.4720     0.2760
  382.5000     8.1543    -0.0111     2.1683    86.9322    44.7412    40.2958     0.2862
  383.0000     8.1539    -0.0143     2.1652    83.7107    45.9980    40.8508     0.2905
  383.5000     8.1535    -0.0175     2.1651    81.3017    45.9822    41.1284     0.2923
  384.0000     8.1681    -0.0146     2.1802    79.4942    45.0172    39.9826     0.2914
  384.5000     8.1827    -0.0087     2.2043    80.3935    42.2655    37.8014     0.2764
  385.0000     8.1822    -0.0029     2.2375    87.6086    37.0076    35.2440     0.2562
  385.5000     8.1968     0.0000     2.2827   101.7409    32.8591    31.5124     0.2194
  386.0000     8.1964     0.0028     2.3552   110.1590    30.2115    28.3731     0.1907
  386.5000     8.2110     0.0057     2.3732   113.1635    28.5634    26.6388     0.1724
  387.0000     8.2105     0.0054     2.3596   114.3636    28.1598    26.4463     0.1700
  387.5000     8.2100    -0.0038     2.3414   114.3603    27.9563    26.8105     0.1766
  388.0000     8.2096    -0.0100     2.3150   111.9514    28.1445    26.8029     0.1968
  388.5000     8.2091    -0.0072     2.2740   105.3318    28.1365    26.9834     0.2126
  389.0000     8.2087    -0.0013     2.2551   101.7198    28.3258    27.1648     0.2343
  389.5000     8.2082     0.0046     2.2581   101.4169    28.1210    26.9666     0.2394
  390.0000     8.1927     0.0074     2.3063   102.3154    27.9048    26.2172     0.2274
  390.5000     8.1772     0.0012     2.3471   103.8162    27.0990    25.4885     0.2081
  391.0000     8.1768    -0.0020     2.3802   106.8207    25.4541    24.2668     0.1797
  391.5000     8.1763    -0.0083     2.4074   107.7200    24.0910    22.9430     0.1451
  392.0000     8.1910    -0.0115     2.4164   108.9200    22.9363    21.8433     0.1406
  392.5000     8.1905    -0.0147     2.4088   111.0223    22.1438    21.2363     0.1397
  393.0000     8.1900    -0.0149     2.3936   112.5238    21.2300    20.6461     0.1494
  393.5000     8.1896    -0.0150     2.3935   114.0239    20.4964    20.2128     0.1536
  394.0000     8.1891    -0.0153     2.3995   116.7277    19.9268    19.9272     0.1539
  394.5000     8.1887    -0.0154     2.4055   117.9278    19.7828    19.6456     0.1524
  395.0000     8.2033    -0.0186     2.4130   116.1202    19.7773    19.6402     0.1473
  395.5000     8.2029    -0.0157     2.4297   111.0045    20.0511    19.7725     0.1407
  396.0000     8.2024    -0.0160     2.4420   110.4000    20.3259    20.1850     0.1269
  396.5000     8.1554    -0.0131     2.4536   109.4768    20.3203    20.4630     0.1097
  397.0000     8.1112    -0.0102     2.4611   107.6873    20.3147    20.6006     0.1052
  397.5000     8.1709    -0.0044     2.4474   109.5238    20.3091    20.3094     0.1082
  398.0000     8.1856     0.0015     2.4005   111.0376    20.1623    20.0223     0.1398
  398.5000     8.2002    -0.0078     2.3990   112.4896    20.0166    19.8776     0.1494
  399.0000     8.1996    -0.0170     2.4034   113.3897    19.8719    19.5956     0.1502
  399.5000     8.1992    -0.0233     2.4049   113.9874    19.7283    19.4540     0.1484
  400.0000     8.1988    -0.0204     2.4012   116.0195    19.7228    19.5862     0.1475
  400.5000     8.2030    -0.0149     2.3866   118.8084    19.6014    19.5259     0.1551
  401.0000     8.2070    -0.0086     2.3790   121.7983    19.4799    19.4702     0.1620
  401.5000     8.2109    -0.0088     2.3759   122.0968    19.5644    19.4326     0.1636
  402.0000     8.2121    -0.0120     2.3803   119.9879    19.6963    19.5646     0.1642
  402.5000     8.1965    -0.0151     2.3832   116.6766    19.6878    19.6962     0.1642
  403.0000     8.1961    -0.0153     2.3816   112.1624    19.5442    19.6894     0.1636
  403.5000     8.2108    -0.0124     2.3785   109.4526    19.5375    19.6840     0.1630
  404.0000     8.2102    -0.0095     2.3784   110.6886    19.5308    19.6786     0.1646
  404.5000     8.2098    -0.0036     2.3814   112.8070    19.3883    19.5364     0.1640
  405.0000     8.2093    -0.0038     2.3873   115.2377    19.3816    19.3952     0.1604
  405.5000     8.2089    -0.0039     2.3902   117.0675    19.3749    19.1212     0.1589
  406.0000     8.2084    -0.0071     2.3885   117.5581    19.2336    18.8509     0.1594
  406.5000     8.2079    -0.0103     2.3870   111.5393    18.9604    18.5700     0.1594
  407.0000     8.2074    -0.0165     2.3900   113.3409    18.8054    18.2998     0.1579
  407.5000     8.2070    -0.0227     2.3944   119.3529    18.6608    17.9364     0.1552
  408.0000     8.1915    -0.0229     2.3989   122.6582    18.4181    17.8067     0.1534
  408.5000     8.1911    -0.0230     2.4018   122.0537    18.1566    17.6781     0.1519
  409.0000     8.1906    -0.0232     2.4032   118.1410    17.8988    17.5503     0.1516
  409.5000     8.2053    -0.0203     2.4016   116.0328    17.5220    17.4235     0.1523
  410.0000     8.2048    -0.0174     2.4045   115.1275    17.2732    17.0579     0.1529
  410.5000     8.2195    -0.0176     2.4105   114.8245    16.9096    16.9346     0.1492
  411.0000     8.2190    -0.0177     2.4164   116.6253    16.6695    16.8122     0.1444
