~VERSION INFORMATION
 VERS.                2.0:   CWLS LOG ASCII STANDARD - VERSION 2.0
 WRAP.                 NO:   ONE LINE PER DEPTH STEP
~WELL INFORMATION
#MNEM.UNIT      DATA TYPE    INFORMATION
#----------   ------------   ------------------------------
 STRT.F            2.5000:   START DEPTH
 STOP.F         1003.0000:   STOP DEPTH
 STEP.F            0.5000:   STEP LENGTH
 NULL.          -999.2500:   NO VALUE
 COMP. U S NAVY-INTEX OIL:   COMPANY
 WELL.   NPR #3 #87-SX-27:   WELL
 FLD .             TEAPOT:   FIELD
 LOC .      S27 T39N R78W:   LOCATION
 CNTY.            NATRONA:   COUNTY
 STAT.            WYOMING:   STATE
 CTRY. UNITED STATES OF AMERICA:   COUNTRY
 SRVC. Schlumberger Well Surveying Corp:   SERVICE COMPANY
 DATE.        13-AUG-1961:   LOGDATE
 API .       490250659000:   API NUMBER
~CURVE INFORMATION
#MNEM.UNIT       API CODE    CURVE DESCRIPTION
#----------   ------------   ------------------------------
 DEPT.F                  :   
 ASN .OHMM   05 041 16 00:   AMPLIFIER SHORT NORMAL
 SPR .MV     05 010 01 00:   SPONTANEOUS POTENSIAL
 CILD.MMHO   05 110 46 00:   CONDUCTIVITY INDUCTION LOG DEEP
 ILD .OHMM   05 120 46 00:   INDUCTION LOG DEEP
 GRN .MG/TON 35 310 30 00:   GAMMA RAY
 NEUT.NAPI   35 330 01 00:   NEUTRON
~PARAMETER INFORMATION
#MNEM.UNIT          VALUE    DESCRIPTION
#----------   ------------   ------------------------------
 PD  .                 GL:   PERMANENT DATUM
 EPD .F              5082:   ELEVATION PERMANENT DATUM
 LMF .                 KB:   LOG MEASURED FROM
 DAPD.F                 5:   FEET ABOVE PERMANENT DATUM
 DMF .                 KB:   DRILLING MEASURED FROM
 EKB .F              5087:   KELLING BUSHING
 EGL .F              5082:   GROUND LEVEL
 DATE.        13-AUG-1961:   RUN DATE
 RUN .                  1:   RUN NUMBER
 DD  .F              1000:   DEPTH DRILLER
 DL  .F              1003:   DEPTH LOGGER
 BLI .F              1002:   BOTTOM LOG INTERVAL
 TLI .F                90:   TOP LOG INTERVAL
 BS  .IN             6.75:   BIT SIZE
 BSD .F              1000:   BIT SIZE AT DEPTH
 DFT . OIL EMUL (12% OIL):   DRILLING FLUID TYPE
 DFD .                9.3:   DRILLING FLUID DENSITY
 DFV .                 60:   DRILLING FLUID VISCOSITY
 DFL .                  4:   DRILLING FLUID LOSS
 MSS .           FLOWLINE:   MUD SAMPLE SOURCE
 RMS .OHMM           1.29:   RESISTIVITY MUD SAMPLE
 MST .F                80:   MUD SAMPLE TEMPERATURE
 TCS .HRS               1:   TIME CURCULATED STOPPED
 LUN .               2523:   LOGGING UNIT NUMBER
 LUL .               CSPR:   LOGGING UNIT LOCATION
 ENGI.              SCOTT:   RECORDING ENGINEER
 WITN.          JORGENSEN:   WITNESSED BY
 CLNT.            A2DTECH:   CLIENT CODE
 ORIG.       2", 5" PRINT:   ORIGIN OF DATA
 UWI .       490250659000:   UNIQUE WELL ID
 DICO. A2D Technologies, Inc.:   DIGITIZING COMPANY
~OTHER INFORMATION
~A    DEPT     ASN        SPR       CILD        ILD          GRN     NEUT   
# ...
  782.5000     5.7636   -16.8168   209.8987     4.2484     5.9079   192.2609
  783.0000     5.0605   -16.6446   241.6649     3.2099     5.9341   171.1929
  783.5000     4.5932   -16.3664   288.5368     2.6054     5.9661   153.5891
  784.0000     4.2313   -16.2162   336.9193     2.2271     6.0035   137.0102
  784.5000     3.8694   -16.2162   399.2183     1.8488     6.0372   131.2282
  785.0000     3.4924   -16.2162   442.2457     1.6967     6.1016   133.6471
  785.5000     3.1757   -16.2162   473.0144     1.5446     6.1628   155.9536
  786.0000     3.0548   -16.0661   495.7172     1.4680     6.2297   175.6145
  786.5000     2.9636   -15.9159   513.8882     1.3914     6.2179   194.2913
  787.0000     2.8840   -15.7658   510.9112     1.4656     6.1693   231.1897
  787.5000     2.8276   -15.9159   486.7862     1.6151     6.7195   239.7628
  788.0000     3.2788   -16.3664   447.5554     1.6993     6.8394   246.9945
  788.5000     3.6850   -16.8168   406.8140     2.2911     6.6591   261.8335
  789.0000     4.1816   -17.1171   335.8612     3.0440     6.2295   273.5434
  789.5000     4.4070   -17.4174   289.7441     3.9478     6.2025   254.5507
  790.0000     4.9789   -17.2673   240.7943     5.0024     6.0485   252.4154
  790.5000     5.7766   -17.2673   212.1376     5.6044     6.0116   265.1576
  791.0000     6.1988   -16.9670   188.0125     5.8295     6.1532   270.4474
  791.5000     6.3500   -16.5165   168.4192     5.9040     6.5383   274.4053
  792.0000     6.4379   -16.0661   162.4210     6.0535     6.6514   274.9924
  792.5000     6.4826   -15.7658   157.9335     6.1275     6.5900   260.0831
  793.0000     6.5424   -15.6156   157.9776     6.2054     6.6199   240.4645
  793.5000     6.5873   -15.9159   156.5106     6.3512     6.7006   234.2137
  794.0000     6.5265   -16.3664   156.5559     6.3497     6.7266   232.2172
  794.5000     6.5411   -16.8168   156.6012     6.0468     6.7265   232.4227
  795.0000     6.6160   -16.9670   158.1652     5.6685     6.7476   236.6250
  795.5000     6.7059   -16.8168   161.2305     5.3656     7.0355   238.4747
  796.0000     6.7205   -16.5165   173.3592     4.9873     7.2172   236.9423
  796.5000     6.6296   -16.2162   188.5091     4.5336     7.3369   232.5237
  797.0000     6.5388   -16.2162   206.6801     4.0799     7.3260   223.2566
  797.5000     6.2673   -16.0661   221.8300     3.7016     7.2394   194.4510
  798.0000     5.9054   -15.7658   241.5116     3.3233     7.1936   177.9738
  798.5000     5.2272   -15.7658   255.1919     2.9405     7.2963   175.3952
  799.0000     4.7750   -16.0661   264.6219     2.8683     7.3916   177.7053
  799.5000     4.8047   -16.3664   274.8877     2.8668     7.1730   223.3282
  800.0000     4.6536   -16.5165   283.9953     2.9413     7.0240   265.1933
  800.5000     4.4273   -16.8339   287.0606     3.0152     7.0240   272.9489
  801.0000     4.8183   -17.2673   279.5518     3.2402     7.0391   274.7867
  801.5000     5.1341   -17.4174   261.4691     3.5406     6.9559   284.3625
  802.0000     5.1940   -17.4174   246.4075     3.7659     7.1299   292.2259
  802.5000     5.2537   -17.2673   231.3459     4.1503     7.4023   293.2331
  803.0000     5.5846   -17.1171   214.7737     4.5329     7.3493   281.9549
  803.5000     5.9467   -17.1171   200.9813     5.0474     6.8424   276.6917
  804.0000     6.1873   -16.9670   187.6827     5.4237     6.7213   281.2030
  804.5000     6.5184   -16.7014   174.1317     5.7246     6.7062   293.9850
  805.0000     6.8554   -16.4662   165.4010     6.1010     6.8726   305.2632
  805.5000     7.2834   -16.1797   151.7288     6.3267     6.7970   309.7744
  806.0000     7.6017   -15.8979   145.7457     6.6276     6.6003   281.2030
  806.5000     7.6918   -15.7460   142.7838     6.7777     6.9954   272.1805
  807.0000     7.7067   -15.7445   144.3536     6.8522     7.4855   293.2331
  807.5000     7.7063   -15.8935   145.9234     6.8514     7.2812   290.2256
  808.0000     7.6909   -16.1920   147.4932     6.7753     6.9407   298.4962
  808.5000     7.6304   -16.6409   150.5740     6.6174     6.9483   304.5113
  809.0000     7.5096   -17.0899   153.6556     6.3967     6.9634   295.4887
  809.5000     7.3888   -17.5389   156.7492     6.1695     6.8802   304.0306
  810.0000     7.2681   -17.6879   162.8507     5.8671     6.6456   336.8421
  810.5000     7.1021   -17.6861   168.9523     5.4893     7.5385   356.3910
  811.0000     6.9060   -17.6846   178.0750     5.1115     7.4628   345.8646
  811.5000     6.7090   -17.6831   185.6871     4.6583     7.3417   315.7895
  812.0000     6.4343   -17.6817   194.8097     4.3559     7.4704   325.5639
  812.5000     6.0743   -17.5300   205.4430     4.0535     7.3720   336.0902
  813.0000     5.6548   -17.5285   217.5868     3.9019     7.5990   303.0075
  813.5000     5.3683   -17.5270   226.7095     3.7504     7.5612   301.5038
  814.0000     5.2777   -17.5252   228.4194     3.8250     7.4855   301.5338
  814.5000     5.7292   -17.5238   222.2963     3.9814     7.5839   301.5038
  815.0000     5.8494   -17.5223   216.2134     4.2006     7.3528   300.7519
  815.5000     5.9545   -17.5208   210.1104     4.4260     7.1299   302.2556
  816.0000     6.6018   -17.5193   201.3407     4.7269     7.3417   295.4887
  816.5000     7.1135   -17.5178   189.3154     5.1032     7.1450   299.2481
  817.0000     7.2789   -17.5164   177.2901     5.6304     7.2207   298.4962
  817.5000     7.2937   -17.5149   166.7753     6.0821     7.2736   305.2632
  818.0000     7.0373   -17.3633   157.7711     6.3830     7.4552   325.5639
  818.5000     7.0069   -17.2116   153.2838     6.3823     7.3115   330.4812
  819.0000     7.0891   -16.9099   151.8324     6.3816     7.6520   315.0376
  819.5000     7.4280   -16.7582   151.9065     6.4563     7.5990   314.2857
  820.0000     7.7740   -16.7568   151.9657     6.4555     6.8424   324.0602
  820.5000     7.8942   -17.0655   152.0250     6.4568     6.7516   321.8045
  821.0000     7.9241   -17.6746   152.0846     6.5294     6.8045   303.0075
  821.5000     7.9841   -18.1037   152.1450     6.5285     6.6456   284.9624
  822.0000     7.8933   -18.4025   150.7069     6.5278     6.8424   291.7293
  822.5000     7.9533   -18.5512   148.6068     6.5271     7.3871   299.2481
  823.0000     8.0735   -18.5493   147.7894     6.5217     7.6293   286.4662
  823.5000     8.1485   -18.5478   147.8635     6.4501     7.5990   296.2406
  824.0000     8.0450   -18.4890   147.9227     6.4495     7.3039   289.4737
  824.5000     7.9822   -18.3947   147.9758     6.3733     7.2358   282.6541
  825.0000     7.9217   -18.2933   148.0363     6.2971     7.3871   279.6992
  825.5000     7.8288   -18.2416   148.1004     6.2964     7.4477   300.0000
  826.0000     7.7554   -18.3907   148.1597     6.4465     7.5310   306.7669
  826.5000     7.7400   -18.2387   148.2189     6.4457     7.4195   312.7820
  827.0000     7.7397   -17.9369   148.2781     6.1307     6.9634   311.2782
  827.5000     7.7093   -17.9354   149.8490     5.6145     7.0088   298.4962
  828.0000     7.6036   -17.9339   156.3942     5.2367     7.0996   264.6617
  828.5000     7.4527   -17.9324   174.1504     4.8589     7.4931   236.8421
  829.0000     6.9705   -18.2309   183.2731     4.6319     7.6898   224.0602
  829.5000     6.5183   -18.5301   187.8641     4.5557     7.7881   201.4214
  830.0000     6.3524   -18.9787   190.9444     4.6306     7.6595   202.2064
  830.5000     6.2617   -19.1278   192.5143     4.7053     7.5580   243.6090
  831.0000     6.0054   -19.2764   192.5735     4.7798     7.5158   264.6617
  831.5000     5.9879   -19.0446   192.6327     4.9298     7.3871   283.4586
  832.0000     6.2926   -18.6725   191.1814     4.9291     7.4704   291.7293
  832.5000     6.5361   -18.3707   188.2195     4.7775     7.1753   259.3985
  833.0000     6.7775   -18.2191   186.7674     4.5380     7.2358   259.3985
  833.5000     6.8473   -17.9173   202.0133     3.9463     7.2888   215.0376
  834.0000     6.6060   -17.9159   215.9111     3.5685     7.1375   197.7444
