~VERSION INFORMATION
 VERS.                2.0:   CWLS LOG ASCII STANDARD - VERSION 2.0
 WRAP.                 NO:   ONE LINE PER DEPTH STEP
~WELL INFORMATION
#MNEM.UNIT      DATA TYPE    INFORMATION
#----------   ------------   ------------------------------
 STRT.F           20.5000:   START DEPTH
 STOP.F          544.0000:   STOP DEPTH
 STEP.F            0.5000:   STEP LENGTH
 NULL.          -999.2500:   NO VALUE
 COMP. LAWRENCE/ALLISON INC:   COMPANY
 WELL.    45-65 SX #10-10:   WELL
 FLD .             TEAPOT:   FIELD
 LOC .      S10 T38N R78W:   LOCATION
 CNTY.            NATRONA:   COUNTY
 STAT.            WYOMING:   STATE
 CTRY. UNITED STATES OF AMERICA:   COUNTRY
 SRVC.            Unknown:   SERVICE COMPANY
 DATE.        01-SEP-1984:   LOGDATE
 API .       490251098400:   API NUMBER
~CURVE INFORMATION
#MNEM.UNIT       API CODE    CURVE DESCRIPTION
#----------   ------------   ------------------------------
 DEPT.F                  :   
 GRD .GAPI   45 310 01 00:   GAMMA RAY FROM DENSITY LOG
 CALD.IN     45 280 60 00:   CALIPER
 DEN .G/C3   45 350 01 00:   COMPENSATED BULK DENSTIY
 CORR.G/C3   45 356 01 00:   DENSITY CORRECTION
 CNC .DEC    42 890 03 00:   NEUTRON POROSITY SANDSTONE
 PORD.DEC    45 890 12 00:   POROSITY DENSITY SANDSTONE
 AC  .US/F   60 520 00 00:   ACOUSTIC SONIC
 SPR .MV     07 010 01 00:   SPONTANEOUS POTENTIAL
 RILD.OHMM   07 120 46 00:   INDUCTION LOG DEEP RESISTIVITY
 RILM.OHMM   07 120 44 00:   INDUCTION LOG MEDIUM RESISTIVITY
 RFOC.OHMM   07 220 04 00:   RESISTIVITY FOCUSED LOG
~PARAMETER INFORMATION
#MNEM.UNIT          VALUE    DESCRIPTION
#----------   ------------   ------------------------------
 PD  .                 GL:   PERMANENT DATUM
 EPD .F              5208:   ELEVATION PERMANENT DATUM
 LMF .                 KB:   LOG MEASURED FROM
 DAPD.F                12:   FEET ABOVE PERMANENT DATUM
 DMF .                 KB:   DRILLING MEASURED FROM
 EKB .F              5220:   KELLING BUSHING
 EGL .F              5208:   GROUND LEVEL
 DATE.        1-SEPT-1984:   RUN DATE
 RUN .                  1:   RUN NUMBER
 DD  .F               550:   DEPTH DRILLER
 DL  .F               544:   DEPTH LOGGER
 BLI .F               544:   BOTTOM LOG INTERVAL
 TLI .F                30:   TOP LOG INTERVAL
 CBL .F                44:   CASING BOTTOM LOGGER
 BS  .IN            7.875:   BIT SIZE
 BSD .F               550:   BIT SIZE AT DEPTH
 DFT .          KCL WATER:   DRILLING FLUID TYPE
 MSS .               TANK:   MUD SAMPLE SOURCE
 RMS .OHMM           .236:   RESISTIVITY MUD SAMPLE
 MST .F                75:   MUD SAMPLE TEMPERATURE
 TCS .HRS               3:   TIME CURCULATED STOPPED
 MRT .F               100:   MAXIMUM RECORDED TEMPERATURE
 LUN .               4082:   LOGGING UNIT NUMBER
 LUL .               ROOS:   LOGGING UNIT LOCATION
 ENGI.             MILLER:   RECORDING ENGINEER
 WITN.            JOHNSON:   WITNESSED BY
 CLNT.            A2DTECH:   CLIENT CODE
 ORIG.       2", 5" PRINT:   ORIGIN OF DATA
 UWI .       490251098400:   UNIQUE WELL ID
 DICO. A2D Technologies, Inc.:   DIGITIZING COMPANY
~OTHER INFORMATION
~A   DEPT      GRD       CALD        DEN       CORR          CNC     PORD         AC        SPR       RILD       RILM       RFOC   
# ...
  142.5000   155.9312     8.3757     2.4329     0.0188     0.1469  -999.2500   102.3202  -999.2500     8.0597     8.2144  -999.2500
  143.0000   154.8785     8.3757     2.4304     0.0287     0.1475  -999.2500   102.5874  -999.2500     7.7575     7.9215  -999.2500
  143.5000   154.9351     8.3757     2.4260     0.0366     0.1497  -999.2500   102.9658  -999.2500     7.4665     7.6390  -999.2500
  144.0000   154.6042     8.3757     2.4148     0.0359     0.1627  -999.2500   103.7912  -999.2500     7.1865     7.3666  -999.2500
  144.5000   153.7656     8.3757     2.4041     0.0314     0.1635  -999.2500   105.0375  -999.2500     6.9170     6.9814  -999.2500
  145.0000   152.8839     8.3757     2.4045     0.0080     0.1625  -999.2500   106.1505  -999.2500     6.7915     7.0413  -999.2500
  145.5000   152.2596     8.3757     2.4106    -0.0071     0.1613  -999.2500   106.4835  -999.2500     6.9077     7.1576  -999.2500
  146.0000   153.3950     8.3758     2.4131     0.0057     0.1607  -999.2500   106.1110  -999.2500     6.9970     7.2758  -999.2500
  146.5000   156.8104     8.3757     2.4105     0.0259     0.1603  -999.2500   105.2499  -999.2500     7.0874     7.3959  -999.2500
  147.0000   157.0426     8.3743     2.4086     0.0179     0.1603  -999.2500   104.3743  -999.2500     7.1790     7.5181  -999.2500
  147.5000   154.2587     8.3730     2.4117     0.0063     0.1593  -999.2500   103.6650  -999.2500     7.2966     7.6536  -999.2500
  148.0000   150.5246     8.3716     2.4156    -0.0030     0.1583  -999.2500   103.2469  -999.2500     7.4723     7.8331  -999.2500
  148.5000   148.1045     8.3703     2.4196     0.0132     0.1523  -999.2500   102.7872  -999.2500     7.6520     8.0353  -999.2500
  149.0000   147.2456     8.3690     2.4237     0.0285     0.1523  -999.2500   102.5614  -999.2500     7.8364     8.2426  -999.2500
  149.5000   149.1499     8.3677     2.4272     0.0123     0.1519  -999.2500   102.2877  -999.2500     8.0262     8.3851  -999.2500
  150.0000   151.7067     8.3664     2.4229    -0.0145     0.1505  -999.2500   102.3084  -999.2500     8.2153     8.2973  -999.2500
  150.5000   152.3577     8.3650     2.4199    -0.0327     0.1491  -999.2500   102.5144  -999.2500     8.3173     8.2606  -999.2500
  151.0000   149.2855     8.3637     2.4290    -0.0043     0.1481  -999.2500   102.7205  -999.2500     8.2368     8.2352  -999.2500
  151.5000   146.6114     8.3624     2.4367     0.0193     0.1471  -999.2500   102.9266  -999.2500     8.1859     8.2101  -999.2500
  152.0000   146.8521     8.3610     2.4337     0.0019     0.1473  -999.2500   103.0544  -999.2500     8.1353     8.1853  -999.2500
  152.5000   149.6700     8.3597     2.4304     0.0159     0.1485  -999.2500   103.1497  -999.2500     8.0850     8.1622  -999.2500
  153.0000   150.4774     8.3584     2.4272     0.0325     0.1507  -999.2500   103.2450  -999.2500     8.0351     8.0519  -999.2500
  153.5000   148.1169     8.3571     2.4239     0.0496     0.1529  -999.2500   103.3404  -999.2500     7.9854     7.9298  -999.2500
  154.0000   144.8937     8.3556     2.4206     0.0459     0.1547  -999.2500   103.4897  -999.2500     7.9402     7.8094  -999.2500
  154.5000   145.7227     8.3499     2.4177     0.0299     0.1551  -999.2500   103.6899  -999.2500     7.7770     7.6909  -999.2500
  155.0000   149.8445     8.3444     2.4194     0.0179     0.1551  -999.2500   103.9940  -999.2500     7.6536     7.5743  -999.2500
  155.5000   152.2095     8.3389     2.4210     0.0092     0.1555  -999.2500   104.3944  -999.2500     7.2265     7.4637  -999.2500
  156.0000   154.6315     8.3366     2.4027     0.0006     0.1575  -999.2500   104.7817  -999.2500     6.8517     7.0727  -999.2500
  156.5000   153.3934     8.3380     2.3777    -0.0052     0.2010  -999.2500   105.6708  -999.2500     6.4853     6.6749  -999.2500
  157.0000   152.1955     8.3393     2.3513    -0.0110     0.2020  -999.2500   106.5794  -999.2500     6.0126     6.2969  -999.2500
  157.5000   151.2079     8.3406     2.3361    -0.0168     0.1894  -999.2500   108.0284  -999.2500     5.5694     5.9408  -999.2500
  158.0000   148.4675     8.3420     2.3340    -0.0217     0.1735  -999.2500   110.0573  -999.2500     5.1076     5.6048  -999.2500
  158.5000   143.6259     8.3433     2.3705    -0.0134     0.1769  -999.2500   112.1693  -999.2500     5.2062     5.4470  -999.2500
  159.0000   143.0517     8.3447     2.3880    -0.0056     0.1766  -999.2500   112.3776  -999.2500     5.3572     5.5257  -999.2500
  159.5000   146.8011     8.3460     2.4002     0.0000     0.1701  -999.2500   111.0167  -999.2500     5.5118     5.8335  -999.2500
  160.0000   150.3783     8.3474     2.3996    -0.0021     0.1695  -999.2500   108.6683  -999.2500     5.7239     6.1384  -999.2500
  160.5000   149.9130     8.3487     2.3967     0.0057     0.1695  -999.2500   106.1838  -999.2500     5.9989     6.4436  -999.2500
  161.0000   147.4224     8.3500     2.3938     0.0164     0.1695  -999.2500   104.9850  -999.2500     6.2887     6.7468  -999.2500
  161.5000   148.3747     8.3514     2.3960     0.0287     0.1691  -999.2500   104.7150  -999.2500     6.5925     7.0636  -999.2500
  162.0000   151.5216     8.3527     2.3986     0.0291     0.1685  -999.2500   104.2335  -999.2500     6.9109     7.3953  -999.2500
  162.5000   156.6446     8.3540     2.3967     0.0099     0.1659  -999.2500   103.6554  -999.2500     7.2448     7.7424  -999.2500
  163.0000   156.5453     8.3554     2.4005    -0.0129     0.1659  -999.2500   103.4870  -999.2500     7.5948     7.9149  -999.2500
  163.5000   154.4262     8.3559     2.4027    -0.0358     0.1655  -999.2500   103.3118  -999.2500     7.7973     7.9860  -999.2500
  164.0000   152.7968     8.3559     2.4015    -0.0394     0.1651  -999.2500   103.1380  -999.2500     7.7956     8.0587  -999.2500
  164.5000   152.8268     8.3559     2.3998    -0.0210     0.1647  -999.2500   102.9639  -999.2500     7.7953     8.1320  -999.2500
  165.0000   152.9262     8.3559     2.4033    -0.0197     0.1639  -999.2500   102.8378  -999.2500     7.9077     8.2061  -999.2500
  165.5000   152.3895     8.3559     2.4137    -0.0129     0.1629  -999.2500   102.7495  -999.2500     7.9863     8.2808  -999.2500
  166.0000   151.5213     8.3559     2.4236     0.0012     0.1449  -999.2500   102.6615  -999.2500     8.0657     8.3561  -999.2500
  166.5000   151.1552     8.3559     2.4337     0.0153     0.1406  -999.2500   102.5673  -999.2500     8.1459     8.4322  -999.2500
  167.0000   154.1085     8.3559     2.4399     0.0294     0.1411  -999.2500   102.3650  -999.2500     8.2268     8.5089  -999.2500
  167.5000   157.1351     8.3559     2.4407     0.0279     0.1437  -999.2500   102.0313  -999.2500     8.3087     8.5864  -999.2500
  168.0000   157.2007     8.3559     2.4379     0.0219     0.1457  -999.2500   101.6976  -999.2500     8.3912     8.6645  -999.2500
  168.5000   156.7212     8.3559     2.4341     0.0097     0.1475  -999.2500   101.4376  -999.2500     8.4747     8.7434  -999.2500
  169.0000   157.4196     8.3559     2.4299    -0.0024     0.1491  -999.2500   101.3011  -999.2500     8.5589     8.8229  -999.2500
  169.5000   159.0819     8.3559     2.4316    -0.0147     0.1489  -999.2500   101.1666  -999.2500     8.6305     8.9032  -999.2500
  170.0000   157.0638     8.3559     2.4516    -0.0275     0.1435  -999.2500   100.9714  -999.2500     8.6553     8.9843  -999.2500
  170.5000   151.4651     8.3559     2.4709    -0.0187     0.1210  -999.2500   100.6616  -999.2500     8.6802     9.0660  -999.2500
  171.0000   147.6407     8.3559     2.4817    -0.0058     0.1230  -999.2500   100.3517  -999.2500     8.7051     9.1141  -999.2500
  171.5000   149.3755     8.3559     2.4496     0.0064     0.1353  -999.2500   100.0419  -999.2500     8.7301     9.1141  -999.2500
  172.0000   150.7184     8.3559     2.4256     0.0117     0.1534  -999.2500    99.7714  -999.2500     8.7551     9.1141  -999.2500
  172.5000   151.3676     8.3546     2.4114     0.0034     0.1571  -999.2500    99.6989  -999.2500     8.7803     9.1141  -999.2500
