~VERSION INFORMATION
 VERS.                2.0:   CWLS LOG ASCII STANDARD - VERSION 2.0
 WRAP.                 NO:   ONE LINE PER DEPTH STEP
~WELL INFORMATION
#MNEM.UNIT      DATA TYPE    INFORMATION
#----------   ------------   ------------------------------
 STRT.F           33.0000:   START DEPTH
 STOP.F         1310.0000:   STOP DEPTH
 STEP.F            0.5000:   STEP LENGTH
 NULL.          -999.2500:   NO VALUE
 COMP. FENIX & SCISSON INC:   COMPANY
 WELL.    NPR-3 #76-14 SX:   WELL
 FLD .        TEAPOT DOME:   FIELD
 LOC .      S14 T38N R78W:   LOCATION
 CNTY.            NATRONA:   COUNTY
 STAT.            WYOMING:   STATE
 CTRY. UNITED STATES OF AMERICA:   COUNTRY
 SRVC.            Unknown:   SERVICE COMPANY
 DATE.        12-APR-1978:   LOGDATE
 API .       490251061200:   API NUMBER
~CURVE INFORMATION
#MNEM.UNIT       API CODE    CURVE DESCRIPTION
#----------   ------------   ------------------------------
 DEPT.F                  :   
 SPR .MV     05 010 01 00:   SPONTANEOUS POTENTIAL FROM RES.
 SN  .OHMM   05 040 16 00:   SHORT NORMAL 16"
 ILD .OHMM   05 120 46 00:   INDUCTION LOG DEEP
 CALD.IN     45 280 60 00:   CALIPER FROM DENSITY LOG
 GRD .GAPI   45 310 01 00:   GAMMA RAY FROM DENSITY LOG
 DPOR.DEC    45 890 12 00:   DENSITY POROSITY SANDSTONE
 CORR.G/C3   45 356 01 00:   DENSITY CORRECTION
 RHOB.G/C3   45 350 01 00:   BULK DENSITY
~PARAMETER INFORMATION
#MNEM.UNIT          VALUE    DESCRIPTION
#----------   ------------   ------------------------------
 PD  .                 GL:   PERMANENT DATUM
 EPD .F              5332:   ELEVATION PERMANENT DATUM
 LMF .                 KB:   LOG MEASURED FROM
 DMF .                 KB:   DRILLING MEASURED FROM
 EKB .F              5336:   KELLING BUSHING
 EGL .F              5332:   GROUND LEVEL
 DATE.          4-12-1978:   RUN DATE
 RUN .                  1:   RUN NUMBER
 DD  .F              1300:   DEPTH DRILLER
 DL  .F              1302:   DEPTH LOGGER
 BLI .F              1298:   BOTTOM LOG INTERVAL
 TLI .F                50:   TOP LOG INTERVAL
 CS  .IN            8.625:   CASING SIZE
 CBD .F                40:   CASING BOTTOM DRILLER
 CBL .F                46:   CASING BOTTOM LOGGER
 BS  .IN            7.875:   BIT SIZE
 BSD .F              1300:   BIT SIZE AT DEPTH
 DFT .                KCL:   DRILLING FLUID TYPE
 DFD .                8.5:   DRILLING FLUID DENSITY
 DFV .                 28:   DRILLING FLUID VISCOSITY
 MSS .            MUD PIT:   MUD SAMPLE SOURCE
 RMS .OHMM           1.45:   RESISTIVITY MUD SAMPLE
 MST .F                50:   MUD SAMPLE TEMPERATURE
 RMF .OHMM           1.25:   RESISTIVITY MUD FILTRATE SAMPLE
 MFST.F                62:   MUD FILTRATE SAMPLE TEMPERATURE
 RMC .OHMM           1.65:   RESISTIVITY MUD CAKE
 MCST.F                61:   MUD CAKE SAMPLE TEMPERATURE
 MFSS.           MEASURED:   MUD FILTRATE SAMPLE SOURCE
 MCSS.           MEASURED:   MUD CAKE SAMPLE SOURCE
 RMB .OHMM            .93:   RESISTIVITY MUD AT BHT
 BHT .F                78:   BOTTOM HOLE TEMPERATURE
 TCS .HRS               6:   TIME CURCULATED STOPPED
 MRT .F                78:   MAXIMUM RECORDED TEMPERATURE
 LUN .               2958:   LOGGING UNIT NUMBER
 LUL .                CAS:   LOGGING UNIT LOCATION
 ENGI.             MILLER:   RECORDING ENGINEER
 WITN.           MCGINLEY:   WITNESSED BY
 CLNT.            A2DTECH:   CLIENT CODE
 ORIG.      2" , 5" PRINT:   ORIGIN OF DATA
 UWI .       490251061200:   UNIQUE WELL ID
 DICO. A2D Technologies, Inc.:   DIGITIZING COMPANY
~OTHER INFORMATION
~A   DEPT      SPR         SN        ILD       CALD         GRD      DPOR       CORR       RHOB   
# ...
  721.5000   -23.6967    12.3064    10.6048     7.9187    43.7574     0.1882     0.0490     2.3335
  722.0000   -23.5173    12.1046     9.8561     7.9146    43.3633     0.1969     0.0540     2.3241
  722.5000   -23.3253    11.6922     9.1602     7.9105    43.5833     0.2056     0.0592     2.3063
  723.0000   -23.1338    10.9855     8.5135     7.9064    43.7853     0.2142     0.0700     2.2885
  723.5000   -22.9425    10.3347     7.9125     7.9023    44.0632     0.2224     0.0899     2.2707
  724.0000   -22.7512     9.3298     7.3539     7.8981    50.2127     0.2360     0.1376     2.2530
  724.5000   -22.5600     8.4470     6.8347     7.8937    57.3934     0.2488     0.1849     2.2354
  725.0000   -22.3686     7.6501     6.3685     7.8946    64.2952     0.2617     0.2319     2.2175
  725.5000   -22.1778     7.0816     6.2232     7.9076    64.5527     0.2745     0.2785     2.1835
  726.0000   -21.9858     7.0165     6.1661     7.9340    64.1417     0.2873     0.3128     2.1503
  726.5000   -21.8780     7.0165     6.1661     7.9753    61.9290     0.3010     0.3161     2.1300
  727.0000   -21.8340     7.0165     6.1661     8.0387    57.1498     0.3010     0.3257     2.1031
  727.5000   -21.7915     7.0165     6.1661     8.3978    52.4763     0.3017     0.3356     2.0746
  728.0000   -21.7492     7.0141     6.1661     9.0611    50.1481     0.2546     0.3420     2.0850
  728.5000   -21.7067     7.0023     6.1661     9.2672    52.0417     0.1280     0.2388     2.3027
  729.0000   -21.6642     6.9906     6.1661     9.0953    53.1040     0.1305     0.1628     2.4202
  729.5000   -21.6217     6.9790     6.1661     8.4188    52.8311     0.1325     0.1460     2.4029
  730.0000   -21.5790     6.9674     6.1661     8.0380    52.5619     0.1301     0.1548     2.4008
  730.5000   -21.5365     6.9558     6.1661     8.0099    54.3811     0.1116     0.1683     2.4188
  731.0000   -21.4989     6.9442     6.1661     8.0093    58.0855     0.0932     0.1671     2.4701
  731.5000   -21.4999     6.9327     6.1661     8.0100    61.3978     0.0855     0.1090     2.5149
  732.0000   -21.5000     6.9211     6.1661     8.0097    61.3332     0.0998     0.0462     2.4829
  732.5000   -21.5000     6.9096     6.1661     7.9926    59.2892     0.1084     0.0314     2.4664
  733.0000   -21.5000     6.8981     6.1661     7.9739    55.1202     0.1096     0.0262     2.4716
  733.5000   -21.5000     6.8866     6.1661     7.9553    52.8322     0.1110     0.0258     2.4656
  734.0000   -21.5000     6.8751     6.1661     7.9367    52.6228     0.1124     0.0262     2.4594
  734.5000   -21.5000     6.8637     6.1661     7.9181    52.4497     0.1124     0.0294     2.4575
  735.0000   -21.5000     6.8523     6.1661     7.8994    55.0128     0.1109     0.0326     2.4626
  735.5000   -21.5000     6.8409     6.1661     7.8808    54.3877     0.1062     0.0358     2.4677
  736.0000   -21.5000     6.8295     6.1661     7.8687    53.1935     0.0993     0.0384     2.4738
  736.5000   -21.5000     6.8181     6.1661     7.9146    52.0089     0.0966     0.0398     2.4852
  737.0000   -21.5000     6.8067     6.1661     7.9689    51.0756     0.0976     0.0412     2.4902
  737.5000   -21.5000     6.7954     6.1661     8.0235    52.8932     0.0987     0.0426     2.4850
  738.0000   -21.5000     6.7842     6.1660     8.0779    55.9817     0.0996     0.0441     2.4799
  738.5000   -21.5000     6.7723     6.1660     8.1329    59.0778     0.0996     0.0455     2.4782
  739.0000   -21.5000     6.7627     6.1661     8.1458    60.9229     0.0982     0.0469     2.4828
  739.5000   -21.5000     6.8635     6.1652     8.1402    60.0398     0.0951     0.0484     2.4834
  740.0000   -21.5000     6.9616     6.2074     8.1341    58.2511     0.0920     0.0498     2.4922
  740.5000   -21.5000     7.0607     6.2398     8.1282    57.2590     0.0916     0.0512     2.5009
  741.0000   -21.5000     7.1612     6.2726     8.1222    58.7386     0.0933     0.0527     2.5000
  741.5000   -21.5000     7.2629     6.3054     8.1164    57.5604     0.0925     0.0541     2.4961
  742.0000   -21.5000     7.3478     6.3385     8.1100    52.0310     0.0915     0.0556     2.4997
  742.5000   -21.5000     7.3478     6.3717     8.0919    47.1812     0.0952     0.0542     2.5034
  743.0000   -21.5000     7.3478     6.4052     8.0725    51.1622     0.0981     0.0519     2.4958
  743.5000   -21.5000     7.3745     6.4387     8.0531    57.8023     0.0984     0.0499     2.4919
  744.0000   -21.5000     7.4368     6.4725     8.0338    64.3021     0.0987     0.0537     2.4890
  744.5000   -21.5000     7.4995     6.5064     8.0145    65.3886     0.0990     0.0578     2.4858
  745.0000   -21.5000     7.5628     6.5406     7.9951    64.3739     0.0994     0.0580     2.4854
  745.5000   -21.5000     7.6267     6.5750     7.9758    62.2826     0.0996     0.0499     2.4955
  746.0000   -21.5000     7.6948     6.6093     7.9564    60.0043     0.0979     0.0362     2.4897
  746.5000   -21.5000     7.6907     6.6385     7.9369    57.7466     0.0959     0.0337     2.4864
  747.0000   -21.5000     7.6851     6.5696     7.9301    54.4532     0.0956     0.0334     2.4928
  747.5000   -21.5000     7.6796     6.4986     7.9297    50.6384     0.0964     0.0332     2.4942
  748.0000   -21.5000     7.6740     6.4284     7.9383    46.8536     0.0995     0.0329     2.4912
  748.5000   -21.5000     7.6684     6.3590     7.9481    45.7974     0.1026     0.0327     2.4880
  749.0000   -21.4998     7.6629     6.2903     7.9579    49.0784     0.1048     0.0324     2.4846
  749.5000   -21.5145     7.6573     6.2766     7.9677    51.7581     0.1052     0.0322     2.4779
  750.0000   -21.5356     7.6518     6.2717     7.9774    53.3159     0.1006     0.0319     2.4741
  750.5000   -21.5571     7.6462     6.2667     7.9877    53.2836     0.0964     0.0331     2.4790
  751.0000   -21.5785     7.6407     6.2617     7.9754    53.2137     0.0931     0.0348     2.4840
  751.5000   -21.5999     7.6352     6.2568     7.9473    53.1479     0.0923     0.0366     2.4882
  752.0000   -21.6213     7.6296     6.2518     7.9190    53.1269     0.0915     0.0383     2.4963
  752.5000   -21.6427     7.6242     6.2469     7.8910    51.8495     0.0863     0.0401     2.4998
  753.0000   -21.6641     7.6242     6.2419     7.8891    51.2720     0.0798     0.0417     2.5102
  753.5000   -21.6854     8.2209     6.2370     7.8928    48.9068     0.0791     0.0388     2.5243
  754.0000   -21.7069     8.6762     6.2320     7.9952    39.4830     0.0877     0.0356     2.5251
  754.5000   -21.7283     8.9193     6.2271     8.1058    30.0467     0.0981     0.0322     2.5145
  755.0000   -21.7496     8.6278     6.2222     8.1984    26.2770     0.1085     0.0393     2.4842
  755.5000   -21.7710     8.2304     6.2172     7.9515    32.3153     0.1162     0.0485     2.4696
  756.0000   -21.7924     7.8512     6.2123     7.8820    43.8212     0.1220     0.0443     2.4581
  756.5000   -21.8139     7.4896     6.2074     8.2001    55.4943     0.1220     0.0519     2.4468
  757.0000   -21.8352     7.2111     6.2025     8.5729    57.5422     0.1158     0.0597     2.4435
  757.5000   -21.8566     7.2115     6.1976     8.6912    58.3469     0.1150     0.0678     2.4680
  758.0000   -21.8780     7.2117     6.1926     8.6653    60.6023     0.1158     0.0807     2.4707
  758.5000   -21.8994     7.2106     6.1877     8.2253    62.5630     0.1166     0.1028     2.4635
  759.0000   -21.9208     7.2094     6.1828     7.7970    62.2153     0.1142     0.1269     2.4566
  759.5000   -21.9422     7.2081     6.1779     7.7429    59.4464     0.1083     0.1551     2.4516
  760.0000   -21.9636     7.2068     6.1730     7.7371    55.1494     0.1040     0.1836     2.4678
  760.5000   -21.9850     7.2055     6.1682     7.7298    52.2941     0.1004     0.1980     2.4759
  761.0000   -22.0064     7.2042     6.1646     7.7219    54.1460     0.0913     0.2017     2.4777
  761.5000   -22.0278     7.2030     6.1620     7.7139    56.0092     0.0847     0.2011     2.4889
