~VERSION INFORMATION
 VERS.                2.0:   CWLS LOG ASCII STANDARD - VERSION 2.0
 WRAP.                 NO:   ONE LINE PER DEPTH STEP
~WELL INFORMATION
#MNEM.UNIT      DATA TYPE    INFORMATION
#----------   ------------   ------------------------------
 STRT.F            0.0000:   START DEPTH
 STOP.F          700.0000:   STOP DEPTH
 STEP.F            0.5000:   STEP LENGTH
 NULL.          -999.2500:   NO VALUE
 COMP. FENIX & SCISSON INC:   COMPANY
 WELL. 37-11 SX 11 WP #11-11:   WELL
 FLD .             TEAPOT:   FIELD
 LOC .      S11 T38N R78W:   LOCATION
 CNTY.            NATRONA:   COUNTY
 STAT.            WYOMING:   STATE
 CTRY. UNITED STATES OF AMERICA:   COUNTRY
 SRVC.      Dresser Atlas:   SERVICE COMPANY
 DATE.        21-AUG-1980:   LOGDATE
 API .       490251084200:   API NUMBER
~CURVE INFORMATION
#MNEM.UNIT       API CODE    CURVE DESCRIPTION
#----------   ------------   ------------------------------
 DEPT.F                  :   
 SPR .MV     07 010 01 00:   SPONTANEOUS POTENTIAL
 RFOC.OHMM   07 220 04 00:   RESISTIVITY FOCUSED LOG
 RILD.OHMM   07 120 46 00:   INDUCTION LOG DEEP RESISTIVITY
 RILM.OHMM   07 120 44 00:   INDUCTION LOG MEDIUM RESISTIVITY
 GRD .GAPI   45 310 01 00:   GAMMA RAY FROM DENSITY LOG
 CALD.IN     45 280 60 00:   CALIPER
 RHOB.G/C3   45 350 01 00:   BULK DENSITY
 CORR.G/C3   45 356 01 00:   DENSITY CORRECTION
 CNC .DEC    42 890 03 00:   NEUTRON POROSITY SANDSTONE
 PORD.DEC    45 890 12 00:   POROSITY DENSITY SANDSTONE
~PARAMETER INFORMATION
#MNEM.UNIT          VALUE    DESCRIPTION
#----------   ------------   ------------------------------
 PD  .                 GL:   PERMANENT DATUM
 EPD .F              5194:   ELEVATION PERMANENT DATUM
 LMF .                 KB:   LOG MEASURED FROM
 DAPD.F                 5:   FEET ABOVE PERMANENT DATUM
 DMF .                 KB:   DRILLING MEASURED FROM
 EKB .F              5199:   KELLING BUSHING
 EDF .F              5198:   DRILLING FLOOR
 EGL .F              5194:   GROUND LEVEL
 DATE.            8-21-80:   RUN DATE
 RUN .                  1:   RUN NUMBER
 DD  .F               695:   DEPTH DRILLER
 DL  .F               700:   DEPTH LOGGER
 BLI .F               699:   BOTTOM LOG INTERVAL
 BS  .IN            7.875:   BIT SIZE
 BSD .F               695:   BIT SIZE AT DEPTH
 DFT .      DISPERSED KCL:   DRILLING FLUID TYPE
 DFD .               2.68:   DRILLING FLUID DENSITY
 DFV .                 50:   DRILLING FLUID VISCOSITY
 DFPH.                 14:   DRILLING FLUID PH
 DFL .                 18:   DRILLING FLUID LOSS
 MSS .           FLOWLINE:   MUD SAMPLE SOURCE
 RMS .OHMM           .256:   RESISTIVITY MUD SAMPLE
 MST .F                70:   MUD SAMPLE TEMPERATURE
 RMF .OHMM           .393:   RESISTIVITY MUD FILTRATE SAMPLE
 MFST.F                66:   MUD FILTRATE SAMPLE TEMPERATURE
 RMC .OHMM           .858:   RESISTIVITY MUD CAKE
 MCST.F                66:   MUD CAKE SAMPLE TEMPERATURE
 MFSS.               MEAS:   MUD FILTRATE SAMPLE SOURCE
 MCSS.               MEAS:   MUD CAKE SAMPLE SOURCE
 RMB .OHMM            .53:   RESISTIVITY MUD AT BHT
 BHT .F                99:   BOTTOM HOLE TEMPERATURE
 TCS .HRS               3:   TIME CURCULATED STOPPED
 MRT .F                99:   MAXIMUM RECORDED TEMPERATURE
 LUN .               9369:   LOGGING UNIT NUMBER
 LUL .       ROCK SPRINGS:   LOGGING UNIT LOCATION
 ENGI.            PAULSON:   RECORDING ENGINEER
 WITN.              SCOTT:   WITNESSED BY
 CLNT.            A2DTECH:   CLIENT CODE
 ORIG.       2", 5" PRINT:   ORIGIN OF DATA
 UWI .       490251084200:   UNIQUE WELL ID
 DICO. A2D Technologies, Inc.:   DIGITIZING COMPANY
~OTHER INFORMATION
~A    DEPT     SPR       RFOC       RILD       RILM        GRD       CALD       RHOB       CORR        CNC         PORD 
# ...
  670.0000   -34.9080    11.7472    10.2804    11.0465    98.4751     7.8448     2.5559     0.0507     0.2278     0.1182
  670.5000   -35.3750    11.9978    10.3605    10.8022    99.1084     7.8448     2.5306     0.0433     0.2334     0.1138
  671.0000   -35.8494    12.1201    10.4480    10.6442   101.5461     7.8448     2.5033     0.0359     0.2321     0.1003
  671.5000   -35.7416    11.8894    10.4751    10.8571   103.2366     7.8448     2.4889     0.0282     0.2315     0.0904
  672.0000   -35.5878    11.6411    10.5035    11.0519   100.7074     7.8448     2.4818     0.0213     0.2348     0.0830
  672.5000   -35.4357    11.4641    10.5323    11.2502    94.4662     7.8448     2.4904     0.0307     0.2367     0.0830
  673.0000   -35.2834    11.7848    10.5613    11.3582    94.4649     7.8448     2.5089     0.0497     0.2380     0.0888
  673.5000   -35.3355    12.0428    10.5903    11.3582    98.2395     7.8448     2.5274     0.0612     0.2397     0.0831
  674.0000   -35.4154    12.3110    10.6194    11.3582   100.0321     7.8448     2.5366     0.0677     0.2434     0.0734
  674.5000   -35.2970    12.5847    10.6486    11.3582   101.5085     7.8448     2.5347     0.0652     0.2471     0.0761
  675.0000   -34.8809    12.4264    10.6779    11.3706   103.0194     7.8448     2.5289     0.0581     0.2481     0.0795
  675.5000   -34.4671    12.2359    10.7071    11.4319   102.7919     7.8448     2.5367     0.0644     0.2491     0.0806
  676.0000   -34.0526    12.0506    10.7434    11.4935   101.2196     7.8448     2.5493     0.0678     0.2483     0.0777
  676.5000   -33.8505    11.8974    10.6806    11.5706    95.6901     7.8447     2.5559     0.0675     0.2369     0.0733
  677.0000   -33.9987    12.0431    10.5995    11.5295    92.1783     7.8441     2.5484     0.0585     0.2237     0.0712
  677.5000   -34.1679    12.2391    10.5190    11.4752    92.0130     7.8426     2.5420     0.0512     0.2310     0.0705
  678.0000   -34.3338    12.4382    10.4392    11.4211    97.3661     7.8411     2.5477     0.0487     0.2425     0.0726
  678.5000   -34.4974    12.5782    10.3599    11.3672   104.0685     7.8396     2.5557     0.0592     0.2467     0.0789
  679.0000   -34.6472    12.5094    10.4529    11.3133   104.9059     7.8381     2.5595     0.0610     0.2362     0.0902
  679.5000   -34.7992    12.4333    10.5660    11.2616   101.6374     7.8366     2.5602     0.0625     0.2396     0.0960
  680.0000   -34.9528    12.3578    10.6803    11.1175    97.6527     7.8351     2.5603     0.0642     0.2414     0.0818
  680.5000   -35.0385    12.2826    10.7434    10.9652    95.5733     7.8336     2.5487     0.0729     0.2332     0.0544
  681.0000   -34.4105    12.2080    10.4679    10.8143    99.1632     7.8321     2.5334     0.0697     0.2297     0.0528
  681.5000   -33.7783    12.1338    10.2526    10.6655   104.8652     7.8306     2.5171     0.0657     0.2434     0.0686
  682.0000   -33.1401    11.9209    10.0417    10.5187   108.1112     7.8291     2.5234     0.0661     0.2589     0.0882
  682.5000   -33.0279    11.6811     9.8350    10.3739   110.7166     7.8275     2.5748     0.0737     0.2672     0.1012
  683.0000   -33.0272    11.4461     9.6323    10.2565   110.8571     7.8260     2.5913     0.0727     0.2637     0.1016
  683.5000   -33.0287    11.2534     9.4347    10.2567   110.3034     7.8248     2.5779     0.0675     0.2531     0.0871
  684.0000   -33.0023    11.3925     9.3348    10.2567   109.3030     7.8287     2.5421     0.0524     0.2525     0.0655
  684.5000   -32.8168    11.5709     9.3111    10.2574   107.9886     7.8328     2.5189     0.0373     0.2498     0.0453
  685.0000   -32.6317    11.5013     9.2875    10.2568   106.7102     7.8368     2.5067     0.0306     0.2448     0.0424
  685.5000   -32.4470    11.3706     9.2617     9.9005   105.4897     7.8408     2.5151     0.0380     0.2446     0.0467
  686.0000   -32.2624    11.2534     9.1664     9.6399   104.3267     7.8446     2.5542     0.0519     0.2535     0.0495
  686.5000   -32.0778    11.2529     9.0622     9.4768  -999.2500  -999.2500     2.5981     0.0741     0.2580     0.0621
  687.0000   -31.8932    11.2563     8.9592     9.3294  -999.2500  -999.2500     2.6105     0.0842     0.2506     0.0927
  687.5000   -31.7083    10.9459     8.8777     9.1835  -999.2500  -999.2500     2.6060     0.0851     0.2407     0.1073
  688.0000   -31.5463    10.6623     8.8073     9.0398  -999.2500  -999.2500     2.6004     0.0856     0.2350     0.1008
  688.5000   -31.4127    10.4486     8.7377     8.8984  -999.2500  -999.2500     2.5858     0.0779  -999.2500     0.0849
  689.0000   -31.2801    10.4486     8.6688     8.7603  -999.2500  -999.2500     2.5467     0.0598  -999.2500     0.0690
  689.5000   -31.1983    10.4486     8.5993     8.6547  -999.2500  -999.2500     2.5075     0.0413  -999.2500     0.0653
  690.0000   -31.1993    10.5572     8.4208     8.5512  -999.2500  -999.2500     2.5009     0.0395  -999.2500     0.0768
  690.5000  -999.2500    10.7445     8.2450     8.4489  -999.2500  -999.2500     2.5260     0.0523  -999.2500     0.0786
  691.0000  -999.2500    10.9445     8.1338     8.3633  -999.2500  -999.2500     2.5525     0.0651  -999.2500     0.0724
  691.5000  -999.2500    11.0465     8.4038     8.6228  -999.2500  -999.2500     2.5688     0.0742  -999.2500     0.0671
  692.0000  -999.2500    11.1495     8.6086     8.8541  -999.2500  -999.2500     2.5567     0.0627  -999.2500     0.0619
  692.5000  -999.2500    10.9504     8.8182     9.0917  -999.2500  -999.2500     2.5471     0.0492  -999.2500     0.0615
  693.0000  -999.2500    10.7767     8.9270     9.2617  -999.2500  -999.2500     2.5539     0.0536  -999.2500     0.0699
  693.5000  -999.2500    10.6054     8.8490     9.2130  -999.2500  -999.2500     2.5637     0.0606  -999.2500     0.0815
  694.0000  -999.2500    10.4481     8.7912     9.1430  -999.2500  -999.2500     2.5734     0.0678  -999.2500     0.0859
  694.5000  -999.2500    10.3849     8.7340     9.0734  -999.2500  -999.2500     2.5763     0.0620  -999.2500     0.0648
  695.0000  -999.2500    10.3257     8.6795     9.0076  -999.2500  -999.2500     2.5686     0.0509  -999.2500     0.0549
  695.5000  -999.2500    10.2565     8.7603     9.0075  -999.2500  -999.2500     2.5411     0.0410  -999.2500     0.0649
  696.0000  -999.2500    10.3036     8.7041     9.0075  -999.2500  -999.2500     2.5363     0.0383  -999.2500     0.0768
  696.5000  -999.2500    10.3799     8.5739     8.9501  -999.2500  -999.2500     2.5618     0.0655  -999.2500     0.0782
  697.0000  -999.2500    10.4567     8.5190     8.8561  -999.2500  -999.2500     2.5856     0.0880  -999.2500     0.0664
  697.5000  -999.2500    10.5341     8.5199     8.7603  -999.2500  -999.2500     2.5848     0.0752  -999.2500     0.0628
  698.0000  -999.2500    10.6121     8.5199     8.7603  -999.2500  -999.2500     2.5502     0.0488  -999.2500     0.0575
  698.5000  -999.2500    10.6913     8.5199     8.7603  -999.2500  -999.2500     2.5572     0.0435  -999.2500     0.0497
  699.0000  -999.2500    10.7434     8.5199     8.7603  -999.2500  -999.2500     2.5676     0.0435  -999.2500     0.0487
  699.5000  -999.2500  -999.2500     8.5199     8.7603  -999.2500  -999.2500  -999.2500  -999.2500  -999.2500     0.0588
  700.0000  -999.2500  -999.2500     8.5199     8.7603  -999.2500  -999.2500  -999.2500  -999.2500  -999.2500     0.0588
