~VERSION INFORMATION
 VERS.                2.0:   CWLS LOG ASCII STANDARD - VERSION 2.0
 WRAP.                 NO:   ONE LINE PER DEPTH STEP
~WELL INFORMATION
#MNEM.UNIT      DATA TYPE    INFORMATION
#----------   ------------   ------------------------------
 STRT.F          550.0000:   START DEPTH
 STOP.F         2078.5000:   STOP DEPTH
 STEP.F            0.5000:   STEP LENGTH
 NULL.          -999.2500:   NO VALUE
 COMP. BROWN JOHN E&C INC:   COMPANY
 WELL. 58-61 STX-10 #58-10:   WELL
 FLD .             TEAPOT:   FIELD
 LOC .      S10 T38N R78W:   LOCATION
 CNTY.            NATRONA:   COUNTY
 STAT.            WYOMING:   STATE
 CTRY. UNITED STATES OF AMERICA:   COUNTRY
 SRVC.            Unknown:   SERVICE COMPANY
 DATE.        07-SEP-1991:   LOGDATE
 API .       490251108000:   API NUMBER
~CURVE INFORMATION
#MNEM.UNIT       API CODE    CURVE DESCRIPTION
#----------   ------------   ------------------------------
 DEPT.F                  :   
 ROP .MIN/FT 91 810 01 00:   RAT OF DRILLING PENETRATION
 TGAS.UNITS  91 830 01 00:   TOTAL GAS FROM HOTWIRE
~PARAMETER INFORMATION
#MNEM.UNIT          VALUE    DESCRIPTION
#----------   ------------   ------------------------------
 EKB .F              5216:   KELLING BUSHING
 EGL .F              5206:   GROUND LEVEL
 DATE.             9-7-91:   RUN DATE
 DD  .F              2079:   DEPTH DRILLER
 TCS .HRS            1815:   TIME CURCULATED STOPPED
 TLAB.HRS            1930:   TIME LOGGER AT BOTTOM
 ENGI.         HUSK/TOWER:   RECORDING ENGINEER
 WITN.             HENDRY:   WITNESSED BY
 CLNT.            A2DTECH:   CLIENT CODE
 ORIG.           5" PRINT:   ORIGIN OF DATA
 UWI .       490251108000:   UNIQUE WELL ID
 DICO. A2D Technologies, Inc.:   DIGITIZING COMPANY
~OTHER INFORMATION
~A   DEPT        ROP       TGAS 
# ...
  793.0000     0.2672    18.4668
  793.5000     0.2676    18.2950
  794.0000     0.2680    18.1231
  794.5000     0.2684    17.9513
  795.0000     0.2687    17.7773
  795.5000     0.2691    17.6009
  796.0000     0.2695    17.4627
  796.5000     0.2698    18.1804
  797.0000     0.2702    19.1648
  797.5000     0.2706    19.1552
  798.0000     0.2710    19.4574
  798.5000     0.2713    30.5885
  799.0000     0.2717    38.3546
  799.5000     0.2721    55.4736
  800.0000     0.2725    79.9744
  800.5000     0.2728    67.3809
  801.0000     0.2732    29.2775
  801.5000     0.2736    23.5800
  802.0000     0.2740    22.3430
  802.5000     0.2743    21.3183
  803.0000     0.2747    20.1841
  803.5000     0.2751    30.5312
  804.0000     0.2754    44.7836
  804.5000     0.2758    49.6095
  805.0000     0.2762    50.5429
  805.5000     0.2766    51.4060
  806.0000     0.2770    52.2833
  806.5000     0.2773    53.1579
  807.0000     0.2777    53.7444
  807.5000     0.2781    53.8070
  808.0000     0.2783    53.9369
  808.5000     0.2783    54.0653
  809.0000     0.2784    54.1942
  809.5000     0.2785    54.3230
  810.0000     0.2785    54.4517
  810.5000     0.2786    54.5805
  811.0000     0.2786    54.7093
  811.5000     0.2787    54.8384
  812.0000     0.2787    54.9696
  812.5000     0.2788    54.9930
  813.0000     0.2788    54.9933
  813.5000     0.2789    54.9931
  814.0000     0.2790    54.9930
  814.5000     0.2790    54.9930
  815.0000     0.2791    54.9930
  815.5000     0.2791    54.9930
  816.0000     0.2792    54.9929
  816.5000     0.2792    54.9899
  817.0000     0.2793    54.9672
  817.5000     0.2794    55.7798
  818.0000     0.2794    56.9774
  818.5000     0.2795    57.5061
  819.0000     0.2795    59.9862
  819.5000     0.2796   225.0000
  820.0000     0.2797   223.9513
  820.5000     0.2797   129.6481
  821.0000     0.2798    92.3407
  821.5000     0.2798    90.3577
  822.0000     0.2799    88.8455
  822.5000     0.2799    89.2577
  823.0000     0.2800    89.9528
  823.5000     0.2801    90.6415
  824.0000     0.2801    91.3321
  824.5000     0.2802    92.0244
  825.0000     0.2802    92.7144
  825.5000     0.2803    93.3492
  826.0000     0.2803    93.3343
  826.5000     0.2804    93.3760
  827.0000     0.2805    93.4257
  827.5000     0.2805    93.4755
  828.0000     0.2806    93.5252
  828.5000     0.2806    93.5749
  829.0000     0.2807    93.6246
  829.5000     0.2808    93.6742
  830.0000     0.2808    93.7239
  830.5000     0.2809    93.7736
  831.0000     0.2809    93.8233
  831.5000     0.2810    93.8730
  832.0000     0.2810    93.9227
  832.5000     0.2811    93.9724
  833.0000     0.2812    94.0220
  833.5000     0.2812    94.0717
  834.0000     0.2813    94.1214
  834.5000     0.2813    94.1711
  835.0000     0.2814    94.2208
  835.5000     0.2814    94.2705
  836.0000     0.2815    94.3202
  836.5000     0.2816    94.3699
  837.0000     0.2816    94.4195
  837.5000     0.2817    94.4692
  838.0000     0.2817    94.5224
  838.5000     0.2818    94.6275
  839.0000     0.2819    95.0271
  839.5000     0.2819    77.6665
  840.0000     0.2820    56.8374
  840.5000     0.2820    35.7867
  841.0000     0.2821    30.4188
  841.5000     0.2821    27.6203
  842.0000     0.2822    26.0563
  842.5000     0.2822    26.0376
  843.0000     0.2823    25.9963
  843.5000     0.2824    25.9597
  844.0000     0.2824    25.9217
  844.5000     0.2825    25.8838
  845.0000     0.2825    25.8459
  845.5000     0.2826    25.8079
  846.0000     0.2826    25.7700
  846.5000     0.2827    25.7321
  847.0000     0.2828    25.6941
  847.5000     0.2828    25.6562
  848.0000     0.2829    25.6183
  848.5000     0.2829    25.5803
  849.0000     0.2830    25.5424
  849.5000     0.2831    25.5045
  850.0000     0.2831    25.4665
  850.5000     0.2832    25.4286
  851.0000     0.2832    25.3906
  851.5000     0.2833    25.3527
  852.0000     0.2833    25.3148
  852.5000     0.2834    25.2768
  853.0000     0.2835    25.2389
  853.5000     0.2835    25.2010
  854.0000     0.2836    25.1630
  854.5000     0.2836    25.1251
  855.0000     0.2837    25.0872
  855.5000     0.2837    25.0492
  856.0000     0.2838    25.0113
  856.5000     0.2839    24.9734
  857.0000     0.2839    24.9354
  857.5000     0.2840    24.8833
  858.0000     0.2840    24.8158
  858.5000     0.2841    25.1585
  859.0000     0.2842    32.4261
  859.5000     0.2842    42.6582
  860.0000     0.2843    50.0443
  860.5000     0.2843    42.1049
  861.0000     0.2844    28.6680
  861.5000     0.2844    26.4160
  862.0000     0.2845    23.9428
  862.5000     0.2846    21.9298
  863.0000     0.2846    22.2929
  863.5000     0.2847    22.2448
  864.0000     0.2847    22.1774
  864.5000     0.2848    22.1126
  865.0000     0.2848    22.0485
  865.5000     0.2849    21.9844
  866.0000     0.2850    21.9202
  866.5000     0.2850    21.8562
  867.0000     0.2851    21.7925
  867.5000     0.2851    21.7280
  868.0000     0.2852    21.6292
  868.5000     0.2853    21.4135
  869.0000     0.2853    21.2056
  869.5000     0.2854    20.9981
  870.0000     0.2854    20.7906
  870.5000     0.2855    20.5831
  871.0000     0.2855    20.3756
  871.5000     0.2856    20.1681
  872.0000     0.2857    19.9605
  872.5000     0.2857    19.7530
  873.0000     0.2858    19.5455
  873.5000     0.2858    19.3380
  874.0000     0.2859    19.1304
  874.5000     0.2859    18.9229
  875.0000     0.2860    18.7154
  875.5000     0.2860    18.5079
  876.0000     0.2861    18.3004
  876.5000     0.2862    18.0928
  877.0000     0.2862    17.8853
  877.5000     0.2863    17.6770
  878.0000     0.2863    17.4320
  878.5000     0.2864    17.1096
  879.0000     0.2865    19.3489
  879.5000     0.2865    42.2970
  880.0000     0.2866    44.4458
  880.5000     0.2866    22.5952
  881.0000     0.2867    18.8931
  881.5000     0.2867    17.7273
  882.0000     0.2868    16.6162
  882.5000     0.2869    16.5631
  883.0000     0.2869    16.4864
  883.5000     0.2870    16.4139
  884.0000     0.2870    16.3408
  884.5000     0.2871    16.2677
  885.0000     0.2871    16.1946
  885.5000     0.2872    16.1215
  886.0000     0.2873    16.0485
  886.5000     0.2873    15.9754
  887.0000     0.2874    15.9023
  887.5000     0.2874    15.8292
  888.0000     0.2875    15.7561
  888.5000     0.2876    15.6831
  889.0000     0.2876    15.6100
  889.5000     0.2877    15.5367
  890.0000     0.2877    15.4651
  890.5000     0.2878    15.4051
  891.0000     0.2878    15.0957
  891.5000     0.2879    14.7594
  892.0000     0.2880    14.4217
  892.5000     0.2880    14.0850
  893.0000     0.2881    13.7483
  893.5000     0.2881    13.4116
  894.0000     0.2882    13.0749
  894.5000     0.2882    12.7382
  895.0000     0.2883    12.4016
  895.5000     0.2884    12.0649
  896.0000     0.2884    11.7106
  896.5000     0.2885    11.7460
  897.0000     0.2885    11.9053
  897.5000     0.2886    12.0605
  898.0000     0.2887    12.2699
  898.5000     0.2887    12.9175
  899.0000     0.2888    18.3859
  899.5000     0.2888    37.7382
  900.0000     0.2889    41.9566
  900.5000     0.2889    32.4611
  901.0000     0.2890    22.2958
  901.5000     0.2891    19.7766
  902.0000     0.2891    17.5422
  902.5000     0.2892    16.8474
  903.0000     0.2892    16.3688
  903.5000     0.2893    15.9777
  904.0000     0.2893    15.8081
  904.5000     0.2894    15.6387
  905.0000     0.2895    15.4694
  905.5000     0.2895    15.2999
  906.0000     0.2896    15.1303
  906.5000     0.2896    14.9608
  907.0000     0.2897    14.7913
  907.5000     0.2897    14.6218
  908.0000     0.2898    14.4522
  908.5000     0.2899    14.2827
  909.0000     0.2899    14.1132
  909.5000     0.2900    13.9438
  910.0000     0.2900    13.7742
  910.5000     0.2901    13.6026
  911.0000     0.2901    13.3698
  911.5000     0.2902    13.0549
  912.0000     0.2903    12.7422
  912.5000     0.2903    12.4294
  913.0000     0.2904    12.2533
  913.5000     0.2904    12.1912
  914.0000     0.2905    12.0441
