~VERSION INFORMATION
 VERS.                2.0:   CWLS LOG ASCII STANDARD - VERSION 2.0
 WRAP.                 NO:   ONE LINE PER DEPTH STEP
~WELL INFORMATION
#MNEM.UNIT      DATA TYPE    INFORMATION
#----------   ------------   ------------------------------
 STRT.F          700.0000:   START DEPTH
 STOP.F         2111.0000:   STOP DEPTH
 STEP.F            0.5000:   STEP LENGTH
 NULL.          -999.2500:   NO VALUE
 COMP. FENIX & SCISSON INC:   COMPANY
 WELL.    35 SAX 34 #3-34:   WELL
 FLD .             TEAPOT:   FIELD
 LOC .      S34 T39N R78W:   LOCATION
 CNTY.            NATRONA:   COUNTY
 STAT.            WYOMING:   STATE
 CTRY. UNITED STATES OF AMERICA:   COUNTRY
 SRVC.            Unknown:   SERVICE COMPANY
 DATE.        29-MAY-1978:   LOGDATE
 API .       490251061700:   API NUMBER
~CURVE INFORMATION
#MNEM.UNIT       API CODE    CURVE DESCRIPTION
#----------   ------------   ------------------------------
 DEPT.F                  :   
 CALD.IN     45 280 60 00:   CALIPER FROM DENSITY LOG
 GRD .GAPI   45 310 01 00:   GAMMA RAY FROM DENSITY LOG
 RHOB.G/C3   45 350 01 00:   BULK DENSITY
 DPHI.DEC    45 890 00 00:   DENSITY POROSITY
 CORR.G/C3   45 356 01 00:   DENSITY CORRECTION
~PARAMETER INFORMATION
#MNEM.UNIT          VALUE    DESCRIPTION
#----------   ------------   ------------------------------
 PD  .                 GL:   PERMANENT DATUM
 EPD .F              5105:   ELEVATION PERMANENT DATUM
 LMF .                 KB:   LOG MEASURED FROM
 DAPD.F                10:   FEET ABOVE PERMANENT DATUM
 DMF .                 KB:   DRILLING MEASURED FROM
 EKB .F              5115:   KELLING BUSHING
 EGL .F              5105:   GROUND LEVEL
 DATE.          5-29-1978:   RUN DATE
 RUN .                  1:   RUN NUMBER
 DD  .F              2111:   DEPTH DRILLER
 DL  .F              2118:   DEPTH LOGGER
 BLI .F              2110:   BOTTOM LOG INTERVAL
 TLI .F               720:   TOP LOG INTERVAL
 CS  .IN            9.625:   CASING SIZE
 CBD .F               711:   CASING BOTTOM DRILLER
 CBL .F               721:   CASING BOTTOM LOGGER
 BS  .IN             8.75:   BIT SIZE
 BSD .F              2111:   BIT SIZE AT DEPTH
 DFT .                OIL:   DRILLING FLUID TYPE
 TCS .HRS               1:   TIME CURCULATED STOPPED
 LUN .               2958:   LOGGING UNIT NUMBER
 LUL .               CASP:   LOGGING UNIT LOCATION
 ENGI.             MILLER:   RECORDING ENGINEER
 WITN.           MCGINLEY:   WITNESSED BY
 CLNT.            A2DTECH:   CLIENT CODE
 ORIG.           5" PRINT:   ORIGIN OF DATA
 UWI .       490251061700:   UNIQUE WELL ID
 DICO. A2D Technologies, Inc.:   DIGITIZING COMPANY
~OTHER INFORMATION
~A   DEPT     CALD         GRD      RHOB       DPHI       CORR   
# ...
  761.0000     9.6247    63.9362     2.3186     0.1477     0.2736
  761.5000     9.6325    61.8791     2.3212     0.1424     0.2647
  762.0000     9.6402    59.2692     2.3239     0.1401     0.2654
  762.5000     9.6480    56.9180     2.3256     0.1488     0.2671
  763.0000     9.6447    56.6099     2.3225     0.1525     0.2594
  763.5000     9.6328    56.2607     2.3176     0.1446     0.2539
  764.0000     9.6208    56.1166     2.3156     0.1292     0.2565
  764.5000     9.6088    56.9614     2.3290     0.1137     0.2589
  765.0000     9.5969    58.8805     2.3502     0.1124     0.2616
  765.5000     9.5849    60.1804     2.3712     0.1147     0.2474
  766.0000     9.5729    60.1527     2.3735     0.1150     0.2313
  766.5000     9.5609    59.9794     2.3683     0.1161     0.2152
  767.0000     9.5532    59.8208     2.3673     0.1190     0.2082
  767.5000     9.5617    60.0766     2.3662     0.1230     0.2024
  768.0000     9.5698    61.6296     2.3617     0.1248     0.1964
  768.5000     9.5779    63.1851     2.3569     0.1245     0.1945
  769.0000     9.5858    64.6003     2.3557     0.1198     0.1959
  769.5000     9.5924    64.8607     2.3590     0.1193     0.1974
  770.0000     9.6044    65.0875     2.3636     0.1217     0.1990
  770.5000     9.6164    64.7171     2.3622     0.1247     0.2005
  771.0000     9.6287    62.3480     2.3593     0.1236     0.2020
  771.5000     9.6292    59.9421     2.3563     0.1197     0.2037
  772.0000     9.6261    58.6530     2.3596     0.1170     0.2116
  772.5000     9.6229    60.0710     2.3646     0.1131     0.2200
  773.0000     9.6198    61.6275     2.3696     0.1083     0.2239
  773.5000     9.6167    63.1465     2.3747     0.1062     0.2248
  774.0000     9.6133    62.7854     2.3797     0.1045     0.2256
  774.5000     9.5934    61.5852     2.3843     0.0982     0.2287
  775.0000     9.5451    60.4479     2.3869     0.0994     0.2376
  775.5000     9.4971    60.3665     2.3901     0.1078     0.2472
  776.0000     9.4494    62.0605     2.3939     0.1204     0.2457
  776.5000     9.4190    63.1131     2.3800     0.1277     0.2438
  777.0000     9.4590    63.6813     2.3632     0.1059     0.2498
  777.5000     9.4650    64.0040     2.3564     0.0978     0.2713
  778.0000     9.4548    64.2197     2.3832     0.0900     0.2861
  778.5000     9.4440    64.2037     2.4002     0.0807     0.2834
  779.0000     9.4331    64.2658     2.4103     0.0949     0.2743
  779.5000     9.4462    64.3256     2.4197     0.1145     0.2641
  780.0000     9.4621    64.3860     2.4022     0.1251     0.2492
  780.5000     9.4781    64.5046     2.3806     0.1329     0.2421
  781.0000     9.4910    64.6068     2.3585     0.1249     0.2575
  781.5000     9.4786    64.4558     2.3529     0.1110     0.2727
  782.0000     9.4664    63.3060     2.3612     0.1042     0.2852
  782.5000     9.4542    62.1631     2.3710     0.1042     0.2811
  783.0000     9.4422    61.6253     2.3806     0.1071     0.2656
  783.5000     9.4398    63.5529     2.3838     0.1154     0.2509
  784.0000     9.4909    65.8491     2.3818     0.1245     0.2363
  784.5000     9.5413    66.8597     2.3709     0.1253     0.2211
  785.0000     9.5920    67.0153     2.3590     0.1258     0.2168
  785.5000     9.6139    67.1531     2.3506     0.1258     0.2156
  786.0000     9.6210    67.2902     2.3506     0.1257     0.2209
  786.5000     9.6279    67.4290     2.3504     0.1264     0.2283
  787.0000     9.6443    67.5677     2.3502     0.1281     0.2359
  787.5000     9.6741    67.6898     2.3500     0.1290     0.2375
  788.0000     9.7036    67.7577     2.3498     0.1300     0.2376
  788.5000     9.7309    67.0620     2.3472     0.1361     0.2375
  789.0000     9.7201    66.3625     2.3438     0.1385     0.2375
  789.5000     9.7038    65.6767     2.3373     0.1409     0.2375
  790.0000     9.6875    65.5288     2.3309     0.1433     0.2376
  790.5000     9.6712    65.4473     2.3260     0.1476     0.2358
  791.0000     9.6548    64.9877     2.3238     0.1521     0.2336
  791.5000     9.6384    63.6163     2.3217     0.1453     0.2319
  792.0000     9.6225    62.2615     2.3195     0.1507     0.2415
  792.5000     9.6199    62.8671     2.3173     0.1541     0.2517
  793.0000     9.6455    64.2999     2.3151     0.1532     0.2554
  793.5000     9.6706    65.3467     2.3138     0.1521     0.2551
  794.0000     9.6908    65.5991     2.3141     0.1473     0.2546
  794.5000     9.6843    65.6576     2.3178     0.1427     0.2541
  795.0000     9.6783    67.7036     2.3238     0.1380     0.2533
  795.5000     9.6719    69.3877     2.3297     0.1334     0.2480
  796.0000     9.6868    67.4690     2.3357     0.1289     0.2425
  796.5000     9.7060    66.4906     2.3416     0.1295     0.2376
  797.0000     9.7252    65.5791     2.3461     0.1302     0.2376
  797.5000     9.7443    64.4140     2.3468     0.1309     0.2402
  798.0000     9.7366    64.2818     2.3475     0.1298     0.2454
  798.5000     9.7047    64.5098     2.3455     0.1291     0.2431
  799.0000     9.6730    65.8994     2.3436     0.1313     0.2409
  799.5000     9.6407    66.6027     2.3418     0.1334     0.2386
  800.0000     9.6375    65.9684     2.3399     0.1353     0.2364
  800.5000     9.6456    65.2397     2.3381     0.1340     0.2340
  801.0000     9.6540    65.8220     2.3375     0.1307     0.2399
  801.5000     9.6624    66.3997     2.3416     0.1303     0.2474
  802.0000     9.6708    66.9634     2.3467     0.1333     0.2457
  802.5000     9.6791    64.5094     2.3468     0.1314     0.2499
  803.0000     9.6876    62.2536     2.3472     0.1294     0.2546
  803.5000     9.6798    62.0118     2.3494     0.1274     0.2592
  804.0000     9.6595    62.0015     2.3524     0.1247     0.2639
  804.5000     9.6391    62.0457     2.3566     0.1210     0.2686
  805.0000     9.6186    63.4777     2.3607     0.1121     0.2733
  805.5000     9.5982    64.9502     2.3651     0.1034     0.2779
  806.0000     9.5777    65.0049     2.3756     0.0999     0.2790
  806.5000     9.5573    64.9550     2.3862     0.1087     0.2648
  807.0000     9.5368    66.7775     2.3923     0.1186     0.2440
  807.5000     9.5163    68.9913     2.3821     0.0966     0.2284
  808.0000     9.4958    71.2464     2.3702     0.0940     0.2435
  808.5000     9.4754    70.8258     2.3973     0.1037     0.2417
  809.0000     9.4644    69.9066     2.3857     0.0980     0.2269
  809.5000     9.4553    70.2770     2.3840     0.0942     0.2256
  810.0000     9.4462    70.8665     2.3941     0.1028     0.2162
  810.5000     9.4371    70.9902     2.3975     0.1085     0.2058
  811.0000     9.4279    69.5694     2.3840     0.1104     0.2042
  811.5000     9.4189    66.0620     2.3807     0.1123     0.2049
  812.0000     9.4152    63.0202     2.3772     0.1142     0.2057
  812.5000     9.4279    63.0287     2.3737     0.1162     0.2064
  813.0000     9.4399    64.6602     2.3703     0.1182     0.2071
  813.5000     9.4519    68.1441     2.3667     0.1141     0.2085
  814.0000     9.4641    70.4143     2.3629     0.0898     0.2310
  814.5000     9.4882    67.7925     2.3785     0.0985     0.2481
  815.0000     9.5389    65.9228     2.3972     0.1050     0.2322
  815.5000     9.5891    65.7977     2.3973     0.1068     0.2158
  816.0000     9.6345    65.8231     2.3862     0.1104     0.2154
  816.5000     9.6459    65.8540     2.3791     0.1191     0.2159
  817.0000     9.6914    65.8839     2.3758     0.1284     0.2231
  817.5000     9.7619    65.9137     2.3610     0.1316     0.2300
  818.0000     9.7847    65.9451     2.3418     0.1325     0.2369
  818.5000     9.7758    65.9734     2.3377     0.1424     0.2416
  819.0000     9.7662    65.8533     2.3353     0.1557     0.2415
  819.5000     9.7563    65.0481     2.3243     0.1674     0.2416
  820.0000     9.7332    64.2573     2.3073     0.1688     0.2475
  820.5000     9.6900    63.7594     2.2901     0.1701     0.2637
  821.0000     9.6466    65.4653     2.2845     0.1728     0.2738
  821.5000     9.6369    67.0190     2.2815     0.1751     0.2742
