~VERSION INFORMATION
 VERS.                2.0:   CWLS LOG ASCII STANDARD - VERSION 2.0
 WRAP.                 NO:   ONE LINE PER DEPTH STEP
~WELL INFORMATION
#MNEM.UNIT      DATA TYPE    INFORMATION
#----------   ------------   ------------------------------
 STRT.F           24.0000:   START DEPTH
 STOP.F          487.5000:   STOP DEPTH
 STEP.F            0.5000:   STEP LENGTH
 NULL.          -999.2500:   NO VALUE
 COMP. FENIX & SCISSON INC:   COMPANY
 WELL.       NPR #35-SX-3:   WELL
 FLD .        TEAPOT DOME:   FIELD
 LOC .       S3 T38N R78W:   LOCATION
 CNTY.            NATRONA:   COUNTY
 STAT.            WYOMING:   STATE
 CTRY. UNITED STATES OF AMERICA:   COUNTRY
 SRVC.       Schlumberger:   SERVICE COMPANY
 DATE.        26-MAR-1977:   LOGDATE
 API .       490251030700:   API NUMBER
~CURVE INFORMATION
#MNEM.UNIT       API CODE    CURVE DESCRIPTION
#----------   ------------   ------------------------------
 DEPT.F                  :   
 SPR .MV     07 010 01 00:   SPONTANEOUS POTENTIAL
 LL8 .OHMM   07 220 08 00:   LATEROLOG-8 RES.
 ILD .OHMM   07 120 46 00:   INDUCTION LOG DEEP
 ILM .OHMM   07 120 44 00:   INDUCTION LOG MEDIUM
 CALD.IN     45 280 60 00:   CALIPER FROM DENSITY LOG
 RHOB.G/C3   45 350 01 00:   BULK DENSITY
 DPOR.DEC    45 890 12 00:   DENSITY POROSITY SANDSTONE
 CORR.G/C3   45 356 01 00:   DENSITY CORRECTION
 GRD .GAPI   45 310 01 00:   GAMMA RAY FROM DENSITY LOG
~PARAMETER INFORMATION
#MNEM.UNIT          VALUE    DESCRIPTION
#----------   ------------   ------------------------------
 PD  .                 GL:   PERMANENT DATUM
 EPD .F          EST 5200:   ELEVATION PERMANENT DATUM
 LMF .                 GL:   LOG MEASURED FROM
 DMF .                 KB:   DRILLING MEASURED FROM
 EKB .F              5205:   KELLING BUSHING
 EGL .F          EST 5200:   GROUND LEVEL
 DATE.            3-26-77:   RUN DATE
 RUN .                  1:   RUN NUMBER
 DD  .F               524:   DEPTH DRILLER
 DL  .F               489:   DEPTH LOGGER
 BLI .F               483:   BOTTOM LOG INTERVAL
 TLI .F                39:   TOP LOG INTERVAL
 CS  .IN            8.625:   CASING SIZE
 CBD .F                40:   CASING BOTTOM DRILLER
 CBL .F                39:   CASING BOTTOM LOGGER
 BS  .IN            7.875:   BIT SIZE
 BSD .F               524:   BIT SIZE AT DEPTH
 DFT .                KCL:   DRILLING FLUID TYPE
 DFD .                8.8:   DRILLING FLUID DENSITY
 DFV .                 31:   DRILLING FLUID VISCOSITY
 DFPH.                  8:   DRILLING FLUID PH
 DFL .                9.1:   DRILLING FLUID LOSS
 MSS .          FLOW LINE:   MUD SAMPLE SOURCE
 RMS .OHMM            .18:   RESISTIVITY MUD SAMPLE
 MST .F                76:   MUD SAMPLE TEMPERATURE
 RMF .OHMM            .15:   RESISTIVITY MUD FILTRATE SAMPLE
 MFST.F                76:   MUD FILTRATE SAMPLE TEMPERATURE
 RMC .OHMM             .1:   RESISTIVITY MUD CAKE
 MCST.F                76:   MUD CAKE SAMPLE TEMPERATURE
 MFSS.                  M:   MUD FILTRATE SAMPLE SOURCE
 MCSS.                  C:   MUD CAKE SAMPLE SOURCE
 RMB .OHMM            .25:   RESISTIVITY MUD AT BHT
 BHT .F                55:   BOTTOM HOLE TEMPERATURE
 TCS .HRS               6:   TIME CURCULATED STOPPED
 MRT .F            EST 55:   MAXIMUM RECORDED TEMPERATURE
 LUN .               5642:   LOGGING UNIT NUMBER
 LUL .               CSPR:   LOGGING UNIT LOCATION
 ENGI.     LOHBECK/MARTIN:   RECORDING ENGINEER
 WITN.         STUEBINGER:   WITNESSED BY
 CLNT.            A2DTECH:   CLIENT CODE
 ORIG.       2", 5" PRINT:   ORIGIN OF DATA
 UWI .       490251030700:   UNIQUE WELL ID
 DICO. A2D Technologies, Inc.:   DIGITIZING COMPANY
~OTHER INFORMATION
~A   DEPT      SPR        LL8        ILD        ILM       CALD       RHOB       DPOR       CORR        GRD   
# ...
  279.5000   -58.2263     9.1426     5.7748     6.5044     8.2718     2.4679     0.1047     0.0603   130.5089
  280.0000   -58.3726     9.4155     5.7662     6.3569     8.2718     2.4369     0.1220     0.0471   123.4915
  280.5000   -58.5189     8.5663     5.7576     6.1729     8.2748     2.4327     0.1341     0.0313   117.1909
  281.0000   -58.6677     6.6785     5.7490     6.0962     8.2790     2.4469     0.1270     0.0259   117.6339
  281.5000   -58.8202     5.4678     5.7404     6.0968     8.2832     2.4702     0.1092     0.0337   125.0359
  282.0000   -58.9210     7.5896     5.7320     6.0961     8.2874     2.4743     0.1038     0.0382   129.9129
  282.5000   -58.3139     8.6681     5.7238     6.0968     8.2917     2.4789     0.1066     0.0309   127.7845
  283.0000   -58.0214     8.8175     5.7146     6.0960     8.2959     2.4726     0.0986     0.0426   125.6741
  283.5000   -57.8274     8.9695     5.9341     6.4025     8.3001     2.4616     0.1130     0.0230   125.1938
  284.0000   -57.6396     9.1241     6.1697     6.6773     8.3043     2.4579     0.1146     0.0226   125.3821
  284.5000   -57.4513     9.2814     6.4146     6.9633     8.3085     2.4796     0.1021     0.0468   126.8857
  285.0000   -57.3567     9.4155     6.6694     7.2617     8.3111     2.4951     0.0934     0.0395   128.8724
  285.5000   -57.3534     9.3841     6.9343     7.4306     8.3096     2.5104     0.0847     0.0468   129.7192
  286.0000   -57.4824     9.3570     7.2099     7.5580     8.3081     2.5194     0.0778     0.0551   127.9232
  286.5000   -57.6613     9.3288     7.3359     7.6876     8.3066     2.4818     0.1012     0.0397   126.3459
  287.0000   -57.7063     9.3288     7.1910     7.8258     8.3051     2.4583     0.1176     0.0238   127.1760
  287.5000   -57.6184     9.5237     6.8961     7.6055     8.3037     2.4468     0.1223     0.0165   128.6658
  288.0000   -57.5869     9.7327     6.4262     7.0107     8.3022     2.4273     0.1310     0.0247   129.8828
  288.5000   -57.7135    10.0451     5.9884     6.4639     8.3007     2.4130     0.1423     0.0379   129.8610
  289.0000   -58.0697     8.7404     5.5609     5.9314     8.2992     2.4023     0.1538     0.0454   129.8606
  289.5000   -58.5184     5.9962     5.4942     5.2696     8.2977     2.4088     0.1510     0.0108   129.9246
  290.0000   -58.6300     4.0215     5.4053     4.9724     8.2963     2.4406     0.1231     0.0207   130.4720
  290.5000   -58.4020     6.2495     5.3187     5.1913     8.2948     2.4714     0.0998     0.0381   130.5803
  291.0000   -58.1590     9.3362     5.2342     5.3597     8.2933     2.4734     0.1085     0.0468   127.9187
  291.5000   -57.7265     8.1961     5.1620     5.6357     8.2918     2.4752     0.0994     0.0291   125.2258
  292.0000   -57.2561     7.2686     5.4829     5.9649     8.2878     2.5028     0.0878     0.0370   122.5425
  292.5000   -56.7849     8.5250     5.8488     6.3130     8.2836     2.5121     0.0829     0.0417   120.0839
  293.0000   -56.3625     9.3731     6.2391     6.6813     8.2793     2.4824     0.1013     0.0251   120.6207
  293.5000   -56.3055     9.6330     6.6554     7.0710     8.2750     2.4765     0.1082     0.0255   120.6415
  294.0000   -56.2571     9.9004     7.0996     7.4834     8.2708     2.4441     0.1182     0.0235   119.6567
  294.5000   -56.2075    10.1456     7.6117     7.9198     8.2665     2.4593     0.1146     0.0138   120.5707
  295.0000   -56.1635    10.2043     7.7517     8.1321     8.2622     2.4805     0.1081     0.0211   122.7615
  295.5000   -56.1637    10.2633     7.9065     8.2530     8.2580     2.4762     0.1047     0.0198   124.6287
  296.0000   -56.1618    10.3227     8.0644     8.3758     8.2537     2.4715     0.1073     0.0149   123.4648
  296.5000   -55.9896    10.3824     8.2267     8.5004     8.2494     2.4717     0.1090     0.0131   121.0946
  297.0000   -55.7962    10.4424     8.2761     8.6268     8.2452     2.4733     0.1085     0.0148   120.9332
  297.5000   -55.6026    10.5028     8.2811     8.6961     8.2409     2.4746     0.1043     0.0165   120.9312
  298.0000   -55.4091    10.5636     8.2863     8.7418     8.2366     2.4850     0.0955     0.0183   120.5360
  298.5000   -55.2161    10.6371     8.2917     8.7878     8.2324     2.4964     0.0923     0.0239   119.9792
  299.0000   -55.0228    10.8171     8.2972     8.8340     8.2281     2.5066     0.0862     0.0388   119.5874
  299.5000   -54.8220    11.0183     8.3028     8.8805     8.2238     2.5029     0.0870     0.0396   118.4929
  300.0000   -54.8241    10.7672     8.3084     8.9273     8.2195     2.4859     0.0966     0.0362   118.5584
  300.5000   -54.8955    10.5180     8.3139     8.9742     8.2153     2.4674     0.1096     0.0185   119.1035
  301.0000   -54.9697    10.9071     8.3195     9.0212     8.2136     2.4746     0.1063     0.0246   121.8653
  301.5000   -55.0438    11.3361     8.3251     9.0733     8.2184     2.4829     0.1011     0.0253   125.1663
  302.0000   -55.1161    11.1791     8.3308     8.9486     8.2232     2.4914     0.0980     0.0255   128.5323
  302.5000   -55.1439    10.7087     8.3359     8.8129     8.2279     2.4943     0.0852     0.0440   129.0769
  303.0000   -55.0383    10.2633     8.3411     8.6601     8.2326     2.4806     0.1045     0.0160   123.1036
  303.5000   -54.9370    10.0483     8.3464     8.6599     8.2373     2.4781     0.1082     0.0134   119.9644
  304.0000   -54.8359    10.3428     8.5251     8.9758     8.2421     2.4781     0.1057     0.0127   119.4092
  304.5000   -54.7346    10.9648     8.7847     9.2665     8.2468     2.4795     0.0999     0.0242   120.3301
  305.0000   -54.6334    11.6242     9.0514     9.5675     8.2515     2.4654     0.1150     0.0163   122.0564
  305.5000   -54.5323    12.3233     9.2430     9.8771     8.2556     2.4463     0.1285     0.0087   123.4195
  306.0000   -54.4313    12.5411     8.8344    10.2326     8.2595     2.4429     0.1247     0.0129   124.7257
  306.5000   -54.3295    12.0857     8.2030    10.2326     8.2635     2.4175     0.1373     0.0483   126.8554
  307.0000   -54.2275    14.4070     7.0511     8.3336     8.2673     2.3739     0.1606     0.0862   128.3665
  307.5000   -53.9702    13.2872     6.1534     6.5527     8.2717     2.3108     0.2111     0.1280   125.3481
  308.0000   -53.5354     6.9394     6.1642     5.1439     8.3017     2.2491     0.2480     0.0472   118.1255
  308.5000   -53.1037     3.6901     6.1740     4.6606     8.3278     2.3701     0.1626    -0.0123   112.2062
  309.0000   -52.7453     3.4365     6.1839     5.2956     8.2969     2.5001     0.0923     0.0159   111.5155
  309.5000   -52.6291     9.4835     6.1937     6.8337     8.2651     2.4967     0.0970     0.0092   113.1533
  310.0000   -52.5075    14.0128     6.2098     8.1206     8.2334     2.4996     0.0929     0.0162   115.4814
  310.5000   -52.3855    13.7243     6.2024     7.9718     8.2002     2.5064     0.0866     0.0271   117.6573
  311.0000   -52.2637    13.4107     7.3164     8.4373     8.2137     2.5004     0.0911     0.0159   117.9969
  311.5000   -52.1419    13.1042     8.3060     9.4512     8.2151     2.4962     0.0958     0.0165   116.4396
  312.0000   -52.0201    12.7752     9.4268    10.2326     8.2174     2.4985     0.0917     0.0213   115.1882
  312.5000   -51.8983    12.8581    10.2767    10.9169     8.2194     2.5063     0.0895     0.0193   114.5161
  313.0000   -51.7766    12.9776    11.0156    11.6468     8.2214     2.5209     0.0765     0.0240   114.7501
  313.5000   -51.6540    13.0982    10.9187    11.4367     8.2234     2.5261     0.0812     0.0302   112.9075
  314.0000   -51.5332    13.2565    10.7283    11.2077     8.2255     2.4969     0.0914     0.0195   109.4615
  314.5000   -51.4295    12.9177    10.5204    10.9833     8.2275     2.4743     0.1032     0.0163   104.0297
  315.0000   -50.8800    12.4487    10.7168    10.9169     8.2295     2.4694     0.1110     0.0186    96.5725
  315.5000   -50.2789    12.3113    11.1707    11.9264     8.2316     2.4585     0.1179     0.0260    89.1425
