~VERSION INFORMATION
 VERS.                2.0:   CWLS LOG ASCII STANDARD - VERSION 2.0
 WRAP.                 NO:   ONE LINE PER DEPTH STEP
~WELL INFORMATION
#MNEM.UNIT      DATA TYPE    INFORMATION
#----------   ------------   ------------------------------
 STRT.F           36.0000:   START DEPTH
 STOP.F          564.0000:   STOP DEPTH
 STEP.F            0.5000:   STEP LENGTH
 NULL.          -999.2500:   NO VALUE
 COMP.    FENIX & SCISSON:   COMPANY
 WELL.        NPR #73-S-3:   WELL
 FLD .             TEAPOT:   FIELD
 LOC .       S3 T38N R78W:   LOCATION
 CNTY.            NATRONA:   COUNTY
 STAT.            WYOMING:   STATE
 CTRY. UNITED STATES OF AMERICA:   COUNTRY
 SRVC.       Schlumberger:   SERVICE COMPANY
 DATE.        19-FEB-1977:   LOGDATE
 API .       490251027900:   API NUMBER
~CURVE INFORMATION
#MNEM.UNIT       API CODE    CURVE DESCRIPTION
#----------   ------------   ------------------------------
 DEPT.F                  :   
 SPR .MV     07 010 01 00:   SPONTANEOUS POTENTIAL
 ILD .OHMM   07 120 46 00:   INDUCTION LOG DEEP
 ILM .OHMM   07 120 44 00:   INDUCTION LOG MEDIUM
 LL8 .OHMM   07 220 08 00:   LATEROLOG-8 RES.
 CALD.IN     45 280 60 00:   CALIPER FROM DENSITY LOG
 CORR.G/C3   45 356 01 00:   DENSITY CORRECTION
 RHOB.G/C3   45 350 01 00:   BULK DENSITY
 DPHI.DEC    45 890 12 00:   DENSITY POROSITY SANDSTONE
 GRD .GAPI   45 310 01 00:   GAMMA RAY FROM DENSITY LOG
~PARAMETER INFORMATION
#MNEM.UNIT          VALUE    DESCRIPTION
#----------   ------------   ------------------------------
 PD  .                 GL:   PERMANENT DATUM
 EPD .F              5128:   ELEVATION PERMANENT DATUM
 LMF .                 GL:   LOG MEASURED FROM
 DAPD.F                 5:   FEET ABOVE PERMANENT DATUM
 DMF .                 KB:   DRILLING MEASURED FROM
 EKB .F              5133:   KELLING BUSHING
 EGL .F              5128:   GROUND LEVEL
 DATE.        19-FEB-1977:   RUN DATE
 RUN .                  1:   RUN NUMBER
 DD  .F               570:   DEPTH DRILLER
 DL  .F               565:   DEPTH LOGGER
 BLI .F               564:   BOTTOM LOG INTERVAL
 TLI .F                36:   TOP LOG INTERVAL
 CS  .IN            8.625:   CASING SIZE
 CBD .F                40:   CASING BOTTOM DRILLER
 CBL .F                41:   CASING BOTTOM LOGGER
 BS  .IN            7.875:   BIT SIZE
 BSD .F               570:   BIT SIZE AT DEPTH
 DFT .                FGM:   DRILLING FLUID TYPE
 DFD .                8.9:   DRILLING FLUID DENSITY
 DFV .                 31:   DRILLING FLUID VISCOSITY
 DFPH.                8.2:   DRILLING FLUID PH
 DFL .                9.2:   DRILLING FLUID LOSS
 MSS .            MUD PIT:   MUD SAMPLE SOURCE
 RMS .OHMM           .244:   RESISTIVITY MUD SAMPLE
 MST .F                78:   MUD SAMPLE TEMPERATURE
 RMF .OHMM           .233:   RESISTIVITY MUD FILTRATE SAMPLE
 MFST.F                68:   MUD FILTRATE SAMPLE TEMPERATURE
 RMC .OHMM            .36:   RESISTIVITY MUD CAKE
 MCST.F                78:   MUD CAKE SAMPLE TEMPERATURE
 MFSS.               MEAS:   MUD FILTRATE SAMPLE SOURCE
 MCSS.               CALC:   MUD CAKE SAMPLE SOURCE
 RMB .OHMM            .35:   RESISTIVITY MUD AT BHT
 BHT .F                55:   BOTTOM HOLE TEMPERATURE
 TCS .HRS               2:   TIME CURCULATED STOPPED
 MRT .F                55:   MAXIMUM RECORDED TEMPERATURE
 LUN .               7711:   LOGGING UNIT NUMBER
 LUL .               CSPR:   LOGGING UNIT LOCATION
 ENGI.                FIX:   RECORDING ENGINEER
 WITN.           VOORHEES:   WITNESSED BY
 CLNT.            A2DTECH:   CLIENT CODE
 ORIG.           5" PRINT:   ORIGIN OF DATA
 UWI .       490251027900:   UNIQUE WELL ID
 DICO. A2D Technologies, Inc.:   DIGITIZING COMPANY
~OTHER INFORMATION
~A   DEPT      SPR        ILD        ILM        LL8       CALD       CORR       RHOB       DPHI        GRD   
# ...
  218.5000   -52.4288    12.7595    11.2381    11.2049     9.2866     0.0197     2.4523     0.1186   104.6908
  219.0000   -52.4078    12.7683    10.9410    11.2127     9.2427     0.0207     2.4546     0.1180   104.8516
  219.5000   -52.3868    12.7772    10.8731    10.9161     9.2283     0.0289     2.4569     0.1156   105.0094
  220.0000   -52.2167    12.6983    10.9561    10.7007     9.2142     0.0327     2.4615     0.1131   104.5770
  220.5000   -52.1957    12.7071    11.0393    10.8563     9.2151     0.0350     2.4705     0.1068   103.8436
  221.0000   -52.0257    12.6265    10.8960    10.7155     9.2158     0.0342     2.4721     0.1158   102.8121
  221.5000   -52.0089    12.3791    10.5349    10.5041     9.2166     0.0312     2.4631     0.1179   102.3768
  222.0000   -51.9642    12.0512    10.1160    10.1903     9.2322     0.0283     2.4692     0.1113   103.2827
  222.5000   -51.8182    11.8926     9.9829    10.0236     9.2180     0.0238     2.4588     0.1167   104.4867
  223.0000   -51.7973    11.7381    10.0605    10.1345     9.1884     0.0193     2.4513     0.1190   104.3494
  223.5000   -51.7765    11.5856    10.1369    10.2466     9.1583     0.0096     2.4491     0.1217   103.7651
  224.0000   -51.7556    11.5141    10.2139    10.1834     9.1309     0.0029     2.4389     0.1268   103.0316
  224.5000   -51.8839    11.4430    10.1509    10.0513     9.1019     0.0067     2.4184     0.1334   102.8942
  225.0000   -51.8629    11.4529     9.9505     9.8192     9.0729     0.0105     2.4323     0.1298   103.5022
  225.5000   -51.9911    11.3822     9.8196     9.7922     9.0440     0.0143     2.4358     0.1240   104.1192
  226.0000   -52.1192    11.3901     9.8281     9.9347     9.0297     0.0166     2.4434     0.1231   103.0074
  226.5000   -52.3964    11.3979     9.8349     9.9415     9.0155     0.0121     2.4360     0.1292   100.3279
  227.0000   -52.5246    11.4058     9.7072     9.9483     9.0164     0.0144     2.4428     0.1243    98.7832
  227.5000   -52.6528    11.3334     9.5155     9.8871     9.0320     0.0160     2.4353     0.1273    99.5401
  228.0000   -52.6311    11.3432     9.3920     9.8939     9.0475     0.0175     2.4324     0.1297   101.9363
  228.5000   -52.6100    11.3511     9.2065     9.8998     9.0186     0.0198     2.4437     0.1257   104.6306
  229.0000   -52.5890    11.2810     9.0870     9.8388     8.9896     0.0184     2.4280     0.1338   106.4307
  229.5000   -52.4190    11.2888     9.0294     9.8456     8.9606     0.0146     2.4205     0.1311   107.1876
  230.0000   -52.2490    11.2172     9.0371     9.8524     8.9762     0.0185     2.4431     0.1242   107.1994
  230.5000   -51.9299    11.2269     8.9798     9.8592     9.0088     0.0155     2.4462     0.1232   106.9131
  231.0000   -51.4618    11.2346     8.9876     9.8660     9.0969     0.0126     2.4455     0.1223   106.1797
  231.5000   -51.1427    11.2424     8.9938    10.5029     9.2166     0.0141     2.4531     0.1196   104.8501
  232.0000   -50.8237    11.1711     8.9368    10.9526     9.3067     0.0149     2.4606     0.1114   101.2851
  232.5000   -50.6536    11.1807     8.8816    10.3027     9.3669     0.0164     2.4705     0.1126    98.3162
  233.0000   -50.6326    11.1117     8.7077     9.6914     9.3677     0.0165     2.4405     0.1286    99.0731
  233.5000   -50.9097    11.1194     8.5358     9.7650     9.3684     0.0104     2.4180     0.1391   101.1834
  234.0000   -51.0430    10.9731     8.3672     9.9753     9.3691     0.0097     2.4158     0.1421   103.4546
  234.5000   -51.3200    10.8172     8.2006    10.3312     9.3698     0.0091     2.4204     0.1390   105.5797
  235.0000   -51.5971    10.6165     7.9849     9.7182     9.3706     0.0152     2.4317     0.1295   106.1246
  235.5000   -51.8741    10.4680     7.8272     9.5264     9.3713     0.0190     2.4400     0.1266   101.0722
  236.0000   -52.1512    10.1919     7.7256     9.6649     9.3720     0.0175     2.4318     0.1301    99.2927
  236.5000   -52.2792     9.8550     7.6240     9.7383     9.3630     0.0191     2.4326     0.1314   100.0525
  237.0000   -52.7001     9.3989     7.5770     8.3775     9.3337     0.0221     2.4432     0.1272   101.8526
  237.5000   -53.2752     9.0259     7.5835     8.0445     9.3186     0.0207     2.4385     0.1232   103.0566
  238.0000   -53.8503     8.9136     7.9085     8.0501     9.2929     0.0245     2.4396     0.1208   103.2174
  238.5000   -54.2764     8.9198     8.0790     8.5697     9.3125     0.0343     2.4584     0.1175   102.4840
  239.0000   -54.5587     8.9260     8.0277     8.5756     9.3965     0.0298     2.4517     0.1199   101.4525
  239.5000   -54.5325     8.9321     7.9782     8.6407     9.4418     0.0336     2.4751     0.1111   101.0142
  240.0000   -54.6657     8.9383     8.0402     8.5287     9.3531     0.0404     2.4766     0.1087   102.9663
  240.5000   -54.6430     9.0062     8.0458     8.1336     9.3541     0.0284     2.4579     0.1135   104.4684
  241.0000   -54.6230     9.0125     8.1069     8.0835     9.3397     0.0330     2.4640     0.1123   106.4175
  241.5000   -54.6021     9.0187     8.1685     8.2011     9.3392     0.0300     2.4640     0.1113   107.9196
  242.0000   -54.5673     9.0249     8.1741     8.4937     9.3358     0.0361     2.4709     0.1095   108.0805
  242.5000   -54.2623     9.0312     8.1899     8.7364     9.3324     0.0391     2.4717     0.1077   107.7940
  243.0000   -53.9374     9.0999     8.2514     8.4471     9.3290     0.0309     2.4687     0.1083   107.9553
  243.5000   -53.4737     9.1690     8.3033     8.3376     9.3286     0.0197     2.4545     0.1161   109.3108
  244.0000   -53.0074     9.2388     8.3664     8.4009     9.3294     0.0145     2.4441     0.1239   110.8128
  244.5000   -52.6883     9.3090     8.4967     8.4646     9.3301     0.0220     2.4516     0.1237   111.2687
  245.0000   -52.3692     9.4446     8.6790     8.6470     9.3309     0.0348     2.4645     0.1154   110.3892
  245.5000   -52.0502     9.5821     8.8653     8.8941     9.3316     0.0371     2.4683     0.1075   109.3578
  246.0000   -51.8801     9.6550     9.1113     9.2750     9.3324     0.0346     2.4744     0.1048   107.4321
  246.5000   -51.7101     9.7956     9.1805     9.5401     9.3331     0.0229     2.4571     0.1162   104.4632
  247.0000   -51.5401     9.8701     9.2502     9.6788     9.3339     0.0231     2.4527     0.1189   104.1740
  247.5000   -51.5191     9.9451     9.1931     9.6855     9.3346     0.0229     2.4550     0.1159   106.2751
  248.0000   -51.4981    10.0208     9.1363     9.5599     9.3354     0.0186     2.4378     0.1249   108.1279
  248.5000   -51.6313    10.0277     9.0800     9.3713     9.3361     0.0231     2.4484     0.1207   110.4775
  249.0000   -51.6051    10.0346     9.0240     9.1234     9.3369     0.0232     2.4424     0.1252   115.7039
  249.5000   -51.7384     9.9727     8.9068     9.0051     9.3078     0.0270     2.4545     0.1185   118.0987
  250.0000   -52.2726     9.9094     8.8519     8.9129     9.2935     0.0315     2.4676     0.1107   117.3639
  250.5000   -52.8731     9.8203     8.4440     8.7743     9.2944     0.0320     2.4742     0.1040   113.2013
  251.0000   -53.4737     9.7211     8.1093     8.8717     9.2952     0.0309     2.4772     0.1073   111.1252
  251.5000   -54.1903     9.6623     8.0588     8.9711     9.2959     0.0151     2.4532     0.1197   110.8349
  252.0000   -54.3258     9.5393     8.0658     8.8865     9.3215     0.0107     2.4501     0.1191   111.4439
  252.5000   -54.6058     9.4793     8.0724     8.7423     9.3222     0.0242     2.4660     0.1139   111.9013
  253.0000   -55.0349     9.4215     8.0791     8.9321     9.2634     0.0318     2.4864     0.1055   112.3587
  253.5000   -55.1659     9.4305     8.0858     9.2202     9.3090     0.0333     2.4661     0.1145   112.6671
  254.0000   -54.8495     9.4377     8.0925     9.2596     9.3393     0.0356     2.4617     0.1172   110.8891
  254.5000   -54.5335     9.5102     8.0437     9.2028     9.3549     0.0372     2.4640     0.1151   109.4091
