~VERSION INFORMATION
 VERS.                2.0:   CWLS LOG ASCII STANDARD - VERSION 2.0
 WRAP.                 NO:   ONE LINE PER DEPTH STEP
~WELL INFORMATION
#MNEM.UNIT      DATA TYPE    INFORMATION
#----------   ------------   ------------------------------
 STRT.F           66.0000:   START DEPTH
 STOP.F          892.0000:   STOP DEPTH
 STEP.F            0.5000:   STEP LENGTH
 NULL.          -999.2500:   NO VALUE
 COMP. LAWRENCE/ALLISON INC:   COMPANY
 WELL. NPR #3 #31-11 SX 2:   WELL
 FLD .             TEAPOT:   FIELD
 LOC .       S2 T38N R78W:   LOCATION
 CNTY.            NATRONA:   COUNTY
 STAT.            WYOMING:   STATE
 CTRY. UNITED STATES OF AMERICA:   COUNTRY
 SRVC.      Dresser Atlas:   SERVICE COMPANY
 DATE.        10-AUG-1985:   LOGDATE
 API .       490251103900:   API NUMBER
~CURVE INFORMATION
#MNEM.UNIT       API CODE    CURVE DESCRIPTION
#----------   ------------   ------------------------------
 DEPT.F                  :   
 PORD.DEC    45 890 12 00:   POROSITY DENSITY SANDSTONE
 CNC .DEC    42 890 03 00:   NEUTRON POROSITY SANDSTONE
 CORR.G/C3   45 356 01 00:   DENSITY CORRECTION
 DEN .G/C3   45 350 01 00:   COMPENSATED BULK DENSTIY
 CALD.IN     45 280 60 00:   CALIPER FROM DENSITY LOG
 SPR .MV     07 010 01 00:   SPONTANEOUS POTENTIAL
 RILD.OHMM   07 120 46 00:   INDUCTION LOG DEEP RESISTIVITY
 RILM.OHMM   07 120 44 00:   INDUCTION LOG MEDIUM RESISTIVITY
 RFOC.OHMM   07 220 04 00:   RESISTIVITY FOCUSED LOG
~PARAMETER INFORMATION
#MNEM.UNIT          VALUE    DESCRIPTION
#----------   ------------   ------------------------------
 PD  .                 GL:   PERMANENT DATUM
 EPD .F              5110:   ELEVATION PERMANENT DATUM
 LMF .                 GL:   LOG MEASURED FROM
 DMF .                 GL:   DRILLING MEASURED FROM
 EKB .F              5115:   KELLING BUSHING
 EGL .F              5110:   GROUND LEVEL
 DATE.        10-AUG-1985:   RUN DATE
 RUN .                  1:   RUN NUMBER
 DD  .F               899:   DEPTH DRILLER
 DL  .F               895:   DEPTH LOGGER
 BLI .F               892:   BOTTOM LOG INTERVAL
 CS  .IN            8.625:   CASING SIZE
 CBD .F                75:   CASING BOTTOM DRILLER
 CBL .F                78:   CASING BOTTOM LOGGER
 BS  .IN            7.875:   BIT SIZE
 BSD .F               899:   BIT SIZE AT DEPTH
 DFT .                KCL:   DRILLING FLUID TYPE
 MSS .           FLOWLINE:   MUD SAMPLE SOURCE
 RMS .OHMM            .21:   RESISTIVITY MUD SAMPLE
 MST .F                75:   MUD SAMPLE TEMPERATURE
 TCS .HRS            0200:   TIME CURCULATED STOPPED
 MRT .F               100:   MAXIMUM RECORDED TEMPERATURE
 LUN .               6274:   LOGGING UNIT NUMBER
 LUL .               GLTE:   LOGGING UNIT LOCATION
 ENGI.             RAUTIO:   RECORDING ENGINEER
 WITN.        LINDA FIVAS:   WITNESSED BY
 CLNT.            A2DTECH:   CLIENT CODE
 ORIG.           5" PRINT:   ORIGIN OF DATA
 UWI .       490251103900:   UNIQUE WELL ID
 DICO. A2D Technologies, Inc.:   DIGITIZING COMPANY
~OTHER INFORMATION
~A   DEPT     PORD        CNC       CORR        DEN       CALD        SPR       RILD       RILM       RFOC   
   66.0000  -999.2500  -999.2500  -999.2500  -999.2500  -999.2500  -999.2500  -999.2500  -999.2500  -999.2500
   66.5000  -999.2500     0.4587  -999.2500  -999.2500  -999.2500  -999.2500  -999.2500  -999.2500  -999.2500
   67.0000  -999.2500     0.4101  -999.2500  -999.2500  -999.2500  -999.2500  -999.2500  -999.2500  -999.2500
   67.5000  -999.2500     0.3953  -999.2500  -999.2500  -999.2500  -999.2500  -999.2500  -999.2500  -999.2500
   68.0000  -999.2500     0.3932  -999.2500  -999.2500  -999.2500  -999.2500  -999.2500  -999.2500  -999.2500
   68.5000  -999.2500     0.4231  -999.2500  -999.2500  -999.2500  -999.2500  -999.2500  -999.2500  -999.2500
   69.0000  -999.2500     0.4223  -999.2500  -999.2500  -999.2500  -999.2500  -999.2500  -999.2500  -999.2500
   69.5000  -999.2500     0.3923  -999.2500  -999.2500  -999.2500  -999.2500  -999.2500  -999.2500  -999.2500
   70.0000  -999.2500     0.3899  -999.2500  -999.2500  -999.2500  -999.2500  -999.2500  -999.2500  -999.2500
   70.5000  -999.2500     0.4363  -999.2500  -999.2500  -999.2500  -999.2500  -999.2500  -999.2500  -999.2500
   71.0000  -999.2500     0.4502  -999.2500  -999.2500  -999.2500  -999.2500  -999.2500  -999.2500  -999.2500
   71.5000  -999.2500     0.4430  -999.2500  -999.2500  -999.2500  -999.2500  -999.2500  -999.2500  -999.2500
   72.0000  -999.2500     0.4170  -999.2500  -999.2500  -999.2500  -999.2500  -999.2500  -999.2500  -999.2500
   72.5000  -999.2500     0.3933  -999.2500  -999.2500  -999.2500  -999.2500  -999.2500  -999.2500  -999.2500
   73.0000  -999.2500     0.3875  -999.2500  -999.2500  -999.2500  -999.2500  -999.2500  -999.2500  -999.2500
   73.5000  -999.2500     0.3884  -999.2500  -999.2500  -999.2500  -999.2500  -999.2500  -999.2500  -999.2500
   74.0000  -999.2500     0.4050  -999.2500  -999.2500  -999.2500  -999.2500  -999.2500  -999.2500  -999.2500
   74.5000  -999.2500     0.4192  -999.2500  -999.2500  -999.2500  -999.2500  -999.2500  -999.2500  -999.2500
   75.0000  -999.2500     0.4686  -999.2500  -999.2500  -999.2500  -999.2500  -999.2500  -999.2500  -999.2500
   75.5000  -999.2500     0.4683  -999.2500  -999.2500  -999.2500  -999.2500  -999.2500  -999.2500  -999.2500
   76.0000  -999.2500     0.4247  -999.2500  -999.2500  -999.2500  -999.2500  -999.2500  -999.2500  -999.2500
   76.5000  -999.2500     0.3694  -999.2500  -999.2500  -999.2500  -999.2500  -999.2500  -999.2500  -999.2500
   77.0000  -999.2500     0.3621  -999.2500  -999.2500  -999.2500  -999.2500  -999.2500  -999.2500  -999.2500
   77.5000  -999.2500     0.3440  -999.2500  -999.2500  -999.2500  -999.2500  -999.2500  -999.2500  -999.2500
   78.0000  -999.2500     0.3211  -999.2500  -999.2500  -999.2500  -999.2500  -999.2500  -999.2500  -999.2500
   78.5000     0.1642     0.3178     0.0477     2.4034     8.0221    -6.0812     1.4687     1.8405     1.8707
   79.0000     0.1649     0.3309     0.0386     2.3936     8.0217    -9.2917     2.1155     2.3167     2.5779
   79.5000     0.1774     0.3501     0.0355     2.3740     8.0214   -11.5596     5.1289     2.8018     4.0832
   80.0000     0.1868     0.3637     0.0445     2.3657     8.0060   -14.8864    13.9019     3.2159     4.4408
   80.5000     0.1859     0.3667     0.0429     2.3687     8.0208   -17.9107    75.1444     3.3773     4.4743
   81.0000     0.1832     0.3661     0.0368     2.3716     8.0205   -19.9566    19.4322     4.3714     4.4762
   81.5000     0.1829     0.3655     0.0352     2.3776     8.0202   -22.2948     6.5039     4.6232     4.5094
   82.0000     0.1798     0.3646     0.0336     2.3851     8.0199   -24.1088     5.0961     4.7549     4.5790
   82.5000     0.1735     0.3698     0.0290     2.3903     8.0348   -27.4356     4.6551     4.8564     4.8393
   83.0000     0.1726     0.3926     0.0244     2.3888     8.0193   -29.7337     4.6882     4.7569     4.8078
   83.5000     0.1726     0.4134     0.0244     2.3902     8.0190   -31.5171     4.7544     5.4317     4.4864
   84.0000     0.1714     0.4176     0.0469     2.3947     8.0187   -32.4234     4.4916     5.9479     4.2452
   84.5000     0.1645     0.3962     0.0951     2.4067     8.0184   -33.1784     4.2537     5.2116     4.1883
   85.0000     0.1557     0.3655     0.1026     2.4263     8.0181   -34.2360     4.4670     4.6957     4.5876
   85.5000     0.1509     0.3392     0.0995     2.4270     8.0178   -36.5035     4.6583     4.5042     4.7893
   86.0000     0.1521     0.3296     0.0828     2.4246     8.0175   -37.8637     4.8242     4.6327     4.9575
   86.5000     0.1554     0.3531     0.0387     2.4186     8.0172   -38.6187     4.8923     4.3810     4.9247
   87.0000     0.1590     0.3754     0.0283     2.4133     8.0169   -38.7685     4.1103     4.0321     4.6930
   87.5000     0.1624     0.3772     0.0268     2.4065     8.0166   -38.3129     4.0822     4.1470     4.5030
   88.0000     0.1663     0.3718     0.0312     2.4004     8.0315   -38.1601     4.3776     4.4163     4.5369
   88.5000     0.1684     0.3640     0.0357     2.3936     8.0311   -37.8561     4.6942     4.7033     4.7655
   89.0000     0.1735     0.3560     0.0462     2.3865     8.0459   -38.1573     4.8953     4.8711     4.9400
   89.5000     0.1802     0.3446     0.0536     2.3755     8.0456   -38.9425     4.6627     4.5443     4.9049
   90.0000     0.1808     0.3368     0.0319     2.3770     8.0604   -39.9695     4.5350     4.5137     4.8392
   90.5000     0.1738     0.3380     0.0233     2.3830     8.0601   -40.5736     4.6313     4.6425     4.8413
   91.0000     0.1678     0.3416     0.0217     2.3965     8.0598   -40.8744     4.5954     4.6111     4.9459
   91.5000     0.1681     0.3489     0.0262     2.3972     8.0747   -40.7216     4.5682     4.5167     5.0525
   92.0000     0.1715     0.3585     0.0306     2.3926     8.0743   -40.7199     4.6008     4.5856     5.1256
   92.5000     0.1732     0.3563     0.0366     2.3896     8.0740   -41.6261     4.6985     4.7781     4.9875
   93.0000     0.1735     0.3422     0.0412     2.3880     8.0737   -42.3811     4.6992     4.8801     4.9201
   93.5000     0.1720     0.3253     0.0425     2.3895     8.0734   -42.6823     4.6997     5.0191     5.1328
   94.0000     0.1669     0.3151     0.0409     2.3947     8.0580   -42.6805     4.7331     5.3454     5.4676
   94.5000     0.1587     0.3163     0.0378     2.4048     8.0577   -42.5278     5.1828     5.6530     5.7432
   95.0000     0.1506     0.3265     0.0377     2.4232     8.0574   -42.0725     5.5190     5.9783     6.0747
   95.5000     0.1457     0.3446     0.0406     2.4337     8.0571   -41.7383     5.7957     6.2887     6.4863
   96.0000     0.1433     0.3405     0.0436     2.4390     8.0567   -42.3923     6.0020     6.3679     6.3400
   96.5000     0.1494     0.3332     0.0405     2.4374     8.0565   -42.9756     5.6771     5.6977     5.8752
   97.0000     0.1666     0.3290     0.0344     2.4291     8.0562   -43.2767     5.4451     5.5811     5.6373
   97.5000     0.1786     0.3293     0.0328     2.3900     8.0559   -43.5782     5.6389     5.7404     5.7594
   98.0000     0.1907     0.3350     0.0343     2.3598     8.0405   -43.8891     5.5229     5.6622     5.6822
   98.5000     0.1946     0.3498     0.0387     2.3523     8.0553   -44.1801     5.3716     5.4695     5.5285
   99.0000     0.1940     0.3516     0.0386     2.3530     8.0549   -44.3300     5.2244     5.2067     5.2974
   99.5000     0.1931     0.3452     0.0370     2.3537     8.0546   -44.4799     5.0797     4.9983     5.0899
  100.0000     0.1940     0.3362     0.0128     2.3536     8.0544   -44.7806     4.9748     4.9266     4.9815
  100.5000     0.1980     0.3417    -0.0461     2.3476     8.0541   -45.0259     4.9511     4.9046     4.9475
  101.0000     0.1983     0.3407    -0.0445     2.3468     8.0538   -45.2711     5.0115     5.0350     4.9182
  101.5000     0.1963     0.3365    -0.0145     2.3536     8.0534   -45.3994     5.0819     5.1060     5.1638
  102.0000     0.1916     0.3310     0.0261     2.3573     8.0683   -45.4039     5.2622     5.2142     5.1999
