~VERSION INFORMATION
 VERS.                2.0:   CWLS LOG ASCII STANDARD - VERSION 2.0
 WRAP.                 NO:   ONE LINE PER DEPTH STEP
~WELL INFORMATION
#MNEM.UNIT      DATA TYPE    INFORMATION
#----------   ------------   ------------------------------
 STRT.F           20.0000:   START DEPTH
 STOP.F          677.0000:   STOP DEPTH
 STEP.F            0.5000:   STEP LENGTH
 NULL.          -999.2500:   NO VALUE
 COMP. FENIX & SCISSON INC:   COMPANY
 WELL. 11 WI NPR 3 #36-26 SX:   WELL
 FLD .             TEAPOT:   FIELD
 LOC .      S11 T38N R78W:   LOCATION
 CNTY.            NATRONA:   COUNTY
 STAT.            WYOMING:   STATE
 CTRY. UNITED STATES OF AMERICA:   COUNTRY
 SRVC.      Dresser Atlas:   SERVICE COMPANY
 DATE.        06-AUG-1980:   LOGDATE
 API .       490251084100:   API NUMBER
~CURVE INFORMATION
#MNEM.UNIT       API CODE    CURVE DESCRIPTION
#----------   ------------   ------------------------------
 DEPT.F                  :   
 SPR .MV     07 010 01 00:   SPONTANEOUS POTENTIAL
 SFL .OHMM   07 220 01 00:   SHALLOW FOCUSED LOG RESISTIVITY
 ILD .OHMM   07 120 46 00:   INDUCTION LOG DEEP
 ILM .OHMM   07 120 44 00:   INDUCTION LOG MEDIUM
 GRD .GAPI   45 310 01 00:   GAMMA RAY FROM DENSITY LOG
 RHOB.G/C3   45 350 01 00:   BULK DENSITY
 CALD.IN     45 280 60 00:   CALIPER
 CORR.G/C3   45 356 01 00:   DENSITY CORRECTION
 DPOR.DEC    45 890 12 00:   DENSITY POROSITY SANDSTONE
 NPOR.DEC    42 890 03 00:   NEUTRON POROSITY SANDSTONE
~PARAMETER INFORMATION
#MNEM.UNIT          VALUE    DESCRIPTION
#----------   ------------   ------------------------------
 PD  .                 GL:   PERMANENT DATUM
 EPD .F              5191:   ELEVATION PERMANENT DATUM
 LMF .                 KB:   LOG MEASURED FROM
 DAPD.F                 5:   FEET ABOVE PERMANENT DATUM
 DMF .                 KB:   DRILLING MEASURED FROM
 EKB .F              5196:   KELLING BUSHING
 EGL .F              5191:   GROUND LEVEL
 DATE.             8-6-80:   RUN DATE
 RUN .                  1:   RUN NUMBER
 DD  .F               680:   DEPTH DRILLER
 DL  .F               679:   DEPTH LOGGER
 BLI .F               676:   BOTTOM LOG INTERVAL
 TLI .F                20:   TOP LOG INTERVAL
 BS  .IN            7.875:   BIT SIZE
 BSD .F               680:   BIT SIZE AT DEPTH
 DFT .                KCL:   DRILLING FLUID TYPE
 DFD .                9.4:   DRILLING FLUID DENSITY
 DFV .                 45:   DRILLING FLUID VISCOSITY
 DFPH.                 12:   DRILLING FLUID PH
 MSS .           FLOWLINE:   MUD SAMPLE SOURCE
 RMS .OHMM            .11:   RESISTIVITY MUD SAMPLE
 MST .F                65:   MUD SAMPLE TEMPERATURE
 RMF .OHMM             .1:   RESISTIVITY MUD FILTRATE SAMPLE
 MFST.F                60:   MUD FILTRATE SAMPLE TEMPERATURE
 RMC .OHMM            .17:   RESISTIVITY MUD CAKE
 MCST.F                65:   MUD CAKE SAMPLE TEMPERATURE
 MFSS.               MEAS:   MUD FILTRATE SAMPLE SOURCE
 MCSS.              CHART:   MUD CAKE SAMPLE SOURCE
 TCS .HRS              .5:   TIME CURCULATED STOPPED
 MRT .F               100:   MAXIMUM RECORDED TEMPERATURE
 LUN .               6240:   LOGGING UNIT NUMBER
 LUL .               RVTN:   LOGGING UNIT LOCATION
 ENGI.            K. RALL:   RECORDING ENGINEER
 WITN.     AMAND/MCINTYRE:   WITNESSED BY
 CLNT.            A2DTECH:   CLIENT CODE
 ORIG.        2" 5" PRINT:   ORIGIN OF DATA
 UWI .       490251084100:   UNIQUE WELL ID
 DICO. A2D Technologies, Inc.:   DIGITIZING COMPANY
~OTHER INFORMATION
~A   DEPT       SPR       SFL         ILD         ILM      GRD       RHOB       CALD       CORR       DPOR       NPOR   
# ...
  120.5000   -55.0348    10.1234     9.9941     8.8063    94.5764     2.3073     7.9450     0.0020     0.2252     0.2955
  121.0000   -56.9495     9.7512     9.0711     7.8003    94.2702     2.2981     7.9467    -0.0025     0.2244     0.2982
  121.5000   -58.8402     8.3603     8.3323     6.8785    93.8491     2.3248     7.9512    -0.0035     0.2054     0.3164
  122.0000   -60.2087     7.1677     7.6534     6.3450    94.0773     2.3651     7.9556     0.0279     0.1782     0.3349
  122.5000   -61.4973     6.1453     7.1090     5.9596    94.7734     2.3944     7.9601     0.0447     0.1693     0.3513
  123.0000   -62.3658     5.9369     6.6525     5.7537    96.4011     2.3695     7.9646     0.0452     0.1843     0.3372
  123.5000   -63.0827     6.2460     6.2229     5.5564    97.9751     2.3537     7.9664     0.0449     0.1928     0.3170
  124.0000   -63.7525     6.5033     5.9675     5.3629   100.9326     2.3622     7.9675     0.0497     0.1829     0.3174
  124.5000   -64.0936     6.7756     5.7813     5.2679   104.3196     2.3839     7.9687     0.0509     0.1702     0.3369
  125.0000   -64.4195     7.0110     5.6699     5.1783   107.7205     2.4095     7.9699     0.0476     0.1566     0.3455
  125.5000   -64.7516     7.0036     5.6502     5.0911   111.8055     2.4185     7.9711     0.0439     0.1570     0.3288
  126.0000   -65.3914     7.0069     5.6258     5.0630   115.9247     2.4127     7.9723     0.0400     0.1601     0.3138
  126.5000   -66.6254     6.8929     5.6015     5.0412   119.9980     2.4134     7.9735     0.0416     0.1561     0.3267
  127.0000   -67.8527     6.8247     5.5774     5.0195   122.5105     2.4181     7.9746     0.0413     0.1553     0.3289
  127.5000   -68.9653     6.7567     5.5664     4.9978   121.6109     2.4019     7.9758     0.0368     0.1699     0.3159
  128.0000   -68.4628     6.6889     5.5658     4.9846   119.2603     2.3798     7.9770     0.0230     0.1843     0.3157
  128.5000   -67.4131     6.8346     5.6412     5.0361   115.9744     2.3712     7.9782     0.0190     0.1793     0.3449
  129.0000   -66.3927     7.0735     5.7342     5.1004   113.7879     2.3827     7.9794     0.0169     0.1736     0.3445
  129.5000   -66.1884     7.3207     5.8292     5.1656   111.8201     2.3857     7.9806     0.0151     0.1816     0.3241
  130.0000   -66.0169     7.5414     5.9256     5.2315   112.7125     2.3665     7.9818     0.0072     0.1872     0.3214
  130.5000   -66.0568     7.4316     6.0236     5.2983   114.7186     2.3652     7.9830    -0.0009     0.1782     0.3350
  131.0000   -66.1899     7.2378     6.1030     5.3654   116.7409     2.3811     7.9842    -0.0014     0.1738     0.3437
  131.5000   -66.3259     7.0486     6.0411     5.4152   117.5221     2.3861     7.9853     0.0049     0.1776     0.3396
  132.0000   -66.4618     6.8780     5.9900     5.3818   115.8083     2.3801     7.9871     0.0105     0.1777     0.3200
  132.5000   -66.6112     6.8784     5.9393     5.3497   112.1566     2.3934     7.9891     0.0154     0.1582     0.3149
  133.0000   -66.8230     6.9421     5.8891     5.3180   109.0256     2.4140     7.9911     0.0309     0.1619     0.3118
  133.5000   -67.0288     6.8096     5.8286     5.2864   108.3786     2.4079     7.9931     0.0259     0.1666     0.3026
  134.0000   -67.1859     6.6374     5.8356     5.2551   108.7965     2.4007     7.9952     0.0175     0.1693     0.2978
  134.5000   -67.2315     6.5090     5.8445     5.2193   109.9627     2.3957     7.9972     0.0033     0.1693     0.2957
  135.0000   -67.2793     6.5668     5.8536     5.2640   113.0984     2.3951     7.9992    -0.0004     0.1692     0.2928
  135.5000   -67.3264     6.6138     5.8625     5.3170   116.4883     2.3942     8.0012     0.0005     0.1723     0.2894
  136.0000   -67.3737     6.6612     5.8716     5.3705   119.9674     2.3867     8.0032     0.0014     0.1798     0.2962
  136.5000   -67.4210     6.6912     5.8806     5.4245   119.8784     2.3716     8.0052     0.0015     0.1808     0.3170
  137.0000   -67.4682     6.6912     5.9171     5.4791   114.5585     2.3763     8.0073     0.0015     0.1746     0.3289
  137.5000   -67.5152     6.6912     5.9612     5.5343   111.4769     2.3883     8.0093     0.0013     0.1665     0.3099
  138.0000   -67.5571     6.6912     6.0057     5.5900   111.2437     2.3993     8.0113     0.0005     0.1664     0.2884
  138.5000   -67.7883     6.8303     6.0505     5.6462   115.7136     2.4001     8.0133    -0.0004     0.1638     0.2790
  139.0000   -68.0486     6.9615     6.0957     5.7031   119.8401     2.4028     8.0153     0.0018     0.1610     0.2961
  139.5000   -68.3166     7.0710     6.1411     5.7605   119.8419     2.4130     8.0174     0.0047     0.1589     0.3202
  140.0000   -68.4174     6.9826     6.2137     5.8185   115.4938     2.4050     8.0194     0.0075     0.1718     0.3118
  140.5000   -68.4760     6.8728     6.3054     5.8770   113.7291     2.3708     8.0214     0.0030     0.1824     0.3058
  141.0000   -68.5327     6.8155     6.3983     5.9362   112.5519     2.3699     8.0234    -0.0034     0.1820     0.3153
  141.5000   -68.5431     6.8492     6.4927     5.9959   110.7541     2.3922     8.0253    -0.0031     0.1684     0.3246
  142.0000   -68.4027     6.9587     6.5884     6.0563   109.1140     2.4090     8.0218     0.0042     0.1583     0.3262
  142.5000   -68.2686     7.0699     6.6727     6.1172   110.0558     2.4263     8.0123     0.0120     0.1491     0.3020
  143.0000   -68.1342     7.1829     6.7483     6.1788   111.3752     2.4274     8.0162     0.0212     0.1493     0.2954
  143.5000   -67.9990     7.2023     6.8248     6.2410   112.8141     2.4148     8.0272     0.0140     0.1569     0.3002
  144.0000   -67.8660     7.0688     6.9021     6.3038   114.7670     2.4011     8.0285     0.0073     0.1636     0.3086
  144.5000   -67.8290     7.0062     6.9803     6.3673   115.9544     2.3992     8.0298    -0.0049     0.1661     0.2973
  145.0000   -68.0822     7.1167     7.0594     6.4313   114.3122     2.4181     8.0310     0.0008     0.1584     0.2937
  145.5000   -68.3251     7.2019     7.1394     6.5090   112.2263     2.4333     8.0323     0.0077     0.1477     0.2948
  146.0000   -68.6605     7.2894     7.2023     6.4496   111.1514     2.4369     8.0335     0.0151     0.1465     0.3169
  146.5000   -69.1373     7.3355     7.1307     6.3762   111.3809     2.4550     8.0347     0.0343     0.1355     0.3277
  147.0000   -69.5851     7.1324     7.0458     6.3036   111.9534     2.4719     8.0360     0.0546     0.1234     0.3148
  147.5000   -69.8285     6.9950     6.9618     6.2318   111.8876     2.4674     8.0372     0.0498     0.1238     0.3032
  148.0000   -70.0596     6.8602     6.8789     6.1608   111.7695     2.4607     8.0385     0.0428     0.1301     0.2966
  148.5000   -70.2909     6.7408     6.7969     6.0907   110.4625     2.4660     8.0398     0.0421     0.1293     0.2983
  149.0000   -70.4788     6.6769     6.7159     6.0213   109.4491     2.4619     8.0410     0.0395     0.1274     0.3011
  149.5000   -70.6402     6.6094     6.6359     5.9527   110.0056     2.4461     8.0422     0.0299     0.1367     0.3026
  150.0000   -70.8011     6.5299     6.5568     5.8849   111.3867     2.4263     8.0435     0.0211     0.1481     0.3090
  150.5000   -70.9612     6.4494     6.4787     5.8286   112.3868     2.4180     8.0447     0.0143     0.1549     0.3151
  151.0000   -71.1203     6.4745     6.3904     5.8546   110.6004     2.4257     8.0460     0.0105     0.1514     0.3189
  151.5000   -71.2893     6.5065     6.3988     5.8814   109.7984     2.4304     8.0472     0.0060     0.1477     0.3190
  152.0000   -71.9221     6.5387     6.4085     5.9083   109.5260     2.4246     8.0485     0.0001     0.1505     0.3246
  152.5000   -73.4170     6.5710     6.4185     5.9353   109.5844     2.4338     8.0497     0.0081     0.1462     0.3246
  153.0000   -74.8955     6.6035     6.4285     5.9625   110.6596     2.4376     8.0510     0.0136     0.1409     0.3246
  153.5000   -76.2282     6.6299     6.4383     5.9898   111.1720     2.4261     8.0522     0.0072     0.1480     0.3214
