~VERSION INFORMATION
 VERS.                2.0:   CWLS LOG ASCII STANDARD - VERSION 2.0
 WRAP.                 NO:   ONE LINE PER DEPTH STEP
~WELL INFORMATION
#MNEM.UNIT      DATA TYPE    INFORMATION
#----------   ------------   ------------------------------
 STRT.F           28.0000:   START DEPTH
 STOP.F          630.0000:   STOP DEPTH
 STEP.F            0.5000:   STEP LENGTH
 NULL.          -999.2500:   NO VALUE
 COMP. FENIX & SCISSON INC:   COMPANY
 WELL. NAVAL PETROLEUM RESERVE 3 SX-1 #81-15:   WELL
 FLD .             TEAPOT:   FIELD
 LOC .      S15 T38N R78W:   LOCATION
 CNTY.            NATRONA:   COUNTY
 STAT.            WYOMING:   STATE
 CTRY. UNITED STATES OF AMERICA:   COUNTRY
 SRVC.           BIRDWELL:   SERVICE COMPANY
 DATE.        03-JUN-1978:   LOGDATE
 API .       490251063900:   API NUMBER
~CURVE INFORMATION
#MNEM.UNIT       API CODE    CURVE DESCRIPTION
#----------   ------------   ------------------------------
 DEPT.F                  :   
 SPR .MV     05 010 01 00:   SPONTANEOUS POTENTIAL FROM RES.
 SN  .OHMM   05 040 16 00:   SHORT NORMAL 16"
 ILD .OHMM   05 120 46 00:   INDUCTION LOG DEEP
 CALD.IN     45 280 60 00:   CALIPER FROM DENSITY LOG
 GRD .GAPI   45 310 01 00:   GAMMA RAY FROM DENSITY LOG
 CORR.G/C3   45 356 01 00:   DENSITY CORRECTION
 DPHI.DEC    45 890 12 00:   DENSITY POROSITY SANDSTONE
 DEN .G/C3   45 350 01 00:   COMPENSATED BULK DENSITY
~PARAMETER INFORMATION
#MNEM.UNIT          VALUE    DESCRIPTION
#----------   ------------   ------------------------------
 PD  .                 GL:   PERMANENT DATUM
 EPD .F              5263:   ELEVATION PERMANENT DATUM
 LMF .                 KB:   LOG MEASURED FROM
 DAPD.F                 4:   FEET ABOVE PERMANENT DATUM
 DMF .                 KB:   DRILLING MEASURED FROM
 EKB .F              5267:   KELLING BUSHING
 EGL .F              5263:   GROUND LEVEL
 DATE.        03-JUN-1978:   RUN DATE
 RUN .                  1:   RUN NUMBER
 DD  .F               632:   DEPTH DRILLER
 DL  .F               636:   DEPTH LOGGER
 BLI .F               630:   BOTTOM LOG INTERVAL
 TLI .F                40:   TOP LOG INTERVAL
 CS  .IN            8.625:   CASING SIZE
 CBD .F                40:   CASING BOTTOM DRILLER
 CBL .F                40:   CASING BOTTOM LOGGER
 BS  .IN            7.875:   BIT SIZE
 BSD .F               632:   BIT SIZE AT DEPTH
 DFT .                KCL:   DRILLING FLUID TYPE
 DFD .                8.7:   DRILLING FLUID DENSITY
 DFV .                 31:   DRILLING FLUID VISCOSITY
 DFPH.                 10:   DRILLING FLUID PH
 DFL .                9.2:   DRILLING FLUID LOSS
 MSS .           FLOWLINE:   MUD SAMPLE SOURCE
 RMS .OHMM            .26:   RESISTIVITY MUD SAMPLE
 MST .F                66:   MUD SAMPLE TEMPERATURE
 RMF .OHMM            .24:   RESISTIVITY MUD FILTRATE SAMPLE
 MFST.F                74:   MUD FILTRATE SAMPLE TEMPERATURE
 RMC .OHMM            .34:   RESISTIVITY MUD CAKE
 MCST.F                75:   MUD CAKE SAMPLE TEMPERATURE
 MFSS.               MEAS:   MUD FILTRATE SAMPLE SOURCE
 MCSS.               MEAS:   MUD CAKE SAMPLE SOURCE
 RMB .OHMM            .23:   RESISTIVITY MUD AT BHT
 BHT .F                74:   BOTTOM HOLE TEMPERATURE
 TCS .HRS            0100:   TIME CURCULATED STOPPED
 MRT .F                74:   MAXIMUM RECORDED TEMPERATURE
 LUN .               2958:   LOGGING UNIT NUMBER
 LUL .               CASP:   LOGGING UNIT LOCATION
 ENGI.             MILLER:   RECORDING ENGINEER
 WITN.           MCGINLEY:   WITNESSED BY
 CLNT.            A2DTECH:   CLIENT CODE
 ORIG.           5" PRINT:   ORIGIN OF DATA
 UWI .       490251063900:   UNIQUE WELL ID
 DICO. A2D Technologies, Inc.:   DIGITIZING COMPANY
~OTHER INFORMATION
~A   DEPT      SPR         SN        ILD       CALD         GRD      CORR       DPHI        DEN   
   28.0000  -999.2500  -999.2500  -999.2500  -999.2500    49.6275  -999.2500  -999.2500  -999.2500
   28.5000  -999.2500  -999.2500  -999.2500  -999.2500    47.9411  -999.2500  -999.2500  -999.2500
   29.0000  -999.2500  -999.2500  -999.2500  -999.2500    48.9992  -999.2500  -999.2500  -999.2500
   29.5000  -999.2500  -999.2500  -999.2500  -999.2500    48.6832  -999.2500  -999.2500  -999.2500
   30.0000  -999.2500  -999.2500  -999.2500  -999.2500    49.1307  -999.2500  -999.2500  -999.2500
   30.5000  -999.2500  -999.2500  -999.2500  -999.2500    49.4254  -999.2500  -999.2500  -999.2500
   31.0000  -999.2500  -999.2500  -999.2500  -999.2500    46.2087  -999.2500  -999.2500  -999.2500
   31.5000  -999.2500  -999.2500  -999.2500  -999.2500    45.9678  -999.2500  -999.2500  -999.2500
   32.0000  -999.2500  -999.2500  -999.2500  -999.2500    48.4749  -999.2500  -999.2500  -999.2500
   32.5000  -999.2500  -999.2500  -999.2500  -999.2500    48.9250  -999.2500  -999.2500  -999.2500
   33.0000  -999.2500  -999.2500  -999.2500  -999.2500    46.6217  -999.2500  -999.2500  -999.2500
   33.5000  -999.2500  -999.2500  -999.2500  -999.2500    46.6111  -999.2500  -999.2500  -999.2500
   34.0000  -999.2500  -999.2500  -999.2500  -999.2500    47.2112  -999.2500  -999.2500  -999.2500
   34.5000  -999.2500  -999.2500  -999.2500  -999.2500    48.1166  -999.2500  -999.2500  -999.2500
   35.0000  -999.2500  -999.2500  -999.2500  -999.2500    49.0220  -999.2500  -999.2500  -999.2500
   35.5000  -999.2500  -999.2500  -999.2500  -999.2500    50.2328  -999.2500  -999.2500  -999.2500
   36.0000  -999.2500  -999.2500  -999.2500  -999.2500    50.8355  -999.2500  -999.2500  -999.2500
   36.5000  -999.2500  -999.2500  -999.2500  -999.2500    50.3643  -999.2500  -999.2500  -999.2500
   37.0000  -999.2500  -999.2500  -999.2500  -999.2500    47.7556  -999.2500  -999.2500  -999.2500
   37.5000  -999.2500  -999.2500  -999.2500  -999.2500    44.2336  -999.2500  -999.2500  -999.2500
   38.0000  -999.2500  -999.2500  -999.2500  -999.2500    42.8489    -0.2687  -999.2500  -999.2500
   38.5000  -999.2500  -999.2500  -999.2500  -999.2500    42.2303    -0.2674  -999.2500  -999.2500
   39.0000  -999.2500  -999.2500  -999.2500  -999.2500    43.4384     0.0951  -999.2500  -999.2500
   39.5000  -999.2500  -999.2500  -999.2500  -999.2500    44.1912     0.1906  -999.2500  -999.2500
   40.0000  -999.2500  -999.2500  -999.2500  -999.2500    44.6386     0.1981  -999.2500  -999.2500
   40.5000  -999.2500  -999.2500  -999.2500     8.3168    44.7806     0.1478     0.1708     2.3990
   41.0000  -999.2500  -999.2500  -999.2500     8.1483    45.8387     0.1021     0.1657     2.3965
   41.5000  -999.2500  -999.2500  -999.2500     8.0559    51.9350     0.0572     0.1864     2.3473
   42.0000  -999.2500  -999.2500  -999.2500     7.9635    58.6420     0.0457     0.2044     2.3297
   42.5000  -999.2500  -999.2500  -999.2500     7.8256    59.2474     0.0470     0.2099     2.3258
   43.0000  -999.2500  -999.2500  -999.2500     7.7180    56.7887     0.0469     0.2111     2.3265
   43.5000  -999.2500  -999.2500  -999.2500     7.6559    56.3228     0.0482     0.2096     2.3332
   44.0000  -999.2500  -999.2500  -999.2500     7.6089    57.2255     0.0466     0.2051     2.3445
   44.5000    -8.9255    11.1593    25.0196     7.5771    57.9783     0.0464     0.1951     2.3619
   45.0000   -12.9889    11.6342    15.4159     7.5605    58.7311     0.0417     0.1891     2.3732
   45.5000   -15.9995    12.0453    15.5069     7.5590    59.1785     0.0370     0.1818     2.3830
   46.0000   -31.0220    12.1293    15.4796     7.5730    59.1679     0.0323     0.1758     2.3883
   46.5000   -17.2158    12.1293    15.4579     7.6014    59.1573     0.0321     0.1728     2.3920
   47.0000   -11.9680    12.1462    15.4362     7.6302    58.9940     0.0350     0.1756     2.3744
   47.5000   -10.6223    12.2280    15.4145     7.6893    57.9147     0.0349     0.1823     2.3743
   48.0000   -13.0323    12.4078    15.3928     7.7939    56.5301     0.0378     0.1832     2.3750
   48.5000    -7.0338    12.6455    15.3712     7.9590    56.6721     0.0410     0.1869     2.3490
   49.0000    -7.0432    12.6455    15.3496     8.0939    57.7302     0.0420     0.1982     2.3475
   49.5000    -3.4472    12.7336    15.3281     8.1984    57.1090     0.0435     0.2055     2.3344
   50.0000    -2.2535    12.9117    15.3065     8.2143    56.4877     0.0417     0.2052     2.3351
   50.5000    -2.1090    13.2755    15.2850     8.2106    56.7824     0.0370     0.1995     2.3426
   51.0000    -1.9664    13.6495    15.2636     8.1939    57.9932     0.0368     0.1995     2.3425
   51.5000    -1.8203    14.1374    15.2465     8.1469    59.3566     0.0381     0.1992     2.3485
   52.0000    -1.7709    14.4313    15.2254     8.1303    57.8167     0.0425     0.1929     2.3613
   52.5000    -1.7216    14.8336    15.2042     8.1288    53.9893     0.0483     0.1796     2.3726
   53.0000    -1.6722    15.2472    15.6752     8.1424    51.6886     0.0527     0.1754     2.3946
   53.5000    -1.6228    15.5641    16.2242     8.1712    51.8307     0.0555     0.1618     2.4279
   54.0000    -1.5735    15.9981    16.7924     8.2156    56.5529     0.0569     0.1299     2.4772
   54.5000    -1.5241    16.3430    17.5013     8.3061    59.1377     0.0475     0.1111     2.5037
   55.0000    -1.4106    16.6701    18.3669     8.5043    60.6538     0.0291     0.1039     2.5067
   55.5000    -1.4179    16.8983    19.5604     8.8663    64.3074     0.0183     0.1051     2.4906
   56.0000    -1.4237    17.0132    20.9403     8.9667    63.6861     0.0228     0.1167     2.4731
   56.5000    -1.2793    16.8915    21.8243     8.9652    59.4007     0.0306     0.1328     2.4562
   57.0000    -1.2852    16.5408    22.1253     8.9485    57.1000     0.0472     0.1487     2.4297
   57.5000    -1.1409    16.0857    22.1197     8.9264    50.3718     0.0603     0.1754     2.3968
   58.0000    -1.1482    15.6431    21.5111     8.7027    46.0864     0.0446     0.1934     2.3760
   58.5000    -1.1540    15.2126    21.0646     8.5952    48.5186     0.0399     0.2034     2.3416
   59.0000    -1.3100    14.7933    20.3436     8.4421    52.0194     0.0443     0.2041     2.3380
   59.5000    -1.4659    14.4862    19.6373     8.3346    54.7569     0.0456     0.1999     2.3412
   60.0000    -1.6219    14.0876    18.7129     8.2573    57.0364     0.0408     0.1926     2.3591
   60.5000    -1.9280    13.7952    18.1980     8.2406    57.4865     0.0376     0.1902     2.3621
   61.0000    -2.0911    13.6027    17.6972     8.2391    57.4732     0.0374     0.1902     2.3589
   61.5000    -2.4159    13.4129    17.3299     8.2376    57.4626     0.0356     0.1918     2.3565
   62.0000    -2.6977    13.2257    17.2068     8.2210    58.3681     0.0339     0.1906     2.3595
   62.5000    -3.1540    13.0411    17.0846     8.2195    59.8842     0.0368     0.1879     2.3662
   63.0000    -3.4601    12.9479    16.8462     8.1877    60.1789     0.0366     0.1867     2.3631
   63.5000    -3.7663    12.7673    16.7265     8.1710    61.6950     0.0333     0.1883     2.3615
   64.0000    -3.9222    12.6766    16.7224     8.1695    63.0611     0.0286     0.1873     2.3698
   64.5000    -4.2284    12.5866    16.7190     8.1680    61.2158     0.0254     0.1797     2.3803
   65.0000    -4.5345    12.4972    16.7157     8.1665    59.9838     0.0252     0.1760     2.3893
   65.5000    -4.8644    12.3228    16.7123     8.1347    58.9045     0.0295     0.1702     2.4007
   66.0000    -5.2983    12.0670    16.4791     8.1029    58.8939     0.0354     0.1709     2.3914
   66.5000    -5.9048    11.8108    16.2492     8.0710    59.1913     0.0428     0.1736     2.3929
   67.0000    -6.5112    11.4115    15.5847     8.0695    56.8854     0.0472     0.1664     2.4042
   67.5000    -7.2678    10.9449    14.4090     8.1286    54.8900     0.0470     0.1579     2.4231
   68.0000    -8.0244    10.2815    12.7434     8.1877    54.5741     0.0468     0.1437     2.4405
