~VERSION INFORMATION
 VERS.                2.0:   CWLS LOG ASCII STANDARD - VERSION 2.0
 WRAP.                 NO:   ONE LINE PER DEPTH STEP
~WELL INFORMATION
#MNEM.UNIT      DATA TYPE    INFORMATION
#----------   ------------   ------------------------------
 STRT.F           22.0000:   START DEPTH
 STOP.F          564.0000:   STOP DEPTH
 STEP.F            0.5000:   STEP LENGTH
 NULL.          -999.2500:   NO VALUE
 COMP.    FENIX & SCISSON:   COMPANY
 WELL. NPR # #3 12 - SX 11:   WELL
 FLD .             TEAPOT:   FIELD
 LOC .      S11 T38N R78W:   LOCATION
 CNTY.            NATRONA:   COUNTY
 STAT.            WYOMING:   STATE
 CTRY. UNITED STATES OF AMERICA:   COUNTRY
 SRVC.           BIRDWELL:   SERVICE COMPANY
 DATE.        29-NOV-1978:   LOGDATE
 API .       490251075500:   API NUMBER
~CURVE INFORMATION
#MNEM.UNIT       API CODE    CURVE DESCRIPTION
#----------   ------------   ------------------------------
 DEPT.F                  :   
 ILD .OHMM   05 120 46 00:   INDUCTION LOG DEEP
 SN  .OHMM   05 040 00 00:   SHORT NORMAL
 SPR .MV     05 010 01 00:   SPONTANEOUS POTENTIAL FROM RES.
 CALD.IN     45 280 60 00:   CALIPER FROM DENSITY LOG
 CORR.G/C3   45 356 01 00:   DENSITY CORRECTION
 DPHI.DEC    45 890 12 00:   DENSITY POROSITY SANDSTONE
 GRD .GAPI   45 310 01 00:   GAMMA RAY FROM DENSITY LOG
 RHOB.G/C3   45 350 01 00:   BULK DENSITY
~PARAMETER INFORMATION
#MNEM.UNIT          VALUE    DESCRIPTION
#----------   ------------   ------------------------------
 PD  .                 GL:   PERMANENT DATUM
 EPD .F              5143:   ELEVATION PERMANENT DATUM
 LMF .                 KB:   LOG MEASURED FROM
 DAPD.F                 4:   FEET ABOVE PERMANENT DATUM
 DMF .                 KB:   DRILLING MEASURED FROM
 EKB .F              5147:   KELLING BUSHING
 EGL .F              5143:   GROUND LEVEL
 DATE.        29-NOV-1978:   RUN DATE
 RUN .                  1:   RUN NUMBER
 DD  .F               562:   DEPTH DRILLER
 DL  .F               564:   DEPTH LOGGER
 BLI .F               564:   BOTTOM LOG INTERVAL
 TLI .F                30:   TOP LOG INTERVAL
 CS  .IN            8.625:   CASING SIZE
 CBL .F                48:   CASING BOTTOM LOGGER
 BS  .IN            7.875:   BIT SIZE
 BSD .F               562:   BIT SIZE AT DEPTH
 DFT .                KCL:   DRILLING FLUID TYPE
 DFD .                8.7:   DRILLING FLUID DENSITY
 DFV .                 36:   DRILLING FLUID VISCOSITY
 DFPH.               10.9:   DRILLING FLUID PH
 DFL .                 12:   DRILLING FLUID LOSS
 MSS .           FLOWLINE:   MUD SAMPLE SOURCE
 RMS .OHMM           0.34:   RESISTIVITY MUD SAMPLE
 MST .F                56:   MUD SAMPLE TEMPERATURE
 RMF .OHMM           0.32:   RESISTIVITY MUD FILTRATE SAMPLE
 MFST.F                59:   MUD FILTRATE SAMPLE TEMPERATURE
 RMC .OHMM            0.4:   RESISTIVITY MUD CAKE
 MCST.F                59:   MUD CAKE SAMPLE TEMPERATURE
 MFSS.               MEAS:   MUD FILTRATE SAMPLE SOURCE
 MCSS.               MEAS:   MUD CAKE SAMPLE SOURCE
 RMB .OHMM           0.33:   RESISTIVITY MUD AT BHT
 BHT .F                59:   BOTTOM HOLE TEMPERATURE
 TCS .HRS               1:   TIME CURCULATED STOPPED
 MRT .F                59:   MAXIMUM RECORDED TEMPERATURE
 LUN .               2958:   LOGGING UNIT NUMBER
 LUL .               CASP:   LOGGING UNIT LOCATION
 ENGI.             MILLER:   RECORDING ENGINEER
 WITN.           DINSMORE:   WITNESSED BY
 CLNT.            A2DTECH:   CLIENT CODE
 ORIG.           5" PRINT:   ORIGIN OF DATA
 UWI .       490251075500:   UNIQUE WELL ID
 DICO. A2D Technologies, Inc.:   DIGITIZING COMPANY
~OTHER INFORMATION
~A   DEPT      ILD         SN        SPR       CALD       CORR       DPHI         GRD      RHOB   
# ...
  305.5000     6.6576     7.2600   -30.8357     8.1901     0.0167     0.1300   111.1614     2.4574
  306.0000     6.9393     7.6207   -30.8283     8.1602     0.0062     0.1354   112.9689     2.4686
  306.5000     7.4362     7.9992   -30.8209     8.1455     0.0047     0.1408   115.6786     2.4627
  307.0000     7.7588     8.2279   -30.8135     8.1307     0.0032     0.1486   118.3884     2.4492
  307.5000     7.8580     8.4544   -30.8061     8.1147     0.0047     0.1477   121.6996     2.4432
  308.0000     7.7485     8.7520   -30.7987     8.0861     0.0062     0.1416   120.6499     2.4448
  308.5000     7.6942     8.8125   -30.7913     8.0714     0.0093     0.1329   116.2920     2.4526
  309.0000     7.7467     8.8117   -30.7839     8.0717     0.0108     0.1290   116.5957     2.4672
  309.5000     7.7454     8.8111   -30.7765     8.0720     0.0093     0.1329   116.7483     2.4665
  310.0000     7.7443     8.8105   -30.7691     8.0723     0.0093     0.1323   114.1956     2.4658
  310.5000     7.7971     8.8714   -30.7617     8.0726     0.0063     0.1308   111.7926     2.4680
  311.0000     7.8506     8.9325   -30.7541     8.0578     0.0063     0.1290   113.2993     2.4703
  311.5000     7.8492     8.9318   -30.7466     8.0582     0.0064     0.1311   113.9038     2.4726
  312.0000     7.8481     8.8694   -31.1902     8.0735     0.0064     0.1341   115.1699     2.4703
  312.5000     7.9017     8.8075   -31.3355     8.0738     0.0064     0.1365   120.0754     2.4613
  313.0000     7.9006     8.8682   -31.3262     8.0741     0.0064     0.1380   123.2362     2.4606
  313.5000     7.8449     8.8676   -31.3188     8.0744     0.0064     0.1401   126.9986     2.4576
  314.0000     7.8438     8.8670   -31.3114     8.0747     0.0049     0.1395   128.3789     2.4539
  314.5000     7.8425     8.8663   -31.3040     8.0750     0.0034     0.1389   125.0496     2.4539
  315.0000     7.8415     8.8657   -31.6001     8.0753     0.0035     0.1392   119.6241     2.4539
  315.5000     7.8404     8.8038   -31.7436     8.0756     0.0065     0.1401   119.9699     2.4532
  316.0000     7.8393     8.8032   -31.7343     8.0910     0.0095     0.1424   120.8481     2.4531
  316.5000     7.7304     8.7418   -31.7269     8.0913     0.0110     0.1509   120.5502     2.4472
  317.0000     7.6760     8.6807   -31.7195     8.0921     0.0125     0.1490   120.4028     2.4359
  317.5000     7.6219     8.6802   -31.7119     8.1069     0.0125     0.1454   119.5043     2.4345
  318.0000     7.4641     8.6796   -31.7029     8.1072     0.0261     0.1382   116.4997     2.4427
  318.5000     7.3603     8.5594   -31.6955     8.1075     0.0471     0.1256   117.7057     2.4720
  319.0000     7.2580     8.5588   -31.8408     8.1229     0.0576     0.1148   120.2650     2.4856
  319.5000     7.2069     8.4404   -32.1351     8.1081     0.0621     0.1184   120.5680     2.4946
  320.0000     7.1035     8.3235   -32.2785     8.1386     0.0532     0.1283   118.4657     2.4901
  320.5000     7.0079     8.1435   -32.4219     8.1389     0.0336     0.1523   120.5747     2.4773
  321.0000     6.8152     7.8731   -32.4127     8.1693     0.0201     0.1580   122.6829     2.4511
  321.5000     6.6280     7.7641   -32.4053     8.1997     0.0217     0.1619   125.6934     2.4226
  322.0000     6.4907     7.6566   -32.3979     8.2151     0.0247     0.1586   126.0752     2.4211
  322.5000     6.3563     7.6032   -32.3906     8.2154     0.0292     0.1538   122.9926     2.4271
  323.0000     6.2679     7.6027   -32.3831     8.2157     0.0307     0.1502   120.4391     2.4324
  323.5000     6.2671     7.5497   -32.3756     8.2160     0.0307     0.1487   118.4872     2.4361
  324.0000     6.2230     7.6018   -32.3680     8.2163     0.0292     0.1520   120.4453     2.4339
  324.5000     6.1791     7.5486   -32.3591     8.2166     0.0263     0.1611   124.9596     2.4264
  325.0000     6.1356     7.2404   -32.3517     8.2169     0.0218     0.1702   129.6242     2.4152
  325.5000     6.0924     6.8492   -32.3443     8.2322     0.0173     0.1670   130.7294     2.4002
  326.0000     6.0916     6.7544   -32.3369     8.2325     0.0173     0.1513   126.1715     2.4062
  326.5000     6.0934     6.7539   -32.6330     8.2479     0.0158     0.1441   123.0151     2.4287
  327.0000     6.1749     6.7600   -32.7765     8.2176     0.0053     0.1453   118.4540     2.4483
  327.5000     6.3916     6.9428   -32.9199     8.1732    -0.0037     0.1459   116.3884     2.4438
  328.0000     6.6160     7.2373   -32.9107     8.0962    -0.0052     0.1462   116.1081     2.4430
  328.5000     6.9440     7.7566   -32.9033     8.0533    -0.0051     0.1474   116.1118     2.4430
  329.0000     7.3388     7.9742   -32.8959     8.1591    -0.0036     0.1477   117.7690     2.4423
  329.5000     7.4922     7.9737   -32.8884     8.2046    -0.0021     0.1468   117.9216     2.4408
  330.0000     7.3879     7.9731   -32.8808     8.2049    -0.0021     0.1453   117.0230     2.4423
  330.5000     7.0371     7.9726   -32.7210     8.2052    -0.0021     0.1435   116.2741     2.4454
  331.0000     6.7029     7.9721   -32.7136     8.1904    -0.0019     0.1408   115.2244     2.4486
  331.5000     6.3405     7.9715   -32.7062     8.1154     0.0009     0.1426   113.5732     2.4484
  332.0000     6.1238     7.8612   -32.6988     7.9199     0.0040     0.1519   112.6740     2.4424
  332.5000     5.9555     7.6456   -32.6914     7.9955     0.0085     0.1687   112.5258     2.4274
  333.0000     5.8298     7.2264   -32.6841     8.1464     0.0176     0.1738   112.5295     2.4094
  333.5000     5.7511     6.6819   -32.5264     8.1768     0.0190     0.1719   113.4347     2.4004
  334.0000     5.7903     6.4718   -32.5189     8.1470     0.0070     0.1666   119.4527     2.4034
  334.5000     5.9110     6.4713   -32.5110     8.0720    -0.0005     0.1590   121.8752     2.4109
  335.0000     5.9927     6.5613   -32.5036     7.9819    -0.0004     0.1512   120.9624     2.4215
  335.5000     6.1603     6.6525   -32.4963     7.9069     0.0011     0.1419   120.3639     2.4350
  336.0000     6.4209     6.9347   -32.7905     7.9374     0.0011     0.1302   119.5429     2.4523
  336.5000     6.7392     7.4322   -33.0848     8.0280     0.0026     0.1248   115.9333     2.4681
  337.0000     7.0732     7.9104   -33.0755     8.1197    -0.0004     0.1236   111.5014     2.4771
  337.5000     7.4754     8.3611   -33.0681     8.1792    -0.0019     0.1257   110.6021     2.4786
  338.0000     7.7918     8.7764   -33.0608     8.1795    -0.0019     0.1269   110.7554     2.4779
  338.5000     8.0654     9.0227   -33.0543     8.1798    -0.0003     0.1272   111.5102     2.4770
  339.0000     8.2910     9.2118   -33.0460     8.1802     0.0012     0.1224   114.3704     2.4764
  339.5000     8.4640     9.3398   -33.0386     8.1654     0.0042     0.1169   113.3207     2.4787
  340.0000     8.4628     9.3305   -32.8804     8.1506     0.0102     0.1043   110.7673     2.5057
  340.5000     8.5206     9.3385   -32.8730     8.1208     0.0178     0.1016   108.3642     2.5125
  341.0000     8.5787     9.2733   -32.8656     8.1362     0.0175     0.1037   108.0657     2.5132
  341.5000     8.6371     9.2726   -32.8582     8.1666     0.0103     0.1139   108.8213     2.5043
  342.0000     8.6357     9.3367   -32.6998     8.1820    -0.0017     0.1244   112.7340     2.4862
  342.5000     8.6345     9.4009   -32.6923     8.1973    -0.0047     0.1271   111.6843     2.4818
  343.0000     8.5737     9.4657   -32.6848     8.1826    -0.0032     0.1253   111.5368     2.4810
  343.5000     8.6324     9.5309   -32.6759     8.1979    -0.0017     0.1223   111.9910     2.4848
  344.0000     8.6913     9.5302   -32.6685     8.1982    -0.0017     0.1199   112.4451     2.4863
  344.5000     8.6898     9.5399   -32.6611     8.1985    -0.0002     0.1175   112.2977     2.4878
  345.0000     8.7491     9.5952   -32.6537     8.1837     0.0044     0.1157   112.6165     2.4923
  345.5000     8.8087     9.6614   -32.6463     8.1840     0.0074     0.1189   113.5067     2.4939
