~VERSION INFORMATION
 VERS.                2.0:   CWLS LOG ASCII STANDARD - VERSION 2.0
 WRAP.                 NO:   ONE LINE PER DEPTH STEP
~WELL INFORMATION
#MNEM.UNIT      DATA TYPE    INFORMATION
#----------   ------------   ------------------------------
 STRT.F           22.0000:   START DEPTH
 STOP.F          500.0000:   STOP DEPTH
 STEP.F            0.5000:   STEP LENGTH
 NULL.          -999.2500:   NO VALUE
 COMP.    FENIX & SCISSON:   COMPANY
 WELL.      NPR-3 #65S3-3:   WELL
 FLD .             teapot:   FIELD
 LOC .       S3 T38N R78W:   LOCATION
 CNTY.            NATRONA:   COUNTY
 STAT.            WYOMING:   STATE
 CTRY. UNITED STATES OF AMERICA:   COUNTRY
 SRVC.           BIRDWELL:   SERVICE COMPANY
 DATE.        07-JAN-1978:   LOGDATE
 API .       490251055200:   API NUMBER
~CURVE INFORMATION
#MNEM.UNIT       API CODE    CURVE DESCRIPTION
#----------   ------------   ------------------------------
 DEPT.F                  :   
 ILD .OHMM   05 120 46 00:   INDUCTION LOG DEEP
 SN  .OHMM   05 040 16 00:   SHORT NORMAL 16"
 SPR .MV     05 010 01 00:   SPONTANEOUS POTENTIAL FROM RES.
 CALD.IN     45 280 60 00:   CALIPER FROM DENSITY LOG
 DPHI.DEC    45 890 12 00:   DENSITY POROSITY SANDSTONE
 DRHO.G/C3   45 356 01 00:   DENSITY CORRECTION
 GRD .GAPI   45 310 01 00:   GAMMA RAY FROM DENSITY LOG
 RHOB.G/C3   45 350 01 00:   BULK DENSITY
~PARAMETER INFORMATION
#MNEM.UNIT          VALUE    DESCRIPTION
#----------   ------------   ------------------------------
 PD  .                 GL:   PERMANENT DATUM
 EPD .F              5156:   ELEVATION PERMANENT DATUM
 LMF .                 KB:   LOG MEASURED FROM
 DAPD.F                 4:   FEET ABOVE PERMANENT DATUM
 DMF .                 KB:   DRILLING MEASURED FROM
 EKB .F              5160:   KELLING BUSHING
 EGL .F              5156:   GROUND LEVEL
 DATE.        07-JAN-1978:   RUN DATE
 RUN .                  1:   RUN NUMBER
 DD  .F               500:   DEPTH DRILLER
 DL  .F               502:   DEPTH LOGGER
 BLI .F               500:   BOTTOM LOG INTERVAL
 TLI .F                30:   TOP LOG INTERVAL
 CS  .IN            8.625:   CASING SIZE
 CBD .F                40:   CASING BOTTOM DRILLER
 CBL .F                40:   CASING BOTTOM LOGGER
 BS  .IN            7.875:   BIT SIZE
 BSD .F               500:   BIT SIZE AT DEPTH
 DFT .                KCL:   DRILLING FLUID TYPE
 DFD .                8.6:   DRILLING FLUID DENSITY
 DFV .                 33:   DRILLING FLUID VISCOSITY
 DFPH.                9.0:   DRILLING FLUID PH
 DFL .                7.6:   DRILLING FLUID LOSS
 MSS .           FLOWLINE:   MUD SAMPLE SOURCE
 RMS .OHMM           0.23:   RESISTIVITY MUD SAMPLE
 MST .F                60:   MUD SAMPLE TEMPERATURE
 RMF .OHMM            2.2:   RESISTIVITY MUD FILTRATE SAMPLE
 MFST.F                60:   MUD FILTRATE SAMPLE TEMPERATURE
 RMC .OHMM            3.4:   RESISTIVITY MUD CAKE
 MCST.F                60:   MUD CAKE SAMPLE TEMPERATURE
 MFSS.               MEAS:   MUD FILTRATE SAMPLE SOURCE
 MCSS.               MEAS:   MUD CAKE SAMPLE SOURCE
 RMB .OHMM            1.9:   RESISTIVITY MUD AT BHT
 BHT .F                71:   BOTTOM HOLE TEMPERATURE
 TCS .HRS               8:   TIME CURCULATED STOPPED
 MRT .F                71:   MAXIMUM RECORDED TEMPERATURE
 LUN .               2958:   LOGGING UNIT NUMBER
 LUL .             CASPER:   LOGGING UNIT LOCATION
 ENGI.            POINTER:   RECORDING ENGINEER
 WITN.      DAVE MCGINLEY:   WITNESSED BY
 CLNT.            A2DTECH:   CLIENT CODE
 ORIG.           5" PRINT:   ORIGIN OF DATA
 UWI .       490251055200:   UNIQUE WELL ID
 DICO. A2D Technologies, Inc.:   DIGITIZING COMPANY
~OTHER INFORMATION
~A   DEPT      ILD         SN        SPR       CALD       DPHI       DRHO         GRD      RHOB   
# ...
  467.5000     9.0102    13.7332   -35.4495     8.2151     0.0936     0.0025    96.2401     2.4840
  468.0000     9.0011    13.7165   -35.1676     8.2159     0.0981     0.0071    96.5476     2.4787
  468.5000     8.9920    13.6998   -34.8774     8.2166     0.0948     0.0086    96.5625     2.4810
  469.0000     8.9829    13.6832   -34.3054     8.1874     0.0908     0.0095    96.2796     2.4848
  469.5000     8.9738    13.6665   -34.0234     8.1882     0.0869     0.0156    95.3850     2.4834
  470.0000     8.9647    13.5549   -33.8880     8.1889     0.0766     0.0278    94.8016     2.4932
  470.5000     8.8314    13.4442   -34.0675     8.1746     0.0781     0.0362    94.5384     2.5090
  471.0000     8.7591    13.4155   -34.2416     8.1604     0.0799     0.0391    95.1488     2.5120
  471.5000     8.7502    13.2215   -34.2636     8.1612     0.0811     0.0369    96.0853     2.5106
  472.0000     8.6202    13.2054   -34.2877     8.1621     0.0811     0.0408    96.6667     2.5016
  472.5000     8.4922    13.1893   -34.9164     8.1628     0.0807     0.0476    96.6815     2.5024
  473.0000     8.2501    13.0816   -34.9431     8.1935     0.0906     0.0431    96.6964     2.5077
  473.5000     8.1845    13.0657   -34.9652     8.2243     0.0975     0.0264    96.0754     2.5002
  474.0000     8.1761    13.0498   -35.5951     8.2400     0.0948     0.0108    95.8328     2.4800
  474.5000     8.1091    12.9398   -35.6172     8.2408     0.0921     0.0147    96.4435     2.4823
  475.0000     8.1009    12.7328   -35.6392     8.2415     0.0872     0.0155    97.1032     2.4944
  475.5000     8.0927    12.4650   -35.8132     8.2422     0.0868     0.0140    97.6637     2.4922
  476.0000     7.9725    12.2771   -35.8521     8.2430     0.0923     0.0133    97.9762     2.4862
  476.5000     7.8541    12.1769   -36.0148     8.2437     0.0959     0.0126    98.6449     2.4833
  477.0000     7.6302    11.9934   -35.8849     8.2445     0.0962     0.0119    99.1994     2.4841
  477.5000     7.3593    11.8954   -35.9069     8.2602     0.0841     0.0128    99.5118     2.4916
  478.0000     7.0997    11.7162   -36.2329     8.2610     0.0850     0.0128    99.8206     2.4969
  478.5000     7.0432    11.6202   -36.4069     8.2617     0.0874     0.0129    99.2402     2.4954
  479.0000     7.0361    11.4419   -36.4290     8.2625     0.0900     0.0129    98.6635     2.4947
  479.5000     7.0782    11.4280   -35.9951     8.2482     0.0951     0.0130    97.4879     2.4933
  480.0000     7.0711    11.4141   -35.5612     8.2490     0.1065     0.0131    96.6099     2.4896
  480.5000     7.1136    11.6415   -34.9809     8.2497     0.1128     0.0131    96.3234     2.4694
  481.0000     7.2067    11.9567   -34.6934     8.2505     0.1215     0.0132    96.3419     2.4507
  481.5000     7.3587    12.3665   -34.8730     8.2512     0.1107     0.0140    96.9520     2.4477
  482.0000     7.6557    12.7013   -35.0470     8.2519     0.0875     0.0140    97.5621     2.4802
  482.5000     8.0307    12.8743   -35.0690     8.2527     0.0896     0.0133    98.1722     2.4906
  483.0000     8.4832    13.2085   -35.2430     8.2534     0.0835     0.0142    99.3775     2.4944
  483.5000     8.7777    13.4717   -34.9382     8.2542     0.0832     0.0142    99.9876     2.4967
  484.0000     8.9524    13.7402   -34.3808     8.2549     0.0793     0.0150   100.2976     2.4999
  484.5000     9.1322    13.9165   -33.9414     8.2405     0.0738     0.0151  -999.2500     2.5093
  485.0000     9.2512    14.0993   -34.2729     8.2414     0.0708     0.0152  -999.2500     2.5185
  485.5000     9.3717    14.2759   -34.4469     8.2422     0.0789     0.0152  -999.2500     2.5178
  486.0000     9.3598    14.2584   -34.4690     8.2429     0.0801     0.0153  -999.2500     2.5164
  486.5000     9.1567    14.2405   -34.4910     8.2437     0.0801     0.0146  -999.2500     2.5052
  487.0000     9.0838    14.2195   -34.3611     8.2444     0.0797     0.0147  -999.2500     2.5030
  487.5000     9.0746    14.2022   -34.3886     8.2602     0.0791     0.0147  -999.2500     2.5060
  488.0000     9.0655    14.0862   -34.7146     8.2609     0.0722     0.0148  -999.2500     2.5121
  488.5000     9.1197    13.9712   -35.1926     8.2616     0.0731     0.0148  -999.2500     2.5189
  489.0000     9.1720    13.9542   -35.2146     8.2624     0.0814     0.0141  -999.2500     2.5166
  489.5000     9.1627    13.9372   -35.2367     8.2631     0.0913     0.0142  -999.2500     2.5047
  490.0000     9.0898    13.9202   -35.1064     8.2489     0.0964     0.0143  -999.2500     2.4912
  490.5000     9.0806    14.0988   -35.2918     8.2496     0.0946     0.0143  -999.2500     2.4838
  491.0000     9.0084    14.1804   -35.4603     8.2504     0.0877     0.0144  -999.2500     2.4853
  491.5000     8.9993    13.9624   -35.1784     8.2511     0.0831     0.0144  -999.2500     2.4936
  492.0000     8.9841    13.8484   -35.3524     8.2519     0.0804     0.0145  -999.2500     2.5019
  492.5000     8.9164    13.8316   -35.3745     8.2526     0.0810     0.0146  -999.2500     2.5065
  493.0000     8.8454    13.6231   -35.5485     8.2384     0.0819     0.0146  -999.2500     2.5072
  493.5000     8.7140    13.5119   -35.8745     8.2241     0.0818     0.0147  -999.2500     2.5095
  494.0000     8.5249    13.2153   -36.0486     8.2249     0.0812     0.0147  -999.2500     2.5111
  494.5000     8.2819    13.0126   -36.4002     8.2256     0.0815     0.0148  -999.2500     2.4961
  495.0000     8.1588    12.7273   -38.0395     8.2404     0.0818     0.0149  -999.2500     2.5024
  495.5000     8.0375    12.4483  -999.2500  -999.2500     0.0854     0.0149  -999.2500     2.5090
  496.0000     7.9717    12.0907  -999.2500  -999.2500     0.1113     0.0150  -999.2500     2.4861
  496.5000     7.8533    11.7434  -999.2500  -999.2500     0.0998  -999.2500  -999.2500     2.4776
  497.0000     7.7918    11.3360  -999.2500  -999.2500     0.0850  -999.2500  -999.2500     2.4885
  497.5000  -999.2500  -999.2500  -999.2500  -999.2500     0.0852  -999.2500  -999.2500     2.4964
  498.0000  -999.2500  -999.2500  -999.2500  -999.2500     0.0861  -999.2500  -999.2500     2.4987
  498.5000  -999.2500  -999.2500  -999.2500  -999.2500     0.0864  -999.2500  -999.2500     2.5025
  499.0000  -999.2500  -999.2500  -999.2500  -999.2500     0.0843  -999.2500  -999.2500     2.5010
  499.5000  -999.2500  -999.2500  -999.2500  -999.2500     0.0794  -999.2500  -999.2500     2.5048
  500.0000  -999.2500  -999.2500  -999.2500  -999.2500     0.0785  -999.2500  -999.2500     2.5086
