~VERSION INFORMATION
 VERS.                2.0:   CWLS LOG ASCII STANDARD - VERSION 2.0
 WRAP.                 NO:   ONE LINE PER DEPTH STEP
~WELL INFORMATION
#MNEM.UNIT      DATA TYPE    INFORMATION
#----------   ------------   ------------------------------
 STRT.F          906.5000:   START DEPTH
 STOP.F         2710.5000:   STOP DEPTH
 STEP.F            0.5000:   STEP LENGTH
 NULL.          -999.2500:   NO VALUE
 COMP.   FLUOR DANIEL INC:   COMPANY
 WELL. NAVAL PETROLEUM RESERVE 3 X-4 #77-4:   WELL
 FLD .             TEAPOT:   FIELD
 LOC .       S4 T38N R78W:   LOCATION
 CNTY.            NATRONA:   COUNTY
 STAT.            WYOMING:   STATE
 CTRY. UNITED STATES OF AMERICA:   COUNTRY
 SRVC.            Unknown:   SERVICE COMPANY
 DATE.        21-JUN-1995:   LOGDATE
 API .       490252273600:   API NUMBER
~CURVE INFORMATION
#MNEM.UNIT       API CODE    CURVE DESCRIPTION
#----------   ------------   ------------------------------
 DEPT.F                  :   
 TGAS.UNITS  91 830 01 00:   TOTAL GAS FROM HOTWIRE
 ROP .MIN/FT 91 810 01 00:   RAT OF DRILLING PENETRATION
~PARAMETER INFORMATION
#MNEM.UNIT          VALUE    DESCRIPTION
#----------   ------------   ------------------------------
 EKB .F              5291:   KELLING BUSHING
 EGL .F              5281:   GROUND LEVEL
 DATE.            6-21-95:   RUN DATE
 DD  .F              2711:   DEPTH DRILLER
 CBD .F               893:   CASING BOTTOM DRILLER
 ENGI.               HUSK:   RECORDING ENGINEER
 WITN.              TOWER:   WITNESSED BY
 CLNT.            A2DTECH:   CLIENT CODE
 ORIG.           5" PRINT:   ORIGIN OF DATA
 UWI .       490252273600:   UNIQUE WELL ID
 DICO. A2D Technologies, Inc.:   DIGITIZING COMPANY
~OTHER INFORMATION
~A   DEPT      TGAS         ROP 
# ...
 2607.5000   274.1704     0.5518
 2608.0000   275.2569     0.5627
 2608.5000   275.2432     0.5732
 2609.0000   275.7954     0.5726
 2609.5000   276.3421     0.5493
 2610.0000   276.3311     0.5487
 2610.5000   276.3202     0.5481
 2611.0000   276.3092     0.5362
 2611.5000   276.2983     0.5241
 2612.0000   276.2873     0.5235
 2612.5000   276.2764     0.5229
 2613.0000   276.2653     0.5109
 2613.5000   276.8940     0.5103
 2614.0000   277.3643     0.4984
 2614.5000   277.3506     0.4978
 2615.0000   277.9028     0.4972
 2615.5000   278.4522     0.4965
 2616.0000   278.4385     0.4958
 2616.5000   278.4276     0.5065
 2617.0000   277.8562     0.5059
 2617.5000   277.8452     0.5168
 2618.0000   277.2739     0.5274
 2618.5000   277.2628     0.5495
 2619.0000   276.1308     0.5602
 2619.5000   274.9967     0.5482
 2620.0000   274.4253     0.5461
 2620.5000   273.8540     0.5242
 2621.0000   272.1618     0.5123
 2621.5000   270.4696     0.5003
 2622.0000   268.7775     0.4997
 2622.5000   268.2061     0.4991
 2623.0000   267.0744     0.5100
 2623.5000   267.0634     0.5092
 2624.0000   267.0523     0.5203
 2624.5000   266.4807     0.5307
 2625.0000   266.4674     0.5414
 2625.5000   266.4565     0.5522
 2626.0000   267.0060     0.5514
 2626.5000   266.9950     0.5508
 2627.0000   266.4236     0.5502
 2627.5000   266.4126     0.5496
 2628.0000   266.4017     0.5490
 2628.5000   266.3907     0.5484
 2629.0000   266.3798     0.5477
 2629.5000   265.8082     0.5470
 2630.0000   265.7970     0.5577
 2630.5000   264.6630     0.5571
 2631.0000   264.6520     0.5680
 2631.5000   264.6411     0.5672
 2632.0000   265.7509     0.5666
 2632.5000   265.1795     0.5660
 2633.0000   264.6082     0.5654
 2633.5000   263.4764     0.5648
 2634.0000   262.9051     0.5641
 2634.5000   262.3337     0.5635
 2635.0000   261.2017     0.5628
 2635.5000   261.1905     0.5622
 2636.0000   261.7404     0.5616
 2636.5000   262.2899     0.5610
 2637.0000   262.8394     0.5604
 2637.5000   263.3888     0.5598
 2638.0000   263.9382     0.5592
 2638.5000   264.4877     0.5584
 2639.0000   265.0371     0.5578
 2639.5000   265.0234     0.5572
 2640.0000   264.4521     0.5566
 2640.5000   264.3893     0.5560
 2641.0000   263.8670     0.5554
 2641.5000   263.2957     0.5548
 2642.0000   263.2847     0.5655
 2642.5000   263.2737     0.5763
 2643.0000   263.2628     0.5755
 2643.5000   263.2518     0.5749
 2644.0000   263.2409     0.5743
 2644.5000   263.2299     0.5737
 2645.0000   263.2190     0.5731
 2645.5000   263.2080     0.5725
 2646.0000   263.1968     0.5719
 2646.5000   263.1833     0.5713
 2647.0000   263.1724     0.5706
 2647.5000   262.0406     0.5699
 2648.0000   262.0297     0.5693
 2648.5000   262.0187     0.5687
 2649.0000   261.4474     0.5681
 2649.5000   261.4364     0.5448
 2650.0000   261.4254     0.5215
 2650.5000   261.9751     0.4982
 2651.0000   261.9639     0.4976
 2651.5000   261.9527     0.4857
 2652.0000   262.4997     0.4849
 2652.5000   262.4887     0.4843
 2653.0000   262.4778     0.4952
 2653.5000   261.9064     0.5059
 2654.0000   261.8954     0.5167
 2654.5000   261.8845     0.5159
 2655.0000   261.8735     0.5153
 2655.5000   261.8626     0.5147
 2656.0000   261.8516     0.5141
 2656.5000   262.4011     0.4907
 2657.0000   262.3898     0.4900
 2657.5000   262.3764     0.5009
 2658.0000   262.9286     0.5117
 2658.5000   262.9149     0.5109
 2659.0000   262.9040     0.5103
 2659.5000   262.8930     0.4983
 2660.0000   262.8820     0.4977
 2660.5000   262.8711     0.5085
 2661.0000   262.8601     0.5077
 2661.5000   262.8492     0.5071
 2662.0000   262.8381     0.5065
 2662.5000   262.8269     0.5059
 2663.0000   262.8136     0.5053
 2663.5000   262.8026     0.5047
 2664.0000   262.7917     0.5041
 2664.5000   262.7807     0.5035
 2665.0000   262.7697     0.5027
 2665.5000   262.7588     0.5021
 2666.0000   262.7478     0.5015
 2666.5000   262.7368     0.5009
 2667.0000   262.7259     0.4889
 2667.5000   262.7148     0.4883
 2668.0000   262.7036     0.4764
 2668.5000   262.6903     0.4758
 2669.0000   262.6793     0.4743
 2669.5000   262.6684     0.4517
 2670.0000   262.6574     0.4511
 2670.5000   262.6465     0.4392
 2671.0000   262.6355     0.4386
 2671.5000   262.6245     0.4380
 2672.0000   262.6136     0.4374
 2672.5000   262.6026     0.4368
 2673.0000   262.5916     0.4248
 2673.5000   262.5803     0.4356
 2674.0000   262.5670     0.4348
 2674.5000   262.5561     0.4342
 2675.0000   262.5451     0.4336
 2675.5000   262.5341     0.4445
 2676.0000   262.5232     0.4664
 2676.5000   262.5122     0.4658
 2677.0000   262.5013     0.4879
 2677.5000   262.4903     0.4872
 2678.0000   262.4794     0.4866
 2678.5000   262.8457     0.4859
 2679.0000   263.3393     0.4853
 2679.5000   263.8330     0.4847
 2680.0000   264.3267     0.4841
 2680.5000   264.8203     0.4834
 2681.0000   265.3140     0.4828
 2681.5000   265.8076     0.4822
 2682.0000   266.3013     0.4837
 2682.5000   266.8603     0.4852
 2683.0000   266.8493     0.4868
 2683.5000   267.4015     0.4883
 2684.0000   267.9510     0.4898
 2684.5000   267.9373     0.4913
 2685.0000   267.9263     0.4929
 2685.5000   268.4757     0.4944
 2686.0000   267.9041     0.4959
 2686.5000   267.8907     0.4974
 2687.0000   267.8797     0.4990
 2687.5000   267.8688     0.5005
 2688.0000   267.8578     0.5020
 2688.5000   267.2865     0.5035
 2689.0000   267.2755     0.5051
 2689.5000   267.2646     0.5066
 2690.0000   267.8140     0.5081
 2690.5000   267.8030     0.5096
 2691.0000   267.7820     0.5112
 2691.5000   267.2204     0.5127
 2692.0000   267.2070     0.5142
 2692.5000   267.1961     0.5157
 2693.0000   266.6247     0.5173
 2693.5000   266.6138     0.5188
 2694.0000   266.6028     0.5203
 2694.5000   266.5919     0.5218
 2695.0000   266.5809     0.5234
 2695.5000   266.0096     0.5249
 2696.0000   265.9986     0.5264
 2696.5000   266.5480     0.5279
 2697.0000   266.5367     0.5295
 2697.5000   266.5234     0.5310
 2698.0000   266.5124     0.5325
 2698.5000   266.5015     0.5340
 2699.0000   266.4905     0.5356
 2699.5000   266.4795     0.5371
 2700.0000   266.4686     0.5386
 2700.5000   267.5784     0.5401
 2701.0000   268.6887     0.5417
 2701.5000   269.7981     0.5432
 2702.0000   270.9079     0.5447
 2702.5000   271.4574     0.5462
 2703.0000   270.3229     0.5478
 2703.5000   269.7516     0.5493
 2704.0000   268.6198     0.5508
 2704.5000   268.0484     0.5523
 2705.0000   267.4771     0.5539
 2705.5000   267.4661     0.5554
 2706.0000   266.8947     0.5569
 2706.5000   266.3234     0.5584
 2707.0000   266.3124     0.5600
 2707.5000   266.3014     0.5615
 2708.0000   266.2902     0.5630
 2708.5000   266.2768     0.5645
 2709.0000   265.7055     0.5661
 2709.5000   265.6945     0.5676
 2710.0000  -999.2500     0.5691
 2710.5000  -999.2500     0.5708
