~VERSION INFORMATION
 VERS.                2.0:   CWLS LOG ASCII STANDARD - VERSION 2.0
 WRAP.                 NO:   ONE LINE PER DEPTH STEP
~WELL INFORMATION
#MNEM.UNIT      DATA TYPE    INFORMATION
#----------   ------------   ------------------------------
 STRT.F           30.0000:   START DEPTH
 STOP.F          732.0000:   STOP DEPTH
 STEP.F            0.5000:   STEP LENGTH
 NULL.          -999.2500:   NO VALUE
 COMP. FENIX & SCISSON INC:   COMPANY
 WELL.        31-S #31-14:   WELL
 FLD .             TEAPOT:   FIELD
 LOC .      S14 T38N R78W:   LOCATION
 CNTY.            NATRONA:   COUNTY
 STAT.            WYOMING:   STATE
 CTRY. UNITED STATES OF AMERICA:   COUNTRY
 SRVC.              Welex:   SERVICE COMPANY
 DATE.        16-FEB-1977:   LOGDATE
 API .       490251027300:   API NUMBER
~CURVE INFORMATION
#MNEM.UNIT       API CODE    CURVE DESCRIPTION
#----------   ------------   ------------------------------
 DEPT.F                  :   
 CALD.IN     45 280 60 00:   CALIPER FROM DENSITY LOG
 CORR.G/C3   45 356 01 00:   DENSITY CORRECTION
 DPHI.DEC    45 890 12 00:   DENSITY POROSITY SANDSTONE
 GRD .GAPI   45 310 01 00:   GAMMA RAY FROM DENSITY LOG
 RHOB.G/C3   45 350 01 00:   BULK DENSITY
 GURD.OHMM   07 270 05 00:   SHALLOW SHORT GUARD RESISTIVITY
 ILM .OHMM   07 120 44 00:   INDUCTION LOG MEDIUM
 ILD .OHMM   07 120 46 00:   INDUCTION LOG DEEP
 SPR .MV     07 010 01 00:   SPONTANEOUS POTENTIAL
~PARAMETER INFORMATION
#MNEM.UNIT          VALUE    DESCRIPTION
#----------   ------------   ------------------------------
 PD  .                 GL:   PERMANENT DATUM
 EPD .F              5186:   ELEVATION PERMANENT DATUM
 LMF .                 GL:   LOG MEASURED FROM
 DMF .                 GL:   DRILLING MEASURED FROM
 EKB .F              5195:   KELLING BUSHING
 EGL .F              5186:   GROUND LEVEL
 DATE.        16-FEB-1977:   RUN DATE
 RUN .                  1:   RUN NUMBER
 DD  .F               740:   DEPTH DRILLER
 DL  .F               736:   DEPTH LOGGER
 BLI .F               734:   BOTTOM LOG INTERVAL
 TLI .F                30:   TOP LOG INTERVAL
 CS  .IN            8.625:   CASING SIZE
 CBD .F                40:   CASING BOTTOM DRILLER
 CBL .F                44:   CASING BOTTOM LOGGER
 BS  .IN            7.875:   BIT SIZE
 BSD .F               740:   BIT SIZE AT DEPTH
 DFT .   OIL EMULSION MUD:   DRILLING FLUID TYPE
 DFD .                8.3:   DRILLING FLUID DENSITY
 DFV .                 48:   DRILLING FLUID VISCOSITY
 DFPH.               10.5:   DRILLING FLUID PH
 DFL .                7.5:   DRILLING FLUID LOSS
 MSS .           FLOWLINE:   MUD SAMPLE SOURCE
 RMS .OHMM           0.80:   RESISTIVITY MUD SAMPLE
 MST .F                64:   MUD SAMPLE TEMPERATURE
 RMF .OHMM           0.68:   RESISTIVITY MUD FILTRATE SAMPLE
 MFST.F                64:   MUD FILTRATE SAMPLE TEMPERATURE
 RMC .OHMM           1.01:   RESISTIVITY MUD CAKE
 MCST.F                63:   MUD CAKE SAMPLE TEMPERATURE
 MFSS.               MEAS:   MUD FILTRATE SAMPLE SOURCE
 MCSS.               MEAS:   MUD CAKE SAMPLE SOURCE
 RMB .OHMM           0.74:   RESISTIVITY MUD AT BHT
 BHT .F                69:   BOTTOM HOLE TEMPERATURE
 TCS .HRS               5:   TIME CURCULATED STOPPED
 MRT .F                69:   MAXIMUM RECORDED TEMPERATURE
 LUN .               8611:   LOGGING UNIT NUMBER
 LUL .           GILLETTE:   LOGGING UNIT LOCATION
 ENGI.           D.LAWSON:   RECORDING ENGINEER
 WITN.             K.JAPP:   WITNESSED BY
 CLNT.            A2DTECH:   CLIENT CODE
 ORIG.         2.5" PRINT:   ORIGIN OF DATA
 UWI .       490251027300:   UNIQUE WELL ID
 DICO. A2D Technologies, Inc.:   DIGITIZING COMPANY
~OTHER INFORMATION
~A   DEPT       CALD      CORR      DPHI         GRD        RHOB     GURD        ILM        ILD        SPR   
# ...
  285.5000     8.1834     0.1648     0.0799   121.4704     2.5167   840.2206     8.4389     7.9659   -49.1388
  286.0000     8.1828     0.1648     0.0842   123.3155     2.5024   840.5929     8.5467     7.9643   -49.2997
  286.5000     8.1822     0.1649     0.0887   126.4387     2.4931   856.1357     8.5442     7.8541   -49.2980
  287.0000     8.1448     0.1619     0.0911   129.9852     2.4905   864.9122     8.4254     7.8525   -49.5935
  287.5000     8.0821     0.1619     0.0923   133.3457     2.4905   867.1028     8.3083     7.8509   -49.5919
  288.0000     8.0194     0.1603     0.0929   132.8408     2.4905   858.2962     8.3060     7.8493   -49.5905
  288.5000     7.9721     0.1590     0.0935   130.9629     2.4905   846.2733     8.1901     7.8477   -49.5890
  289.0000     7.9417     0.1590     0.0922   129.4929     2.4920   858.2087     8.1879     7.9542   -49.8844
  289.5000     7.9709     0.1591     0.0898   128.6041     2.4920   867.1639     8.1858     7.9526   -49.9834
  290.0000     7.9999     0.1561     0.0880   128.3086     2.4920   870.1584     8.1836     8.0610   -50.1780
  290.5000     8.0290     0.1561     0.0875   129.4971     2.4935   876.1332     8.2946     8.0594   -50.1766
  291.0000     8.0878     0.1562     0.0884   131.5757     2.4952   876.1481     8.5232     8.1692   -50.4716
  291.5000     8.1169     0.1562     0.0899   132.4911     2.4964   873.1812     8.5369     8.2805   -50.4702
  292.0000     8.0866     0.1532     0.0905   132.7656     2.4985   870.2150     8.7558     8.3092   -50.7656
  292.5000     8.0485     0.1533     0.0911   132.0945     2.5001   872.7653     8.8745     8.4348   -50.7641
  293.0000     8.0154     0.1516     0.0905   131.1780     2.5008   885.3276     9.0448     8.5624   -50.7967
  293.5000     7.9662     0.1504     0.0899   130.4239     2.5008   879.2056     9.1786     8.7402   -51.0580
  294.0000     7.9656     0.1534     0.0881   129.4798     2.4993   870.2787     9.2395     8.7385   -51.0564
  294.5000     7.9352     0.1534     0.0862   128.3222     2.4993   867.3115     9.3643     8.8577   -51.1877
  295.0000     7.9346     0.1564     0.0858   127.7302     2.4993   873.2874     9.3618     8.8558   -51.3501
  295.5000     7.9637     0.1597     0.0858   127.4347     2.5024   882.5707     9.4887     8.8510   -51.3484
  296.0000     7.9632     0.1660     0.0845   128.3265     2.5091   891.6756     9.4862     8.7315   -51.3470
  296.5000     7.9626     0.1693     0.0816   130.1201     2.5180   897.9642     9.7477     8.7297   -51.3456
  297.0000     7.9620     0.1726     0.0786   132.3136     2.5231   897.1866     9.8798     8.7279   -51.3442
  297.5000     7.9614     0.1745     0.0769   134.4436     2.5194   895.7885    10.0434     8.7261   -51.3427
  298.0000     7.9695     0.1745     0.0780   135.7507     2.5141   894.2388    10.2897     8.7243   -51.3412
  298.5000     7.9900     0.1745     0.0792   135.7522     2.5112   891.2733    10.3177     8.8431   -51.3398
  299.0000     7.9894     0.1716     0.0812   135.3145     2.5082   891.2897    10.3616     8.9857   -51.3383
  299.5000     7.9890     0.1686     0.0838   134.2280     2.5067   888.3228    10.4054     9.1547   -51.3368
  300.0000     7.9886     0.1697     0.0873   133.3830     2.5037   889.6169    10.4493     9.3236   -51.3351
  300.5000     7.9882     0.1666     0.0899   132.4942     2.5113   892.3243    10.4932     9.4925   -51.6304
  301.0000     7.9877     0.1635     0.0858   132.4957     2.5202   895.0317    10.5371     9.6615   -51.6890
  301.5000     7.9873     0.1635     0.0801   132.4971     2.5290   897.7390    10.8629     9.8612   -51.7545
  302.0000     7.9897     0.1636     0.0744   132.4603     2.5319   900.3782    11.7969     9.8606   -51.8200
  302.5000     8.0223     0.1694     0.0703   130.4607     2.5287   903.8354    12.2944     9.9963   -51.8855
  303.0000     8.0754     0.1731     0.0691   128.4612     2.5256   913.8297    12.3124     9.9955   -51.9510
  303.5000     8.1048     0.1753     0.0691   126.6127     2.5230   926.3566    12.1300    10.1330   -52.0165
  304.0000     8.1187     0.1752     0.0703   125.5213     2.5215   937.5727    11.7733    10.1323   -52.0820
  304.5000     8.0744     0.1751     0.0729   124.7911     2.5192   930.1116    11.4556    10.2717   -52.1475
  305.0000     8.0148     0.1751     0.0746   124.4956     2.5155   909.5032    11.3299    10.2710   -52.2255
  305.5000     7.9552     0.1750     0.0758   125.9808     2.5140   900.5907    11.8323    10.2703   -52.2255
  306.0000     7.9252     0.1749     0.0773   128.6528     2.5125   903.5994    12.5578    10.4115   -52.2255
  306.5000     7.8953     0.1749     0.0792   130.1602     2.5170   912.5688    12.8252    10.4108   -52.2255
  307.0000     7.8950     0.1748     0.0762   130.7873     2.5216   915.5776    12.6524    10.4099   -52.2255
  307.5000     7.9026     0.1808     0.0708   131.0311     2.5279   899.6625    12.3114    10.4093   -52.2255
  308.0000     7.9241     0.1844     0.0702   130.9139     2.5318   888.8115    11.9796    10.4086   -52.5223
  308.5000     7.9237     0.1876     0.0714   130.2898     2.5313   917.5149    11.6567    10.4079   -52.5223
  309.0000     7.9234     0.1926     0.0720   129.5522     2.5288   918.6775    11.8336    10.4072   -52.5223
  309.5000     7.9231     0.1971     0.0712   128.9601     2.5343   917.2072    12.5121    10.4065   -52.5223
  310.0000     7.9228     0.1985     0.0684   128.6647     2.5392   912.7764    12.6625    10.4058   -52.5223
  310.5000     7.8929     0.2014     0.0702   130.1499     2.5377   909.8302    12.4357    10.4051   -52.8190
  311.0000     7.8926     0.2044     0.0739   131.0415     2.5273   906.8783    12.0849    10.4043   -52.8190
  311.5000     7.8923     0.2043     0.0776   130.1059     2.5199   906.9067    11.7439    10.4036   -53.1157
  312.0000     7.8920     0.2043     0.0720   129.5606     2.5154   906.9351    11.5088    10.4028   -53.1157
  312.5000     7.8917     0.2042     0.0660   131.4169     2.5315   903.9832    11.3535    10.4021   -53.4125
  313.0000     7.9211     0.2041     0.0636   133.8615     2.5433   904.0142    11.2002    10.2596   -53.4125
  313.5000     7.9370     0.2041     0.0666   133.7199     2.5481   904.0440    11.0491    10.2590   -53.7092
  314.0000     7.9501     0.2040     0.0797   132.8311     2.5328   904.0738    11.0506    10.2583   -53.7923
  314.5000     7.9498     0.2040     0.0747   131.6455     2.5182   901.1234    11.2324    10.1177   -54.0059
  315.0000     7.9495     0.2022     0.0711   130.4600     2.5213   902.8420    11.8689     9.9791   -54.0059
  315.5000     7.9493     0.2008     0.0695   129.5638     2.5243   904.1680    12.1700     9.9784   -54.3027
  316.0000     7.9490     0.1978     0.0704   128.9791     2.5258   907.1768    12.1717     9.8417   -54.3027
  316.5000     7.9487     0.1917     0.0719   128.9807     2.5228   913.1658    12.0957     9.8411   -54.5994
  317.0000     7.9484     0.1856     0.0747   129.2789     2.5196   919.1550    11.7544     9.7062   -54.5994
  317.5000     7.9481     0.1764     0.0790   129.5771     2.5116   915.7564    11.2143     9.7055   -54.5994
  318.0000     7.9478     0.1701     0.0849   129.8754     2.5027   903.4380    11.0629     9.7048   -54.5994
  318.5000     7.9771     0.1637     0.0903   130.4706     2.4975   894.6760    10.6180     9.7042   -54.5994
  319.0000     7.9768     0.1593     0.0921   131.0654     2.4989   892.4457    10.3318     9.8377   -54.5994
  319.5000     7.9765     0.1540     0.0890   131.9570     2.5098   893.7817    10.3442     9.8370   -54.5994
  320.0000     8.0059     0.1507     0.0838   133.1454     2.5212   900.0605    10.9584     9.8363   -54.5994
  320.5000     8.0068     0.1492     0.0795   134.3981     2.5242   907.4468    11.5721     9.9717   -54.5994
  321.0000     8.0350     0.1551     0.0751   135.6509     2.5242   907.4753    11.8584     9.9709   -54.3027
  321.5000     8.0644     0.1611     0.0724   136.9035     2.5227   907.5037    12.0236     9.9702   -54.3027
