~VERSION INFORMATION
 VERS.                2.0:   CWLS LOG ASCII STANDARD - VERSION 2.0
 WRAP.                 NO:   ONE LINE PER DEPTH STEP
~WELL INFORMATION
#MNEM.UNIT      DATA TYPE    INFORMATION
#----------   ------------   ------------------------------
 STRT.F            0.0000:   START DEPTH
 STOP.F          586.0000:   STOP DEPTH
 STEP.F            0.5000:   STEP LENGTH
 NULL.          -999.2500:   NO VALUE
 COMP. Fluor Daniel (NPOSR) Inc:   COMPANY
 WELL.    NPR 3 #52-6-X-3:   WELL
 FLD .             TEAPOT:   FIELD
 LOC .       S3 T38N R78W:   LOCATION
 CNTY.            NATRONA:   COUNTY
 STAT.            WYOMING:   STATE
 CTRY. UNITED STATES OF AMERICA:   COUNTRY
 SRVC.      Western Atlas:   SERVICE COMPANY
 DATE.        17-APR-1996:   LOGDATE
 API .       490252277700:   API NUMBER
~CURVE INFORMATION
#MNEM.UNIT       API CODE    CURVE DESCRIPTION
#----------   ------------   ------------------------------
 DEPT.F                  :   
 GRR .GAPI   07 310 01 00:   GAMMA RAY FROM RES. LOG.
 RILD.OHMM   07 120 46 00:   INDUCTION LOG DEEP RESISTIVITY
 RILM.OHMM   07 120 44 00:   INDUCTION LOG MEDIUM
~PARAMETER INFORMATION
#MNEM.UNIT          VALUE    DESCRIPTION
#----------   ------------   ------------------------------
 PD  .                 GL:   PERMANENT DATUM
 EPD .F              5070:   ELEVATION PERMANENT DATUM
 LMF .                 KB:   LOG MEASURED FROM
 DAPD.F                10:   FEET ABOVE PERMANENT DATUM
 DMF .                 KB:   DRILLING MEASURED FROM
 EKB .F              5080:   KELLING BUSHING
 EDF .F              5079:   DRILLING FLOOR
 EGL .F              5070:   GROUND LEVEL
 DATE.            4-17-96:   RUN DATE
 RUN .                  1:   RUN NUMBER
 DD  .F               594:   DEPTH DRILLER
 DL  .F               594:   DEPTH LOGGER
 BLI .F               586:   BOTTOM LOG INTERVAL
 CS  .IN            9.625:   CASING SIZE
 CBD .F                58:   CASING BOTTOM DRILLER
 CBL .F                59:   CASING BOTTOM LOGGER
 BS  .IN             8.75:   BIT SIZE
 BSD .F               594:   BIT SIZE AT DEPTH
 DFT .                AIR:   DRILLING FLUID TYPE
 MRT .F                86:   MAXIMUM RECORDED TEMPERATURE
 LUN .            HL-6530:   LOGGING UNIT NUMBER
 LUL .             CASPER:   LOGGING UNIT LOCATION
 ENGI.             RAUTIO:   RECORDING ENGINEER
 WITN.              HARDY:   WITNESSED BY
 CLNT.            A2DTECH:   CLIENT CODE
 ORIG.       2", 5" PRINT:   ORIGIN OF DATA
 UWI .       490252277700:   UNIQUE WELL ID
 DICO. A2D Technologies, Inc.:   DIGITIZING COMPANY
~OTHER INFORMATION
~A    DEPT      GRR      RILD       RILM   
    0.0000    17.7951  -999.2500  -999.2500
    0.5000    12.1826  -999.2500  -999.2500
    1.0000    10.2111  -999.2500  -999.2500
    1.5000    10.0073  -999.2500  -999.2500
    2.0000    13.7796  -999.2500  -999.2500
    2.5000    17.7795  -999.2500  -999.2500
    3.0000    19.4033  -999.2500  -999.2500
    3.5000    18.0964  -999.2500  -999.2500
    4.0000    14.2828  -999.2500  -999.2500
    4.5000    10.6203  -999.2500  -999.2500
    5.0000     7.1657  -999.2500  -999.2500
    5.5000     5.0573  -999.2500  -999.2500
    6.0000     4.2085  -999.2500  -999.2500
    6.5000     4.7839  -999.2500  -999.2500
    7.0000     5.3306  -999.2500  -999.2500
    7.5000     5.8741  -999.2500  -999.2500
    8.0000     6.4373  -999.2500  -999.2500
    8.5000     7.1682  -999.2500  -999.2500
    9.0000     8.3059  -999.2500  -999.2500
    9.5000     9.6026  -999.2500  -999.2500
   10.0000    11.1481  -999.2500  -999.2500
   10.5000    12.7311  -999.2500  -999.2500
   11.0000    17.4796  -999.2500  -999.2500
   11.5000    27.7434  -999.2500  -999.2500
   12.0000    41.4549  -999.2500  -999.2500
   12.5000    57.7222  -999.2500  -999.2500
   13.0000    70.6252  -999.2500  -999.2500
   13.5000    75.4475  -999.2500  -999.2500
   14.0000    73.1195  -999.2500  -999.2500
   14.5000    67.6605  -999.2500  -999.2500
   15.0000    62.6110  -999.2500  -999.2500
   15.5000    59.0546  -999.2500  -999.2500
   16.0000    58.0952  -999.2500  -999.2500
   16.5000    60.1873  -999.2500  -999.2500
   17.0000    63.6578  -999.2500  -999.2500
   17.5000    66.9815  -999.2500  -999.2500
   18.0000    66.9697  -999.2500  -999.2500
   18.5000    64.7744  -999.2500  -999.2500
   19.0000    65.6930  -999.2500  -999.2500
   19.5000    69.8404  -999.2500  -999.2500
   20.0000    74.0428  -999.2500  -999.2500
   20.5000    74.6912  -999.2500  -999.2500
   21.0000    71.8879  -999.2500  -999.2500
   21.5000    63.0822  -999.2500  -999.2500
   22.0000    57.0205  -999.2500  -999.2500
   22.5000    60.6605  -999.2500  -999.2500
   23.0000    70.8183  -999.2500  -999.2500
   23.5000    75.8543  -999.2500  -999.2500
   24.0000    77.0351  -999.2500  -999.2500
   24.5000    77.5455  -999.2500  -999.2500
   25.0000    76.6406  -999.2500  -999.2500
   25.5000    75.1488  -999.2500  -999.2500
   26.0000    74.7310  -999.2500  -999.2500
   26.5000    76.6066  -999.2500  -999.2500
   27.0000    79.5725  -999.2500  -999.2500
   27.5000    79.3984  -999.2500  -999.2500
   28.0000    79.9079  -999.2500  -999.2500
   28.5000    81.6752  -999.2500  -999.2500
   29.0000    83.0028  -999.2500  -999.2500
   29.5000    80.7293  -999.2500  -999.2500
   30.0000    78.8435  -999.2500  -999.2500
   30.5000    81.1051  -999.2500  -999.2500
   31.0000    83.2739  -999.2500  -999.2500
   31.5000    83.6487  -999.2500  -999.2500
   32.0000    82.9951  -999.2500  -999.2500
   32.5000    82.4055  -999.2500  -999.2500
   33.0000    84.3172  -999.2500  -999.2500
   33.5000    84.9327  -999.2500  -999.2500
   34.0000    87.2578  -999.2500  -999.2500
   34.5000    87.7133  -999.2500  -999.2500
   35.0000    86.2723  -999.2500  -999.2500
   35.5000    86.7701  -999.2500  -999.2500
   36.0000    89.0938  -999.2500  -999.2500
   36.5000    90.8498  -999.2500  -999.2500
   37.0000    91.5098  -999.2500  -999.2500
   37.5000    90.5088  -999.2500  -999.2500
   38.0000    88.1937  -999.2500  -999.2500
   38.5000    86.0280  -999.2500  -999.2500
   39.0000    86.5216  -999.2500  -999.2500
   39.5000    87.2137  -999.2500  -999.2500
   40.0000    87.9250  -999.2500  -999.2500
   40.5000    88.6901  -999.2500  -999.2500
   41.0000    87.5388  -999.2500  -999.2500
   41.5000    84.7600  -999.2500  -999.2500
   42.0000    81.9192  -999.2500  -999.2500
   42.5000    81.1621  -999.2500  -999.2500
   43.0000    81.6795  -999.2500  -999.2500
   43.5000    81.5449  -999.2500  -999.2500
   44.0000    82.2700  -999.2500  -999.2500
   44.5000    84.9569  -999.2500  -999.2500
   45.0000    87.7055  -999.2500  -999.2500
   45.5000    89.3668  -999.2500  -999.2500
   46.0000    91.1610  -999.2500  -999.2500
   46.5000    93.1547  -999.2500  -999.2500
   47.0000    93.4939  -999.2500  -999.2500
   47.5000    91.9717  -999.2500  -999.2500
   48.0000    91.7512  -999.2500  -999.2500
   48.5000    93.6514  -999.2500  -999.2500
   49.0000    94.9977  -999.2500  -999.2500
   49.5000    94.7262  -999.2500  -999.2500
   50.0000    93.7306  -999.2500  -999.2500
   50.5000    92.7340  -999.2500  -999.2500
   51.0000    91.7231  -999.2500  -999.2500
   51.5000    91.8150  -999.2500  -999.2500
   52.0000    93.6951  -999.2500  -999.2500
   52.5000    97.3924  -999.2500  -999.2500
   53.0000    97.7828  -999.2500  -999.2500
   53.5000    97.1416  -999.2500  -999.2500
   54.0000    95.8152  -999.2500  -999.2500
   54.5000    94.4144  -999.2500  -999.2500
   55.0000    92.4343  -999.2500  -999.2500
   55.5000    89.6925  -999.2500  -999.2500
   56.0000    86.7826  -999.2500  -999.2500
   56.5000    85.1164  -999.2500  -999.2500
   57.0000    84.4278  -999.2500  -999.2500
   57.5000    83.7860  -999.2500  -999.2500
   58.0000    83.9578  -999.2500  -999.2500
   58.5000    88.2885  -999.2500  -999.2500
   59.0000    97.6048  2046.5859     5.5851
   59.5000   108.2899   717.1812     3.0298
   60.0000   117.5163     3.3039     2.6244
   60.5000   121.6133     3.4518     2.7735
   61.0000   121.3530     2.5765     3.2139
   61.5000   122.2053     4.1024     4.9776
   62.0000   125.6930     8.4159     7.8583
   62.5000   127.4940    28.2712    10.0932
   63.0000   125.1127   121.0469    13.5869
   63.5000   123.4627    27.1388    17.4997
   64.0000   126.5577     9.4139    16.6146
   64.5000   131.2693     7.5330    12.5623
   65.0000   133.6037     7.2620     9.0163
   65.5000   131.6777     7.1252     8.5316
   66.0000   130.1518     7.0317    10.3804
   66.5000   131.1414     6.9636    11.9958
   67.0000   131.8720     7.6937    10.5409
   67.5000   130.0573     8.3759     8.8518
   68.0000   128.4943     8.5818     8.8838
   68.5000   129.6391     8.6893     8.9337
   69.0000   131.0487     8.3396     8.8112
   69.5000   131.6144     8.1060     8.6985
   70.0000   130.4391     7.9256     8.6072
   70.5000   128.8900     7.7809     8.5912
   71.0000   128.8316     8.2116     8.5753
   71.5000   128.8389     8.3786     8.5594
   72.0000   128.8305     8.3777     8.5435
   72.5000   128.8944     8.3766     8.5316
   73.0000   130.8708     8.3746     8.5428
   73.5000   132.1948     8.4526     8.5517
   74.0000   129.3959     8.4362     8.5607
   74.5000   126.1499     8.4236     8.5697
   75.0000   125.2896     8.4109     8.5787
   75.5000   126.8069     8.3982     8.5877
   76.0000   128.2652     8.3860     8.5968
   76.5000   126.0656     8.3754     8.6105
   77.0000   122.9273     8.2832     8.5741
   77.5000   126.1283     8.1944     8.5002
   78.0000   130.2702     8.0729     8.4260
   78.5000   133.3838     8.0784     8.3523
   79.0000   134.7928     8.0874     8.2991
   79.5000   134.2438     8.0965     8.3197
   80.0000   135.0292     8.1057     8.3389
   80.5000   136.5414     8.1148     8.3580
   81.0000   136.8569     8.1238     8.3759
   81.5000   135.5670     8.1328     8.3183
   82.0000   132.8277     8.1421     8.2649
   82.5000   130.6873     8.1476     8.2232
   83.0000   131.2914     8.0481     8.2439
   83.5000   134.7061     8.0030     8.2611
   84.0000   137.0587     8.0520     8.2786
   84.5000   136.5501     8.0930     8.2960
   85.0000   133.2404     8.1342     8.4061
   85.5000   130.8923     8.2356     8.5382
   86.0000   132.0907     8.3704     8.6727
   86.5000   132.5855     8.5056     8.8093
   87.0000   132.1781     8.6105     8.9480
   87.5000   133.3442     8.6902     9.0904
   88.0000   132.7868     8.7706     9.1835
   88.5000   130.4391     8.7706     8.9337
   89.0000   128.0405     8.7706     8.9337
   89.5000   130.4587     8.7706     8.9337
   90.0000   132.2207     8.7706     8.9337
   90.5000   130.6673     8.7619     8.9337
