~VERSION INFORMATION
 VERS.                2.0:   CWLS LOG ASCII STANDARD - VERSION 2.0
 WRAP.                 NO:   ONE LINE PER DEPTH STEP
~WELL INFORMATION
#MNEM.UNIT      DATA TYPE    INFORMATION
#----------   ------------   ------------------------------
 STRT.F           26.0000:   START DEPTH
 STOP.F          533.5000:   STOP DEPTH
 STEP.F            0.5000:   STEP LENGTH
 NULL.          -999.2500:   NO VALUE
 COMP. BROWN JOHN E&C INC:   COMPANY
 WELL.  NPR 3 #76-531-X-3:   WELL
 FLD .             TEAPOT:   FIELD
 LOC .       S3 T38N R78W:   LOCATION
 CNTY.            NATRONA:   COUNTY
 STAT.            WYOMING:   STATE
 CTRY. UNITED STATES OF AMERICA:   COUNTRY
 SRVC.       Schlumberger:   SERVICE COMPANY
 DATE.        20-SEP-1990:   LOGDATE
 API .       490251130500:   API NUMBER
~CURVE INFORMATION
#MNEM.UNIT       API CODE    CURVE DESCRIPTION
#----------   ------------   ------------------------------
 DEPT.F                  :   
 ILM .OHMM   07 120 44 00:   INDUCTION LOG MEDIUM
 ILD .OHMM   07 120 46 00:   INDUCTION LOG DEEP
 CALD.IN     45 280 60 00:   CALIPER FROM DENSITY LOG
 GRD .GAPI   45 310 01 00:   GAMMA RAY FROM DENSITY LOG
 DPHI.DEC    45 890 12 00:   DENSITY POROSITY SANDSTONE
 RHOB.G/C3   45 350 01 00:   BULK DENSITY
 DRHO.G/C3   45 356 01 00:   DENSITY CORRECTION
~PARAMETER INFORMATION
#MNEM.UNIT          VALUE    DESCRIPTION
#----------   ------------   ------------------------------
 PD  .                 GL:   PERMANENT DATUM
 EPD .F              5148:   ELEVATION PERMANENT DATUM
 LMF .                 KB:   LOG MEASURED FROM
 DAPD.F                10:   FEET ABOVE PERMANENT DATUM
 DMF .                 KB:   DRILLING MEASURED FROM
 EKB .F              5158:   KELLING BUSHING
 EDF .F              5157:   DRILLING FLOOR
 EGL .F              5148:   GROUND LEVEL
 DATE.            9-20-90:   RUN DATE
 RUN .                  1:   RUN NUMBER
 DD  .F               535:   DEPTH DRILLER
 DL  .F               536:   DEPTH LOGGER
 BLI .F               530:   BOTTOM LOG INTERVAL
 TLI .F                49:   TOP LOG INTERVAL
 CBD .F                40:   CASING BOTTOM DRILLER
 CBL .F                49:   CASING BOTTOM LOGGER
 BS  .IN            7.875:   BIT SIZE
 BSD .F               535:   BIT SIZE AT DEPTH
 DFT .                AIR:   DRILLING FLUID TYPE
 TCS .HRS            0315:   TIME CURCULATED STOPPED
 TLAB.HRS            0409:   TIME LOGGER AT BOTTOM
 LUN .               6882:   LOGGING UNIT NUMBER
 LUL .               CODY:   LOGGING UNIT LOCATION
 ENGI.          M. FISHER:   RECORDING ENGINEER
 WITN.          G. STRONG:   WITNESSED BY
 CLNT.            A2DTECH:   CLIENT CODE
 ORIG.   2" 2.5" 5" PRINT:   ORIGIN OF DATA
 UWI .       490251130500:   UNIQUE WELL ID
 DICO. A2D Technologies, Inc.:   DIGITIZING COMPANY
~OTHER INFORMATION
~A   DEPT      ILM        ILD       CALD         GRD      DPHI       RHOB       DRHO   
# ...
  208.0000     7.9768     8.0590     7.9539   124.8082     0.1174     2.4549    -0.0043
  208.5000     7.6076     7.7692     7.9487   123.5970     0.1199     2.4477    -0.0038
  209.0000     7.2555     7.4899     7.9401   126.1327     0.1225     2.4405    -0.0033
  209.5000     6.9198     7.2206     7.9314   129.3037     0.1243     2.4333    -0.0028
  210.0000     6.6299     7.0710     7.9226   130.8702     0.1258     2.4257    -0.0024
  210.5000     6.7464     7.0912     7.9140   128.2653     0.1258     2.4351    -0.0001
  211.0000     6.9591     7.1136     7.9105   124.7684     0.1197     2.4487     0.0021
  211.5000     7.0699     7.1397     7.9072   121.3144     0.1146     2.4623     0.0043
  212.0000     7.2222     7.1315     7.9039   118.9483     0.1130     2.4725     0.0056
  212.5000     7.4372     7.4761     7.9006   119.2095     0.1141     2.4676     0.0037
  213.0000     7.6585     7.7588     7.8973   120.9439     0.1150     2.4634     0.0016
  213.5000     7.8884     8.0501     7.8940   123.1791     0.1146     2.4657    -0.0005
  214.0000     8.0638     8.2057     7.8907   125.2397     0.1134     2.4681    -0.0025
  214.5000     8.1318     8.3035     7.8874   124.5304     0.1133     2.4679    -0.0025
  215.0000     8.1991     8.4025     7.8840   123.4877     0.1140     2.4664    -0.0024
  215.5000     8.2669     8.4997     7.8807   122.4402     0.1147     2.4649    -0.0001
  216.0000     8.3442     8.4406     7.8775   121.6370     0.1159     2.4604     0.0022
  216.5000     8.2594     8.3837     7.8746   122.3750     0.1187     2.4514    -0.0002
  217.0000     8.1627     8.3339     7.8583   123.9446     0.1214     2.4425    -0.0035
  217.5000     8.0663     8.2423     7.8408   125.2947     0.1230     2.4345    -0.0069
  218.0000     7.9713     8.1517     7.8235   125.6805     0.1219     2.4400    -0.0082
  218.5000     7.8774     8.0620     7.8195   126.1318     0.1188     2.4508    -0.0059
  219.0000     7.7847     7.9734     7.8486   126.9271     0.1149     2.4615    -0.0031
  219.5000     7.6930     7.8857     7.8767   128.8990     0.1130     2.4701    -0.0012
  220.0000     7.4853     7.7258     7.9049   130.4219     0.1155     2.4608    -0.0005
  220.5000     7.2668     7.3974     7.9329   129.8573     0.1192     2.4495     0.0002
  221.0000     7.0548     7.0710     7.9544   129.3797     0.1229     2.4382     0.0008
  221.5000     6.6078     6.7529     7.9539   127.4510     0.1258     2.4245     0.0016
  222.0000     6.1221     6.3595     7.9540   125.3584     0.1331     2.4073     0.0037
  222.5000     5.6721     5.9890     7.9433   123.2673     0.1403     2.3763     0.0060
  223.0000     5.3162     5.9369     7.9247   121.1565     0.1475     2.3402     0.0053
  223.5000     5.4160     5.9369     7.9061   120.3143     0.1534     2.3156     0.0037
  224.0000     5.5886     5.9369     7.8874   120.0045     0.1463     2.3438     0.0021
  224.5000     5.8321     6.0797     7.8687   119.7347     0.1372     2.3881     0.0003
  225.0000     6.0856     6.2418     7.8533   118.1490     0.1294     2.4272    -0.0039
  225.5000     6.3527     6.5621     7.8537   116.2065     0.1248     2.4397    -0.0082
  226.0000     6.6872     6.9383     7.8537   114.4255     0.1211     2.4489    -0.0124
  226.5000     7.0804     7.3361     7.8542   114.0072     0.1181     2.4546    -0.0123
  227.0000     7.4944     7.7240     7.8332   115.8635     0.1158     2.4597    -0.0098
  227.5000     7.9329     8.0988     7.8053   119.1792     0.1158     2.4604    -0.0058
  228.0000     8.1925     8.2121     7.7772   123.5083     0.1158     2.4627    -0.0018
  228.5000     8.1613     8.2388     7.7763   126.5509     0.1121     2.4715     0.0024
  229.0000     8.1386     8.2632     7.7797   127.5943     0.1098     2.4800     0.0054
  229.5000     8.1175     8.3895     7.7832   128.6625     0.1094     2.4863     0.0076
  230.0000     8.3677     8.5353     7.7865   128.8526     0.1095     2.4873     0.0067
  230.5000     8.5849     8.6285     7.7899   128.8604     0.1105     2.4828     0.0035
  231.0000     8.6375     8.6999     7.7935   129.3781     0.1115     2.4785     0.0004
  231.5000     8.6905     8.7719     7.8041   131.5625     0.1125     2.4742    -0.0027
  232.0000     8.7438     8.8445     7.8136   133.6402     0.1130     2.4734    -0.0048
  232.5000     8.7974     8.9112     7.8117   135.3884     0.1108     2.4793    -0.0032
  233.0000     8.8514     8.9583     7.8100   134.5591     0.1085     2.4877    -0.0007
  233.5000     8.9045     9.0055     7.8083   132.1193     0.1074     2.4943     0.0019
  234.0000     8.9478     9.0531     7.8066   130.0146     0.1062     2.4997     0.0046
  234.5000     8.9914     9.0942     7.8049   130.6582     0.1044     2.5057     0.0074
  235.0000     9.0352     9.1336     7.8032   131.2954     0.1025     2.5127     0.0102
  235.5000     9.0793     9.1731     7.8015   129.5327     0.1007     2.5176     0.0095
  236.0000     9.1235     9.2127     7.7998   128.2957     0.1003     2.5173     0.0058
  236.5000     9.1679     9.2524     7.7982   128.2091     0.1028     2.5096     0.0029
  237.0000     9.2335     9.2924     7.7965   129.2681     0.1049     2.5028     0.0013
  237.5000     9.1962     9.3188     7.7948   129.6527     0.1059     2.5001     0.0005
  238.0000     9.1267     9.2533     7.7936   129.6592     0.1062     2.4999     0.0006
  238.5000     9.0578     9.2047     7.7936   129.6266     0.1051     2.5029     0.0010
  239.0000     8.9894     9.1564     7.7936   131.2173     0.1038     2.5059     0.0014
  239.5000     8.9215     9.1083     7.7936   133.2924     0.1036     2.5083     0.0018
  240.0000     8.8702     9.0605     7.7936   134.4856     0.1041     2.5059     0.0022
  240.5000     8.8268     9.0129     7.7936   134.4579     0.1047     2.5028     0.0025
  241.0000     8.7837     8.9559     7.7936   132.3344     0.1050     2.5015     0.0025
  241.5000     8.7409     8.8813     7.7936   129.9479     0.1046     2.5037     0.0025
  242.0000     8.6991     8.8073     7.7936   127.7055     0.1042     2.5066     0.0025
  242.5000     8.6575     8.7375     7.7936   127.7086     0.1038     2.5064     0.0025
  243.0000     8.4189     8.5232     7.7936   127.8696     0.1053     2.5020     0.0025
  243.5000     8.1975     8.3236     7.7936   128.0377     0.1075     2.4897     0.0025
  244.0000     7.9695     8.0834     7.7913   127.3852     0.1109     2.4741     0.0025
  244.5000     7.5278     7.7525     7.7851   127.3761     0.1142     2.4672     0.0025
  245.0000     7.0855     7.2773     7.7790   128.6382     0.1159     2.4620     0.0018
  245.5000     6.6692     6.8182     7.7728   129.8776     0.1174     2.4569     0.0010
  246.0000     6.0271     6.3882     7.7667   129.6465     0.1192     2.4520     0.0002
  246.5000     5.2530     5.6405     7.7604   127.2657     0.1234     2.4334    -0.0006
  247.0000     4.6504     4.9342     7.7531   124.8901     0.1331     2.4108    -0.0014
  247.5000     4.1169     4.3163     7.7944   123.1987     0.1427     2.3756    -0.0010
  248.0000     3.6446     3.7803     7.8427   123.3018     0.1523     2.3269     0.0013
  248.5000     3.1705     3.3141     7.8912   124.8634     0.1682     2.2487     0.0033
  249.0000     2.9125     3.1120     7.9391   128.2358     0.1890     2.1832     0.0069
  249.5000     2.8108     3.0420     7.9886   131.8162     0.2098     2.1149     0.0114
  250.0000     2.7409     3.0133     7.9045   132.6831     0.2175     2.0801     0.0177
  250.5000     2.7874     2.9775     7.8127   131.7582     0.2049     2.2826     0.0304
  251.0000     3.1634     3.2720     7.8140   132.1412     0.1871     2.3324     0.0361
  251.5000     3.5902     3.6122     7.8135   131.7483     0.1692     2.3754     0.0264
  252.0000     4.0745     4.1530     7.8136   129.8886     0.1495     2.4054     0.0168
  252.5000     4.6098     4.7658     7.8137   129.8743     0.1242     2.4475     0.0094
  253.0000     5.1774     5.4691     7.8136   134.7360     0.1135     2.4667     0.0046
