~VERSION INFORMATION
 VERS.                2.0:   CWLS LOG ASCII STANDARD - VERSION 2.0
 WRAP.                 NO:   ONE LINE PER DEPTH STEP
~WELL INFORMATION
#MNEM.UNIT      DATA TYPE    INFORMATION
#----------   ------------   ------------------------------
 STRT.F           82.0000:   START DEPTH
 STOP.F         1194.0000:   STOP DEPTH
 STEP.F            0.5000:   STEP LENGTH
 NULL.          -999.2500:   NO VALUE
 COMP.       INTEX OIL CO:   COMPANY
 WELL.   76S-11 NPR #3-11:   WELL
 FLD .             TEAPOT:   FIELD
 LOC .      S11 T38N R78W:   LOCATION
 CNTY.            NATRONA:   COUNTY
 STAT.            WYOMING:   STATE
 CTRY. UNITED STATES OF AMERICA:   COUNTRY
 SRVC.       Schlumberger:   SERVICE COMPANY
 DATE.        30-AUG-1966:   LOGDATE
 API .       490250972800:   API NUMBER
~CURVE INFORMATION
#MNEM.UNIT       API CODE    CURVE DESCRIPTION
#----------   ------------   ------------------------------
 DEPT.F                  :   
 SPR .MV     05 010 01 00:   SPONTANEOUS POTENTIAL FROM RES.
 CILD.MMHO   05 110 46 00:   CONDUCTIVITY INDUCTION LOG DEEP
 ILD .OHMM   05 120 46 00:   INDUCTION LOG DEEP
 ASN .OHMM   05 041 16 00:   AMPLIFIED SHORT NORMAL 16"
 CALD.IN     45 280 60 00:   CALIPER FROM DENSITY LOG
 CORR.G/C3   45 356 01 00:   DENSITY CORRECTION
 RHOB.G/C3   45 350 01 00:   BULK DENSITY
 DPHI.DEC    45 890 12 00:   DENSITY POROSITY SANDSTONE
 GRD .GAPI   45 310 01 00:   GAMMA RAY FROM DENSITY LOG
~PARAMETER INFORMATION
#MNEM.UNIT          VALUE    DESCRIPTION
#----------   ------------   ------------------------------
 PD  .                 GL:   PERMANENT DATUM
 EPD .F              5261:   ELEVATION PERMANENT DATUM
 LMF .                 KB:   LOG MEASURED FROM
 DAPD.F                 5:   FEET ABOVE PERMANENT DATUM
 DMF .                 KB:   DRILLING MEASURED FROM
 EKB .F              5266:   KELLING BUSHING
 EGL .F              5261:   GROUND LEVEL
 DATE.            8-30-66:   RUN DATE
 RUN .                  1:   RUN NUMBER
 DD  .F              1191:   DEPTH DRILLER
 DL  .F              1191:   DEPTH LOGGER
 BLI .F              1190:   BOTTOM LOG INTERVAL
 TLI .F                87:   TOP LOG INTERVAL
 CS  .IN            8.625:   CASING SIZE
 CBD .F                10:   CASING BOTTOM DRILLER
 BS  .IN             6.75:   BIT SIZE
 BSD .F              1191:   BIT SIZE AT DEPTH
 DFT .           CHEM-GEL:   DRILLING FLUID TYPE
 DFD .                9.8:   DRILLING FLUID DENSITY
 DFV .                 60:   DRILLING FLUID VISCOSITY
 MSS .         CIRCULATED:   MUD SAMPLE SOURCE
 RMS .OHMM            .76:   RESISTIVITY MUD SAMPLE
 MST .F                85:   MUD SAMPLE TEMPERATURE
 RMF .OHMM            .46:   RESISTIVITY MUD FILTRATE SAMPLE
 MFST.F                88:   MUD FILTRATE SAMPLE TEMPERATURE
 MFSS.                  M:   MUD FILTRATE SAMPLE SOURCE
 RMB .OHMM           .695:   RESISTIVITY MUD AT BHT
 BHT .F                93:   BOTTOM HOLE TEMPERATURE
 TCS .HRS               1:   TIME CURCULATED STOPPED
 MRT .F                93:   MAXIMUM RECORDED TEMPERATURE
 LUN .               3527:   LOGGING UNIT NUMBER
 LUL .               CSPR:   LOGGING UNIT LOCATION
 ENGI.               HAUG:   RECORDING ENGINEER
 WITN.                MAY:   WITNESSED BY
 CLNT.            A2DTECH:   CLIENT CODE
 ORIG. 2", 2.5", 5" PRINT:   ORIGIN OF DATA
 UWI .       490250972800:   UNIQUE WELL ID
 DICO. A2D Technologies, Inc.:   DIGITIZING COMPANY
~OTHER INFORMATION
~A   DEPT      SPR        CILD       ILD          ASN     CALD       CORR       RHOB       DPHI        GRD   
# ...
 1140.5000   -40.4604   108.0530     8.8138    11.5015     7.0833     0.0800     2.4621     0.1127    90.2927
 1141.0000   -40.4737   107.8356     8.8429    11.5436     7.0833     0.0765     2.4630     0.1127    91.8643
 1141.5000   -40.3536   107.6182     8.8720    11.5860     7.0833     0.0969     2.4752     0.1079    93.5652
 1142.0000   -39.9723   107.4008     8.9012    11.6280     7.0833     0.1154     2.4864     0.1007    93.9137
 1142.5000   -39.5876   107.2854     8.9303    11.6708     7.0833     0.1286     2.4991     0.0928    92.7120
 1143.0000   -39.4242   106.8643     8.9595    11.7110     7.0833     0.1237     2.5058     0.0826    91.7616
 1143.5000   -39.4096   106.3805     8.9887    11.7443     7.0833     0.1140     2.5124     0.0870    90.5801
 1144.0000   -39.3669   105.8966     9.0177    11.7989     7.0833     0.1194     2.5145     0.0905    90.9527
 1144.5000   -39.3428   105.4127     9.0471    11.8570     7.0833     0.1305     2.5241     0.0817    91.5255
 1145.0000   -39.3002   104.9297     9.0759    11.9132     7.0833     0.1367     2.5352     0.0724    92.0554
 1145.5000   -39.2846   104.4448     9.1059    11.9721     7.0833     0.1271     2.5287     0.0760    93.2300
 1146.0000   -39.1314   103.9597     9.1295    12.0263     7.0833     0.1181     2.5155     0.0824    94.7501
 1146.5000   -38.8378   103.4735     9.1191    12.0912     7.0833     0.1165     2.5055     0.0871    96.0959
 1147.0000   -38.5635   102.9861     9.1031    12.1281     7.0833     0.1293     2.5207     0.0826    94.3963
 1147.5000   -38.2844   102.4971     9.0885    12.0991     7.0833     0.1274     2.5312     0.0737    95.9598
 1148.0000   -38.3153   102.0079     9.0726    12.0712     7.0833     0.1256     2.5265     0.0700    97.8027
 1148.5000   -38.4007   101.5418     9.0587    12.0407     7.0833     0.1339     2.5252     0.0743    98.6004
 1149.0000   -38.4762   101.6432     9.0407    12.0117     7.0833     0.1260     2.5243     0.0802    97.8882
 1149.5000   -38.5538   102.3419     9.0322    11.9819     7.0833     0.1108     2.5111     0.0883    97.3547
 1150.0000   -38.6324   103.0406     9.0220    11.9525     7.0833     0.0960     2.5056     0.0844    96.7974
 1150.5000   -38.6210   103.7392     8.9972    11.9229     7.0833     0.0901     2.5060     0.0886    96.2141
 1151.0000   -38.5292   104.4379     8.9754    11.8935     7.0833     0.0829     2.4778     0.1033    95.6037
 1151.5000   -38.4936   105.1366     8.9521    11.8638     7.0833     0.0799     2.4851     0.1012    93.8049
 1152.0000   -38.2811   105.8352     8.9294    11.8347     7.0833     0.0922     2.4966     0.0966    93.3914
 1152.5000   -37.9873   106.5339     8.9067    11.8044     7.0833     0.0951     2.5022     0.0921    94.4299
 1153.0000   -37.7206   107.2854     8.8835    11.7765     7.0833     0.1086     2.5083     0.0798    95.3043
 1153.5000   -37.7607   107.2854     8.8615    11.7432     7.0833     0.1271     2.5349     0.0685    95.9597
 1154.0000   -38.0227   107.2854     8.8376    11.7259     7.0833     0.1198     2.5490     0.0595    98.4048
 1154.5000   -37.9477   107.2854     8.8414    11.7399     7.0833     0.1115     2.5323     0.0732    99.2484
 1155.0000   -37.8380   107.2854     8.8603    11.7504     7.0833     0.0883     2.5036     0.0945    99.5019
 1155.5000   -37.8585   107.2854     8.8747    11.7623     7.0833     0.0978     2.5111     0.0953   101.1075
 1156.0000   -37.8450   107.2854     8.8912    11.7739     7.0833     0.1138     2.5313     0.0645    99.4345
 1156.5000   -37.8593   107.2880     8.9064    11.7848     7.0833     0.1251     2.5405     0.0666    97.6643
 1157.0000   -37.7923   107.2874     8.9230    11.7978     7.0833     0.1273     2.5412     0.0708    96.2544
 1157.5000   -37.6723   107.7547     8.9349    11.8064     7.0833     0.1155     2.5501     0.0629    96.7348
 1158.0000   -37.5606   108.2423     8.9168    11.8240     7.0833     0.1100     2.5429     0.0692    97.3059
 1158.5000   -37.4654   108.7295     8.8718    11.7945     7.0833     0.1256     2.5479     0.0600    96.3630
 1159.0000   -37.5508   109.2163     8.8289    11.6982     7.0833     0.1305     2.5447     0.0657    94.1301
 1159.5000   -37.6434   109.7026     8.7828    11.6071     7.0833     0.1206     2.5344     0.0715    92.2661
 1160.0000   -37.6525   110.1885     8.7417    11.5126     7.0833     0.1240     2.5352     0.0746    90.0482
 1160.5000   -37.6486   110.6855     8.6919    11.4201     7.0833     0.1253     2.5428     0.0685    90.3503
 1161.0000   -37.6561   111.2775     8.6592    11.3264     7.0833     0.1184     2.5441     0.0645    91.0632
 1161.5000   -37.6253   111.8629     8.5444    11.2334     7.0833     0.1097     2.5286     0.0721    91.9209
 1162.0000   -37.3780   112.6052     8.4155    11.1400     7.0833     0.1000     2.5128     0.0817    96.0092
 1162.5000   -37.0920   113.3474     8.3301    11.0359     7.0833     0.0951     2.5081     0.0890    99.9363
 1163.0000   -36.8852   114.0896     8.2319    10.9132     7.0833     0.1019     2.5056     0.0897   104.7536
 1163.5000   -37.0141   114.8318     8.1401    10.7665     7.0833     0.1082     2.5261     0.0784   106.8859
 1164.0000   -37.2073   116.0003     8.0457    10.6217     7.0833     0.1110     2.5393     0.0680   107.6844
 1164.5000   -37.1202   117.8271     7.9514    10.4775     7.0833     0.1077     2.5416     0.0665   105.8894
 1165.0000   -36.8449   119.6592     7.8596    10.3305     7.0833     0.1191     2.5471     0.0684   103.6883
 1165.5000   -36.6665   121.5115     7.7623    10.1897     7.0833     0.1301     2.5561     0.0574   101.4933
 1166.0000   -36.6278   124.3108     7.6780    10.0364     7.0833     0.1319     2.5513     0.0574   100.7049
 1166.5000   -36.5938   127.6985     7.5436     9.9432     7.0833     0.1188     2.5385     0.0664   102.5892
 1167.0000   -36.5410   130.2889     7.3307     9.9763     7.0833     0.1076     2.5287     0.0740   104.1765
 1167.5000   -36.5103   134.2476     7.1547     9.8270     7.0833     0.0990     2.5224     0.0792   105.3212
 1168.0000   -36.4430   137.2256     6.8865     9.6689     7.0833     0.1032     2.5156     0.0806   105.6724
 1168.5000   -36.5524   148.9920     6.3569     9.4116     7.0833     0.1076     2.5110     0.0890   106.0949
 1169.0000   -36.6168   160.2645     5.8963     9.0402     7.0833     0.1186     2.5335     0.0873   106.5685
 1169.5000   -36.4635   176.7978     5.4314     8.6691     7.0833     0.1268     2.5461     0.0628   107.0368
 1170.0000   -36.3311   195.0100     4.9610     8.1387     7.0833     0.1213     2.5380     0.0709   108.4906
 1170.5000   -36.2041   210.0399     4.4981     7.6087     7.0833     0.1228     2.5377     0.0702   109.9322
 1171.0000   -36.1415   224.0519     4.3413     7.0057     7.0833     0.1211     2.5437     0.0661   111.4573
 1171.5000   -36.0102   225.0499     4.2854     6.5697     7.0833     0.1194     2.5485     0.0653   112.9390
 1172.0000   -35.5744   222.1956     4.2496     6.2105     7.0833     0.1287     2.5505     0.0582   114.3419
 1172.5000   -35.0372   217.9564     4.2483     6.2268     7.0833     0.1322     2.5172     0.0783   116.0480
 1173.0000   -34.8153   214.0719     4.4414     6.6088     7.0833     0.1239     2.4906     0.0984   113.6193
 1173.5000   -34.8887   204.0918     4.5813     7.3044     7.0833     0.1158     2.4611     0.1118   109.1502
 1174.0000   -35.5048   188.1202     5.0394     8.1189     7.0834     0.1276     2.4753     0.1045   104.9033
 1174.5000   -36.0183   170.1432     5.7003     8.8574     7.0833     0.1233     2.5018     0.0924   100.6694
 1175.0000   -35.9083   152.1663     6.5670     9.3374     7.0834     0.1184     2.5384     0.0826    95.8844
 1175.5000   -35.7762   137.1776     7.1338     9.7110     7.0834     0.1340     2.5831     0.0465    88.2501
 1176.0000   -35.6640   128.2435     7.2210    10.0180     7.0832     0.1453     2.5925     0.0345    76.0852
 1176.5000   -35.8814   124.2515     7.3678    10.0835     7.0839     0.1484     2.5819     0.0432    48.9167
