~VERSION INFORMATION
 VERS.                2.0:   CWLS LOG ASCII STANDARD - VERSION 2.0
 WRAP.                 NO:   ONE LINE PER DEPTH STEP
~WELL INFORMATION
#MNEM.UNIT      DATA TYPE    INFORMATION
#----------   ------------   ------------------------------
 STRT.F           70.0000:   START DEPTH
 STOP.F          884.0000:   STOP DEPTH
 STEP.F            0.5000:   STEP LENGTH
 NULL.          -999.2500:   NO VALUE
 COMP. U S NAVY/INTEX OIL CO:   COMPANY
 WELL.   NPR#3 "S" #16-35:   WELL
 FLD .             TEAPOT:   FIELD
 LOC .      S35 T39N R78W:   LOCATION
 CNTY.            NATRONA:   COUNTY
 STAT.            WYOMING:   STATE
 CTRY. UNITED STATES OF AMERICA:   COUNTRY
 SRVC.         Lane Wells:   SERVICE COMPANY
 DATE.        21-MAR-1960:   LOGDATE
 API .       490250651800:   API NUMBER
~CURVE INFORMATION
#MNEM.UNIT       API CODE    CURVE DESCRIPTION
#----------   ------------   ------------------------------
 DEPT.F                  :   
 SPR .MV     05 010 01 00:   SPONTANEOUS POTENTIAL FROM RES.
 ASN .OHMM   05 040 16 00:   AMPLIFIED SHORT NORMAL 16"
 ILD .OHMM   05 120 46 00:   INDUCTION LOG DEEP
 CILD.MMHO   05 110 46 00:   CONDUCTIVITY INDUCTION LOG DEEP
 GR  .GAPI   30 310 01 00:   GAMMA RAY
~PARAMETER INFORMATION
#MNEM.UNIT          VALUE    DESCRIPTION
#----------   ------------   ------------------------------
 PD  .                 GL:   PERMANENT DATUM
 EPD .F              5091:   ELEVATION PERMANENT DATUM
 LMF .                 KB:   LOG MEASURED FROM
 DAPD.F                 5:   FEET ABOVE PERMANENT DATUM
 DMF .                 KB:   DRILLING MEASURED FROM
 EKB .F              5096:   KELLING BUSHING
 EGL .F              5091:   GROUND LEVEL
 DATE.          3-21-1960:   RUN DATE
 RUN .                  1:   RUN NUMBER
 DD  .F               913:   DEPTH DRILLER
 DL  .F               885:   DEPTH LOGGER
 BLI .F               883:   BOTTOM LOG INTERVAL
 TLI .F                70:   TOP LOG INTERVAL
 CS  .IN            8.625:   CASING SIZE
 CBD .F                12:   CASING BOTTOM DRILLER
 BS  .IN            7.875:   BIT SIZE
 BSD .F               913:   BIT SIZE AT DEPTH
 DFT .   GEL-OIL EMULSION:   DRILLING FLUID TYPE
 DFD .                9.9:   DRILLING FLUID DENSITY
 DFV .                 40:   DRILLING FLUID VISCOSITY
 MSS .           FLOWLINE:   MUD SAMPLE SOURCE
 RMS .OHMM              3:   RESISTIVITY MUD SAMPLE
 MST .F                64:   MUD SAMPLE TEMPERATURE
 RMF .OHMM            2.2:   RESISTIVITY MUD FILTRATE SAMPLE
 MFST.F                64:   MUD FILTRATE SAMPLE TEMPERATURE
 RMC .OHMM              4:   RESISTIVITY MUD CAKE
 MCST.F                64:   MUD CAKE SAMPLE TEMPERATURE
 MFSS.                MUD:   MUD FILTRATE SAMPLE SOURCE
 MCSS.              PRESS:   MUD CAKE SAMPLE SOURCE
 RMB .OHMM            2.7:   RESISTIVITY MUD AT BHT
 BHT .F                70:   BOTTOM HOLE TEMPERATURE
 MRT .F                70:   MAXIMUM RECORDED TEMPERATURE
 LUN .             L-4474:   LOGGING UNIT NUMBER
 LUL .             CASPER:   LOGGING UNIT LOCATION
 ENGI.             NELSON:   RECORDING ENGINEER
 WITN.          JORGENSEN:   WITNESSED BY
 CLNT.            A2DTECH:   CLIENT CODE
 ORIG.      2" & 5" PRINT:   ORIGIN OF DATA
 UWI .       490250651800:   UNIQUE WELL ID
 DICO. A2D Technologies, Inc.:   DIGITIZING COMPANY
~OTHER INFORMATION
~A   DEPT      SPR          ASN      ILD        CILD        GR   
# ...
  314.0000   -26.9535     3.0566     2.6365   471.6350  -999.2500
  314.5000   -27.0769     3.2455     2.4038   503.5366  -999.2500
  315.0000   -27.2260     3.4000     2.4743   517.6470  -999.2500
  315.5000   -27.6350     3.5479     2.5536   504.2137  -999.2500
  316.0000   -28.0461     3.7141     2.6403   466.6147  -999.2500
  316.5000   -28.4598     5.1095     2.7240   422.1008  -999.2500
  317.0000   -28.8687     6.8275     2.9835   377.5870  -999.2500
  317.5000   -29.2848     8.3679     3.3377   333.0732  -999.2500
  318.0000   -29.6896     8.8825     3.7817   288.5594  -999.2500
  318.5000   -30.1121     9.5221     4.4236   250.5282  -999.2500
  319.0000   -30.5048    10.3646     5.0830   224.5618  -999.2500
  319.5000   -30.9929    10.3667     5.7434   198.5954  -999.2500
  320.0000   -31.2054    10.3680     6.4056   178.7875  -999.2500
  320.5000   -31.1384    10.3663     7.0231   166.9172  -999.2500
  321.0000   -30.8700    10.3655     7.0614   155.1621  -999.2500
  321.5000   -30.5576     9.5156     7.0207   153.9136  -999.2500
  322.0000   -30.2405     8.7403     6.9472   155.0546  -999.2500
  322.5000   -29.9260     8.0291     6.5654   158.1178  -999.2500
  323.0000   -29.6120     7.3655     6.1665   160.7809  -999.2500
  323.5000   -29.2854     6.8169     5.7784   177.5510  -999.2500
  324.0000   -29.0702     6.7597     5.3823   192.3956  -999.2500
  324.5000   -29.5972     6.8512     5.3062   195.9586  -999.2500
  325.0000   -30.1497     7.6217     5.4659   194.6609  -999.2500
  325.5000   -30.7264     8.2581     5.6203   192.9772  -999.2500
  326.0000   -31.1565     8.9092     5.7993   187.1573  -999.2500
  326.5000   -31.2185     9.5617     5.9296   173.8031  -999.2500
  327.0000   -31.2507    10.3702     6.4816   160.4490  -999.2500
  327.5000   -31.2995    10.6746     7.2285   147.0948  -999.2500
  328.0000   -31.3097    11.0244     7.9382   133.7407  -999.2500
  328.5000   -31.5889    11.3747     8.6586   123.9691  -999.2500
  329.0000   -32.3327    11.7244     9.1181   118.6367  -999.2500
  329.5000   -33.0699    12.0730     9.5626   113.3043  -999.2500
  330.0000   -33.8216    12.4208    10.0068   107.9719  -999.2500
  330.5000   -34.5308    12.7660    10.4546   102.6396  -999.2500
  331.0000   -34.4261    13.1206    10.8961    97.3072  -999.2500
  331.5000   -34.1972    13.2845    11.3480    91.9748  -999.2500
  332.0000   -33.9855    13.3225    11.7697    86.6424  -999.2500
  332.5000   -33.7707    13.3694    12.1494    83.9256  -999.2500
  333.0000   -33.5547    13.4170    12.5214    82.4418  -999.2500
  333.5000   -33.3391    13.4619    12.8588    80.9580  -999.2500
  334.0000   -33.1236    13.5159    13.2459    79.4742  -999.2500
  334.5000   -32.9056    13.6224    13.4726    77.9904  -999.2500
  335.0000   -32.6949    13.7583    13.7120    76.5066  -999.2500
  335.5000   -32.4703    13.8916    13.9502    75.0228  -999.2500
  336.0000   -32.2730    14.0249    14.1907    73.5390  -999.2500
  336.5000   -32.0122    14.1587    14.4295    72.0552  -999.2500
  337.0000   -32.0046    14.2930    14.6694    70.5282  -999.2500
  337.5000   -32.4719    14.4256    14.9089    69.7779  -999.2500
  338.0000   -32.9549    14.5588    15.1481    69.0051  -999.2500
  338.5000   -33.7320    14.6945    15.3886    68.2323  -999.2500
  339.0000   -34.6242    14.8940    15.6266    67.4595  -999.2500
  339.5000   -35.5301    15.0912    15.8689    66.6867  -999.2500
  340.0000   -36.4039    15.2892    16.0784    65.9139  -999.2500
  340.5000   -37.2929    15.4862    16.2448    65.1411  -999.2500
  341.0000   -36.9524    15.6838    16.3965    64.3682  -999.2500
  341.5000   -36.0429    15.8814    16.5467    63.5954  -999.2500
  342.0000   -35.2051    16.0786    16.6992    62.8226  -999.2500
  342.5000   -34.4536    16.2760    16.8746    62.0498  -999.2500
  343.0000   -34.2174    16.4733    17.2511    61.1284  -999.2500
  343.5000   -34.0957    16.6709    17.7323    59.8920  -999.2500
  344.0000   -34.3477    16.8679    18.1982    58.6555  -999.2500
  344.5000   -34.5874    17.0655    18.6712    57.4190  -999.2500
  345.0000   -34.8469    17.2636    19.1406    56.1825  -999.2500
  345.5000   -35.0804    17.4576    19.6119    54.9460  -999.2500
  346.0000   -35.3626    17.6833    20.0828    53.7095  -999.2500
  346.5000   -35.5166    17.9422    20.5538    52.4730  -999.2500
  347.0000   -35.4598    18.1946    21.0253    51.2365  -999.2500
  347.5000   -35.4385    18.4532    21.4947    50.0000  -999.2500
  348.0000   -35.3977    18.7014    21.9687    48.7635  -999.2500
  348.5000   -35.3643    18.9668    22.4330    47.5270  -999.2500
  349.0000   -35.3691    19.2124    22.9214    47.2569  -999.2500
  349.5000   -35.8235    19.5240    23.2594    47.4630  -999.2500
  350.0000   -36.3748    19.3461    23.1947    47.6691  -999.2500
  350.5000   -36.8800    18.9126    23.1316    47.8751  -999.2500
  351.0000   -37.3790    18.4186    23.0586    48.0812  -999.2500
  351.5000   -37.2735    18.5832    22.9977    48.2873  -999.2500
  352.0000   -36.7405    18.7989    22.8972    48.4934  -999.2500
  352.5000   -36.2757    19.0634    22.5130    48.6995  -999.2500
  353.0000   -35.8967    18.8501    21.9850    48.9196  -999.2500
  353.5000   -35.9901    18.6023    21.7010    48.4874  -999.2500
  354.0000   -36.0649    18.3369    21.6783    48.0237  -999.2500
  354.5000   -36.1901    18.0830    21.6187    47.5600  -999.2500
  355.0000   -36.1364    17.8250    21.5129    47.1189  -999.2500
  355.5000   -35.7609    17.5672    20.8318    49.2581  -999.2500
  356.0000   -35.3960    17.3097    20.1303    51.2983  -999.2500
  356.5000   -35.0208    17.0517    19.4242    53.3385  -999.2500
  357.0000   -34.6392    16.7953    18.7257    55.3787  -999.2500
  357.5000   -34.4093    16.5404    18.0194    57.4190  -999.2500
  358.0000   -34.1948    16.2847    17.3220    59.4592  -999.2500
  358.5000   -33.9617    16.1257    16.5840    61.4994  -999.2500
  359.0000   -33.7603    16.0009    15.7643    63.5396  -999.2500
  359.5000   -33.4989    15.8555    14.9452    65.5798  -999.2500
  360.0000   -33.3316    15.4060    14.1237    69.1957  -999.2500
  360.5000   -32.5370    14.2884    13.3038    75.8727  -999.2500
  361.0000   -31.2410    12.9706    12.4829    83.1332  -999.2500
  361.5000   -30.0366    11.6524    11.6621    93.5150  -999.2500
  362.0000   -28.9025    10.2943    10.8409   104.8908  -999.2500
  362.5000   -27.4254     9.6383    10.0194   116.2665  -999.2500
  363.0000   -27.0004     8.9040     9.1984   127.6423  -999.2500
  363.5000   -27.1063     8.1692     8.3773   139.0180  -999.2500
  364.0000   -27.1296     7.4905     7.5541   150.3938  -999.2500
  364.5000   -27.1887     7.5707     6.7508   161.7569  -999.2500
  365.0000   -27.2307     7.6916     6.1540   170.2543  -999.2500
  365.5000   -27.2820     7.8129     5.8169   177.0704  -999.2500
  366.0000   -27.3287     7.9105     5.7995   183.8931  -999.2500
  366.5000   -27.3677     7.7576     5.7918   186.0522  -999.2500
  367.0000   -27.2421     7.6320     5.7893   186.3770  -999.2500
  367.5000   -27.0832     7.5065     5.7825   186.6935  -999.2500
  368.0000   -26.9288     7.3592     5.7786   187.0051  -999.2500
  368.5000   -26.7742     7.3729     5.7729   187.2963  -999.2500
  369.0000   -26.6145     7.4209     5.7678   187.6189  -999.2500
  369.5000   -26.4967     7.3523     5.7621   187.9414  -999.2500
  370.0000   -26.6327     7.1571     5.7562   188.2640  -999.2500
  370.5000   -26.7813     6.9565     5.7503   188.5866  -999.2500
  371.0000   -26.9327     6.8756     5.7444   188.9091  -999.2500
  371.5000   -27.0788     7.0931     5.7385   189.2317  -999.2500
  372.0000   -27.2314     7.3077     5.7326   188.9652  -999.2500
  372.5000   -27.3761     7.5299     5.7267   188.2233  -999.2500
  373.0000   -27.5407     7.7503     5.7208   187.4814  -999.2500
  373.5000   -27.5121     7.9496     5.7149   186.7395  -999.2500
  374.0000   -27.4408     7.8961     5.7091   185.9976  -999.2500
  374.5000   -27.3690     7.6730     5.7032   185.2557  -999.2500
