~VERSION INFORMATION
 VERS.                2.0:   CWLS LOG ASCII STANDARD - VERSION 2.0
 WRAP.                 NO:   ONE LINE PER DEPTH STEP
~WELL INFORMATION
#MNEM.UNIT      DATA TYPE    INFORMATION
#----------   ------------   ------------------------------
 STRT.F           36.0000:   START DEPTH
 STOP.F          503.0000:   STOP DEPTH
 STEP.F            0.5000:   STEP LENGTH
 NULL.          -999.2500:   NO VALUE
 COMP.    FENIX & SCISSON:   COMPANY
 WELL.     NPR ##3 77-S-3:   WELL
 FLD .             TEAPOT:   FIELD
 LOC .       S3 T38N R78W:   LOCATION
 CNTY.            NATRONA:   COUNTY
 STAT.            WYOMING:   STATE
 CTRY. UNITED STATES OF AMERICA:   COUNTRY
 SRVC.       Schlumberger:   SERVICE COMPANY
 DATE.        04-MAR-1977:   LOGDATE
 API .       490251029500:   API NUMBER
~CURVE INFORMATION
#MNEM.UNIT       API CODE    CURVE DESCRIPTION
#----------   ------------   ------------------------------
 DEPT.F                  :   
 SPR .MV     07 010 01 00:   SPONTANEOUS POTENTIAL
 ILD .OHMM   07 120 46 00:   INDUCTION LOG DEEP
 ILM .OHMM   07 120 44 00:   INDUCTION LOG MEDIUM
 LL8 .OHMM   07 220 08 00:   LATEROLOG-8 RES.
 GRD .GAPI   45 310 01 00:   GAMMA RAY FROM DENSITY LOG
 CALD.IN     45 280 60 00:   CALIPER FROM DENSITY LOG
 CORR.G/C3   45 356 01 00:   DENSITY CORRECTION
 RHOB.G/C3   45 350 01 00:   BULK DENSITY
 DPHI.DEC    45 890 12 00:   DENSITY POROSITY SANDSTONE
~PARAMETER INFORMATION
#MNEM.UNIT          VALUE    DESCRIPTION
#----------   ------------   ------------------------------
 PD  .                 GL:   PERMANENT DATUM
 EPD .F              5165:   ELEVATION PERMANENT DATUM
 LMF .                 KB:   LOG MEASURED FROM
 DAPD.F                 4:   FEET ABOVE PERMANENT DATUM
 DMF .                 GL:   DRILLING MEASURED FROM
 EKB .F              5169:   KELLING BUSHING
 EGL .F              5165:   GROUND LEVEL
 DATE.        04-MAR-1977:   RUN DATE
 RUN .                  1:   RUN NUMBER
 DD  .F               500:   DEPTH DRILLER
 DL  .F               504:   DEPTH LOGGER
 BLI .F               503:   BOTTOM LOG INTERVAL
 TLI .F                46:   TOP LOG INTERVAL
 CS  .IN            8.625:   CASING SIZE
 CBD .F                42:   CASING BOTTOM DRILLER
 CBL .F                46:   CASING BOTTOM LOGGER
 BS  .IN            7.875:   BIT SIZE
 BSD .F               500:   BIT SIZE AT DEPTH
 DFT .                KCL:   DRILLING FLUID TYPE
 DFD .                8.6:   DRILLING FLUID DENSITY
 DFV .                 32:   DRILLING FLUID VISCOSITY
 DFPH.                8.0:   DRILLING FLUID PH
 DFL .                7.6:   DRILLING FLUID LOSS
 MSS .            MUD PIT:   MUD SAMPLE SOURCE
 RMS .OHMM            .66:   RESISTIVITY MUD SAMPLE
 MST .F                56:   MUD SAMPLE TEMPERATURE
 RMF .OHMM            .49:   RESISTIVITY MUD FILTRATE SAMPLE
 MFST.F                56:   MUD FILTRATE SAMPLE TEMPERATURE
 RMC .OHMM             .4:   RESISTIVITY MUD CAKE
 MCST.F                56:   MUD CAKE SAMPLE TEMPERATURE
 MFSS.               MEAS:   MUD FILTRATE SAMPLE SOURCE
 MCSS.               CALC:   MUD CAKE SAMPLE SOURCE
 TCS .HRS            0100:   TIME CURCULATED STOPPED
 LUN .               7680:   LOGGING UNIT NUMBER
 LUL .               CSPR:   LOGGING UNIT LOCATION
 ENGI.    LOHBECK/ TAYLOR:   RECORDING ENGINEER
 WITN.              BURKE:   WITNESSED BY
 CLNT.            A2DTECH:   CLIENT CODE
 ORIG.           5" PRINT:   ORIGIN OF DATA
 UWI .       490251029500:   UNIQUE WELL ID
 DICO. A2D Technologies, Inc.:   DIGITIZING COMPANY
~OTHER INFORMATION
~A   DEPT      SPR        ILD        ILM        LL8         GRD      CALD       CORR       RHOB       DPHI   
# ...
  364.5000   -50.0683    17.0684    16.8962    16.6711    52.7695     8.0290     0.0164     2.4096     0.1451
  365.0000   -49.9083    16.9613    16.8016    16.4432    52.5449     8.0285     0.0112     2.4110     0.1490
  365.5000   -50.0498    16.8549    16.6928    16.0097    52.7695     8.0431     0.0157     2.4065     0.1502
  366.0000   -50.0389    16.5190    16.5847    15.4845    52.5208     8.0427     0.0216     2.4192     0.1448
  366.5000   -50.0278    16.3048    16.3637    15.1779    50.2994     8.0421     0.0261     2.4298     0.1361
  367.0000   -50.0164    16.0882    16.3706    14.9786    49.1766     8.0568     0.0291     2.4319     0.1337
  367.5000   -50.0075    15.9873    16.2645    14.8835    49.6257     8.0563     0.0208     2.4319     0.1346
  368.0000   -50.1474    15.8871    16.0478    14.8919    50.0749     8.0558     0.0246     2.4251     0.1324
  368.5000   -50.1360    15.7874    15.9438    14.9002    50.0749     8.0705     0.0081     2.4085     0.1461
  369.0000   -50.4252    15.7998    15.9506    14.9085    50.2994     8.0700     0.0133     2.3965     0.1545
  369.5000   -50.5650    15.6982    15.9573    14.9169    50.7485     8.0695    -0.0002     2.3994     0.1503
  370.0000   -50.5531    15.7106    15.9640    14.9252    51.8863     8.0690     0.0095     2.3962     0.1566
  370.5000   -50.6921    15.7204    15.9707    14.9335    53.2186     8.0687     0.0163     2.4205     0.1404
  371.0000   -50.6802    15.8395    15.9773    14.9418    53.6677     8.0681     0.0192     2.4323     0.1344
  371.5000   -50.8226    15.9570    16.0949    14.9502    53.8922     8.0527     0.0110     2.4338     0.1311
  372.0000   -50.9615    15.8570    16.3259    15.1670    51.8713     8.0522     0.0185     2.4315     0.1333
  372.5000   -51.1005    15.8857    16.4460    15.2808    50.7485     8.0368     0.0199     2.4345     0.1303
  373.0000   -51.0873    16.1134    16.6820    15.5024    49.8503     8.0363     0.0207     2.4337     0.1333
  373.5000   -51.0767    16.4579    16.9214    15.8364    49.1766     8.0359     0.0162     2.4389     0.1294
  374.0000   -51.0661    16.6937    17.1642    15.9553    48.2604     8.0354     0.0221     2.4413     0.1279
  374.5000   -50.9061    17.0505    17.1714    16.1867    48.7275     8.0349     0.0094     2.4312     0.1309
  375.0000   -50.8955    17.1757    17.0602    16.3082    50.2994     8.0345     0.0079     2.4453     0.1264
  375.5000   -50.7355    17.3058    16.9479    16.3173    51.6467     8.0340     0.0125     2.4500     0.1198
  376.0000   -50.5770    17.3167    16.8382    16.3264    52.3204     8.0336     0.0161     2.4462     0.1205
  376.5000   -50.4154    17.2078    16.4994    16.2228    52.7695     8.0332     0.0078     2.4286     0.1319
  377.0000   -50.2554    16.8651    16.0577    15.8962    53.2186     8.0327     0.0033     2.3974     0.1506
  377.5000   -49.9459    16.5290    15.6262    15.5804    52.9940     8.0345     0.0100     2.4033     0.1572
  378.0000   -49.7858    16.1991    15.2062    15.2688    52.7486     8.0469     0.0175     2.4213     0.1443
  378.5000   -49.6258    15.7672    14.7976    14.9635    52.5449     8.0013     0.0250     2.4400     0.1257
  379.0000   -49.4679    15.2406    14.5989    14.6622    52.5449     7.9108     0.0347     2.4520     0.1191
  379.5000   -49.4574    14.8338    14.4045    14.2718    52.5449     7.8653     0.0169     2.4370     0.1281
  380.0000   -49.4473    14.6368    14.4108    14.0625    52.7695     7.9399     0.0010     2.4279     0.1339
  380.5000   -49.6004    14.4470    14.3172    13.8798    53.4431     7.9845     0.0032     2.4234     0.1416
  381.0000   -49.7251    14.3541    14.3234    13.6995    53.8922     8.0291     0.0099     2.4444     0.1272
  381.5000   -49.8675    14.2641    14.4288    13.6255    53.6677     8.0286     0.0159     2.4676     0.1158
  382.0000   -50.1542    14.2753    14.6439    13.6332    53.2186     8.0433     0.0227     2.4698     0.1122
  382.5000   -50.2915    14.2843    14.9591    13.6408    53.8922     8.0577     0.0159     2.4630     0.1144
  383.0000   -50.5797    14.6944    15.6987    13.8385    54.5659     8.0573     0.0189     2.4555     0.1174
  383.5000   -50.8685    15.5406    16.2555    13.9424    53.2186     8.0569     0.0146     2.4609     0.1141
  384.0000   -51.0075    17.4215    17.3065    14.3417    52.0958     8.0564     0.0099     2.4568     0.1168
  384.5000   -50.9965    19.6159    19.0736    14.7524    52.0958     8.0410     0.0173     2.4441     0.1207
  385.0000   -50.9859    21.8102    21.6107    15.1749    52.3204     8.0406     0.0136     2.4373     0.1301
  385.5000   -50.9754    24.0045    24.6551    16.7279    51.8713     8.0400     0.0136     2.4358     0.1304
  386.0000   -50.9648    27.1176    26.7994    19.2216    50.2456     8.0396     0.0038     2.4110     0.1328
  386.5000   -50.8048    30.3116    29.1301    22.3948    47.8293     8.0391    -0.0016     2.3764     0.1547
  387.0000   -50.4953    32.9090    32.5515    26.8242    43.3383     8.0538     0.0090     2.3028     0.1755
  387.5000   -50.1849    37.0058    37.9157    31.9080    40.1946     8.0503     0.0018     2.2622     0.2128
  388.0000   -50.1752    41.0022    42.6630    35.9114    40.1946     8.0329    -0.0023     2.2584     0.2386
  388.5000   -49.8657    44.8268    45.1084    39.0425    40.1946     8.0223     0.0142     2.2607     0.2349
  389.0000   -49.7056    47.3418    46.7147    40.7203    40.1946     7.8718     0.0367     2.2748     0.2342
  389.5000   -49.5456    47.7000    47.3851    39.6307    40.6452     7.7512     0.0487     2.2643     0.2381
  390.0000   -49.5350    46.7493    45.7939    37.7779    41.6019     7.7808     0.0074     2.2568     0.2405
  390.5000   -49.3750    44.8762    44.2562    37.0172    42.8892     7.8403     0.0142     2.2905     0.2162
  391.0000   -49.2150    44.2868    43.9650    38.0827    43.7874     7.9000     0.0164     2.2980     0.2144
  391.5000   -49.2044    45.2447    44.6006    38.9032    43.7874     7.9597     0.0224     2.3129     0.2039
  392.0000   -49.0444    46.2227    45.8706    38.1199    44.0120     8.0042     0.0254     2.3182     0.1997
  392.5000   -49.0338    47.2220    46.5288    38.6780    43.9310     8.0188     0.0178     2.3220     0.2004
  393.0000   -49.0254    47.5798    47.5239    41.1864    43.7874     8.0183     0.0148     2.3173     0.2030
  393.5000   -49.0149    46.6315    45.6116    54.7283    42.8892     8.0179     0.0216     2.3150     0.2042
  394.0000   -49.0045    45.0740    44.0801    66.0079    40.8683     8.0174     0.0290     2.3278     0.1937
  394.5000   -49.1437    42.9696    42.5999    56.3271    40.1946     7.9568     0.0350     2.3585     0.1736
  395.0000   -49.2826    40.9636    40.6040    43.3271    40.1946     7.9265     0.0180     2.4020     0.1482
  395.5000   -49.4215    39.0511    39.2406    34.2628    41.5419     8.0161    -0.0002     2.4448     0.1226
  396.0000   -49.4110    37.2280    37.4021    31.1166    43.1138     7.9855     0.0177     2.4583     0.1166
  396.5000   -49.4004    35.2452    35.8971    30.4900    44.0374     7.9551     0.0177     2.4099     0.1325
  397.0000   -49.5396    33.5998    34.6457    31.3640    44.9102     7.9697     0.0245     2.3808     0.1650
  397.5000   -49.8277    32.2535    33.4893    31.8187    45.5838     8.0143     0.0207     2.3696     0.1683
  398.0000   -49.8171    31.3927    32.3447    31.6163    44.4611     8.0138     0.0102     2.3440     0.1773
  398.5000   -49.8066    30.7622    31.2907    30.5021    43.7874     8.0133     0.0042     2.3357     0.1897
  399.0000   -49.7960    30.1539    30.6549    28.8932    44.0120     8.0128     0.0050     2.3417     0.1918
  399.5000   -49.4865    29.9600    30.0625    27.9604    44.6856     8.0124     0.0154     2.3521     0.1795
  400.0000   -49.2568    29.7721    29.8679    28.1702    45.1347     8.0130     0.0238     2.3634     0.1741
  400.5000   -48.8268    29.9836    29.7906    27.7209    45.4143     8.0185     0.0213     2.3596     0.1786
