~VERSION INFORMATION
 VERS.                2.0:   CWLS LOG ASCII STANDARD - VERSION 2.0
 WRAP.                 NO:   ONE LINE PER DEPTH STEP
~WELL INFORMATION
#MNEM.UNIT      DATA TYPE    INFORMATION
#----------   ------------   ------------------------------
 STRT.F           34.0000:   START DEPTH
 STOP.F         1014.5000:   STOP DEPTH
 STEP.F            0.5000:   STEP LENGTH
 NULL.          -999.2500:   NO VALUE
 COMP. FENIX & SCISSON INC:   COMPANY
 WELL.       NPR-3 #54-14:   WELL
 FLD .             TEAPOT:   FIELD
 LOC .      S14 T38N R78W:   LOCATION
 CNTY.            NATRONA:   COUNTY
 STAT.            WYOMING:   STATE
 CTRY. UNITED STATES OF AMERICA:   COUNTRY
 SRVC.            Unknown:   SERVICE COMPANY
 DATE.        20-APR-1978:   LOGDATE
 API .       490251062100:   API NUMBER
~CURVE INFORMATION
#MNEM.UNIT       API CODE    CURVE DESCRIPTION
#----------   ------------   ------------------------------
 DEPT.F                  :   
 SPR .MV     05 010 01 00:   SPONTANEOUS POTENTIAL FROM RES.
 SN  .OHMM   05 040 16 00:   SHORT NORMAL 16"
 ILD .OHMM   05 120 46 00:   INDUCTION LOG DEEP
 CALD.IN     45 280 60 00:   CALIPER
 GRD .GAPI   45 310 01 00:   GAMMA RAY FROM DENSITY LOG
 RHOB.G/C3   45 350 01 00:   BULK DENSITY
 DPOR.DEC    45 890 12 00:   DENSITY POROSITY SANDSTONE
 CORR.G/C3   45 356 01 00:   DENSITY CORRECTION
~PARAMETER INFORMATION
#MNEM.UNIT          VALUE    DESCRIPTION
#----------   ------------   ------------------------------
 PD  .                 GL:   PERMANENT DATUM
 EPD .F              5268:   ELEVATION PERMANENT DATUM
 LMF .                 KB:   LOG MEASURED FROM
 DAPD.F                 4:   FEET ABOVE PERMANENT DATUM
 DMF .                 KB:   DRILLING MEASURED FROM
 EKB .F              5272:   KELLING BUSHING
 EGL .F              5268:   GROUND LEVEL
 DATE.          4-20-1978:   RUN DATE
 RUN .                  1:   RUN NUMBER
 DD  .F              1030:   DEPTH DRILLER
 DL  .F              1021:   DEPTH LOGGER
 BLI .F              1014:   BOTTOM LOG INTERVAL
 TLI .F                50:   TOP LOG INTERVAL
 CS  .IN            8.625:   CASING SIZE
 CBD .F                40:   CASING BOTTOM DRILLER
 BS  .IN            7.875:   BIT SIZE
 BSD .F              1030:   BIT SIZE AT DEPTH
 DFT .                KCL:   DRILLING FLUID TYPE
 DFD .                8.6:   DRILLING FLUID DENSITY
 DFV .                 33:   DRILLING FLUID VISCOSITY
 DFPH.                 10:   DRILLING FLUID PH
 DFL .                  8:   DRILLING FLUID LOSS
 MSS .          FLOW LINE:   MUD SAMPLE SOURCE
 RMS .OHMM            .34:   RESISTIVITY MUD SAMPLE
 MST .F                64:   MUD SAMPLE TEMPERATURE
 RMF .OHMM            .36:   RESISTIVITY MUD FILTRATE SAMPLE
 MFST.F                60:   MUD FILTRATE SAMPLE TEMPERATURE
 RMC .OHMM            .48:   RESISTIVITY MUD CAKE
 MCST.F                68:   MUD CAKE SAMPLE TEMPERATURE
 MFSS.               MEAS:   MUD FILTRATE SAMPLE SOURCE
 MCSS.               MEAS:   MUD CAKE SAMPLE SOURCE
 RMB .OHMM            .29:   RESISTIVITY MUD AT BHT
 BHT .F                74:   BOTTOM HOLE TEMPERATURE
 TCS .HRS               6:   TIME CURCULATED STOPPED
 MRT .F                74:   MAXIMUM RECORDED TEMPERATURE
 LUN .               2958:   LOGGING UNIT NUMBER
 LUL .               CASP:   LOGGING UNIT LOCATION
 ENGI.             MILLER:   RECORDING ENGINEER
 WITN.           MCGINELY:   WITNESSED BY
 CLNT.            A2DTECH:   CLIENT CODE
 ORIG.       2", 5" PRINT:   ORIGIN OF DATA
 UWI .       490251062100:   UNIQUE WELL ID
 DICO. A2D Technologies, Inc.:   DIGITIZING COMPANY
~OTHER INFORMATION
~A   DEPT      SPR         SN        ILD       CALD         GRD      RHOB       DPOR       CORR   
# ...
  479.5000   -31.5205     7.6040     6.5688     7.9683    86.8156     2.4680     0.1289     0.0033
  480.0000   -31.5154     7.5742     6.5843     7.9637    88.3235     2.4649     0.1279     0.0049
  480.5000   -31.5102     7.5448     6.5998     7.9591    90.9097     2.4637     0.1257     0.0065
  481.0000   -31.5050     7.5156     6.6157     7.9545    93.5032     2.4669     0.1225     0.0081
  481.5000   -31.4999     7.4865     6.6354     7.9499    93.3537     2.4750     0.1188     0.0097
  482.0000   -31.4947     7.4574     6.5894     7.9454    92.9588     2.4835     0.1150     0.0113
  482.5000   -31.4895     7.4285     6.5213     7.9407    93.0559     2.4920     0.1113     0.0092
  483.0000   -31.4844     7.3998     6.4545     7.9309    96.1635     2.4985     0.1116     0.0059
  483.5000   -31.4792     7.3711     6.3885     7.8985    99.6036     2.4861     0.1169     0.0034
  484.0000   -31.4741     7.3425     6.3231     7.8663   101.9586     2.4726     0.1229     0.0035
  484.5000   -31.4689     7.3140     6.2584     7.8408    98.1022     2.4597     0.1292     0.0035
  485.0000   -31.4637     7.2857     6.1943     7.9009    93.3521     2.4613     0.1297     0.0034
  485.5000   -31.4586     7.2575     6.1309     7.9629    91.0652     2.4655     0.1279    -0.0018
  486.0000   -31.4534     7.2293     6.0682     7.9763    92.3684     2.4661     0.1294    -0.0080
  486.5000   -31.4483     7.2013     6.0060     7.9756    93.5562     2.4544     0.1353    -0.0144
  487.0000   -31.4431     7.1734     5.9396     7.9746    91.1051     2.4429     0.1411    -0.0203
  487.5000   -31.4379     7.1442     5.9406     7.9737    91.7744     2.4315     0.1448    -0.0182
  488.0000   -31.4328     7.1442     5.9402     7.9728    92.3356     2.4237     0.1429    -0.0087
  488.5000   -31.4276     7.1442     5.9403     7.9719    90.6134     2.4348     0.1388     0.0008
  489.0000   -31.4224     7.1698     5.9403     7.9710    89.0628     2.4484     0.1347     0.0060
  489.5000   -31.4173     7.1955     5.9403     7.9701    89.2259     2.4581     0.1307     0.0068
  490.0000   -31.4121     7.2213     5.9403     7.9692    90.2655     2.4646     0.1266     0.0077
  490.5000   -31.4070     7.2472     5.9402     7.9683    91.2274     2.4709     0.1244     0.0086
  491.0000   -31.4018     7.2732     5.9403     7.9675    92.1709     2.4702     0.1255     0.0095
  491.5000   -31.3966     7.2993     5.9393     7.9666    92.8697     2.4671     0.1260     0.0104
  492.0000   -31.3915     7.3254     5.9716     7.9657    93.0150     2.4683     0.1241     0.0113
  492.5000   -31.3863     7.3517     6.0306     7.9648    92.9746     2.4746     0.1221     0.0120
  493.0000   -31.3812     7.3781     6.0901     7.9639    92.6053     2.4715     0.1202     0.0126
  493.5000   -31.3760     7.4046     6.1502     7.9630    90.7132     2.4789     0.1184     0.0132
  494.0000   -31.3708     7.4311     6.2109     7.9621    88.8605     2.4810     0.1185     0.0138
  494.5000   -31.3657     7.4578     6.2723     7.9612    89.7066     2.4767     0.1190     0.0144
  495.0000   -31.3605     7.4846     6.3342     7.9604    95.1532     2.4738     0.1176     0.0150
  495.5000   -31.3554     7.5115     6.3969     7.9595    98.0077     2.4811     0.1154     0.0154
  496.0000   -31.3502     7.5382     6.4598     7.9588    95.2217     2.4884     0.1134     0.0149
  496.5000   -31.3450     7.5508     6.5151     7.9578    94.0708     2.4941     0.1116     0.0143
  497.0000   -31.3399     7.5383     6.4745     7.9448    93.3893     2.4948     0.1120     0.0138
  497.5000   -31.3347     7.5272     6.4325     7.8695    90.8098     2.4913     0.1131     0.0140
  498.0000   -31.3295     7.5161     6.3907     7.8026    90.0221     2.4867     0.1141     0.0153
  498.5000   -31.3244     7.5051     6.3492     7.8802    91.1356     2.4853     0.1151     0.0137
  499.0000   -31.3192     7.4941     6.3080     7.9571    94.6030     2.4859     0.1162     0.0115
  499.5000   -31.3141     7.4831     6.2670     7.9098    98.1203     2.4825     0.1173     0.0093
  500.0000   -31.3089     7.4721     6.2264     7.8518    98.5684     2.4801     0.1199     0.0071
  500.5000   -31.3037     7.4611     6.1859     7.8376    98.0636     2.4721     0.1234     0.0050
  501.0000   -31.2986     7.4502     6.1458     7.8952    98.1704     2.4643     0.1268     0.0035
  501.5000   -31.2934     7.4392     6.1059     8.0031    96.9386     2.4588     0.1304     0.0041
  502.0000   -31.2883     7.4283     6.0663     8.1102    94.0736     2.4537     0.1304     0.0079
  502.5000   -31.2831     7.4123     6.0270     8.1733    95.7048     2.4634     0.1247     0.0116
  503.0000   -31.2779     7.4119     5.9936     8.1649    98.5673     2.4709     0.1233     0.0154
  503.5000   -31.2728     7.4935     6.1549     8.1575    99.2196     2.4701     0.1224     0.0181
  504.0000   -31.2676     7.6315     6.3597     8.1501    97.7018     2.4715     0.1216     0.0193
  504.5000   -31.2624     7.7713     6.5721     8.1426    94.5198     2.4720     0.1250     0.0206
  505.0000   -31.2573     7.9136     6.7913     8.1262    90.6922     2.4635     0.1295     0.0277
  505.5000   -31.2521     8.0585     6.9302     8.0469    86.6761     2.4608     0.1191     0.0484
  506.0000   -31.2470     8.2061     7.0577     7.9674    88.5425     2.4835     0.1098     0.0687
  506.5000   -31.2418     8.3577     7.1875     7.9159    92.0141     2.4993     0.1040     0.0608
  507.0000   -31.2366     8.2500     7.3468     7.8960    93.3274     2.5074     0.1066     0.0426
  507.5000   -31.2315     8.1542     7.3444     7.8988    91.8245     2.5031     0.1093     0.0245
  508.0000   -31.2263     8.0589     7.2246     7.9015    92.6610     2.4987     0.1128     0.0078
  508.5000   -31.2212     7.9650     7.0659     7.9037    93.8349     2.4880     0.1174     0.0033
  509.0000   -31.2160     7.8722     6.9106     7.9060    93.5876     2.4773     0.1219     0.0035
  509.5000   -31.2108     7.7805     6.7589     7.9082    91.8106     2.4698     0.1240     0.0036
  510.0000   -31.2057     7.6898     6.6104     7.9105    90.0545     2.4653     0.1247     0.0037
  510.5000   -31.2005     7.6001     6.4651     7.9127    90.5855     2.4691     0.1245     0.0038
  511.0000   -31.1954     7.5116     6.3231     7.9150    94.2771     2.4696     0.1243     0.0039
  511.5000   -31.1902     7.4811     6.2222     7.9172    97.9464     2.4683     0.1241     0.0040
  512.0000   -31.1849     7.4810     6.2176     7.9195    99.4896     2.4696     0.1247     0.0041
  512.5000   -31.1797     7.5184     6.2810     7.9217    97.3673     2.4669     0.1259     0.0041
  513.0000   -31.1790     7.5723     6.3156     7.9240    95.7700     2.4601     0.1268     0.0042
  513.5000   -31.2127     7.6265     6.3687     7.9263    94.7056     2.4648     0.1256     0.0043
  514.0000   -31.2466     7.6811     6.4222     7.9285    93.7022     2.4667     0.1246     0.0044
  514.5000   -31.2804     7.7361     6.4762     7.9308    93.0255     2.4663     0.1235     0.0045
  515.0000   -31.3146     7.7915     6.5306     7.9331    93.1108     2.4692     0.1224     0.0046
  515.5000   -31.3480     7.8472     6.5855     7.9353    93.1859     2.4728     0.1220     0.0047
  516.0000   -31.3466     7.9034     6.6409     7.9360    92.8323     2.4662     0.1223     0.0048
  516.5000   -31.1888     7.9808     6.6967     7.9297    92.1989     2.4722     0.1241     0.0049
  517.0000   -31.0344     7.9742     6.7530     7.9236    91.5713     2.4676     0.1241     0.0049
  517.5000   -30.8804     7.9639     6.8098     7.9174    91.5032     2.4679     0.1229     0.0050
  518.0000   -30.7264     7.9535     6.8672     7.9113    92.7957     2.4692     0.1218     0.0051
  518.5000   -30.5724     7.9431     6.8961     7.9051    93.3966     2.4706     0.1203     0.0052
  519.0000   -30.4184     7.9328     6.9119     7.8989    93.0171     2.4757     0.1188     0.0053
  519.5000   -30.2637     7.9225     6.9277     7.8928    90.9794     2.4808     0.1172     0.0054
