~VERSION INFORMATION
 VERS.                2.0:   CWLS LOG ASCII STANDARD - VERSION 2.0
 WRAP.                 NO:   ONE LINE PER DEPTH STEP
~WELL INFORMATION
#MNEM.UNIT      DATA TYPE    INFORMATION
#----------   ------------   ------------------------------
 STRT.F          936.5000:   START DEPTH
 STOP.F         2325.5000:   STOP DEPTH
 STEP.F            0.5000:   STEP LENGTH
 NULL.          -999.2500:   NO VALUE
 COMP. LAWRENCE/ALLISON INC:   COMPANY
 WELL.  NPR 3 #45-1-SHX-3:   WELL
 FLD .             TEAPOT:   FIELD
 LOC .       S3 T38N R78W:   LOCATION
 CNTY.            NATRONA:   COUNTY
 STAT.            WYOMING:   STATE
 CTRY. UNITED STATES OF AMERICA:   COUNTRY
 SRVC.            Unknown:   SERVICE COMPANY
 DATE.        10-OCT-1991:   LOGDATE
 API .       490251092300:   API NUMBER
~CURVE INFORMATION
#MNEM.UNIT       API CODE    CURVE DESCRIPTION
#----------   ------------   ------------------------------
 DEPT.F                  :   
 TGAS.UNITS  91 830 01 00:   TOTAL GAS FROM HOTWIRE
 ROP .MIN/FT 91 810 01 00:   RATE OF DRILLING PENETRATION
~PARAMETER INFORMATION
#MNEM.UNIT          VALUE    DESCRIPTION
#----------   ------------   ------------------------------
 EKB .F              5199:   KELLING BUSHING
 EGL .F              5189:   GROUND LEVEL
 DATE.           10-10-91:   RUN DATE
 DD  .F              2325:   DEPTH DRILLER
 BLI .F              2324:   BOTTOM LOG INTERVAL
 TLI .F              1920:   TOP LOG INTERVAL
 CS  .IN            9.625:   CASING SIZE
 CBD .F               498:   CASING BOTTOM DRILLER
 ENGI.               HUSK:   RECORDING ENGINEER
 WITN.              TOWER:   WITNESSED BY
 CLNT.            A2DTECH:   CLIENT CODE
 ORIG.           5" PRINT:   ORIGIN OF DATA
 UWI .       490251092300:   UNIQUE WELL ID
 DICO. A2D Technologies, Inc.:   DIGITIZING COMPANY
~OTHER INFORMATION
~A   DEPT     TGAS          ROP 
  936.5000  -999.2500     1.4876
  937.0000  -999.2500     1.4882
  937.5000  -999.2500     1.4889
  938.0000  -999.2500     1.4896
  938.5000  -999.2500     1.4903
  939.0000  -999.2500     1.4909
  939.5000  -999.2500     1.4916
  940.0000  -999.2500     1.4923
  940.5000  -999.2500     1.4929
  941.0000  -999.2500     1.4936
  941.5000  -999.2500     1.4943
  942.0000  -999.2500     1.4950
  942.5000  -999.2500     1.4956
  943.0000  -999.2500     1.4963
  943.5000  -999.2500     1.4970
  944.0000  -999.2500     1.4977
  944.5000  -999.2500     1.4983
  945.0000  -999.2500     1.4990
  945.5000  -999.2500     1.4997
  946.0000  -999.2500     1.5003
  946.5000  -999.2500     1.5010
  947.0000  -999.2500     1.5017
  947.5000  -999.2500     1.5024
  948.0000  -999.2500     1.5030
  948.5000  -999.2500     1.5037
  949.0000  -999.2500     1.5044
  949.5000  -999.2500     1.5051
  950.0000  -999.2500     1.5057
  950.5000  -999.2500     1.5064
  951.0000  -999.2500     1.5071
  951.5000  -999.2500     1.5077
  952.0000  -999.2500     1.5084
  952.5000  -999.2500     1.5091
  953.0000  -999.2500     1.5098
  953.5000  -999.2500     1.5104
  954.0000  -999.2500     1.5111
  954.5000  -999.2500     1.5118
  955.0000  -999.2500     1.5125
  955.5000  -999.2500     1.5131
  956.0000  -999.2500     1.5138
  956.5000  -999.2500     1.5145
  957.0000  -999.2500     1.5151
  957.5000  -999.2500     1.5158
  958.0000  -999.2500     1.5165
  958.5000  -999.2500     1.5172
  959.0000  -999.2500     1.5178
  959.5000  -999.2500     1.5185
  960.0000  -999.2500     1.5192
  960.5000  -999.2500     1.5199
  961.0000  -999.2500     1.5205
  961.5000  -999.2500     1.5212
  962.0000  -999.2500     1.5219
  962.5000  -999.2500     1.5225
  963.0000  -999.2500     1.5232
  963.5000  -999.2500     1.5239
  964.0000  -999.2500     1.5246
  964.5000  -999.2500     1.5252
  965.0000  -999.2500     1.5259
  965.5000  -999.2500     1.5266
  966.0000  -999.2500     1.5273
  966.5000  -999.2500     1.5279
  967.0000  -999.2500     1.5286
  967.5000  -999.2500     1.5293
  968.0000  -999.2500     1.5299
  968.5000  -999.2500     1.5306
  969.0000  -999.2500     1.5313
  969.5000  -999.2500     1.5320
  970.0000  -999.2500     1.5326
  970.5000  -999.2500     1.5333
  971.0000  -999.2500     1.5340
  971.5000  -999.2500     1.5347
  972.0000  -999.2500     1.5353
  972.5000  -999.2500     1.5360
  973.0000  -999.2500     1.5367
  973.5000  -999.2500     1.5373
  974.0000  -999.2500     1.5380
  974.5000  -999.2500     1.5387
  975.0000  -999.2500     1.5394
  975.5000  -999.2500     1.5400
  976.0000  -999.2500     1.5407
  976.5000  -999.2500     1.5414
  977.0000  -999.2500     1.5421
  977.5000  -999.2500     1.5427
  978.0000  -999.2500     1.5434
  978.5000  -999.2500     1.5441
  979.0000  -999.2500     1.5447
  979.5000  -999.2500     1.5454
  980.0000  -999.2500     1.5461
  980.5000  -999.2500     1.5468
  981.0000  -999.2500     1.5474
  981.5000  -999.2500     1.5481
  982.0000  -999.2500     1.5488
  982.5000  -999.2500     1.5495
  983.0000  -999.2500     1.5501
  983.5000  -999.2500     1.5508
  984.0000  -999.2500     1.5515
  984.5000  -999.2500     1.5521
  985.0000  -999.2500     1.5528
  985.5000  -999.2500     1.5535
  986.0000  -999.2500     1.5542
  986.5000  -999.2500     1.5548
  987.0000  -999.2500     1.5555
  987.5000  -999.2500     1.5562
  988.0000  -999.2500     1.5569
  988.5000  -999.2500     1.5575
  989.0000  -999.2500     1.4127
  989.5000  -999.2500     1.0099
  990.0000  -999.2500     1.0106
  990.5000  -999.2500     1.0034
  991.0000  -999.2500     1.0029
  991.5000  -999.2500     1.0023
  992.0000  -999.2500     1.0018
  992.5000  -999.2500     1.0012
  993.0000  -999.2500     1.0007
  993.5000  -999.2500     1.0001
  994.0000  -999.2500     0.9996
  994.5000  -999.2500     0.9991
  995.0000  -999.2500     0.9985
  995.5000  -999.2500     0.9980
  996.0000  -999.2500     0.9974
  996.5000  -999.2500     0.9969
  997.0000  -999.2500     0.9964
  997.5000  -999.2500     0.9958
  998.0000  -999.2500     0.9953
  998.5000  -999.2500     0.9947
  999.0000  -999.2500     0.9942
  999.5000  -999.2500     0.9936
 1000.0000  -999.2500     0.9931
 1000.5000  -999.2500     0.9930
 1001.0000  -999.2500     0.9934
 1001.5000  -999.2500     0.9937
 1002.0000  -999.2500     0.9941
 1002.5000  -999.2500     0.9945
 1003.0000  -999.2500     0.9948
 1003.5000  -999.2500     0.9952
 1004.0000  -999.2500     0.9956
 1004.5000  -999.2500     0.9960
 1005.0000  -999.2500     0.9963
 1005.5000  -999.2500     0.9967
 1006.0000  -999.2500     0.9971
 1006.5000  -999.2500     0.9974
 1007.0000  -999.2500     0.9978
 1007.5000  -999.2500     0.9982
 1008.0000  -999.2500     0.9986
 1008.5000  -999.2500     0.9989
 1009.0000  -999.2500     0.9993
 1009.5000  -999.2500     0.9997
 1010.0000  -999.2500     1.0001
 1010.5000  -999.2500     1.0004
 1011.0000  -999.2500     1.0008
 1011.5000  -999.2500     1.0012
 1012.0000  -999.2500     1.0015
 1012.5000  -999.2500     1.0019
 1013.0000  -999.2500     1.0023
 1013.5000  -999.2500     1.0027
 1014.0000  -999.2500     1.0030
 1014.5000  -999.2500     1.0034
 1015.0000  -999.2500     1.0038
 1015.5000  -999.2500     1.0042
 1016.0000  -999.2500     1.0045
 1016.5000  -999.2500     1.0049
 1017.0000  -999.2500     1.0053
 1017.5000  -999.2500     1.0056
 1018.0000  -999.2500     1.0060
 1018.5000  -999.2500     0.7959
 1019.0000  -999.2500     0.7962
 1019.5000  -999.2500     0.7966
 1020.0000  -999.2500     0.7970
 1020.5000  -999.2500     0.7974
 1021.0000  -999.2500     0.7977
 1021.5000  -999.2500     0.7981
 1022.0000  -999.2500     0.7985
 1022.5000  -999.2500     0.7989
 1023.0000  -999.2500     0.7992
 1023.5000  -999.2500     0.7996
 1024.0000  -999.2500     0.8000
 1024.5000  -999.2500     0.8004
 1025.0000  -999.2500     0.8008
 1025.5000  -999.2500     0.8011
 1026.0000  -999.2500     0.8015
 1026.5000  -999.2500     0.8019
 1027.0000  -999.2500     0.8023
 1027.5000  -999.2500     0.8026
 1028.0000  -999.2500     0.8030
 1028.5000  -999.2500     0.8034
 1029.0000  -999.2500     0.8038
 1029.5000  -999.2500     0.8041
 1030.0000  -999.2500     0.8045
 1030.5000  -999.2500     0.8049
 1031.0000  -999.2500     0.8053
 1031.5000  -999.2500     0.8056
 1032.0000  -999.2500     0.8060
 1032.5000  -999.2500     0.8064
 1033.0000  -999.2500     0.8068
 1033.5000  -999.2500     0.8071
 1034.0000  -999.2500     0.8075
 1034.5000  -999.2500     0.8079
 1035.0000  -999.2500     0.8083
 1035.5000  -999.2500     0.8086
 1036.0000  -999.2500     0.8090
 1036.5000  -999.2500     0.8094
 1037.0000  -999.2500     0.8098
 1037.5000  -999.2500     0.8102
 1038.0000  -999.2500     0.8105
 1038.5000  -999.2500     0.8109
 1039.0000  -999.2500     0.8113
 1039.5000  -999.2500     0.8117
 1040.0000  -999.2500     0.8120
 1040.5000  -999.2500     0.8124
 1041.0000  -999.2500     0.8128
 1041.5000  -999.2500     0.8132
 1042.0000  -999.2500     0.8135
 1042.5000  -999.2500     0.8139
 1043.0000  -999.2500     0.8143
 1043.5000  -999.2500     0.8147
 1044.0000  -999.2500     0.8150
 1044.5000  -999.2500     0.8154
 1045.0000  -999.2500     0.8158
 1045.5000  -999.2500     0.8162
 1046.0000  -999.2500     0.8165
 1046.5000  -999.2500     0.8169
 1047.0000  -999.2500     0.8173
 1047.5000  -999.2500     0.8177
 1048.0000  -999.2500     0.5097
 1048.5000  -999.2500     0.5102
 1049.0000  -999.2500     0.5105
 1049.5000  -999.2500     0.5109
 1050.0000  -999.2500     0.5113
 1050.5000  -999.2500     0.5108
 1051.0000  -999.2500     0.5103
 1051.5000  -999.2500     0.5098
 1052.0000  -999.2500     0.5093
 1052.5000  -999.2500     0.5087
 1053.0000  -999.2500     0.5082
 1053.5000  -999.2500     0.5077
 1054.0000  -999.2500     0.5072
 1054.5000  -999.2500     0.5066
 1055.0000  -999.2500     0.5061
 1055.5000  -999.2500     0.5056
 1056.0000  -999.2500     0.5051
 1056.5000  -999.2500     0.5045
 1057.0000  -999.2500     0.5040
 1057.5000  -999.2500     0.5035
