~VERSION INFORMATION
 VERS.                2.0:   CWLS LOG ASCII STANDARD - VERSION 2.0
 WRAP.                 NO:   ONE LINE PER DEPTH STEP
~WELL INFORMATION
#MNEM.UNIT      DATA TYPE    INFORMATION
#----------   ------------   ------------------------------
 STRT.F            4.0000:   START DEPTH
 STOP.F          578.0000:   STOP DEPTH
 STEP.F            0.5000:   STEP LENGTH
 NULL.          -999.2500:   NO VALUE
 COMP.              FENIX:   COMPANY
 WELL.   NPR-3 #14SX11-11:   WELL
 FLD .             TEAPOT:   FIELD
 LOC .      S11 T38N R78W:   LOCATION
 CNTY.            NATRONA:   COUNTY
 STAT.            WYOMING:   STATE
 CTRY. UNITED STATES OF AMERICA:   COUNTRY
 SRVC.           BIRDWELL:   SERVICE COMPANY
 DATE.        14-FEB-1978:   LOGDATE
 API .       490251057100:   API NUMBER
~CURVE INFORMATION
#MNEM.UNIT       API CODE    CURVE DESCRIPTION
#----------   ------------   ------------------------------
 DEPT.F                  :   
 ILD .OHMM   05 120 46 00:   INDUCTION LOG DEEP
 SN  .OHMM   05 040 16 00:   SHORT NORMAL 16"
 SPR .MV     05 010 01 00:   SPONTANEOUS POTENTIAL FROM RES.
 CALD.IN     45 280 60 00:   CALIPER FROM DENSITY LOG
 CORR.G/C3   45 356 01 00:   DENSITY CORRECTION
 DPHI.DEC    45 890 12 00:   DENSITY POROSITY SANDSTONE
 GRD .GAPI   45 310 01 00:   GAMMA RAY FROM DENSITY LOG
 RHOB.G/C3   45 350 01 00:   BULK DENSITY
~PARAMETER INFORMATION
#MNEM.UNIT          VALUE    DESCRIPTION
#----------   ------------   ------------------------------
 PD  .                 GL:   PERMANENT DATUM
 EPD .F              5183:   ELEVATION PERMANENT DATUM
 LMF .                 KB:   LOG MEASURED FROM
 DAPD.F                 4:   FEET ABOVE PERMANENT DATUM
 DMF .                 KB:   DRILLING MEASURED FROM
 EKB .F              5187:   KELLING BUSHING
 EGL .F              5183:   GROUND LEVEL
 DATE.        14-FEB-1978:   RUN DATE
 RUN .                  1:   RUN NUMBER
 DD  .F               580:   DEPTH DRILLER
 DL  .F               580:   DEPTH LOGGER
 BLI .F               578:   BOTTOM LOG INTERVAL
 TLI .F                20:   TOP LOG INTERVAL
 CS  .IN            8.625:   CASING SIZE
 CBD .F                15:   CASING BOTTOM DRILLER
 CBL .F                39:   CASING BOTTOM LOGGER
 BS  .IN            7.875:   BIT SIZE
 BSD .F               580:   BIT SIZE AT DEPTH
 DFT .         LIGNO-SULF:   DRILLING FLUID TYPE
 DFD .                8.6:   DRILLING FLUID DENSITY
 DFV .                 33:   DRILLING FLUID VISCOSITY
 DFPH.                 11:   DRILLING FLUID PH
 DFL .                  4:   DRILLING FLUID LOSS
 MSS .           FLOWLINE:   MUD SAMPLE SOURCE
 RMS .OHMM            1.3:   RESISTIVITY MUD SAMPLE
 MST .F                62:   MUD SAMPLE TEMPERATURE
 RMF .OHMM            1.2:   RESISTIVITY MUD FILTRATE SAMPLE
 MFST.F                64:   MUD FILTRATE SAMPLE TEMPERATURE
 RMC .OHMM            1.6:   RESISTIVITY MUD CAKE
 MCST.F                62:   MUD CAKE SAMPLE TEMPERATURE
 MFSS.               MEAS:   MUD FILTRATE SAMPLE SOURCE
 BHT .F                70:   BOTTOM HOLE TEMPERATURE
 TCS .HRS               3:   TIME CURCULATED STOPPED
 MRT .F                70:   MAXIMUM RECORDED TEMPERATURE
 LUN .               2958:   LOGGING UNIT NUMBER
 LUL .               CASP:   LOGGING UNIT LOCATION
 ENGI.            POINTER:   RECORDING ENGINEER
 WITN.           MCGINLEY:   WITNESSED BY
 CLNT.            A2DTECH:   CLIENT CODE
 ORIG.           5" PRINT:   ORIGIN OF DATA
 UWI .       490251057100:   UNIQUE WELL ID
 DICO. A2D Technologies, Inc.:   DIGITIZING COMPANY
~OTHER INFORMATION
~A    DEPT     ILD         SN        SPR       CALD       CORR       DPHI         GRD      RHOB   
# ...
  247.0000     9.6045     9.9707   -12.8700     7.9368     0.0311     0.1168    82.1508     2.4445
  247.5000     9.4641     9.8328   -12.7199     7.9361     0.0355     0.1231    82.9019     2.4460
  248.0000     9.3361     9.8320   -12.5699     7.9355     0.0415     0.1234    80.3095     2.4497
  248.5000     9.2050     9.7634   -12.1168     7.9197     0.0429     0.1207    80.6046     2.4535
  249.0000     9.0757     9.7628   -12.2698     7.9040     0.0443     0.1180    81.3617     2.4550
  249.5000     8.8864     9.6947   -12.5743     7.9032     0.0473     0.1114    82.4085     2.4534
  250.0000     8.8226     9.5606   -12.8788     7.4163     0.0457     0.1069    84.5274     2.4632
  250.5000     8.7593     9.4284   -13.1833     7.3093     0.0427     0.1103    84.8248     2.4639
  251.0000     8.7569     9.2980   -13.3366     7.3544     0.0501     0.1120    81.6223     2.4601
  251.5000     8.7546     9.2331   -13.4896     7.5513     0.0545     0.1088    79.0299     2.4601
  252.0000     8.7521     9.2325   -13.9456     7.7939     0.0515     0.1027    78.2612     2.4721
  252.5000     8.7493     9.2317   -14.2501     7.8541     0.0484     0.1091    80.9068     2.4780
  253.0000     8.7469     9.2311   -14.5546     7.8534     0.0544     0.1124    82.6509     2.4637
  253.5000     8.7446     9.1667   -14.5561     7.8376     0.0691     0.1139    81.2721     2.4562
  254.0000     8.7422     9.1028   -14.7091     7.8370     0.0918     0.1126    79.8956     2.4546
  254.5000     8.6794     9.0393   -14.6764     7.8364     0.1098     0.1088    79.7348     2.4603
  255.0000     8.6771     8.9763   -14.5570     7.8510     0.1217     0.1001    81.2458     2.4726
  255.5000     8.6148     8.8522   -14.4768     7.8657     0.1208     0.0848    82.6049     2.4939
  256.0000     8.6124     8.7904   -14.4860     7.8498     0.0767     0.0769    82.0973     2.5104
  256.5000     8.5501     8.7898   -14.3418     7.8339     0.0601     0.0881    80.0014     2.4958
  257.0000     8.4300     8.7891   -14.3492     7.8030     0.0541     0.1053    77.4090     2.4766
  257.5000     8.1972     8.7885   -14.6596     7.7872     0.0510     0.1077    76.9443     2.4736
  258.0000     8.0262     8.7272   -14.9699     7.7714     0.0510     0.1041    77.0896     2.4736
  258.5000     7.8045     8.5471   -15.1288     7.7404     0.0510     0.1002    78.2944     2.4743
  259.0000     7.6417     8.4288   -15.1364     7.7246     0.0509     0.1002    81.3252     2.4773
  259.5000     7.4306     8.1978   -15.2969     7.7239     0.0509     0.1008    80.9392     2.4848
  260.0000     7.1755     7.8091   -15.4558     7.8297     0.0523     0.1041    79.4817     2.4826
  260.5000     7.0746     7.5951   -15.7662     7.8291     0.0508     0.1101    79.6271     2.4741
  261.0000     7.0723     7.5421   -15.9250     7.8285     0.0477     0.1145    79.4641     2.4645
  261.5000     7.1692     7.6999   -15.7809     7.8279     0.0462     0.1186    78.8474     2.4525
  262.0000     7.2673     7.8612   -15.4852     7.8273     0.0476     0.1195    78.6423     2.4359
  262.5000     7.3164     7.9705   -14.8865     7.8267     0.0596     0.1183    80.3495     2.4344
  263.0000     7.4678     8.0254   -14.2828     7.8245     0.0596     0.1162    81.6008     2.4404
  263.5000     7.5700     8.0806   -14.4924     7.8185     0.0655     0.1126    83.4142     2.4487
  264.0000     7.6737     8.1928   -15.6680     7.8125     0.0730     0.1038    87.8296     2.4671
  264.5000     7.7815     8.2492   -15.9784     7.8091     0.0624     0.0970    89.8042     2.4840
  265.0000     7.8853     8.3098   -16.1373     7.8085     0.0519     0.1012    86.1549     2.4802
  265.5000     7.8826     8.4799   -16.2962     7.8231     0.0488     0.1000    83.8738     2.4780
  266.0000     7.8805     8.6573   -16.3035     7.8224     0.0488     0.0970    81.8966     2.4847
  266.5000     7.8784     8.7775   -16.7654     7.8218     0.0367     0.1033    80.4955     2.4885
  267.0000     7.8763     8.8380   -17.5304     7.8212     0.0322     0.1069    79.6137     2.4817
  267.5000     7.8741     8.8374   -17.9924     7.8360     0.0411     0.1087    80.8280     2.4742
  268.0000     7.8720     8.8983   -18.3045     7.8352     0.0501     0.1090    83.2582     2.4681
  268.5000     7.9247     8.8977   -18.4615     7.8498     0.0576     0.1018    85.0804     2.4742
  269.0000     7.9832     8.8356   -18.0162     7.8492     0.0605     0.0908    87.9664     2.4847
  269.5000     8.0869     8.8350   -17.7187     7.8485     0.0635     0.0896    90.5486     2.4915
  270.0000     8.0842     8.8343   -17.4230     7.8479     0.0649     0.0884    90.3951     2.4997
  270.5000     8.0820     8.7966   -17.2789     7.8627     0.0633     0.0831    88.8739     2.5065
  271.0000     7.9135     8.7299   -17.1364     7.8773     0.0588     0.0821    89.3280     2.5102
  271.5000     7.8567     8.6631   -17.1439     7.8917     0.0558     0.0902    89.7824     2.5117
  272.0000     7.8545     8.5964   -17.1515     7.9064     0.0527     0.0950    89.9333     2.5057
  272.5000     7.7981     8.5750   -17.6150     7.9210     0.0482     0.1037    87.9558     2.4974
  273.0000     7.7421     8.5714   -17.9254     7.9204     0.0467     0.1089    85.5227     2.4843
  273.5000     7.6865     8.5679   -18.2358     7.9350     0.0451     0.1113    83.2416     2.4756
  274.0000     7.6840     8.6241   -18.6977     7.9342     0.0451     0.1125    83.0517     2.4711
  274.5000     7.6819     8.6198   -19.3111     7.9336     0.0465     0.1128    86.4498     2.4681
  275.0000     7.7338     8.6163   -19.6215     7.9484     0.0495     0.1119    88.6069     2.4665
  275.5000     7.8392     8.6128   -19.6289     7.9477     0.0524     0.1077    89.9222     2.4691
  276.0000     7.8916     8.6093   -19.6364     7.9015     0.0539     0.1023    89.1609     2.4784
  276.5000     7.8895     8.6058   -19.4921     7.6577     0.0538     0.0920    85.6640     2.4898
  277.0000     8.0532     8.6023   -19.5013     7.6723     0.0538     0.0785    84.2947     2.4988
  277.5000     8.1117     8.5988   -19.3553     7.7021     0.0478     0.0710    82.3176     2.5109
  278.0000     8.0483     8.5952   -19.2111     7.7318     0.0341     0.0847    82.6200     2.5244
  278.5000     7.8805     8.5910   -19.2203     7.8224     0.0359     0.1014    84.6033     2.5026
  279.0000     7.7698     8.5282   -19.2277     7.8066     0.0476     0.1029    85.2007     2.4829
  279.5000     7.7140     8.4659   -19.2351     7.7756     0.0506     0.1020    85.0468     2.4740
  280.0000     7.6587     8.3460   -19.2424     7.7446     0.0535     0.1011    85.0454     2.4755
  280.5000     7.6037     8.1710   -19.5530     7.6984     0.0550     0.0990    86.4117     2.4807
  281.0000     7.4969     8.0552   -19.7135     7.6675     0.0519     0.0960    87.6260     2.4845
  281.5000     7.4431     7.9964   -19.8724     7.6517     0.0474     0.0951    89.2963     2.4913
  282.0000     7.4410     7.9931   -20.1828     7.6531     0.0443     0.1035    88.9908     2.4922
  282.5000     7.4386     7.9898   -20.0386     7.6657     0.0458     0.1086    87.6165     2.4762
  283.0000     7.4888     7.9307   -19.8927     7.6803     0.0458     0.1071    86.3405     2.4702
  283.5000     7.6437     7.8184   -19.9019     7.7100     0.0472     0.1035    81.5392     2.4724
  284.0000     7.6953     7.6544   -20.2122     7.7399     0.0487     0.1038    80.0180     2.4754
  284.5000     7.6396     7.6513   -20.3712     7.7848     0.0516     0.1062    82.4482     2.4769
  285.0000     7.4803     7.7022   -20.5303     7.7538     0.0516     0.1083    83.6625     2.4777
  285.5000     7.3243     7.6451   -20.3858     7.7532     0.0515     0.1107    84.1173     2.4754
  286.0000     7.0694     7.5892   -20.5466     7.8134     0.0515     0.1150    84.4194     2.4664
  286.5000     6.6887     7.4285   -20.7054     7.8280     0.0514     0.1195    87.1545     2.4526
  287.0000     6.2389     7.0616   -20.8643     7.8273     0.0529     0.1183    88.5390     2.4498
