~VERSION INFORMATION
 VERS.                2.0:   CWLS LOG ASCII STANDARD - VERSION 2.0
 WRAP.                 NO:   ONE LINE PER DEPTH STEP
~WELL INFORMATION
#MNEM.UNIT      DATA TYPE    INFORMATION
#----------   ------------   ------------------------------
 STRT.F           28.0000:   START DEPTH
 STOP.F          693.0000:   STOP DEPTH
 STEP.F            0.5000:   STEP LENGTH
 NULL.          -999.2500:   NO VALUE
 COMP. FENIX & SCISSON INC:   COMPANY
 WELL.       NPR-3 #63-15:   WELL
 FLD .             TEAPOT:   FIELD
 LOC .      S15 T38N R78W:   LOCATION
 CNTY.            NATRONA:   COUNTY
 STAT.            WYOMING:   STATE
 CTRY. UNITED STATES OF AMERICA:   COUNTRY
 SRVC.            Unknown:   SERVICE COMPANY
 DATE.        10-JUN-1978:   LOGDATE
 API .       490251063800:   API NUMBER
~CURVE INFORMATION
#MNEM.UNIT       API CODE    CURVE DESCRIPTION
#----------   ------------   ------------------------------
 DEPT.F                  :   
 SPR .MV     05 010 01 00:   SPONTANEOUS POTENTIAL FROM RES.
 SN  .OHMM   05 040 16 00:   SHORT NORMAL 16"
 ILD .OHMM   05 120 46 00:   INDUCTION LOG DEEP
 CALD.IN     45 280 60 00:   CALIPER FROM DENSITY LOG
 GRD .GAPI   45 310 01 00:   GAMMA RAY FROM DENSITY LOG
 CORR.G/C3   45 356 01 00:   DENSITY CORRECTION
 DPHI.DEC    45 890 12 00:   DENSITY POROSITY SANDSTONE
 DEN .G/C3   45 350 01 00:   DENSITY
~PARAMETER INFORMATION
#MNEM.UNIT          VALUE    DESCRIPTION
#----------   ------------   ------------------------------
 PD  .                 GL:   PERMANENT DATUM
 EPD .F              5265:   ELEVATION PERMANENT DATUM
 LMF .                 KB:   LOG MEASURED FROM
 DAPD.F                 4:   FEET ABOVE PERMANENT DATUM
 DMF .                 KB:   DRILLING MEASURED FROM
 EKB .F              5269:   KELLING BUSHING
 EGL .F              5265:   GROUND LEVEL
 DATE.        10-JUN-1978:   RUN DATE
 RUN .                  1:   RUN NUMBER
 DD  .F               690:   DEPTH DRILLER
 DL  .F               697:   DEPTH LOGGER
 BLI .F               690:   BOTTOM LOG INTERVAL
 TLI .F                35:   TOP LOG INTERVAL
 CS  .IN            8.625:   CASING SIZE
 CBD .F                40:   CASING BOTTOM DRILLER
 CBL .F                35:   CASING BOTTOM LOGGER
 BS  .IN            7.875:   BIT SIZE
 BSD .F               690:   BIT SIZE AT DEPTH
 DFT .                KCL:   DRILLING FLUID TYPE
 DFD .                8.7:   DRILLING FLUID DENSITY
 DFV .                 34:   DRILLING FLUID VISCOSITY
 DFPH.                 10:   DRILLING FLUID PH
 DFL .               11.6:   DRILLING FLUID LOSS
 MSS .            MUD PIT:   MUD SAMPLE SOURCE
 RMS .OHMM            .32:   RESISTIVITY MUD SAMPLE
 MST .F                74:   MUD SAMPLE TEMPERATURE
 RMF .OHMM            .28:   RESISTIVITY MUD FILTRATE SAMPLE
 MFST.F                78:   MUD FILTRATE SAMPLE TEMPERATURE
 RMC .OHMM            .36:   RESISTIVITY MUD CAKE
 MCST.F                78:   MUD CAKE SAMPLE TEMPERATURE
 MFSS.               MEAS:   MUD FILTRATE SAMPLE SOURCE
 MCSS.               MEAS:   MUD CAKE SAMPLE SOURCE
 BHT .F                80:   BOTTOM HOLE TEMPERATURE
 TCS .HRS            0100:   TIME CURCULATED STOPPED
 MRT .F                80:   MAXIMUM RECORDED TEMPERATURE
 LUN .               2958:   LOGGING UNIT NUMBER
 LUL .               CASP:   LOGGING UNIT LOCATION
 ENGI.             MILLER:   RECORDING ENGINEER
 WITN.           MCGINLEY:   WITNESSED BY
 CLNT.            A2DTECH:   CLIENT CODE
 ORIG.           5" PRINT:   ORIGIN OF DATA
 UWI .       490251063800:   UNIQUE WELL ID
 DICO. A2D Technologies, Inc.:   DIGITIZING COMPANY
~OTHER INFORMATION
~A   DEPT      SPR         SN        ILD       CALD        GRD       CORR       DPHI        DEN   
# ...
  473.5000    -7.8473     5.3414     4.2609     7.6452    90.3956     0.0175     0.1044     2.4856
  474.0000    -7.8263     5.9296     4.3835     7.6467    90.7115     0.0207     0.1035     2.4880
  474.5000    -7.0529     6.1001     5.0731     7.6485    91.1766     0.0193     0.0999     2.4924
  475.0000    -7.0325     6.1466     5.4405     7.6499    90.4478     0.0135     0.0977     2.5000
  475.5000    -7.1619     6.4223     5.5971     7.6514    87.9700     0.0062     0.0965     2.5211
  476.0000    -7.1415     6.7353     5.7582     7.6528    84.6660     0.0139     0.1067     2.4964
  476.5000    -7.1211     6.7866     5.9250     7.6390    81.5490     0.0110     0.1100     2.4912
  477.0000    -7.1007     6.7444     6.0586     7.6857    80.3681     0.0052     0.1094     2.4897
  477.5000    -7.0803     6.9383     6.2275     7.7021    83.6734     0.0054     0.1057     2.4928
  478.0000    -7.0579     7.0886     6.3625     7.7036    88.9146     0.0103     0.0993     2.5034
  478.5000    -6.8892     7.0934     6.5005     7.7054    88.6335     0.0133     0.0973     2.5079
  479.0000    -6.8644     7.1474     6.5049     7.7218    85.9644     0.0150     0.0976     2.5050
  479.5000    -6.8440     7.2520     6.5092     7.7382    83.8806     0.0152     0.0984     2.5005
  480.0000    -6.6739     7.3084     6.5589     7.6948    84.3617     0.0078     0.0996     2.4976
  480.5000    -6.6535     7.2617     6.6089     7.6214    88.4089     0.0065     0.1026     2.4969
  481.0000    -6.6332     7.2678     6.6594     7.5929    90.0681     0.0052     0.1071     2.4947
  481.5000    -6.6128     7.2727     6.7578     7.5644    90.0855     0.0053     0.1110     2.4873
  482.0000    -6.5924     7.2261     6.8094     7.5194    92.6402    -0.0065     0.1166     2.4813
  482.5000    -6.5719     7.2322     6.8613     7.4179    94.1458    -0.0033     0.1148     2.4776
  483.0000    -6.5509     7.1872     6.8659     7.4041    90.4362     0.0014     0.1133     2.4800
  483.5000    -6.5262     7.1424     6.8705     7.4358    90.6149     0.0016     0.1130     2.4808
  484.0000    -6.6555     7.0975     6.9229     7.4672    91.0687     0.0018     0.1141     2.4808
  484.5000    -6.6351     7.0533     6.9757     7.5585    89.5972     0.0019     0.1156     2.4801
  485.0000    -6.6147     7.0592     7.0290     7.5899    89.4609     0.0021     0.1165     2.4802
  485.5000    -6.5943     7.0640     7.0837     7.5464    89.9261     0.0023     0.1147     2.4802
  486.0000    -6.5740     7.1178     7.0885     7.5030    87.7090     0.0025     0.1088     2.4818
  486.5000    -6.5536     7.2220     7.1422     7.5048    82.2040     0.0057     0.1050     2.4858
  487.0000    -6.5329     7.3287     7.1470     7.5062    79.0871     0.0088     0.1047     2.4902
  487.5000    -6.5120     7.4358     7.1518     7.5077    78.2090     0.0105     0.1047     2.4910
  488.0000    -6.4874     7.4924     7.1567     7.5391    79.5104     0.0062     0.1091     2.4678
  488.5000    -6.9161     7.5495     7.1132     7.6752    84.6660     0.0034     0.1208     2.4671
  489.0000    -7.2002     7.5025     6.9716     7.7366    86.9222     0.0035     0.1343     2.4641
  489.5000    -7.3295     7.4031     6.3267     7.7530    89.1784     0.0038     0.1494     2.4499
  490.0000    -7.1543     7.2071     5.4781     7.7226    95.9122     0.0039     0.1734     2.4200
  490.5000    -6.6848     6.8607     5.1863     7.6661   102.3475     0.0041     0.1839     2.3881
  491.0000    -6.3651     6.0685     5.5439     7.6679   107.7380     0.0103     0.1703     2.3635
  491.5000    -6.4944     5.6289     5.7230     7.6693   107.4569     0.0225     0.1465     2.3909
  492.0000    -5.7204     5.7917     5.7666     7.6708   101.9941     0.0722     0.1156     2.4900
  492.5000    -4.3527     5.8764     5.8917     7.6569    96.4512     0.0769     0.1101     2.4976
  493.0000    -4.3323     5.9623     6.0612     7.6437    89.0059     0.0428     0.1113     2.4879
  493.5000    -4.3120     6.1902     6.3665     7.6452    80.5159     0.0037     0.1074     2.4857
  494.0000    -4.2916     7.4514     7.1173     7.6467    75.4586     0.0008     0.1030     2.4948
  494.5000    -4.2712     7.8808     7.8486     7.6485    72.3373     0.0206     0.0992     2.5038
  495.0000    -4.2508     8.1074     8.0882     7.6200    76.6874     0.0237     0.0986     2.5047
  495.5000    -4.2304     8.7545     9.0265     7.5316    82.5257     0.0224     0.0980     2.5010
  496.0000    -4.2096     9.1952     9.0954     7.5177    83.4507     0.0211     0.0979     2.5010
  496.5000    -4.3343     9.2653     9.1015     7.5645    85.3673     0.0198     0.0979     2.5041
  497.0000    -4.3139     9.2715     9.1709     7.5507    91.5375     0.0200     0.0982     2.5064
  497.5000    -4.2935     9.2821     9.3050     7.5372    93.7937     0.0201     0.1016     2.5042
  498.0000    -4.1234     9.6124     9.7738     7.5540    89.7812     0.0188     0.1246     2.4930
  498.5000    -2.9055    10.0266    10.1953     7.6459    82.1866     0.0055     0.1360     2.4563
  499.0000    -2.4360    10.5314    10.6421     7.5707    73.0996     0.0041     0.1375     2.4412
  499.5000    -2.2659    11.4509    11.5663     7.4988    59.9826     0.0088     0.1459     2.4391
  500.0000    -1.6467    12.0532    12.1702     7.4849    50.1526     0.0075     0.1569     2.4357
  500.5000    -0.2754    12.7380    13.4939     7.5015    46.5908     0.0000     0.1659     2.4188
  501.0000    -0.2549    13.4228    14.8176     7.5028    46.7603     0.0063     0.1728     2.3845
  501.5000    -0.2343    14.0373    16.0581     7.5191    47.2284     0.0215     0.1731     2.3786
  502.0000    -0.2138    14.4420    16.9845     7.5354    49.4874     0.0307     0.1683     2.3862
  502.5000    -0.1932    14.6542    16.9963     7.5068    52.9406     0.0173     0.1818     2.3833
  503.0000    -0.1727    14.6651    17.0101     7.4781    56.6089     0.0009     0.1895     2.3571
  503.5000    -0.1521    14.4743    18.1163     7.4817    58.5085     0.0101     0.1952     2.3504
  504.0000    -0.2814    14.3852    18.1285     7.5257    56.5885     0.0162     0.2003     2.3451
  504.5000    -0.4105    14.6114    18.0125     7.4824    52.7282     0.0164     0.2075     2.3306
  505.0000    -0.3892    15.0201    18.0278     7.4684    44.6888     0.0120     0.2147     2.3093
  505.5000    -0.3642    15.0313    18.0399     7.4850    44.2562     0.0227     0.2107     2.3116
  506.0000    -0.3437    15.1470    18.1776     7.5159    47.1174     0.0424     0.1984     2.3357
  506.5000    -0.3231    15.2635    19.2260     7.4726    48.6302     0.0215     0.2026     2.3328
  507.0000    -0.3026    15.1695    19.3729     7.4889    48.6504     0.0036     0.2125     2.3246
  507.5000    -0.4369    14.8689    19.3864     7.5352    46.8847     0.0083     0.2209     2.3119
  508.0000    -0.4112    14.8800    19.4022     7.5518    43.6214     0.0069     0.2238     2.2962
  508.5000    -0.3906    14.8911    19.4153     7.5531    43.6417     0.0041     0.2238     2.3008
  509.0000    -0.3701    14.9022    19.4284     7.5693    43.9605     0.0012     0.2165     2.3017
  509.5000    -0.3495    14.6026    19.3041     7.6455    46.3688     0.0044     0.1932     2.3115
  510.0000    -0.3290    14.4169    19.1839     7.7067    50.5682     0.0180     0.1892     2.3476
  510.5000    -0.3084    14.4303    18.9328     7.7829    54.1705     0.0317     0.1846     2.3559
  511.0000    -0.4376    14.4410    18.6881     7.9039    54.3401     0.0318     0.1807     2.3673
  511.5000    -0.4162    14.4518    18.3163     7.9801    54.2111     0.0245     0.1798     2.3681
  512.0000    -0.3914    14.4625    18.0684     7.8108    55.1319     0.0096     0.1746     2.3684
  512.5000    -0.3708    14.3708    17.6970     7.6836    55.1522     0.0173     0.1710     2.3765
  513.0000    -0.3503    14.1865    17.0101     7.5053    55.6202     0.0250     0.1713     2.3788
  513.5000    -0.3297    14.0965    16.6688     7.4018    55.4862     0.0249     0.1754     2.3759
