~VERSION INFORMATION
 VERS.                2.0:   CWLS LOG ASCII STANDARD - VERSION 2.0
 WRAP.                 NO:   ONE LINE PER DEPTH STEP
~WELL INFORMATION
#MNEM.UNIT      DATA TYPE    INFORMATION
#----------   ------------   ------------------------------
 STRT.F            0.0000:   START DEPTH
 STOP.F          860.0000:   STOP DEPTH
 STEP.F            0.5000:   STEP LENGTH
 NULL.          -999.2500:   NO VALUE
 COMP.          U.S. NAVY:   COMPANY
 WELL. NPR #3 TEAPOT DOME #28S-35:   WELL
 FLD .             TEAPOT:   FIELD
 LOC .      S35 T39N R78W:   LOCATION
 CNTY.            NATRONA:   COUNTY
 STAT.            WYOMING:   STATE
 CTRY. UNITED STATES OF AMERICA:   COUNTRY
 SRVC.       Schlumberger:   SERVICE COMPANY
 DATE.        10-NOV-1958:   LOGDATE
 API .       490250649800:   API NUMBER
~CURVE INFORMATION
#MNEM.UNIT       API CODE    CURVE DESCRIPTION
#----------   ------------   ------------------------------
 DEPT.F                  :   
 SPR .MV     01 010 01 00:   SPONTANEOUS POTENTIAL FROM RES.
 ASN .OHMM   01 041 16 00:   AMPLIFIED SHORT NORMAL 16"
 LT18.OHMM   01 070 18 00:   LATERAL 18'
 LN  .OHMM   01 060 64 00:   LONG NORMAL 64"
 GRN .CPS    35 310 30 00:   GAMMA RAY
 NEUT.CPS    35 330 30 00:   NEUTRON
 MCAL.IN     15 280 01 00:   CALIPER FROM MICRO LOG
~PARAMETER INFORMATION
#MNEM.UNIT          VALUE    DESCRIPTION
#----------   ------------   ------------------------------
 LMF .                 KB:   LOG MEASURED FROM
 DMF .                 KB:   DRILLING MEASURED FROM
 EKB .F              5113:   KELLING BUSHING
 EGL .F              5103:   GROUND LEVEL
 DATE.         11-10-1958:   RUN DATE
 RUN .                  1:   RUN NUMBER
 DD  .F               860:   DEPTH DRILLER
 DL  .F               861:   DEPTH LOGGER
 BLI .F               860:   BOTTOM LOG INTERVAL
 TLI .F                90:   TOP LOG INTERVAL
 CBD .F                34:   CASING BOTTOM DRILLER
 BS  .IN             6.75:   BIT SIZE
 BSD .F               860:   BIT SIZE AT DEPTH
 DFT .          OIL ADDED:   DRILLING FLUID TYPE
 DFD .                 10:   DRILLING FLUID DENSITY
 DFV .                 20:   DRILLING FLUID VISCOSITY
 DFPH.                7.5:   DRILLING FLUID PH
 DFL .                4.2:   DRILLING FLUID LOSS
 RMS .OHMM              2:   RESISTIVITY MUD SAMPLE
 MST .F                62:   MUD SAMPLE TEMPERATURE
 RMF .OHMM            1.4:   RESISTIVITY MUD FILTRATE SAMPLE
 MFST.F                72:   MUD FILTRATE SAMPLE TEMPERATURE
 RMC .OHMM            1.9:   RESISTIVITY MUD CAKE
 MCST.F                72:   MUD CAKE SAMPLE TEMPERATURE
 MFSS.                  M:   MUD FILTRATE SAMPLE SOURCE
 MCSS.                  M:   MUD CAKE SAMPLE SOURCE
 RMB .OHMM            1.7:   RESISTIVITY MUD AT BHT
 BHT .F                72:   BOTTOM HOLE TEMPERATURE
 TCS .HRS               1:   TIME CURCULATED STOPPED
 MRT .F                72:   MAXIMUM RECORDED TEMPERATURE
 LUN .               2754:   LOGGING UNIT NUMBER
 LUL .                 NC:   LOGGING UNIT LOCATION
 ENGI.             QUINBY:   RECORDING ENGINEER
 WITN.             MARTIN:   WITNESSED BY
 CLNT.            A2DTECH:   CLIENT CODE
 ORIG.     1", 2.5" PRINT:   ORIGIN OF DATA
 UWI .       490250649800:   UNIQUE WELL ID
 DICO. A2D Technologies, Inc.:   DIGITIZING COMPANY
~OTHER INFORMATION
~A    DEPT     SPR        ASN       LT18         LN          GRN     NEUT       MCAL   
# ...
  773.5000   -21.8110    16.3911     7.9730    16.7987     6.4084   481.6106     6.6956
  774.0000   -21.8096    16.3914     8.5243    16.0707     6.4491   484.7628     6.6678
  774.5000   -22.6235    16.5268     8.9523    15.4681     6.3015   475.6612     6.6672
  775.0000   -22.6222    16.6622     9.7072    14.7759     6.2051   478.2069     6.6667
  775.5000   -22.3491    16.8430    10.9810    14.1454     6.4491   482.4941     6.6661
  776.0000   -22.3478    16.9528    12.5370    13.5943     6.3613   470.7717     6.6656
  776.5000   -22.3464    16.8850    14.3896    12.9794     6.3718   463.6926     6.6650
  777.0000   -22.6168    16.3362    15.7245    12.9185     6.3881   448.4135     6.6645
  777.5000   -22.8872    15.5824    16.5901    12.9217     6.2011   443.5841     6.6640
  778.0000   -22.8859    15.6197    17.1622    12.9244     5.8010   455.7832     6.6656
  778.5000   -22.3293    15.8532    16.7568    13.0629     5.6968   458.8681     6.6927
  779.0000   -21.7962    14.9518    16.2162    13.3373     5.9502   458.1105     6.7199
  779.5000   -22.8819    14.4030    15.6757    13.4759     6.2690   466.0252     6.7437
  780.0000   -22.3007    14.0432    15.2703    13.3427     6.3867   473.0485     6.7432
  780.5000   -21.7477    13.9041    14.8649    13.2095     6.4902   478.0866     6.7427
  781.0000   -21.5190    13.6299    14.5919    13.0761     6.7134   471.5234     6.7421
  781.5000   -21.5176    13.3556    14.3243    13.0789     6.2968   478.7833     6.7415
  782.0000   -21.5163    13.0813    14.1892    13.0816     6.0627   490.5658     6.7410
  782.5000   -21.4379    12.8070    14.0338    13.0843     5.7721   490.1617     6.7131
  783.0000   -21.1568    12.5327    13.7576    13.2228     5.6063   481.8361     6.6852
  783.5000   -20.6970    12.0722    13.4495    13.2256     5.4732   476.4986     6.6847
  784.0000   -20.4239    11.8022    12.9351    13.2282     5.7985   484.1401     6.7115
  784.5000   -20.4226    11.5322    12.6590    13.2310     5.7773   487.9643     6.7383
  785.0000   -20.4212    11.2622    12.3333    13.2337     5.8602   494.0789     6.7377
  785.5000   -20.4198    11.1273    11.8365    13.2364     5.9747   498.9546     6.7371
  786.0000   -20.4185    10.9925    11.3027    13.0679     6.1441   478.8231     6.7366
  786.5000   -19.7314    10.8576    10.8788    12.9697     6.2458   454.3987     6.7277
  787.0000   -19.6005    10.9067    10.8108    12.9271     6.3068   465.0942     6.6722
  787.5000   -19.5992    10.9933    10.8108    12.8392     6.3881   472.7357     6.6530
  788.0000   -19.3258    10.9935    10.9459    12.6504     6.5711   474.2695     6.6714
  788.5000   -19.3245    10.9938    11.2162    12.3762     6.4084   471.9858     6.7340
  789.0000   -20.1384    10.8590    11.4865    12.4402     6.3068   470.4657     6.7333
  789.5000   -20.4090    10.8592    11.6216    12.3712     6.4084   476.1644     6.7602
  790.0000   -19.5922    10.8595    11.8919    12.0969     6.3271   477.3506     6.7596
  790.5000   -18.5039    10.8598    11.8919    11.9049     6.1645   464.0291     6.7590
  791.0000   -18.5026    10.8600    11.7568    11.9081     6.0628   459.0409     6.7585
  791.5000   -18.5012    10.8603    11.4865    11.9108     6.0425   475.1284     6.7579
  792.0000   -18.2282    10.8606    11.3514    11.9134     6.2298   480.8957     6.7698
  792.5000   -18.2268    10.8608    11.2162    11.7802     6.3493   481.9655     6.7842
  793.0000   -19.0407    10.8611    11.3514    11.7829     6.4190   478.9184     6.7836
  793.5000   -19.3111    10.8614    11.5005    11.6495     6.6323   485.0975     6.7831
  794.0000   -19.3098    10.8616    11.8919    11.6523     6.8319   474.2137     6.7687
  794.5000   -19.3075    10.8619    12.0784    11.3833     7.0080   462.5906     6.7273
  795.0000   -19.0263    10.8622    12.4640    11.3859     6.9374   454.6094     6.6157
  795.5000   -18.7623    10.8689    12.7775    11.3886     6.6669   458.4445     6.5648
  796.0000   -18.7608    10.9978    13.0162    11.3913     6.5435   475.9088     6.6896
  796.5000   -18.7931    10.9981    13.3784    11.3940     6.6197   478.9695     6.7954
  797.0000   -19.0715    10.8632    13.5685    11.3967     6.6919   485.0841     6.8065
  797.5000   -19.3004    10.7284    13.6486    11.3802     6.5197   488.9083     6.8059
  798.0000   -19.2409    10.7286    13.6486    11.2661     6.4552   478.9900     6.8054
  798.5000   -18.6879    10.7289    13.7113    11.2690     6.2164   469.8351     6.8048
  799.0000   -18.4068    10.7292    13.6486    11.2717     6.3021   468.9509     6.7770
  799.5000   -17.5819    10.7295    13.6486    11.1382     6.4491   476.7199     6.7764
  800.0000   -17.3907    10.7476    13.7852    11.1411     6.2864   477.5592     6.7791
  800.5000   -17.3859    10.8569    13.7895    11.1426     6.4898   468.3354     6.7882
  801.0000   -17.3788    10.9470    13.7946    11.1440     6.8262   466.7688     6.7973
  801.5000   -16.8315    10.9476    13.8000    11.0093     7.0941   473.7807     6.8033
  802.0000   -16.5544    10.9481    13.8054    11.1467     7.2179   485.9157     6.8033
  802.5000   -16.5490    10.7617    13.7680    11.0915     7.2205   481.8798     6.8033
  803.0000   -16.5435    10.4085    13.6387    11.1495     7.2183   478.2946     6.8033
  803.5000   -17.3596    10.4637    13.4154    11.1508  -999.2500   488.8928     6.8033
  804.0000   -17.8914    10.7359    13.2857    11.1522  -999.2500   494.3411     6.8306
  804.5000   -17.6141    10.8729    13.1559    11.1535  -999.2500   481.9431     6.8306
  805.0000   -17.6268    10.9513    13.1622    11.0870  -999.2500   476.0314     6.8306
  805.5000   -18.1468    10.9519    13.1676    10.8845  -999.2500   494.3627     6.8306
  806.0000   -18.1305    10.9524    13.0370    10.8859  -999.2500   486.4591     6.8306
  806.5000   -17.5924    10.9529    13.0041    10.8872  -999.2500   474.2144     6.8033
  807.0000   -17.3152    10.9535    12.9127    10.8116  -999.2500   470.5879     6.8033
  807.5000   -17.0244    10.8189    12.9190    10.7541  -999.2500   480.2146     6.8033
  808.0000   -16.7610    10.8194    12.8865    10.7557  -999.2500   484.1250     6.8033
  808.5000   -17.9038    10.7520    12.7572    10.7571  -999.2500   483.5539     6.8033
  809.0000   -20.3480    10.5503    12.6279    10.6223  -999.2500   466.0235     6.8033
  809.5000   -20.1567    10.4801    12.4986    10.4878  -999.2500   464.6440     6.8033
  810.0000   -16.4492    10.4162    12.2695    10.3533  -999.2500   464.6508     6.7760
  810.5000   -16.4621    10.4168    12.2401    10.3548  -999.2500   464.6576     6.7486
  811.0000   -16.4565    10.4173    12.1452    10.3562  -999.2500   465.4279     6.7213
  811.5000   -16.7230    10.3417    12.1514    10.3575  -999.2500  -999.2500     6.6667
  812.0000   -16.9893    10.1481    12.0209    10.3589  -999.2500  -999.2500     6.7486
  812.5000   -16.9837    10.0698    11.8912     9.9526  -999.2500  -999.2500     6.8033
  813.0000   -16.7066     9.9600    11.8973     9.9540  -999.2500  -999.2500     6.8306
  813.5000   -16.4294     9.9606    11.9027     9.9553  -999.2500  -999.2500     6.8033
  814.0000   -16.4239     9.9070    11.7723     9.8207  -999.2500  -999.2500     6.8033
  814.5000   -16.4184     9.8806    11.7783     9.8221  -999.2500  -999.2500     6.8033
  815.0000   -16.4403     9.8541    11.7523     9.8235  -999.2500  -999.2500     6.8033
  815.5000   -16.6796     9.8005    11.6229     9.2814  -999.2500  -999.2500     6.8033
  816.0000   -16.1304     9.7200    11.5237     9.2827  -999.2500  -999.2500     6.8033
  816.5000   -16.0950     9.6124    11.5297     9.1481  -999.2500  -999.2500     6.8033
  817.0000   -15.8478     9.5042    11.5351     8.7419  -999.2500  -999.2500     6.8033
  817.5000   -15.8424     9.2874    11.5406     8.4715  -999.2500  -999.2500     6.8306
  818.0000   -15.8370     9.0429    11.5171     8.2011  -999.2500  -999.2500     6.8306
  818.5000   -15.8316     8.7158    11.2527     7.9307  -999.2500  -999.2500     6.8306
