~VERSION INFORMATION
 VERS.                2.0:   CWLS LOG ASCII STANDARD - VERSION 2.0
 WRAP.                 NO:   ONE LINE PER DEPTH STEP
~WELL INFORMATION
#MNEM.UNIT      DATA TYPE    INFORMATION
#----------   ------------   ------------------------------
 STRT.F           42.0000:   START DEPTH
 STOP.F         3145.0000:   STOP DEPTH
 STEP.F            0.5000:   STEP LENGTH
 NULL.          -999.2500:   NO VALUE
 COMP. LAWRENCE/ALLISON INC:   COMPANY
 WELL.      46 STX #34-34:   WELL
 FLD .             TEAPOT:   FIELD
 LOC .      S34 T39N R78W:   LOCATION
 CNTY.            NATRONA:   COUNTY
 STAT.            WYOMING:   STATE
 CTRY. UNITED STATES OF AMERICA:   COUNTRY
 SRVC.              Welex:   SERVICE COMPANY
 DATE.        01-MAY-1977:   LOGDATE
 API .       490251104800:   API NUMBER
~CURVE INFORMATION
#MNEM.UNIT       API CODE    CURVE DESCRIPTION
#----------   ------------   ------------------------------
 DEPT.F                  :   
 ILD .OHMM   07 120 46 00:   INDUCTION LOG DEEP
 ILM .OHMM   07 120 44 00:   INDUCTION LOG MEDIUM
 SGRD.OHMM   07 221 05 00:   SHALLOW SHORT GUARD RESISTIVITY
 SPR .MV     07 010 01 00:   SPONTANEOUS POTENTIAL
 GR  .GAPI   81 310 01 00:   GAMMA RAY
~PARAMETER INFORMATION
#MNEM.UNIT          VALUE    DESCRIPTION
#----------   ------------   ------------------------------
 PD  .                 GL:   PERMANENT DATUM
 EPD .F              5120:   ELEVATION PERMANENT DATUM
 LMF .                 GL:   LOG MEASURED FROM
 DMF .                 GL:   DRILLING MEASURED FROM
 EGL .F              5120:   GROUND LEVEL
 DATE.        01-MAY-1977:   RUN DATE
 RUN .                  1:   RUN NUMBER
 DD  .F               660:   DEPTH DRILLER
 DL  .F               661:   DEPTH LOGGER
 BLI .F               659:   BOTTOM LOG INTERVAL
 TLI .F                40:   TOP LOG INTERVAL
 CS  .IN            8.625:   CASING SIZE
 CBD .F                40:   CASING BOTTOM DRILLER
 CBL .F                42:   CASING BOTTOM LOGGER
 BS  .IN            7.875:   BIT SIZE
 BSD .F               660:   BIT SIZE AT DEPTH
 DFT .             KCLMUD:   DRILLING FLUID TYPE
 DFD .                8.7:   DRILLING FLUID DENSITY
 DFV .                 31:   DRILLING FLUID VISCOSITY
 DFPH.                  9:   DRILLING FLUID PH
 DFL .                  5:   DRILLING FLUID LOSS
 MSS .           FLOWLINE:   MUD SAMPLE SOURCE
 RMS .OHMM            .23:   RESISTIVITY MUD SAMPLE
 MST .F                62:   MUD SAMPLE TEMPERATURE
 RMF .OHMM            .17:   RESISTIVITY MUD FILTRATE SAMPLE
 MFST.F                62:   MUD FILTRATE SAMPLE TEMPERATURE
 RMC .OHMM            .32:   RESISTIVITY MUD CAKE
 MCST.F                62:   MUD CAKE SAMPLE TEMPERATURE
 MFSS.           MEASURED:   MUD FILTRATE SAMPLE SOURCE
 MCSS.           MEASURED:   MUD CAKE SAMPLE SOURCE
 RMB .OHMM             .2:   RESISTIVITY MUD AT BHT
 BHT .F                71:   BOTTOM HOLE TEMPERATURE
 TCS .HRS             1.5:   TIME CURCULATED STOPPED
 MRT .F                71:   MAXIMUM RECORDED TEMPERATURE
 LUL .             CASPER:   LOGGING UNIT LOCATION
 ENGI.          T. JOYNER:   RECORDING ENGINEER
 WITN.            R. LYON:   WITNESSED BY
 CLNT.            A2DTECH:   CLIENT CODE
 ORIG.        2" 5" PRINT:   ORIGIN OF DATA
 UWI .       490251104800:   UNIQUE WELL ID
 DICO. A2D Technologies, Inc.:   DIGITIZING COMPANY
~OTHER INFORMATION
~A   DEPT      ILD        ILM       SGRD        SPR         GR   
   42.0000  -999.2500  -999.2500  -999.2500  -999.2500  -999.2500
   42.5000    11.2909    14.2230    16.3130   -17.6502  -999.2500
   43.0000    11.5236    14.9243    17.7158   -17.2066  -999.2500
   43.5000    11.8430    15.4444    21.6539   -16.7647  -999.2500
   44.0000    12.2560    15.8737    24.8658   -16.3228  -999.2500
   44.5000    12.7389    16.0865    20.7546   -16.1784  -999.2500
   45.0000    13.4294    16.0792    17.3232   -16.1863  -999.2500
   45.5000    14.0718    16.0719    15.9334   -16.4917  -999.2500
   46.0000    14.5563    16.1784    15.4912   -16.1990  -999.2500
   46.5000    15.0619    16.3073    15.3780   -15.6062  -999.2500
   47.0000    15.3725    16.6187    15.6950   -15.0165  -999.2500
   47.5000    15.6892    16.7269    16.1300   -14.5745  -999.2500
   48.0000    15.7936    16.7193    16.6925   -14.1326  -999.2500
   48.5000    15.7857    16.8282    17.2745   -13.8385  -999.2500
   49.0000    15.7793    17.1746    18.0013   -13.3966  -999.2500
   49.5000    15.5557    17.5278    18.6290   -13.2536  -999.2500
   50.0000    15.2293    17.7668    18.7530   -12.9628  -999.2500
   50.5000    15.0134    18.1303    19.0073   -12.9693  -999.2500
   51.0000    15.2170    18.2504    18.9994   -13.1253  -999.2500
   51.5000    15.3183    18.3692    19.1242   -13.4607  -999.2500
   52.0000    15.3106    18.4866    19.1165   -13.9070  -999.2500
   52.5000    15.0936    18.6091    19.1089   -14.5170  -999.2500
   53.0000    14.8810    18.5985    19.1012   -15.0986  -999.2500
   53.5000    14.5596    18.5901    19.0935   -15.5478  -999.2500
   54.0000    14.2631    18.7132    18.9540   -15.7037  -999.2500
   54.5000    14.0610    18.5749    18.9464   -15.8597  -999.2500
   55.0000    14.1532    18.5514    18.8079   -16.0157  -999.2500
   55.5000    14.4451    18.4300    18.9331   -16.0222  -999.2500
   56.0000    14.8453    18.2944    19.0553   -15.8776  -999.2500
   56.5000    15.3629    18.2861    19.0476   -15.8857  -999.2500
   57.0000    16.1207    18.4054    19.1744   -15.7411  -999.2500
   57.5000    16.9158    18.5249    19.4325   -15.7492  -999.2500
   58.0000    17.5057    18.5165    19.6979   -15.4568  -999.2500
   58.5000    18.1161    18.6391    20.5246   -15.3138  -999.2500
   59.0000    18.6182    18.6285    21.2403   -15.3203  -999.2500
   59.5000    19.1342    18.7498    21.2318   -15.6257  -999.2500
   60.0000    19.3956    18.7413    20.4478   -15.7817  -999.2500
   60.5000    19.5227    18.8632    19.9327   -16.2353  -999.2500
   61.0000    19.3797    18.9860    20.0637   -16.4097  -999.2500
   61.5000    19.2248    18.9353    20.1998   -16.8560  -999.2500
   62.0000    18.9656    18.8745    20.4691   -17.0019  -999.2500
   62.5000    18.8270    18.8137    20.6034   -17.1579  -999.2500
   63.0000    18.5602    18.7530    20.8840   -17.1644  -999.2500
   63.5000    18.4245    18.6922    21.1662   -17.1709  -999.2500
   64.0000    18.0378    18.6314    21.1573   -17.1774  -999.2500
   64.5000    17.4160    18.5706    21.0027   -17.4828  -999.2500
   65.0000    16.6995    18.5288    20.4198   -17.7883  -999.2500
   65.5000    16.1238    18.3923    19.7159   -18.3927  -999.2500
   66.0000    15.8953    18.3840    19.4365   -18.8476  -999.2500
   66.5000    15.8889    18.2486    19.4287   -19.4520  -999.2500
   67.0000    15.9946    18.1141    19.0210   -19.4585  -999.2500
   67.5000    15.9866    17.9823    18.3653   -19.4650  -999.2500
   68.0000    16.0930    17.8359    17.4880   -19.9200  -999.2500
   68.5000    16.3096    17.5900    17.7251   -20.5244  -999.2500
   69.0000    16.3044    17.3457    18.0905   -21.3083  -999.2500
   69.5000    16.2979    17.2180    18.3377   -22.3525  -999.2500
   70.0000    16.0670    16.8555    17.5484   -23.5604  -999.2500
   70.5000    15.9496    16.3865    16.8596   -24.8950  -999.2500
   71.0000    15.5070    15.9306    16.6208   -26.0859  -999.2500
   71.5000    15.1816    15.3803    16.6142   -27.7366  -999.2500
   72.0000    14.4563    14.4424    16.6075   -29.0884  -999.2500
   72.5000    13.1134    13.2822    16.3721   -30.1412  -999.2500
   73.0000    11.8952    12.1307    15.6985   -31.1941  -999.2500
   73.5000    10.5680    11.0025    14.3393   -32.0974  -999.2500
   74.0000     9.4542     9.9791    12.0518   -33.0008  -999.2500
   74.5000     8.2836     9.6344    10.4142   -33.4557  -999.2500
   75.0000     7.8334     9.3015     9.8481   -33.9107  -999.2500
   75.5000     7.5111     9.1066     9.6415   -34.6645  -999.2500
   76.0000     7.3026     9.1026     9.7057   -35.2689  -999.2500
   76.5000     7.1991     9.0342     9.9057   -35.8734  -999.2500
   77.0000     7.0977     8.9070    10.1803   -36.1788  -999.2500
   77.5000     7.0949     8.7802    10.4614   -36.4843  -999.2500
   78.0000     7.0921     8.6552    10.7514   -36.6389  -999.2500
   78.5000     7.0892     8.5915    10.8229   -36.7948  -999.2500
   79.0000     7.0864     8.6484    10.7140   -36.8112  -999.2500
   79.5000     7.0835     8.7643    10.2096   -36.9571  -999.2500
   80.0000     7.0807     8.8828     9.7967   -37.1130  -999.2500
   80.5000     7.0778     9.0656     9.4687   -37.2690  -999.2500
   81.0000     7.1249     9.3166     9.3373   -37.4250  -999.2500
   81.5000     7.1214     9.5083     9.6629   -37.4315  -999.2500
   82.0000     7.1185     9.7039     9.9998   -37.5875  -999.2500
   82.5000     7.1156     9.7671    10.3485   -37.7434  -999.2500
   83.0000     7.1128     9.7762    10.5618   -38.1984  -999.2500
   83.5000     7.0608     9.8273    10.7061   -38.3543  -999.2500
   84.0000     7.0091     9.8228    10.7008   -38.6598  -999.2500
   84.5000     6.9098     9.8184    10.4762   -38.9653  -999.2500
   85.0000     6.8598     9.7461    10.1855   -39.2707  -999.2500
   85.5000     6.8571     9.6743    10.0412   -39.5762  -999.2500
   86.0000     6.8512     9.5366     9.8989   -39.8816  -999.2500
   86.5000     6.8043     9.4663     9.8265   -40.0363  -999.2500
   87.0000     6.8490     9.3316     9.8919   -40.0427  -999.2500
   87.5000     6.8938     9.2628     9.8186   -40.0491  -999.2500
   88.0000     6.9391     9.2586     9.6126   -40.0555  -999.2500
   88.5000     7.0338     9.1269     9.5431   -40.0620  -999.2500
   89.0000     7.1292     9.1227     9.5393   -39.9189  -999.2500
   89.5000     7.2259     9.1186     9.6085   -39.9255  -999.2500
   90.0000     7.3748     9.1145     9.8031   -39.7822  -999.2500
   90.5000     7.4740     9.1103    10.1416   -39.6379  -999.2500
   91.0000     7.6281     9.1805    10.5683   -39.6460  -999.2500
   91.5000     7.6789     9.2362    10.8612   -39.8020  -999.2500
   92.0000     7.7822     9.4203    10.9326   -39.9580  -999.2500
   92.5000     7.8340     9.4816    10.7030   -40.1140  -999.2500
   93.0000     8.0065     9.6767    10.6258   -40.5689  -999.2500
   93.5000     8.1680     9.8758    10.9204   -40.7249  -999.2500
   94.0000     8.3909    10.1492    11.1444   -41.0303  -999.2500
   94.5000     8.5602    10.2876    11.3741   -41.1863  -999.2500
   95.0000     8.7359    10.3546    11.5295   -41.3423  -999.2500
   95.5000     8.9779    10.4934    11.6051   -41.1977  -999.2500
   96.0000     9.0997    10.4886    11.5992   -41.1858  -999.2500
   96.5000     9.2231    10.4838    11.5145   -41.0612  -999.2500
   97.0000     9.2194    10.4791    11.5098   -41.0677  -999.2500
   97.5000     9.2807    10.4743    11.5864   -41.0742  -999.2500
   98.0000     9.2760    10.4696    11.7436   -40.9310  -999.2500
   98.5000     9.2723    10.4518    11.6449   -40.9377  -999.2500
   99.0000     9.2045    10.3077    11.4841   -40.9442  -999.2500
   99.5000     8.9491    10.1612    11.1695   -40.9507  -999.2500
  100.0000     8.7543     9.7510    11.0919   -40.9573  -999.2500
  100.5000     8.6612     9.6595    10.8599   -40.9676  -999.2500
  101.0000     8.4561     9.5447    10.7819   -40.9779  -999.2500
  101.5000     8.3361     9.5420    10.7043   -40.9882  -999.2500
  102.0000     8.2178     9.5393    10.3125   -40.9985  -999.2500
  102.5000     8.1012     9.6032     9.4089   -41.1584  -999.2500
