~VERSION INFORMATION
 VERS.                2.0:   CWLS LOG ASCII STANDARD - VERSION 2.0
 WRAP.                 NO:   ONE LINE PER DEPTH STEP
~WELL INFORMATION
#MNEM.UNIT      DATA TYPE    INFORMATION
#----------   ------------   ------------------------------
 STRT.F           20.0000:   START DEPTH
 STOP.F          505.0000:   STOP DEPTH
 STEP.F            0.5000:   STEP LENGTH
 NULL.          -999.2500:   NO VALUE
 COMP.    FENIX & SCISSON:   COMPANY
 WELL.   NPR #3 #56-SX-10:   WELL
 FLD .             TEAPOT:   FIELD
 LOC .      S10 T38N R78W:   LOCATION
 CNTY.            NATRONA:   COUNTY
 STAT.            WYOMING:   STATE
 CTRY. UNITED STATES OF AMERICA:   COUNTRY
 SRVC.              Welex:   SERVICE COMPANY
 DATE.        01-MAY-1980:   LOGDATE
 API .       490251081300:   API NUMBER
~CURVE INFORMATION
#MNEM.UNIT       API CODE    CURVE DESCRIPTION
#----------   ------------   ------------------------------
 DEPT.F                  :   
 ILD .OHMM   07 120 46 00:   INDUCTION LOG DEEP
 ILM .OHMM   07 120 44 00:   INDUCTION LOG MEDIUM
 SGRD.OHMM   07 220 05 00:   SHALLOW GUARD RESISTIVITY
 SPR .MV     07 010 01 00:   SPONATANEOUS POTENTIAL FROM RES.
 CALD.IN     45 280 60 00:   CALIPER FROM DENSITY LOG
 DPHI.DEC    45 890 12 00:   DENSITY POROSITY SANDSTONE
 DRHO.G/C3   45 356 01 00:   DENSITY CORRECTION
 GRD .GAPI   45 310 01 00:   GAMMA RAY FROM DENSITY LOG
 RHOB.G/C3   45 350 01 00:   BULK DENSITY
~PARAMETER INFORMATION
#MNEM.UNIT          VALUE    DESCRIPTION
#----------   ------------   ------------------------------
 PD  .                 GL:   PERMANENT DATUM
 EPD .F              5180:   ELEVATION PERMANENT DATUM
 LMF .                 KB:   LOG MEASURED FROM
 DAPD.F                 4:   FEET ABOVE PERMANENT DATUM
 DMF .                 KB:   DRILLING MEASURED FROM
 EKB .F              5184:   KELLING BUSHING
 EGL .F              5180:   GROUND LEVEL
 DATE.        01-MAY-1980:   RUN DATE
 RUN .                  1:   RUN NUMBER
 DD  .F               489:   DEPTH DRILLER
 DL  .F               506:   DEPTH LOGGER
 BLI .F               504:   BOTTOM LOG INTERVAL
 TLI .F                30:   TOP LOG INTERVAL
 BS  .IN            7.875:   BIT SIZE
 BSD .F               489:   BIT SIZE AT DEPTH
 DFT .    WATER BASED MUD:   DRILLING FLUID TYPE
 DFD .                9.9:   DRILLING FLUID DENSITY
 DFV .                 46:   DRILLING FLUID VISCOSITY
 MSS .                PIT:   MUD SAMPLE SOURCE
 RMS .OHMM           0.99:   RESISTIVITY MUD SAMPLE
 MST .F                75:   MUD SAMPLE TEMPERATURE
 RMF .OHMM           0.78:   RESISTIVITY MUD FILTRATE SAMPLE
 MFST.F                75:   MUD FILTRATE SAMPLE TEMPERATURE
 RMC .OHMM           1.18:   RESISTIVITY MUD CAKE
 MCST.F                75:   MUD CAKE SAMPLE TEMPERATURE
 MFSS.               MEAS:   MUD FILTRATE SAMPLE SOURCE
 MCSS.               MEAS:   MUD CAKE SAMPLE SOURCE
 BHT .F               100:   BOTTOM HOLE TEMPERATURE
 TCS .HRS               1:   TIME CURCULATED STOPPED
 MRT .F               100:   MAXIMUM RECORDED TEMPERATURE
 LUN .               9685:   LOGGING UNIT NUMBER
 LUL .             CASPER:   LOGGING UNIT LOCATION
 ENGI.            TOTHILL:   RECORDING ENGINEER
 WITN.           DINSMORE:   WITNESSED BY
 CLNT.            A2DTECH:   CLIENT CODE
 ORIG.           5" PRINT:   ORIGIN OF DATA
 UWI .       490251081300:   UNIQUE WELL ID
 DICO. A2D Technologies, Inc.:   DIGITIZING COMPANY
~OTHER INFORMATION
~A   DEPT       ILD        ILM      SGRD        SPR       CALD       DPHI       DRHO        GRD       RHOB   
# ...
  312.0000    16.3070    23.8483    26.6531   -31.6168     8.4876     0.1475     0.0386    67.0238     2.3913
  312.5000    15.8618    23.1946    25.2177   -31.4649     8.4587     0.1328     0.0536    68.6205     2.4206
  313.0000    15.8546    22.5589    23.6951   -31.3120     8.4603     0.1280     0.0626    70.2171     2.4319
  313.5000    15.9720    21.3416    22.7315   -31.3091     8.4616     0.1267     0.0701    71.3620     2.4387
  314.0000    15.6438    20.0507    22.4190   -31.3062     8.4629     0.1364     0.0487    72.2809     2.4252
  314.5000    15.2168    18.7081    22.1109   -31.3033     8.4642     0.1415     0.0282    73.4258     2.3975
  315.0000    15.2168    17.8091    22.1109   -31.1509     8.4356     0.1387     0.0327    74.3524     2.4125
  315.5000    15.2168    17.3325    22.4190   -30.9258     8.4971     0.1366     0.0327    75.0384     2.4171
  316.0000    15.5360    17.0924    22.7315   -30.8460     8.5134     0.1483     0.0222    75.7347     2.4051
  316.5000    15.6438    17.2091    22.7315   -30.8430     8.4994     0.1564     0.0117    75.9759     2.3811
  317.0000    15.6438    17.6904    22.7315   -30.8395     8.5011     0.1639     0.0013    76.2172     2.3714
  317.5000    15.1118    17.8111    22.7315   -30.6876     8.5024     0.1686    -0.0077    76.0066     2.3609
  318.0000    14.8013    17.9328    22.7315   -30.6846     8.4887     0.1743    -0.0092    75.7961     2.3497
  318.5000    15.6438    18.2004    22.5747   -30.5319     8.4451     0.1737    -0.0032    75.1337     2.3565
  319.0000    15.5360    18.4319    22.2644   -30.4434     8.4015     0.1725    -0.0032    74.4713     2.3588
  319.5000    15.1118    18.4294    22.5747   -30.3767     8.4178     0.1722    -0.0047    74.4872     2.3588
  320.0000    15.9720    18.5558    22.8893   -30.3736     8.4494     0.1713    -0.0016    74.5058     2.3581
  320.5000    15.9720    18.8122    23.2083   -30.3707     8.4507     0.1656     0.0044    74.5188     2.3717
  321.0000    15.6438    18.9402    23.3694   -30.3677     8.4520     0.1614     0.0074    74.5346     2.3755
  321.5000    15.2168    18.9381    23.2083   -30.3647     8.4533     0.1530     0.0164    74.5518     2.3905
  322.0000    15.3224    19.3332    22.7315   -30.3617     8.4393     0.1521     0.0224    74.3413     2.3898
  322.5000    15.6438    19.3310    22.2644   -30.5078     8.4110     0.1565     0.0194    74.3566     2.3868
  323.0000    15.6438    19.4630    22.1109   -30.5049     8.3674     0.1490     0.0317    74.1461     2.4011
  323.5000    15.5360    19.4603    21.9584   -30.5018     8.3088     0.1430     0.0434    73.4837     2.4042
  324.0000    15.2168    19.4581    21.6566   -30.4993     8.2952     0.1400     0.0435    73.0511     2.4072
  324.5000    15.1118    19.4559    21.5073   -30.4962     8.4315     0.1421     0.0405    72.8367     2.4103
  325.0000    14.8013    19.4537    21.3467   -30.4933     8.4628     0.1376     0.0510    73.0817     2.4155
  325.5000    15.0076    19.3174    20.9201   -30.4903     8.4791     0.1340     0.0570    73.3230     2.4208
  326.0000    15.2168    18.9184    20.3490   -30.4867     8.4804     0.1361     0.0615    73.5642     2.4239
  326.5000    15.4324    18.9163    19.9309   -30.4838     8.4664     0.1436     0.0435    73.8055     2.4126
  327.0000    15.2168    18.7837    19.3868   -30.6311     8.4680     0.1447     0.0405    74.4227     2.4029
  327.5000    15.1118    18.3957    18.8576   -30.6099     8.4843     0.1444     0.0451    74.5407     2.4097
  328.0000    14.9041    18.7795    18.3427   -30.4751     8.5156     0.1408     0.0530    74.9848     2.4128
  328.5000    14.8013    18.9078    18.0906   -30.4722     8.5169     0.1411     0.0631    75.4520     2.4113
  329.0000    14.8013    19.3017    18.2163   -30.4268     8.4287     0.1393     0.0616    75.4673     2.4151
  329.5000    14.9041    19.2995    18.7351   -30.3169     8.4300     0.1396     0.0691    75.7086     2.4166
  330.0000    15.1118    19.2973    19.4318   -30.3139     8.4762     0.1459     0.0631    76.1757     2.3987
  330.5000    15.2168    19.5641    20.2087   -30.2232     8.4476     0.1692     0.0137    76.1911     2.3619
  331.0000    15.2168    19.2930    20.3490   -30.1579     8.4186     0.1686     0.0107    76.2064     2.3649
  331.5000    15.2168    18.8945    19.9309   -30.1555     8.4502     0.1731     0.0107    75.5440     2.3586
  332.0000    15.2168    18.5042    19.5214   -30.1521     8.4365     0.1779    -0.0028    74.8855     2.3530
  332.5000    15.1118    17.8667    18.9885   -30.0897     8.3176     0.1728     0.0007    73.9972     2.3628
  333.0000    14.9041    17.2267    18.4701   -29.9970     8.2574     0.1707     0.0062    73.3310     2.3621
  333.5000    14.6993    16.4446    17.9659   -29.8889     8.2010     0.1702     0.0018    73.8020     2.3711
  334.0000    14.3973    15.5572    17.4718   -29.8415     8.3074     0.1638     0.0168    73.5876     2.3869
  334.5000    14.0042    14.7177    17.2352   -29.6891     8.3836     0.1455     0.0333    72.9285     2.4050
  335.0000    14.2980    14.4137    17.2352   -29.5366     8.4298     0.1467     0.0243    72.0407     2.4013
  335.5000    15.1118    14.7144    17.3549   -29.5336     8.5359     0.1478     0.0198    71.1326     2.3991
  336.0000    15.8618    15.7669    18.2163   -29.5306     8.5522     0.1304     0.0378    70.2681     2.4233
  336.5000    16.5343    17.1301    23.2083   -29.5273     8.5385     0.1205     0.0393    69.1539     2.4502
  337.0000    17.3549    18.2289    29.7737   -29.3749     8.5248     0.1157     0.0333    68.0397     2.4532
  337.5000    17.9659    18.1853    35.3968   -29.3722     8.5262     0.1178     0.0259    66.9255     2.4525
  338.0000    18.3427    15.4356    32.5762   -29.3692     8.5278     0.1206     0.0079    65.1337     2.4555
  338.5000    17.9659    14.7041    26.0939   -29.4320     8.4992     0.1250    -0.0026    63.7936     2.4413
  339.0000    17.4434    14.6010    21.2577   -29.5127     8.4406     0.1310     0.0109    63.1312     2.4354
  339.5000    16.5343    15.0091    18.0906   -29.5097     8.3371     0.1397     0.0079    63.6159     2.4151
  340.0000    15.3224    15.5358    16.7647   -29.6563     8.2336     0.1420     0.0139    64.7470     2.4084
  340.5000    14.5979    16.4182    15.8618   -29.6527     8.1301     0.1285     0.0260    65.8919     2.4295
  341.0000    13.8117    15.8580    15.5360   -29.6502     8.0416     0.1384     0.0198    67.2627     2.4085
  341.5000    13.1587    15.7468    15.7525   -29.6469     7.9970     0.1489    -0.0044    68.4075     2.3958
  342.0000    12.7112    15.7451    16.1946   -29.4945     7.9398     0.1483    -0.0085    69.1006     2.4018
  342.5000    12.4500    15.7433    16.7647   -29.4916     7.9860     0.1450     0.0095    69.5677     2.4056
  343.0000    12.1942    15.7415    16.7647   -29.3392     8.0322     0.1437     0.0110    69.5831     2.4034
  343.5000    11.8613    15.6312    16.6491   -29.3363     8.0635     0.1381     0.0215    69.5986     2.4117
  344.0000    11.8613    15.5216    16.4203   -29.3333     8.1546     0.1395     0.0276    69.6176     2.4177
  344.5000    11.8613    15.0958    16.4203   -29.3303     8.0960     0.1383     0.0201    69.8588     2.4154
  345.0000    11.8613    14.7840    16.3070   -29.3268     8.0973     0.1365     0.0261    70.3260     2.4118
  345.5000    11.9437    14.5792    15.9720   -29.3239     8.1136     0.1350     0.0291    71.2449     2.4238
  346.0000    11.3789    14.1796    15.7525   -29.3214     8.1613     0.1425     0.0153    72.3898     2.4044
  346.5000    10.9920    13.7909    15.1118   -29.3184     8.1465     0.1476     0.0126    73.3087     2.4021
  347.0000    10.9162    13.4129    14.5979   -29.3152     8.1778     0.1458     0.0142    74.0018     2.4029
  347.5000    10.7661    13.4114    14.4972   -29.1628     8.2539     0.1480    -0.0038    74.7063     2.3827
  348.0000    10.5449    13.2256    14.8082   -29.1599     8.2852     0.1577    -0.0068    75.6536     2.3850
