~VERSION INFORMATION
 VERS.                2.0:   CWLS LOG ASCII STANDARD - VERSION 2.0
 WRAP.                 NO:   ONE LINE PER DEPTH STEP
~WELL INFORMATION
#MNEM.UNIT      DATA TYPE    INFORMATION
#----------   ------------   ------------------------------
 STRT.F            6.0000:   START DEPTH
 STOP.F          622.0000:   STOP DEPTH
 STEP.F            0.5000:   STEP LENGTH
 NULL.          -999.2500:   NO VALUE
 COMP. BROWN JOHN E&C INC:   COMPANY
 WELL. 71-26 STX-15 #26-15:   WELL
 FLD .             TEAPOT:   FIELD
 LOC .      S15 T38N R78W:   LOCATION
 CNTY.            NATRONA:   COUNTY
 STAT.            WYOMING:   STATE
 CTRY. UNITED STATES OF AMERICA:   COUNTRY
 SRVC.           Gearhart:   SERVICE COMPANY
 DATE.        01-JUL-1987:   LOGDATE
 API .       490251114900:   API NUMBER
~CURVE INFORMATION
#MNEM.UNIT       API CODE    CURVE DESCRIPTION
#----------   ------------   ------------------------------
 DEPT.F                  :   
 GRR .GAPI   07 310 01 00:   GAMMA RAY FROM RES. LOG.
 RILD.OHMM   11 120 46 00:   INDUCTION LOG DEEP RESISTIVITY
 RILM.OHMM   07 120 44 00:   INDUCTION LOG MEDIUM RESISTIVITY
~PARAMETER INFORMATION
#MNEM.UNIT          VALUE    DESCRIPTION
#----------   ------------   ------------------------------
 PD  .                 GL:   PERMANENT DATUM
 EPD .F              5208:   ELEVATION PERMANENT DATUM
 LMF .                 KB:   LOG MEASURED FROM
 DAPD.F                 8:   FEET ABOVE PERMANENT DATUM
 DMF .                 KB:   DRILLING MEASURED FROM
 EKB .F              5216:   KELLING BUSHING
 EDF .F              5214:   DRILLING FLOOR
 EGL .F              5208:   GROUND LEVEL
 DATE.             7-1-87:   RUN DATE
 RUN .                  1:   RUN NUMBER
 DD  .F               630:   DEPTH DRILLER
 DL  .F               630:   DEPTH LOGGER
 BLI .F               622:   BOTTOM LOG INTERVAL
 CS  .IN            8.625:   CASING SIZE
 CBD .F                50:   CASING BOTTOM DRILLER
 CBL .F                50:   CASING BOTTOM LOGGER
 BS  .IN             7.87:   BIT SIZE
 BSD .F               630:   BIT SIZE AT DEPTH
 DFT .                AIR:   DRILLING FLUID TYPE
 TCS .HRS            0300:   TIME CURCULATED STOPPED
 TLAB.HRS            0505:   TIME LOGGER AT BOTTOM
 LUN .               7660:   LOGGING UNIT NUMBER
 LUL .           GILLETTE:   LOGGING UNIT LOCATION
 ENGI.           JOHNSTON:   RECORDING ENGINEER
 WITN.             STRONG:   WITNESSED BY
 CLNT.            A2DTECH:   CLIENT CODE
 ORIG.       2", 5" PRINT:   ORIGIN OF DATA
 UWI .       490251114900:   UNIQUE WELL ID
 DICO. A2D Technologies, Inc.:   DIGITIZING COMPANY
~OTHER INFORMATION
~A    DEPT      GRR      RILD       RILM   
    6.0000    14.2570  -999.2500  -999.2500
    6.5000    23.2125  -999.2500  -999.2500
    7.0000    33.7073  -999.2500  -999.2500
    7.5000    44.5495  -999.2500  -999.2500
    8.0000    52.6641  -999.2500  -999.2500
    8.5000    61.1372  -999.2500  -999.2500
    9.0000    64.3358  -999.2500  -999.2500
    9.5000    64.3390  -999.2500  -999.2500
   10.0000    64.1832  -999.2500  -999.2500
   10.5000    64.6806  -999.2500  -999.2500
   11.0000    66.3883  -999.2500  -999.2500
   11.5000    67.7427  -999.2500  -999.2500
   12.0000    67.5695  -999.2500  -999.2500
   12.5000    66.1107  -999.2500  -999.2500
   13.0000    66.4634  -999.2500  -999.2500
   13.5000    69.0602  -999.2500  -999.2500
   14.0000    71.6031  -999.2500  -999.2500
   14.5000    70.9602  -999.2500  -999.2500
   15.0000    68.1057  -999.2500  -999.2500
   15.5000    65.2923  -999.2500  -999.2500
   16.0000    63.6875  -999.2500  -999.2500
   16.5000    63.6109  -999.2500  -999.2500
   17.0000    64.5190  -999.2500  -999.2500
   17.5000    65.6017  -999.2500  -999.2500
   18.0000    66.8880  -999.2500  -999.2500
   18.5000    68.8968  -999.2500  -999.2500
   19.0000    70.8964  -999.2500  -999.2500
   19.5000    72.0782  -999.2500  -999.2500
   20.0000    71.9661  -999.2500  -999.2500
   20.5000    71.4111  -999.2500  -999.2500
   21.0000    70.9044  -999.2500  -999.2500
   21.5000    71.1651  -999.2500  -999.2500
   22.0000    72.0628  -999.2500  -999.2500
   22.5000    73.3227  -999.2500  -999.2500
   23.0000    73.6929  -999.2500  -999.2500
   23.5000    73.6648  -999.2500  -999.2500
   24.0000    72.7203  -999.2500  -999.2500
   24.5000    71.7824  -999.2500  -999.2500
   25.0000    71.1003  -999.2500  -999.2500
   25.5000    70.6992  -999.2500  -999.2500
   26.0000    70.9145  -999.2500  -999.2500
   26.5000    71.8101  -999.2500  -999.2500
   27.0000    72.7042  -999.2500  -999.2500
   27.5000    73.6037  -999.2500  -999.2500
   28.0000    74.5017  -999.2500  -999.2500
   28.5000    75.2523  -999.2500  -999.2500
   29.0000    74.8616  -999.2500  -999.2500
   29.5000    74.4532  -999.2500  -999.2500
   30.0000    74.0492  -999.2500  -999.2500
   30.5000    73.6455  -999.2500  -999.2500
   31.0000    73.2418  -999.2500  -999.2500
   31.5000    72.8375  -999.2500  -999.2500
   32.0000    72.4336  -999.2500  -999.2500
   32.5000    72.0820  -999.2500  -999.2500
   33.0000    72.1024  -999.2500  -999.2500
   33.5000    73.0408  -999.2500  -999.2500
   34.0000    74.0525  -999.2500  -999.2500
   34.5000    75.0468  -999.2500  -999.2500
   35.0000    74.8257  -999.2500  -999.2500
   35.5000    72.2576  -999.2500  -999.2500
   36.0000    69.7346  -999.2500  -999.2500
   36.5000    67.2779  -999.2500  -999.2500
   37.0000    67.6006  -999.2500  -999.2500
   37.5000    68.8998  -999.2500  -999.2500
   38.0000    71.2653  -999.2500  -999.2500
   38.5000    73.6615  -999.2500  -999.2500
   39.0000    75.0085  -999.2500  -999.2500
   39.5000    76.3150  -999.2500  -999.2500
   40.0000    77.6319  -999.2500  -999.2500
   40.5000    78.8806  -999.2500  -999.2500
   41.0000    78.7701  -999.2500  -999.2500
   41.5000    78.6150  -999.2500  -999.2500
   42.0000    78.9932  -999.2500  -999.2500
   42.5000    80.1170  -999.2500  -999.2500
   43.0000    80.1369  -999.2500  -999.2500
   43.5000    78.3853  -999.2500  -999.2500
   44.0000    78.7534  -999.2500  -999.2500
   44.5000    81.6860  -999.2500  -999.2500
   45.0000    85.5475  -999.2500  -999.2500
   45.5000    90.4195  -999.2500  -999.2500
   46.0000    96.3313  -999.2500  -999.2500
   46.5000   102.2280  -999.2500  -999.2500
   47.0000   108.1053  -999.2500  -999.2500
   47.5000   113.9755  -999.2500  -999.2500
   48.0000   117.9391  -999.2500  -999.2500
   48.5000   119.8041  -999.2500  -999.2500
   49.0000   121.4877  -999.2500  -999.2500
   49.5000   121.4835  -999.2500  -999.2500
   50.0000   119.2074    10.1388     3.7666
   50.5000   116.6275    10.2538     4.7849
   51.0000   113.9593     7.4133     6.1544
   51.5000   113.5076     8.1842     6.9518
   52.0000   114.1861     9.1762     7.0456
   52.5000   114.8672     9.1762     7.1727
   53.0000   115.5507     8.4607     7.3148
   53.5000   116.2241     7.7652     7.4650
   54.0000   114.9756     8.0450     7.6935
   54.5000   113.5541     8.5199     7.3326
   55.0000   112.1330     8.3953     7.0120
   55.5000   111.9417     8.1602     7.1969
   56.0000   112.8707     7.9328     7.3660
   56.5000   113.8162     7.6949     7.4824
   57.0000   113.8615     7.7265     7.4537
   57.5000   113.8559     7.7606     7.4320
   58.0000   113.9439     7.7954     7.4159
   58.5000   114.6116     7.8306     7.4917
   59.0000   115.2786     7.8659     7.5617
   59.5000   116.2712     7.9106     7.6323
   60.0000   117.3680     7.8988     7.6896
   60.5000   118.4666     7.8829     7.6598
   61.0000   119.5580     7.8670     7.6304
   61.5000   120.2609     7.8511     7.5962
   62.0000   120.1298     7.8182     7.5610
   62.5000   120.0201     7.6885     7.3635
   63.0000   119.9437     7.5610     7.1188
   63.5000   118.5747     7.4356     6.9957
   64.0000   116.8472     7.3122     6.9662
   64.5000   115.1199     7.2070     6.9368
   65.0000   115.0455     7.1888     6.9076
   65.5000   114.9586     7.1706     6.8795
   66.0000   114.3441     7.1524     6.8573
   66.5000   113.7230     7.1343     6.8351
   67.0000   114.0431     7.1162     6.8130
   67.5000   115.6232     7.0982     6.7909
   68.0000   118.2871     7.0803     6.7689
   68.5000   120.9075     7.0623     6.7470
   69.0000   123.1596     7.0442     6.7252
   69.5000   122.1920     7.0266     6.6943
   70.0000   119.6908     7.0120     6.7271
   70.5000   118.6633     7.1337     6.7842
   71.0000   119.4650     7.2384     6.8660
   71.5000   120.4557     7.3447     6.9886
   72.0000   120.9130     7.4526     7.1135
   72.5000   117.7070     7.5620     7.2405
   73.0000   114.2516     7.6731     7.3698
   73.5000   112.5887     7.7857     7.5015
   74.0000   112.1061     7.9001     7.6354
   74.5000   111.9118     8.0161     7.7718
   75.0000   111.4655     8.1338     7.9106
   75.5000   110.8477     8.1048     7.8824
   76.0000   110.2713     8.0759     7.8543
   76.5000   110.7983     8.0129     7.7950
   77.0000   111.3680     7.9010     7.6908
   77.5000   111.9284     7.7904     7.5881
   78.0000   112.4738     7.6814     7.4867
   78.5000   113.1486     7.5738     7.3866
   79.0000   116.7880     7.4681     7.2880
   79.5000   120.4830     7.3637     7.1906
   80.0000   122.6676     7.3449     7.0774
   80.5000   121.8777     7.5223     7.1112
   81.0000   119.9582     7.6574     7.1526
   81.5000   118.0337     7.7949     7.1943
   82.0000   116.1047     7.9349     7.3512
   82.5000   114.1837     8.0774     7.5825
   83.0000   113.6355     8.2224     7.8212
   83.5000   112.8258     8.3700     8.0678
   84.0000   109.9908     8.5203     8.3223
   84.5000   107.6835     8.6733     8.5309
   85.0000   109.5241     8.7652     8.5691
   85.5000   114.2653     8.7900     8.6090
   86.0000   117.9716     8.8152     8.6491
   86.5000   117.5624     8.8407     8.6795
   87.0000   116.8578     8.6844     8.3882
   87.5000   116.1626     8.5019     8.1614
   88.0000   115.4625     8.3232     7.9408
   88.5000   114.7570     8.1482     7.7262
   89.0000   113.2815     7.9770     7.5173
   89.5000   113.0357     7.8093     7.3141
   90.0000   114.1719     7.6452     7.1164
   90.5000   115.8150     7.5921     7.0120
   91.0000   116.4872     7.5521     7.0989
   91.5000   113.8406     7.5939     7.2321
   92.0000   111.3353     7.6845     7.3678
   92.5000   109.6481     7.7763     7.5066
   93.0000   110.4161     7.8691     7.6479
   93.5000   112.3976     7.9630     7.7501
   94.0000   114.0814     8.0580     7.8332
   94.5000   114.8422     8.1542     7.9172
   95.0000   115.6320     8.2516     8.0026
   95.5000   116.4825     8.3502     8.0889
   96.0000   117.3930     8.4415     8.1338
   96.5000   117.4724     8.4789     8.1338
