~VERSION INFORMATION
 VERS.                2.0:   CWLS LOG ASCII STANDARD - VERSION 2.0
 WRAP.                 NO:   ONE LINE PER DEPTH STEP
~WELL INFORMATION
#MNEM.UNIT      DATA TYPE    INFORMATION
#----------   ------------   ------------------------------
 STRT.F            6.0000:   START DEPTH
 STOP.F          475.0000:   STOP DEPTH
 STEP.F            0.5000:   STEP LENGTH
 NULL.          -999.2500:   NO VALUE
 COMP. BROWN JOHN E&C INC:   COMPANY
 WELL.       SX 74 #32-10:   WELL
 FLD .             TEAPOT:   FIELD
 LOC .      S10 T38N R78W:   LOCATION
 CNTY.            NATRONA:   COUNTY
 STAT.            WYOMING:   STATE
 CTRY. UNITED STATES OF AMERICA:   COUNTRY
 SRVC.       Schlumberger:   SERVICE COMPANY
 DATE.        06-SEP-1990:   LOGDATE
 API .       490251132500:   API NUMBER
~CURVE INFORMATION
#MNEM.UNIT       API CODE    CURVE DESCRIPTION
#----------   ------------   ------------------------------
 DEPT.F                  :   
 GRR .GAPI   07 310 01 00:   GAMMA RAY FROM RES. LOG.
 ILD .OHMM   07 120 46 00:   INDUCTION LOG DEEP
 ILM .OHMM   07 120 44 00:   INDUCTION LOG MEDIUM
~PARAMETER INFORMATION
#MNEM.UNIT          VALUE    DESCRIPTION
#----------   ------------   ------------------------------
 PD  .                 GL:   PERMANENT DATUM
 EPD .F              5180:   ELEVATION PERMANENT DATUM
 LMF .                 KB:   LOG MEASURED FROM
 DAPD.F                10:   FEET ABOVE PERMANENT DATUM
 DMF .                 KB:   DRILLING MEASURED FROM
 EKB .F              5190:   KELLING BUSHING
 EGL .F              5180:   GROUND LEVEL
 DATE.         6-SEP-1990:   RUN DATE
 RUN .                  1:   RUN NUMBER
 DD  .F               480:   DEPTH DRILLER
 DL  .F               481:   DEPTH LOGGER
 BLI .F               475:   BOTTOM LOG INTERVAL
 TLI .F                10:   TOP LOG INTERVAL
 CS  .IN            8.625:   CASING SIZE
 CBD .F                42:   CASING BOTTOM DRILLER
 CBL .F                42:   CASING BOTTOM LOGGER
 BS  .IN            7.875:   BIT SIZE
 BSD .F               480:   BIT SIZE AT DEPTH
 DFT .                AIR:   DRILLING FLUID TYPE
 MFSS.               MEAS:   MUD FILTRATE SAMPLE SOURCE
 MCSS.               CALC:   MUD CAKE SAMPLE SOURCE
 BHT .F                69:   BOTTOM HOLE TEMPERATURE
 TLAB.HRS            0919:   TIME LOGGER AT BOTTOM
 MRT .F                69:   MAXIMUM RECORDED TEMPERATURE
 LUN .               8199:   LOGGING UNIT NUMBER
 LUL .             CASPER:   LOGGING UNIT LOCATION
 ENGI.                LEE:   RECORDING ENGINEER
 WITN.          G. STRONG:   WITNESSED BY
 CLNT.            A2DTECH:   CLIENT CODE
 ORIG.        2" 5" PRINT:   ORIGIN OF DATA
 UWI .       490251132500:   UNIQUE WELL ID
 DICO. A2D Technologies, Inc.:   DIGITIZING COMPANY
~OTHER INFORMATION
~A    DEPT      GRR       ILD        ILM   
# ...
  370.0000    88.1771    25.6745    24.4159
  370.5000    93.0282    25.0731    24.0960
  371.0000    97.6046    24.4461    23.7180
  371.5000   100.2452    23.8349    23.0154
  372.0000    96.5234    23.2389    22.3336
  372.5000    94.1773    22.6578    21.6720
  373.0000    96.8301    22.1347    21.0301
  373.5000   104.8915    21.7604    20.4024
  374.0000   109.9428    21.4187    19.8756
  374.5000   109.7238    20.9435    19.6317
  375.0000   108.0498    21.1097    20.0000
  375.5000   105.5815    21.5036    20.3191
  376.0000   101.5523    22.3129    21.2926
  376.5000    94.4116    23.1469    22.4422
  377.0000    87.2793    24.0114    23.6705
  377.5000    82.7689    24.9532    24.5136
  378.0000    82.0322    24.9532    24.0873
  378.5000    82.8433    24.1787    23.3562
  379.0000    84.4500    23.5362    22.6538
  379.5000    86.0092    22.3197    21.6093
  380.0000    89.0909    21.1662    20.5497
  380.5000    92.5461    20.0000    19.5422
  381.0000    97.6502    19.6179    18.9412
  381.5000   100.0837    19.2160    18.4968
  382.0000   101.6961    18.8224    18.0628
  382.5000    97.6816    18.4369    17.7375
  383.0000    93.5986    18.0592    17.4504
  383.5000    91.1660    17.6893    17.1750
  384.0000    91.7703    17.3269    16.9053
  384.5000    96.5423    17.0624    16.6399
  385.0000   101.3924    16.8444    16.3786
  385.5000   102.4145    16.6292    16.1214
  386.0000   102.0858    16.4167    15.8829
  386.5000    98.7812    16.2069    15.6518
  387.0000    96.9185    15.9999    15.4366
  387.5000    98.4032    15.7954    15.2243
  388.0000   101.7101    15.5936    15.0149
  388.5000   104.9594    15.3944    14.8652
  389.0000   105.7398    15.1977    14.7430
  389.5000   104.3872    15.1336    14.6217
  390.0000   104.7854    15.0937    14.5016
  390.5000   106.5820    15.0540    14.3499
  391.0000   108.3261    15.0143    14.3517
  391.5000   107.7972    14.9748    14.3511
  392.0000   107.5303    14.9354    14.3511
  392.5000   108.8909    14.8960    14.3511
  393.0000   110.3500    14.8188    14.3511
  393.5000   110.8194    14.7355    14.3507
  394.0000   110.3087    14.6527    14.2775
  394.5000   108.0163    14.5704    14.1968
  395.0000   105.2608    14.4886    14.1168
  395.5000   103.0160    14.4072    14.0372
  396.0000   103.9252    14.3263    13.9581
  396.5000   108.5350    14.2458    13.8794
  397.0000   112.3952    14.1657    13.8012
  397.5000   111.3649    14.0862    13.7234
  398.0000   106.5768    14.0070    13.5819
  398.5000   104.4361    13.8787    13.4217
  399.0000   107.2350    13.6774    13.2633
  399.5000   110.7895    13.4790    13.1292
  400.0000   110.8906    13.3675    13.0084
  400.5000   110.1484    13.2701    12.8888
  401.0000   110.8555    13.1728    12.7702
  401.5000   114.4324    13.0763    12.6528
  402.0000   116.8826    12.9668    12.4976
  402.5000   114.0559    12.9811    12.5271
  403.0000   109.9474    13.0027    12.5715
  403.5000   106.3255    13.0242    12.6162
  404.0000   107.4394    13.0457    12.6610
  404.5000   110.3027    13.0672    12.7059
  405.0000   113.1017    13.0880    12.7302
  405.5000   115.7242    13.0195    12.7046
  406.0000   117.6147    12.9442    12.6874
  406.5000   118.0225    12.8687    12.6700
  407.0000   114.8896    12.7939    12.6527
  407.5000   111.9219    12.7194    12.6355
  408.0000   110.8954    12.6455    12.6182
  408.5000   114.4954    12.5723    12.4860
  409.0000   118.6422    12.4975    12.3109
  409.5000   120.5261    12.2874    12.1383
  410.0000   115.7083    12.0775    11.9681
  410.5000   110.6744    11.8713    11.8003
  411.0000   109.6700    11.6685    11.6349
  411.5000   109.1477    11.5024    11.4718
  412.0000   108.6309    11.3912    11.3109
  412.5000   108.1099    11.2782    11.1524
  413.0000   108.5341    11.1663    10.9961
  413.5000   111.3415    11.0556    10.8418
  414.0000   115.0557    10.8995    10.6846
  414.5000   117.7235    10.6614    10.4317
  415.0000   119.1656    10.4285    10.1762
  415.5000   119.8107    10.2008     9.9267
  416.0000   120.0705     9.9780     9.6840
  416.5000   117.4795     9.7010     9.4462
  417.0000   114.8392     9.1845     9.2209
  417.5000   119.3820     8.1204     8.8703
  418.0000   125.6311     7.1833     8.0917
  418.5000   129.6996     6.4082     7.2158
  419.0000   132.2744     6.1682     6.0109
  419.5000   144.3090     5.9203     5.0219
  420.0000   153.3390     5.8664     4.7908
  420.5000   159.2940     5.9225     5.3434
  421.0000   149.6982     6.0327     5.8483
  421.5000   133.0292     6.6132     6.4306
  422.0000   120.5260     7.1757     6.7327
  422.5000   114.8602     7.7860     7.3472
  423.0000   112.5075     8.5511     8.2562
  423.5000   112.3827     9.4600     9.2710
  424.0000   114.5773    10.2693     9.7400
  424.5000   118.0665    10.4937    10.1327
  425.0000   121.2898    10.5217    10.3358
  425.5000   122.6713    10.5497    10.4019
  426.0000   123.2375    10.5778    10.4685
  426.5000   123.2568    10.7131    10.5865
  427.0000   123.6380    10.8998    10.8119
  427.5000   124.6064    11.0898    11.0631
  428.0000   123.6610    11.2831    11.3201
  428.5000   120.8215    11.4797    11.5831
  429.0000   118.2882    11.6795    11.8353
  429.5000   118.1019    11.8842    11.9387
  430.0000   120.4945    12.1069    12.0431
  430.5000   123.0319    12.3418    12.1483
  431.0000   124.2751    12.5799    12.2544
  431.5000   124.8504    12.7143    12.4675
  432.0000   122.6164    12.8326    12.7015
  432.5000   120.3529    12.9521    12.9414
  433.0000   118.8992    13.0726    13.1042
  433.5000   119.9518    13.1945    13.1496
  434.0000   123.8131    13.3169    13.1946
  434.5000   126.9169    13.4017    13.2398
  435.0000   127.1394    13.4821    13.2851
  435.5000   125.8365    13.5630    13.3307
  436.0000   124.5513    13.6444    13.3945
  436.5000   123.0392    13.7262    13.4588
  437.0000   117.2248    13.8311    13.5234
  437.5000   110.1177    13.8096    13.5885
  438.0000   106.5017    13.7800    13.6534
  438.5000   107.5131    13.7500    13.7046
  439.0000   111.3627    13.7200    13.5644
  439.5000   115.1571    13.6864    13.4503
  440.0000   118.2616    13.6242    13.3307
  440.5000   119.3556    13.5623    13.2845
  441.0000   120.0054    13.5006    13.2232
  441.5000   120.6620    13.4392    13.1621
  442.0000   120.8242    13.3781    13.1013
  442.5000   119.5662    13.3173    13.0407
  443.0000   118.3730    13.2567    12.9815
  443.5000   118.1447    13.1615    12.7758
  444.0000   117.0990    12.9202    12.5340
  444.5000   114.9169    12.6848    12.2960
  445.0000   114.8571    12.4533    12.1506
  445.5000   118.7251    12.2262    11.9817
  446.0000   122.2712    12.0033    11.8150
  446.5000   125.2786    11.7844    11.6507
  447.0000   126.7531    11.5695    11.4887
  447.5000   125.6730    11.5957    11.3289
  448.0000   122.5691    11.4361    11.1713
  448.5000   119.6581    11.3047    11.0160
  449.0000   120.1444    11.1749    10.8804
  449.5000   123.4878    11.0465    10.7510
  450.0000   126.9327    10.9196    10.6141
  450.5000   130.0220    10.8181    10.4692
  451.0000   126.8579    10.6939    10.3263
  451.5000   122.9503    10.5710    10.1854
  452.0000   119.3992    10.4499    10.0468
  452.5000   118.0426    10.3285     9.9281
  453.0000   120.4204    10.2899     9.9198
  453.5000   123.1210    10.2753    10.0246
  454.0000   123.5997    10.2608    10.0541
  454.5000   121.8550    10.2463    10.0751
  455.0000   118.5863    10.2318    10.0969
  455.5000   117.1157    10.2173    10.1095
  456.0000  -999.2500    10.2032     9.9786
  456.5000  -999.2500    10.0702     9.8460
  457.0000  -999.2500     9.9423     9.6753
  457.5000  -999.2500     9.8160     9.5293
  458.0000  -999.2500     9.6913     9.4214
  458.5000  -999.2500     9.5682     9.3162
  459.0000  -999.2500     9.4466     9.2119
  459.5000  -999.2500     9.3267     9.1087
  460.0000  -999.2500     9.2082     9.0067
  460.5000  -999.2500     9.0912     8.9058
