~VERSION INFORMATION
 VERS.                2.0:   CWLS LOG ASCII STANDARD - VERSION 2.0
 WRAP.                 NO:   ONE LINE PER DEPTH STEP
~WELL INFORMATION
#MNEM.UNIT      DATA TYPE    INFORMATION
#----------   ------------   ------------------------------
 STRT.F           70.0000:   START DEPTH
 STOP.F          884.0000:   STOP DEPTH
 STEP.F            0.5000:   STEP LENGTH
 NULL.          -999.2500:   NO VALUE
 COMP. U S NAVY/INTEX OIL CO:   COMPANY
 WELL.   NPR#3 "S" #16-35:   WELL
 FLD .             TEAPOT:   FIELD
 LOC .      S35 T39N R78W:   LOCATION
 CNTY.            NATRONA:   COUNTY
 STAT.            WYOMING:   STATE
 CTRY. UNITED STATES OF AMERICA:   COUNTRY
 SRVC.         Lane Wells:   SERVICE COMPANY
 DATE.        21-MAR-1960:   LOGDATE
 API .       490250651800:   API NUMBER
~CURVE INFORMATION
#MNEM.UNIT       API CODE    CURVE DESCRIPTION
#----------   ------------   ------------------------------
 DEPT.F                  :   
 SPR .MV     05 010 01 00:   SPONTANEOUS POTENTIAL FROM RES.
 ASN .OHMM   05 040 16 00:   AMPLIFIED SHORT NORMAL 16"
 ILD .OHMM   05 120 46 00:   INDUCTION LOG DEEP
 CILD.MMHO   05 110 46 00:   CONDUCTIVITY INDUCTION LOG DEEP
 GR  .GAPI   30 310 01 00:   GAMMA RAY
~PARAMETER INFORMATION
#MNEM.UNIT          VALUE    DESCRIPTION
#----------   ------------   ------------------------------
 PD  .                 GL:   PERMANENT DATUM
 EPD .F              5091:   ELEVATION PERMANENT DATUM
 LMF .                 KB:   LOG MEASURED FROM
 DAPD.F                 5:   FEET ABOVE PERMANENT DATUM
 DMF .                 KB:   DRILLING MEASURED FROM
 EKB .F              5096:   KELLING BUSHING
 EGL .F              5091:   GROUND LEVEL
 DATE.          3-21-1960:   RUN DATE
 RUN .                  1:   RUN NUMBER
 DD  .F               913:   DEPTH DRILLER
 DL  .F               885:   DEPTH LOGGER
 BLI .F               883:   BOTTOM LOG INTERVAL
 TLI .F                70:   TOP LOG INTERVAL
 CS  .IN            8.625:   CASING SIZE
 CBD .F                12:   CASING BOTTOM DRILLER
 BS  .IN            7.875:   BIT SIZE
 BSD .F               913:   BIT SIZE AT DEPTH
 DFT .   GEL-OIL EMULSION:   DRILLING FLUID TYPE
 DFD .                9.9:   DRILLING FLUID DENSITY
 DFV .                 40:   DRILLING FLUID VISCOSITY
 MSS .           FLOWLINE:   MUD SAMPLE SOURCE
 RMS .OHMM              3:   RESISTIVITY MUD SAMPLE
 MST .F                64:   MUD SAMPLE TEMPERATURE
 RMF .OHMM            2.2:   RESISTIVITY MUD FILTRATE SAMPLE
 MFST.F                64:   MUD FILTRATE SAMPLE TEMPERATURE
 RMC .OHMM              4:   RESISTIVITY MUD CAKE
 MCST.F                64:   MUD CAKE SAMPLE TEMPERATURE
 MFSS.                MUD:   MUD FILTRATE SAMPLE SOURCE
 MCSS.              PRESS:   MUD CAKE SAMPLE SOURCE
 RMB .OHMM            2.7:   RESISTIVITY MUD AT BHT
 BHT .F                70:   BOTTOM HOLE TEMPERATURE
 MRT .F                70:   MAXIMUM RECORDED TEMPERATURE
 LUN .             L-4474:   LOGGING UNIT NUMBER
 LUL .             CASPER:   LOGGING UNIT LOCATION
 ENGI.             NELSON:   RECORDING ENGINEER
 WITN.          JORGENSEN:   WITNESSED BY
 CLNT.            A2DTECH:   CLIENT CODE
 ORIG.      2" & 5" PRINT:   ORIGIN OF DATA
 UWI .       490250651800:   UNIQUE WELL ID
 DICO. A2D Technologies, Inc.:   DIGITIZING COMPANY
~OTHER INFORMATION
~A   DEPT      SPR          ASN      ILD        CILD        GR   
   70.0000   -37.3193     5.9334  -999.2500   239.7959  -999.2500
   70.5000   -37.3193     5.9334     4.8169   236.1945  -999.2500
   71.0000   -37.3193     6.0234     4.8169   238.3453  -999.2500
   71.5000   -37.2918     5.9585     4.8337   237.5250  -999.2500
   72.0000   -37.1924     5.9893     4.8505   236.7047  -999.2500
   72.5000   -37.0930     6.0234     4.8689   234.4888  -999.2500
   73.0000   -36.9936     6.1830     4.8874   229.9770  -999.2500
   73.5000   -36.9853     6.2805     4.9058   227.8996  -999.2500
   74.0000   -36.8363     6.4511     4.9147   223.2093  -999.2500
   74.5000   -36.7633     6.6251     4.9336   218.6975  -999.2500
   75.0000   -36.5972     6.6937     4.9509   216.3866  -999.2500
   75.5000   -36.3561     6.7464     4.9715   214.8045  -999.2500
   76.0000   -36.1346     6.8116     4.9853   213.2224  -999.2500
   76.5000   -35.8957     6.8524     5.0350   211.6404  -999.2500
   77.0000   -35.8690     7.0143     5.1155   210.0583  -999.2500
   77.5000   -35.8713     7.2341     5.1885   208.4438  -999.2500
   78.0000   -35.8729     7.3430     5.2649   206.8522  -999.2500
   78.5000   -35.8673     7.4312     5.3396   205.5379  -999.2500
   79.0000   -35.9063     7.4858     5.4151   201.9807  -999.2500
   79.5000   -35.9988     7.5333     5.4904   198.9499  -999.2500
   80.0000   -36.1286     7.6113     5.5656   195.9218  -999.2500
   80.5000   -36.3467     7.7710     5.6415   192.8885  -999.2500
   81.0000   -36.6029     7.9203     5.7157   189.8447  -999.2500
   81.5000   -36.8646     8.0955     5.7931   186.8230  -999.2500
   82.0000   -37.1248     8.1946     5.8644   183.7829  -999.2500
   82.5000   -37.3858     8.1821     5.9492   180.3721  -999.2500
   83.0000   -37.6472     8.1798     5.9770   178.9916  -999.2500
   83.5000   -37.9075     8.0539     5.9287   180.0683  -999.2500
   84.0000   -38.1707     7.9027     5.8914   181.1450  -999.2500
   84.5000   -38.4256     7.7588     5.8481   182.2216  -999.2500
   85.0000   -38.6971     7.6023     5.8081   183.2983  -999.2500
   85.5000   -38.9249     7.5268     5.7664   184.3750  -999.2500
   86.0000   -39.0969     7.5308     5.7255   185.4517  -999.2500
   86.5000   -38.9512     7.5217     5.6843   186.5284  -999.2500
   87.0000   -38.5784     7.5132     5.6433   187.6050  -999.2500
   87.5000   -38.1780     7.4465     5.6022   188.6817  -999.2500
   88.0000   -38.2406     7.3853     5.5612   189.7584  -999.2500
   88.5000   -38.7317     7.2701     5.5202   190.8351  -999.2500
   89.0000   -39.1568     7.1795     5.4792   192.8571  -999.2500
   89.5000   -39.5837     7.0604     5.4382   195.2659  -999.2500
   90.0000   -40.0631     6.9337     5.3972   197.7323  -999.2500
   90.5000   -40.0135     6.8015     5.3561   200.1981  -999.2500
   91.0000   -39.5284     6.7093     5.3151   202.6612  -999.2500
   91.5000   -39.1363     6.6942     5.2740   205.5443  -999.2500
   92.0000   -38.6994     6.6621     5.2332   207.9954  -999.2500
   92.5000   -38.2883     6.6388     5.1916   210.9526  -999.2500
   93.0000   -37.8551     6.6104     5.1517   213.9080  -999.2500
   93.5000   -37.5098     6.5855     5.1082   216.8603  -999.2500
   94.0000   -37.4151     6.5572     5.0778   219.9576  -999.2500
   94.5000   -37.3500     6.5336     5.0608   220.5912  -999.2500
   95.0000   -37.2603     6.5021     5.0428   221.2534  -999.2500
   95.5000   -36.7172     6.4932     5.0224   221.9089  -999.2500
   96.0000   -36.2354     6.4066     5.0091   222.5608  -999.2500
   96.5000   -35.8493     6.2599     4.9534   223.2208  -999.2500
   97.0000   -35.5445     6.1254     4.8611   226.5243  -999.2500
   97.5000   -35.2321     5.9870     4.7773   231.5380  -999.2500
   98.0000   -35.2020     5.8463     4.6898   236.5517  -999.2500
   98.5000   -35.3247     5.7393     4.6037   241.5654  -999.2500
   99.0000   -35.4203     5.7344     4.5182   246.5791  -999.2500
   99.5000   -35.5151     5.7348     4.4292   251.5928  -999.2500
  100.0000   -35.6396     5.7277     4.3677   257.8031  -999.2500
  100.5000   -35.6125     5.7162     4.3800   257.0108  -999.2500
  101.0000   -35.3040     5.7040     4.3980   255.9701  -999.2500
  101.5000   -35.0025     5.7081     4.4169   254.9294  -999.2500
  102.0000   -34.9099     5.7376     4.4349   253.8887  -999.2500
  102.5000   -34.8541     5.7641     4.4535   252.8480  -999.2500
  103.0000   -34.7889     5.7918     4.4717   251.8073  -999.2500
  103.5000   -34.7266     5.8200     4.4901   250.7666  -999.2500
  104.0000   -34.6638     5.8390     4.5084   249.7260  -999.2500
  104.5000   -34.6007     5.8095     4.5268   248.6853  -999.2500
  105.0000   -34.5392     5.7801     4.5450   247.6446  -999.2500
  105.5000   -34.4746     5.7719     4.5634   246.6039  -999.2500
  106.0000   -34.4286     5.8113     4.5816   245.5632  -999.2500
  106.5000   -34.4279     5.8647     4.6000   244.5225  -999.2500
  107.0000   -34.4272     5.9169     4.6185   243.3974  -999.2500
  107.5000   -34.4288     5.9591     4.6336   244.5528  -999.2500
  108.0000   -34.4270     5.8769     4.6074   245.8103  -999.2500
  108.5000   -34.4305     5.7779     4.5752   247.0678  -999.2500
  109.0000   -34.4248     5.6795     4.5439   248.3253  -999.2500
  109.5000   -34.4367     5.5845     4.5121   249.5828  -999.2500
  110.0000   -34.3467     5.4801     4.4810   250.8403  -999.2500
  110.5000   -34.1635     5.4269     4.4485   252.0978  -999.2500
  111.0000   -33.9968     5.5466     4.4189   253.3553  -999.2500
  111.5000   -33.8251     5.6534     4.3827   253.9550  -999.2500
  112.0000   -33.6495     5.7654     4.3747   253.2005  -999.2500
  112.5000   -33.5259     5.8517     4.4064   252.4460  -999.2500
  113.0000   -33.5243     5.8006     4.4329   251.6915  -999.2500
  113.5000   -33.5223     5.7256     4.4623   250.9370  -999.2500
  114.0000   -33.5239     5.7383     4.4900   250.1825  -999.2500
  114.5000   -33.5232     5.7677     4.5188   249.4280  -999.2500
  115.0000   -33.5238     5.7355     4.5469   248.7995  -999.2500
  115.5000   -33.5239     5.6797     4.5756   249.3499  -999.2500
  116.0000   -33.5241     5.6896     4.6036   249.8214  -999.2500
  116.5000   -33.5247     5.7137     4.6341   250.2930  -999.2500
  117.0000   -33.5238     5.7416     4.6479   250.1452  -999.2500
  117.5000   -33.5257     5.7678     4.6607   248.8393  -999.2500
  118.0000   -33.5225     5.7945     4.6737   247.5335  -999.2500
  118.5000   -33.5290     5.8213     4.6867   246.2276  -999.2500
  119.0000   -33.4795     5.8472     4.6997   244.9217  -999.2500
  119.5000   -33.3991     5.8757     4.7127   243.6159  -999.2500
  120.0000   -33.3320     5.8923     4.7257   242.3100  -999.2500
  120.5000   -33.2593     5.8636     4.7388   240.9972  -999.2500
  121.0000   -33.1895     5.8352     4.7518   239.6931  -999.2500
  121.5000   -33.1187     5.8891     4.7649   238.3938  -999.2500
  122.0000   -33.0457     5.9819     4.7779   237.0967  -999.2500
  122.5000   -32.9958     6.0678     4.7910   235.7976  -999.2500
  123.0000   -33.1116     6.1589     4.8044   234.4111  -999.2500
  123.5000   -33.2375     6.2094     4.8136   236.4314  -999.2500
  124.0000   -33.3647     6.0652     4.7806   238.5714  -999.2500
  124.5000   -33.4884     5.7793     4.7424   240.7272  -999.2500
  125.0000   -33.6165     5.6641     4.7045   242.8829  -999.2500
  125.5000   -33.7401     5.6565     4.6668   245.0386  -999.2500
  126.0000   -33.8691     5.6343     4.6286   247.1943  -999.2500
  126.5000   -33.8039     5.6205     4.5914   249.3500  -999.2500
  127.0000   -33.6937     5.5989     4.5523   251.5058  -999.2500
  127.5000   -33.5905     5.5908     4.5168   253.6615  -999.2500
  128.0000   -33.4851     5.5878     4.4739   256.0024  -999.2500
  128.5000   -33.3806     5.6212     4.4683   256.0024  -999.2500
  129.0000   -33.2750     5.7009     4.5070   254.8256  -999.2500
  129.5000   -33.1719     5.7739     4.5392   252.3845  -999.2500
  130.0000   -33.0618     5.8514     4.5748   249.9435  -999.2500
  130.5000   -32.9958     5.9254     4.6085   247.5025  -999.2500
