~VERSION INFORMATION
 VERS.                2.0:   CWLS LOG ASCII STANDARD - VERSION 2.0
 WRAP.                 NO:   ONE LINE PER DEPTH STEP
~WELL INFORMATION
#MNEM.UNIT      DATA TYPE    INFORMATION
#----------   ------------   ------------------------------
 STRT.F           36.0000:   START DEPTH
 STOP.F          592.0000:   STOP DEPTH
 STEP.F            0.5000:   STEP LENGTH
 NULL.          -999.2500:   NO VALUE
 COMP. FENIX & SCISSON INC:   COMPANY
 WELL.           S #35-10:   WELL
 FLD .              NPR-3:   FIELD
 LOC .      S10 T38N R78W:   LOCATION
 CNTY.            NATRONA:   COUNTY
 STAT.            WYOMING:   STATE
 CTRY. UNITED STATES OF AMERICA:   COUNTRY
 SRVC.              Welex:   SERVICE COMPANY
 DATE.        07-MAR-1977:   LOGDATE
 API .       490251029000:   API NUMBER
~CURVE INFORMATION
#MNEM.UNIT       API CODE    CURVE DESCRIPTION
#----------   ------------   ------------------------------
 DEPT.F                  :   
 SPR .MV     07 010 01 00:   SPONTANEOUS POTENTIAL
 ILM .OHMM   07 120 44 00:   INDUCTION LOG MEDIUM
 ILD .OHMM   07 120 46 00:   INDUCTION LOG DEEP
 SGRD.OHMM   07 220 05 00:   SHALLOW GUARD RESISTIVITY
 CALD.IN     45 280 60 00:   CALIPER FROM DENSITY LOG
 RHOB.G/C3   45 350 01 00:   BULK DENSITY
 CORR.G/C3   45 356 01 00:   DENSITY CORRECTION
 DPHI.DEC    45 890 12 00:   DENSITY POROSITY SANDSTONE
 GRD .GAPI   45 310 01 00:   GAMMA RAY FROM DENSITY LOG
~PARAMETER INFORMATION
#MNEM.UNIT          VALUE    DESCRIPTION
#----------   ------------   ------------------------------
 PD  .                 GL:   PERMANENT DATUM
 EPD .F              5234:   ELEVATION PERMANENT DATUM
 LMF .                 GL:   LOG MEASURED FROM
 DMF .                 GL:   DRILLING MEASURED FROM
 EGL .F              5234:   GROUND LEVEL
 DATE.             3-7-77:   RUN DATE
 RUN .                  1:   RUN NUMBER
 DD  .F               600:   DEPTH DRILLER
 DL  .F               593:   DEPTH LOGGER
 BLI .F               591:   BOTTOM LOG INTERVAL
 TLI .F                35:   TOP LOG INTERVAL
 CS  .IN            8.625:   CASING SIZE
 CBD .F                42:   CASING BOTTOM DRILLER
 CBL .F                42:   CASING BOTTOM LOGGER
 BS  .IN            7.875:   BIT SIZE
 BSD .F               600:   BIT SIZE AT DEPTH
 DFT .            KCL MUD:   DRILLING FLUID TYPE
 MSS .          FLOW LINE:   MUD SAMPLE SOURCE
 RMS .OHMM            .40:   RESISTIVITY MUD SAMPLE
 MST .F                58:   MUD SAMPLE TEMPERATURE
 RMF .OHMM            .33:   RESISTIVITY MUD FILTRATE SAMPLE
 MFST.F                58:   MUD FILTRATE SAMPLE TEMPERATURE
 RMC .OHMM            .44:   RESISTIVITY MUD CAKE
 MCST.F                58:   MUD CAKE SAMPLE TEMPERATURE
 MFSS.           FANN KIT:   MUD FILTRATE SAMPLE SOURCE
 MCSS.           FANN KIT:   MUD CAKE SAMPLE SOURCE
 RMB .OHMM            .31:   RESISTIVITY MUD AT BHT
 BHT .F                62:   BOTTOM HOLE TEMPERATURE
 TCS .HRS               3:   TIME CURCULATED STOPPED
 MRT .F                62:   MAXIMUM RECORDED TEMPERATURE
 LUN .               8611:   LOGGING UNIT NUMBER
 LUL .           GILLETTE:   LOGGING UNIT LOCATION
 ENGI.            C. DOAK:   RECORDING ENGINEER
 WITN.      L. STUEBINGER:   WITNESSED BY
 CLNT.            A2DTECH:   CLIENT CODE
 ORIG.        2" 5" PRINT:   ORIGIN OF DATA
 UWI .       490251029000:   UNIQUE WELL ID
 DICO. A2D Technologies, Inc.:   DIGITIZING COMPANY
~OTHER INFORMATION
~A   DEPT      SPR        ILM        ILD       SGRD         CALD       RHOB      CORR        DPHI       GRD  
# ...
  437.5000   -38.2622    15.8302    15.8441    19.3252     7.8970     2.3966     0.0394     0.1493   104.9364
  438.0000   -38.2425    15.1328    15.5406    19.0346     7.8958     2.4006     0.0429     0.1463   105.5908
  438.5000   -38.1885    14.4661    15.7188    18.6719     7.8947     2.4045     0.0464     0.1439   106.2216
  439.0000   -38.1347    13.6676    15.9790    18.8861     7.8936     2.4026     0.0461     0.1450   107.3702
  439.5000   -38.0784    15.6486    16.2435    19.1871     7.8924     2.3915     0.0421     0.1515   106.0952
  440.0000   -38.1853    17.8332    16.5124    19.3680     7.8913     2.3798     0.0383     0.1578   104.4883
  440.5000   -38.3594    18.1694    16.7857    19.0025     7.8902     2.3793     0.0350     0.1602   105.4829
  441.0000   -38.5356    16.9818    16.8782    18.7467     7.8890     2.3850     0.0330     0.1550   105.8309
  441.5000   -38.7116    16.0422    16.6761    18.6702     7.8879     2.3871     0.0310     0.1579   103.6274
  442.0000   -38.8876    15.1188    16.3910    18.8650     7.8868     2.3774     0.0290     0.1606   100.4430
  442.5000   -39.0637    14.4410    16.1215    19.0163     7.8856     2.3747     0.0270     0.1634   100.3268
  443.0000   -39.2386    14.2602    16.0854    18.7664     7.8845     2.3867     0.0257     0.1568   100.8377
  443.5000   -39.3298    14.0365    16.0492    18.4574     7.8834     2.3966     0.0305     0.1500   100.3977
  444.0000   -39.4057    13.7935    16.0130    18.1514     7.8822     2.4067     0.0347     0.1450    98.1787
  444.5000   -39.4815    14.6259    15.9742    17.8299     7.8811     2.4044     0.0390     0.1446    98.8852
  445.0000   -39.5573    16.1215    15.7991    17.8714     7.8800     2.4008     0.0386     0.1465   101.0129
  445.5000   -39.6347    15.6860    15.3080    17.9422     7.8787     2.3958     0.0319     0.1485   103.0775
  446.0000   -39.7042    15.3184    14.8310    17.9975     7.8735     2.3906     0.0254     0.1524   104.6643
  446.5000   -39.8047    14.9594    14.4970    17.6577     7.8678     2.3854     0.0192     0.1564   104.0368
  447.0000   -39.9041    14.6035    14.3261    17.3331     7.8620     2.3802     0.0201     0.1602   101.7534
  447.5000   -40.0037    14.8429    14.1573    17.0143     7.8563     2.3786     0.0237     0.1606    99.2720
  448.0000   -40.1034    15.1477    13.9904    16.7015     7.8505     2.3819     0.0273     0.1537    97.8764
  448.5000   -40.2030    15.5406    13.7935    16.2700     7.8448     2.3851     0.0285     0.1529    96.5354
  449.0000   -40.3026    15.3632    13.8494    16.3797     7.8390     2.3883     0.0244     0.1541    97.1712
  449.5000   -40.4022    15.1456    13.9191    16.5171     7.8333     2.3910     0.0203     0.1518    99.4081
  450.0000   -40.5018    14.9311    13.9892    16.6553     7.8275     2.3948     0.0258     0.1485   102.8485
  450.5000   -40.6013    14.7084    14.0596    16.7953     7.8210     2.3986     0.0334     0.1453   106.2519
  451.0000   -40.7008    14.7084    14.1304    16.9362     7.7978     2.4029     0.0293     0.1433   105.0950
  451.5000   -40.8022    14.8010    14.2015    17.0787     7.7989     2.4081     0.0265     0.1409   103.3492
  452.0000   -40.9561    14.8799    14.3018    17.2211     7.7991     2.4134     0.0316     0.1368   102.8157
  452.5000   -41.1789    14.9593    14.2269    17.3487     7.7997     2.4188     0.0366     0.1326   100.4491
  453.0000   -41.4029    14.9807    14.0634    16.9904     7.8176     2.4241     0.0398     0.1285   102.3037
  453.5000   -41.6157    14.8058    13.9018    16.6750     7.8363     2.4294     0.0397     0.1259   104.4359
  454.0000   -41.8279    14.6775    13.7421    16.3654     7.8357     2.4347     0.0399     0.1227   104.3844
  454.5000   -42.0401    14.5537    13.5818    16.0616     7.8307     2.4399     0.0432     0.1195   103.5228
  455.0000   -42.2524    14.4346    13.4256    15.6838     7.8256     2.4488     0.0466     0.1155   104.9148
  455.5000   -42.4647    14.1555    13.2339    15.6838     7.8203     2.4594     0.0498     0.1109   107.3431
  456.0000   -42.6771    13.9438    13.1359    15.7352     7.8188     2.4673     0.0452     0.1090   109.1906
  456.5000   -42.8896    13.5435    13.0339    15.8613     7.8330     2.4413     0.0399     0.1194   107.6609
  457.0000   -43.0999    13.6447    12.9327    15.9884     7.8512     2.4308     0.0346     0.1274   106.2201
  457.5000   -43.2682    13.7593    12.8323    16.1215     7.8799     2.4212     0.0294     0.1355   106.9377
  458.0000   -43.3437    13.8761    12.7326    16.0137     7.8788     2.4120     0.0241     0.1388   108.1743
  458.5000   -43.4210    13.9206    12.6337    15.8749     7.8759     2.4114     0.0219     0.1372   108.8059
  459.0000   -43.4984    13.7628    12.5356    15.7106     7.8726     2.4163     0.0218     0.1327   107.8873
  459.5000   -43.5753    13.6676    12.4696    15.5346     7.8692     2.4216     0.0228     0.1282   106.1510
  460.0000   -43.6087    13.6676    12.5742    15.3605     7.8658     2.4308     0.0283     0.1238   103.1681
  460.5000   -43.4071    13.9902    12.6540    15.2581     7.8624     2.4399     0.0337     0.1193   100.1886
  461.0000   -43.2084    14.2315    12.7343    15.7323     7.8590     2.4490     0.0378     0.1148   100.4034
  461.5000   -43.0104    14.3091    12.8151    15.9516     7.8557     2.4543     0.0359     0.1141   102.0407
  462.0000   -42.8328    13.7859    12.8964    15.6752     7.8523     2.4470     0.0341     0.1157   103.3684
  462.5000   -42.8000    13.4408    12.9782    15.5343     7.8489     2.4400     0.0323     0.1191   103.6049
  463.0000   -42.7632    13.1044    13.0606    16.2548     7.8455     2.4330     0.0305     0.1225   103.5129
  463.5000   -42.7261    12.5338    13.1437    17.0065     7.8421     2.4265     0.0287     0.1260   103.7103
  464.0000   -42.6888    11.9477    13.2270    17.9975     7.8390     2.4300     0.0302     0.1234   104.8586
  464.5000   -42.6472    11.3891    13.2968    16.7609     7.8389     2.4374     0.0345     0.1206   106.7293
  465.0000   -42.8005    11.0677    13.1992    15.9742     7.8385     2.4448     0.0389     0.1178   108.6650
  465.5000   -42.9998    11.3364    13.0347    16.1922     7.8437     2.4497     0.0391     0.1165   109.8013
  466.0000   -43.2001    11.5319    12.8729    16.2665     7.8565     2.4424     0.0352     0.1183   108.4405
  466.5000   -43.4001    11.5872    12.7090    15.7022     7.8511     2.4367     0.0379     0.1201   104.1573
  467.0000   -43.6044    11.2548    12.4696    15.3288     7.8449     2.4442     0.0443     0.1181   100.6521
  467.5000   -43.5897    11.0070    12.2012    14.8462     7.8391     2.4557     0.0508     0.1139   101.7868
  468.0000   -43.5288    10.5920    11.9534    15.1188     7.8383     2.4662     0.0523     0.1066   103.6026
  468.5000   -43.4675    10.1661    11.6996    14.9730     7.8616     2.4757     0.0532     0.1001   105.4356
  469.0000   -43.3261     9.7338    11.5822    14.6889     7.8896     2.4850     0.0540     0.0955   106.0226
  469.5000   -43.1169     9.7338    11.7907    14.5740     7.8987     2.4892     0.0549     0.0945   104.9915
  470.0000   -42.9163     9.8754    12.0051    14.7705     7.8983     2.4781     0.0551     0.0997   103.9782
  470.5000   -42.3039    10.2978    12.2429    14.9127     7.8836     2.4692     0.0507     0.1050   102.3045
  471.0000   -41.5241    10.6743    12.6670    15.0562     7.8761     2.4649     0.0462     0.1102    98.1514
  471.5000   -40.7338    11.0647    13.0548    15.2011     7.8605     2.4500     0.0418     0.1154    93.2900
  472.0000   -39.9452    11.4693    14.7222    15.3474     7.8445     2.4348     0.0456     0.1207    90.6528
  472.5000   -39.1872    11.7693    16.6179    15.7559     7.8286     2.4392     0.0504     0.1210    89.9644
  473.0000   -38.0531    12.0545    18.7577    16.2668     7.8190     2.4421     0.0553     0.1202    90.4578
  473.5000   -36.9041    12.3557    19.6504    16.9506     7.8191     2.4384     0.0602     0.1213    92.1513
