~VERSION INFORMATION
 VERS.                2.0:   CWLS LOG ASCII STANDARD - VERSION 2.0
 WRAP.                 NO:   ONE LINE PER DEPTH STEP
~WELL INFORMATION
#MNEM.UNIT      DATA TYPE    INFORMATION
#----------   ------------   ------------------------------
 STRT.F          648.0000:   START DEPTH
 STOP.F         2443.0000:   STOP DEPTH
 STEP.F            0.5000:   STEP LENGTH
 NULL.          -999.2500:   NO VALUE
 COMP.    FENIX & SCISSON:   COMPANY
 WELL.  NPR #3 SHX-11 #22:   WELL
 FLD .             TEAPOT:   FIELD
 LOC .      S11 T38N R78W:   LOCATION
 CNTY.            NATRONA:   COUNTY
 STAT.            WYOMING:   STATE
 CTRY. UNITED STATES OF AMERICA:   COUNTRY
 SRVC.           BIRDWELL:   SERVICE COMPANY
 DATE.        23-APR-1978:   LOGDATE
 API .       490251061300:   API NUMBER
~CURVE INFORMATION
#MNEM.UNIT       API CODE    CURVE DESCRIPTION
#----------   ------------   ------------------------------
 DEPT.F                  :   
 CALD.IN     45 280 60 00:   CALIPER FROM DENSITY LOG
 CORR.G/C3   45 356 01 00:   DENSITY CORRECTION
 DPHI.DEC    45 890 12 00:   DENSITY POROSITY SANDSTONE
 GRD .GAPI   45 310 01 00:   GAMMA RAY FROM DENSITY LOG
 RHOB.G/C3   45 350 01 00:   BULK DENSITY
~PARAMETER INFORMATION
#MNEM.UNIT          VALUE    DESCRIPTION
#----------   ------------   ------------------------------
 PD  .                 GL:   PERMANENT DATUM
 EPD .F              5166:   ELEVATION PERMANENT DATUM
 LMF .                 KB:   LOG MEASURED FROM
 DMF .                 KB:   DRILLING MEASURED FROM
 EKB .F              5176:   KELLING BUSHING
 EGL .F              5166:   GROUND LEVEL
 DATE.        23-APR-1978:   RUN DATE
 RUN .                  1:   RUN NUMBER
 DD  .F              2450:   DEPTH DRILLER
 DL  .F              2450:   DEPTH LOGGER
 BLI .F              2443:   BOTTOM LOG INTERVAL
 TLI .F               670:   TOP LOG INTERVAL
 CS  .IN            9.625:   CASING SIZE
 CBD .F               660:   CASING BOTTOM DRILLER
 CBL .F               670:   CASING BOTTOM LOGGER
 BS  .IN             8.75:   BIT SIZE
 BSD .F              2450:   BIT SIZE AT DEPTH
 DFT .               MIST:   DRILLING FLUID TYPE
 LUN .               2958:   LOGGING UNIT NUMBER
 LUL .             CASPER:   LOGGING UNIT LOCATION
 ENGI.             MILLER:   RECORDING ENGINEER
 WITN.          MC GINLEY:   WITNESSED BY
 CLNT.            A2DTECH:   CLIENT CODE
 ORIG.           5" PRINT:   ORIGIN OF DATA
 UWI .       490251061300:   UNIQUE WELL ID
 DICO. A2D Technologies, Inc.:   DIGITIZING COMPANY
~OTHER INFORMATION
~A   DEPT     CALD       CORR       DPHI        GRD       RHOB   
# ...
 1685.0000     9.1368     0.1720    -0.0152    97.6158     2.5770
 1685.5000     9.1524     0.1493    -0.0233    98.0600     2.6078
 1686.0000     9.1679     0.1176    -0.0019   101.2013     2.5800
 1686.5000     9.1833     0.0920     0.0017   105.2437     2.5470
 1687.0000     9.1988     0.0678     0.0014   106.5888     2.5447
 1687.5000     9.2144     0.0467     0.0020   105.9820     2.5515
 1688.0000     9.1998     0.0285     0.0045    99.8280     2.5597
 1688.5000     9.2002     0.0195     0.0099    95.1747     2.5500
 1689.0000     9.1856     0.0194     0.0009    99.5169     2.5402
 1689.5000     9.1560     0.0269    -0.0015   102.0640     2.5319
 1690.0000     9.1413     0.0313     0.0030   102.3542     2.5282
 1690.5000     9.1267     0.0298     0.0030   102.3471     2.5462
 1691.0000     9.1122     0.0252     0.0033   102.4914     2.5402
 1691.5000     9.1126     0.0234     0.0051   102.7897     2.5387
 1692.0000     9.1131     0.0205     0.0097   103.8281     2.5409
 1692.5000     9.1286     0.0220     0.0229   105.9214     2.5402
 1693.0000     9.1441     0.0249     0.0274   107.7163     2.5274
 1693.5000     9.1765     0.0296     0.0296   100.4945     2.5137
 1694.0000     9.2804     0.0369     0.0314    99.9061     2.4989
 1694.5000     9.4612     0.0489     0.0230    96.3022     2.4989
 1695.0000     9.6271     0.0563     0.0164    95.8482     2.5019
 1695.5000     9.7345     0.0462     0.0119    96.7486     2.5118
 1696.0000     9.7032     0.0246     0.0019    99.2824     2.5169
 1696.5000     9.4179     0.0396     0.0001   102.4252     2.5259
 1697.0000     9.5086     0.0380     0.0026   105.7179     2.5440
 1697.5000     9.6624     0.0349     0.0047   103.9832     2.5508
 1698.0000     9.7350     0.0364     0.0053   100.0085     2.5500
 1698.5000     9.3446     0.0423     0.0020   100.9024     2.5432
 1699.0000     9.3450     0.0498    -0.0004   106.2927     2.5394
 1699.5000     9.3467     0.0543    -0.0022   112.1341     2.5479
 1700.0000     9.3759     0.0482    -0.0031   118.8751     2.5552
 1700.5000     9.3761     0.0572    -0.0016   122.3177     2.5492
 1701.0000     9.3913     0.0661     0.0012   114.2147     2.5485
 1701.5000     9.4366     0.0721    -0.0027   112.7098     2.5508
 1702.0000     9.4668     0.0736    -0.0060   113.3039     2.5559
 1702.5000     9.4669     0.0660    -0.0048   115.5471     2.5620
 1703.0000     9.4370     0.0599    -0.0012   118.3887     2.5627
 1703.5000     9.3921     0.0537     0.0060   121.3815     2.5545
 1704.0000     9.2869     0.0372     0.0133   123.7747     2.5454
 1704.5000     9.2269     0.0266     0.0277   124.5187     2.5319
 1705.0000     9.2120     0.0280     0.0253   124.9628     2.5169
 1705.5000     9.1370     0.0264     0.0229   120.6079     2.5019
 1706.0000     9.0469     0.0188     0.0275   117.1357     2.5004
 1706.5000     9.0170     0.0128     0.0642   116.8287     2.4996
 1707.0000     9.1074     0.0112     0.0892   117.1214     2.4899
 1707.5000     9.1677     0.0096     0.1292   118.0120     2.4478
 1708.0000     9.1829     0.0126     0.1374   118.3065     2.4052
 1708.5000     9.1680     0.0261     0.0760   117.8478     2.3606
 1709.0000     9.1080     0.1345     0.0477   118.8901     2.3125
 1709.5000     9.0630     0.1601     0.0218   123.0809     2.3516
 1710.0000     9.0481     0.1780     0.0155   123.8233     2.4976
 1710.5000     9.1104     0.1795    -0.0001   122.4651     2.5056
 1711.0000     9.1838     0.1689    -0.0146   119.0096     2.5199
 1711.5000     9.2290     0.1430    -0.0055   109.4073     2.5710
 1712.0000     9.2442     0.0497     0.0008    98.6055     2.5800
 1712.5000     9.2594     0.0437    -0.0007    98.9232     2.5590
 1713.0000     9.2595     0.0466    -0.0046   101.4380     2.5485
 1713.5000     9.2597     0.0481    -0.0058   104.7292     2.5440
 1714.0000     9.2448     0.0540    -0.0012   108.1703     2.5569
 1714.5000     9.2149     0.0540    -0.0021   114.9098     2.5537
 1715.0000     9.1850     0.0599    -0.0048   117.1612     2.5507
 1715.5000     9.1851     0.0644    -0.0066   114.5938     2.5507
 1716.0000     9.2003     0.0643    -0.0069   103.1924     2.5561
 1716.5000     9.2305     0.0642    -0.0081   101.9858     2.5635
 1717.0000     9.2608     0.0642    -0.0087   102.4284     2.5687
 1717.5000     9.2759     0.0460    -0.0036   105.5697     2.5680
 1718.0000     9.3062     0.0384     0.0001   111.5577     2.5580
 1718.5000     9.3063     0.0413    -0.0020   113.9494     2.5515
 1719.0000     9.3065     0.0201    -0.0053   114.0939     2.5485
 1719.5000     9.3217     0.0245    -0.0080   113.9351     2.5470
 1720.0000     9.3218     0.0560    -0.0104   111.6790     2.5578
 1720.5000     9.3379     0.0740    -0.0104   108.8809     2.5650
 1721.0000     9.3672     0.0693    -0.0080   105.0662     2.5575
 1721.5000     9.3824     0.0557    -0.0056    97.1131     2.5733
 1722.0000     9.3224     0.0435    -0.0035    93.8075     2.5693
 1722.5000     9.2173     0.0284    -0.0004    93.7831     2.5672
 1723.0000     9.1874     0.0192     0.0029    95.3144     2.5650
 1723.5000     9.2176     0.0131     0.0053    97.6823     2.5552
 1724.0000     9.2478     0.0130     0.0077   100.2239     2.5470
 1724.5000     9.2931     0.0144     0.0023   102.1658     2.5440
 1725.0000     9.3233     0.0203     0.0011   103.0600     2.5372
 1725.5000     9.3385     0.0247     0.0051   102.5708     2.5379
 1726.0000     9.3236     0.0277     0.0072    94.4963     2.5492
 1726.5000     9.3087     0.0306     0.0084    89.2418     2.5409
 1727.0000     9.2638     0.0304     0.0030    92.2332     2.5379
 1727.5000     9.2338     0.0349    -0.0042    98.2230     2.5379
 1728.0000     9.2189     0.0453    -0.0052   106.4617     2.5537
 1728.5000     9.2342     0.0572    -0.0092   109.0015     2.5582
 1729.0000     9.2343     0.0536    -0.0062   108.8444     2.5680
 1729.5000     9.2645     0.0480    -0.0059   108.5374     2.5650
 1730.0000     9.2797     0.0464    -0.0062   108.0805     2.5594
 1730.5000     9.3099     0.0538    -0.0059   104.1753     2.5537
 1731.0000     9.3251     0.0432    -0.0014   101.5990     2.5590
 1731.5000     9.3554     0.0431    -0.0011    95.3136     2.5605
 1732.0000     9.3856     0.0429    -0.0008    92.7577     2.5612
 1732.5000     9.4158     0.0444    -0.0011    90.9515     2.5499
 1733.0000     9.4310     0.0473    -0.0023    90.7565     2.5477
 1733.5000     9.4612     0.0502    -0.0038    93.4024     2.5507
 1734.0000     9.4764     0.0531    -0.0062    98.1246     2.5575
 1734.5000     9.4465     0.0499    -0.0074   102.4653     2.5605
 1735.0000     9.3414     0.0453    -0.0086   108.4551     2.5589
 1735.5000     9.2362     0.0437    -0.0095   110.0989     2.5643
 1736.0000     9.1913     0.0466    -0.0070   107.0715     2.5680
 1736.5000     9.1764     0.0495     0.0016   104.2340     2.5620
 1737.0000     9.1916     0.0572     0.0071   105.2763     2.5139
 1737.5000     9.2369     0.0644     0.0074   102.5705     2.5071
 1738.0000     9.2671     0.0658     0.0059    98.0656     2.5298
 1738.5000     9.3123     0.0642     0.0065    98.3583     2.5297
 1739.0000     9.3426     0.0550     0.0170   104.8316     2.5319
 1739.5000     9.3728     0.0458     0.0191   108.8369     2.5349
 1740.0000     9.3729     0.0337     0.0134   113.6273     2.5289
 1740.5000     9.3430     0.0366     0.0086   100.7266     2.5162
 1741.0000     9.3112     0.0426     0.0038    96.8214     2.5255
 1741.5000     9.2531     0.0379     0.0137    99.3369     2.5372
 1742.0000     9.2232     0.0288     0.0083   104.0017     2.5364
 1742.5000     9.2082     0.0257     0.0113   104.8959     2.5259
 1743.0000     9.1934     0.0271     0.0122   103.2378     2.5214
 1743.5000     9.1935     0.0224     0.0116   100.8318     2.5259
 1744.0000     9.2087     0.0148     0.0147   102.2217     2.5289
 1744.5000     9.2540     0.0147     0.0176   105.4634     2.5267
 1745.0000     9.2993     0.0206     0.0134   108.0050     2.5229
 1745.5000     9.3445     0.0266     0.0074   111.2962     2.5177
