~VERSION INFORMATION
 VERS.                2.0:   CWLS LOG ASCII STANDARD - VERSION 2.0
 WRAP.                 NO:   ONE LINE PER DEPTH STEP
~WELL INFORMATION
#MNEM.UNIT      DATA TYPE    INFORMATION
#----------   ------------   ------------------------------
 STRT.F           19.5000:   START DEPTH
 STOP.F         1292.5000:   STOP DEPTH
 STEP.F            0.5000:   STEP LENGTH
 NULL.          -999.2500:   NO VALUE
 COMP. FENIX & SCISSON INC:   COMPANY
 WELL.  NPR-3 "SX" #74-14:   WELL
 FLD .             TEAPOT:   FIELD
 LOC .      S14 T38N R78W:   LOCATION
 CNTY.            NATRONA:   COUNTY
 STAT.            WYOMING:   STATE
 CTRY. UNITED STATES OF AMERICA:   COUNTRY
 SRVC.            Unknown:   SERVICE COMPANY
 DATE.        22-MAR-1978:   LOGDATE
 API .       490251060300:   API NUMBER
~CURVE INFORMATION
#MNEM.UNIT       API CODE    CURVE DESCRIPTION
#----------   ------------   ------------------------------
 DEPT.F                  :   
 SPR .MV     05 010 01 00:   SPONTANEOUS POTENTIAL
 SN  .OHMM   05 040 16 00:   SHORT NORMAL 16'
 ILD .OHMM   05 120 46 00:   INDUCTION LOG DEEP
 CALD.IN     45 280 60 00:   CALIPER
 GRD .GAPI   45 310 01 00:   GAMMA RAY FROM DENSITY LOG
 CORR.G/C3   45 356 01 00:   DENSITY CORRECTION
 RHOB.G/C3   45 350 01 00:   BULK DENSITY
 DPHI.DEC    45 890 12 00:   DENSITY POROSITY SANDSTONE
~PARAMETER INFORMATION
#MNEM.UNIT          VALUE    DESCRIPTION
#----------   ------------   ------------------------------
 PD  .                 GL:   PERMANENT DATUM
 EPD .F              5312:   ELEVATION PERMANENT DATUM
 LMF .                 KB:   LOG MEASURED FROM
 DMF .                 KB:   DRILLING MEASURED FROM
 EKB .F              5316:   KELLING BUSHING
 EGL .F              5312:   GROUND LEVEL
 DATE.          3-22-1978:   RUN DATE
 RUN .                  1:   RUN NUMBER
 DD  .F              1280:   DEPTH DRILLER
 DL  .F              1292:   DEPTH LOGGER
 BLI .F              1286:   BOTTOM LOG INTERVAL
 TLI .F                50:   TOP LOG INTERVAL
 CS  .IN            8.625:   CASING SIZE
 CBD .F                50:   CASING BOTTOM DRILLER
 CBL .F                50:   CASING BOTTOM LOGGER
 BS  .IN            7.875:   BIT SIZE
 BSD .F              1280:   BIT SIZE AT DEPTH
 DFT .                KCL:   DRILLING FLUID TYPE
 DFD .                8.6:   DRILLING FLUID DENSITY
 DFV .                 31:   DRILLING FLUID VISCOSITY
 DFPH.               10.5:   DRILLING FLUID PH
 DFL .               11.6:   DRILLING FLUID LOSS
 MSS .            MUD PIT:   MUD SAMPLE SOURCE
 RMS .OHMM            .38:   RESISTIVITY MUD SAMPLE
 MST .F                52:   MUD SAMPLE TEMPERATURE
 RMF .OHMM            .32:   RESISTIVITY MUD FILTRATE SAMPLE
 MFST.F                66:   MUD FILTRATE SAMPLE TEMPERATURE
 RMC .OHMM             .4:   RESISTIVITY MUD CAKE
 MCST.F                68:   MUD CAKE SAMPLE TEMPERATURE
 MFSS.           MEASURED:   MUD FILTRATE SAMPLE SOURCE
 RMB .OHMM            .24:   RESISTIVITY MUD AT BHT
 BHT .F                82:   BOTTOM HOLE TEMPERATURE
 TCS .HRS               4:   TIME CURCULATED STOPPED
 MRT .F                82:   MAXIMUM RECORDED TEMPERATURE
 LUN .               2958:   LOGGING UNIT NUMBER
 LUL .               CASP:   LOGGING UNIT LOCATION
 ENGI.            POINTER:   RECORDING ENGINEER
 WITN.           MCGINLEY:   WITNESSED BY
 CLNT.            A2DTECH:   CLIENT CODE
 ORIG.        2" 5" PRINT:   ORIGIN OF DATA
 UWI .       490251060300:   UNIQUE WELL ID
 DICO. A2D Technologies, Inc.:   DIGITIZING COMPANY
~OTHER INFORMATION
~A   DEPT      SPR         SN        ILD       CALD         GRD      CORR       RHOB       DPHI   
# ...
  667.5000   -51.2186     6.8149     6.5546     8.2034    97.8610     0.0374     2.4417     0.1096
  668.0000   -51.2655     6.9274     6.5471     8.2026   100.2831     0.0342     2.4440     0.1074
  668.5000   -50.4162     6.8475     6.5372     8.2019    98.0993     0.0296     2.4447     0.1154
  669.0000   -49.7209     6.7406     6.5272     8.2012    88.7448     0.0290     2.4386     0.1225
  669.5000   -49.9609     6.6355     6.5174     8.2005    83.7262     0.0284     2.4277     0.1301
  670.0000   -49.9757     6.5318     6.5074     8.1998    82.7083     0.0293     2.4132     0.1348
  670.5000   -49.3913     6.4300     6.4976     8.1990    83.4192     0.0341     2.4056     0.1412
  671.0000   -49.1132     6.3297     6.4944     8.1983    83.5091     0.0387     2.3993     0.1475
  671.5000   -49.0987     6.2292     6.5145     8.1862    83.8458     0.0432     2.3889     0.1549
  672.0000   -49.2076     6.1013     6.5331     8.1644    89.4142     0.0479     2.3779     0.1637
  672.5000   -49.3451     5.9760     6.5546     8.1426    96.7986     0.0537     2.3589     0.1747
  673.0000   -49.4832     5.8534     5.9994     8.1206   102.1089     0.0681     2.3386     0.1869
  673.5000   -49.6211     5.6700     5.2318     8.0987   109.9611     0.0827     2.3181     0.2015
  674.0000   -49.7590     5.2948     4.5623     8.0793   112.2111     0.0920     2.2961     0.2192
  674.5000   -49.8969     4.6887     3.9841     8.0788   112.0513     0.0958     2.2595     0.2461
  675.0000   -50.0349     4.0169     3.4241     8.0787   109.8335     0.0959     2.2192     0.2707
  675.5000   -50.1723     3.4413     2.9377     8.0784   106.7159     0.0957     2.1791     0.2927
  676.0000   -50.2982     2.9390     2.5126     8.0782    97.6121     0.0841     2.1390     0.3022
  676.5000   -50.4737     2.5844     2.3206     8.0779    92.1798     0.0490     2.1061     0.3116
  677.0000   -50.6715     2.3539     2.1284     8.0777    89.5846     0.0448     2.0928     0.3211
  677.5000   -50.8686     2.3126     2.0514     8.0774    85.9216     0.0407     2.0904     0.2980
  678.0000   -50.8117     2.3991     2.1839     8.0772    84.4714     0.0343     2.1117     0.2533
  678.5000   -50.7121     2.5199     2.3461     8.0769    83.9033     0.1132     2.1874     0.1943
  679.0000   -50.6146     2.6953     2.6176     8.0767    83.3792     0.1275     2.2577     0.1271
  679.5000   -50.5418     3.2876     2.9238     8.0765    83.5090     0.1314     2.4052     0.1280
  680.0000   -49.6810     4.0101     3.2279     8.0762    84.0721     0.1267     2.4156     0.1300
  680.5000   -48.7138     4.8914     4.1013     8.0759    84.8435     0.1136     2.4075     0.1318
  681.0000   -48.2796     5.7862     5.0969     8.0757    84.8006     0.0892     2.4054     0.1401
  681.5000   -48.6859     6.6805     6.3325     8.0754    80.5877     0.0628     2.3996     0.1489
  682.0000   -47.9189     7.1681     7.8735     8.0752    78.8892     0.0441     2.3811     0.1521
  682.5000   -47.4420     7.6695     8.8752     8.0750    82.0344     0.0351     2.3695     0.1551
  683.0000   -46.9883     7.6253     9.5655     8.0747    82.0316     0.0281     2.3665     0.1581
  683.5000   -46.5308     7.5776     8.9125     8.0745    86.0550     0.0241     2.3635     0.1644
  684.0000   -46.5536     7.5325     7.9215     8.0742    96.0702     0.0247     2.3523     0.1719
  684.5000   -46.6013     7.1780     6.9945     8.0740   114.2233     0.0254     2.3384     0.1795
  685.0000   -46.6469     6.8086     6.1759     8.0737   113.3949     0.0176     2.3305     0.1866
  685.5000   -46.6911     6.1287     5.4531     8.0735   102.6914    -0.0023     2.3200     0.1965
  686.0000   -46.8053     5.4335     4.9252     8.0732    90.6280    -0.0236     2.3057     0.2128
  686.5000   -47.1022     4.9199     4.9497     8.0730    80.4441    -0.0137     2.2759     0.1996
  687.0000   -47.7821     4.9543     4.9749     8.0727    78.9860     0.0058     2.2739     0.1674
  687.5000   -48.4416     4.9846     5.0002     8.0725    76.2944     0.0179     2.3410     0.1462
  688.0000   -49.0944     5.0168     5.0644     8.0722    74.7837     0.0179     2.3861     0.1427
  688.5000   -49.7474     5.7258     5.4137     8.0720    75.3098     0.0209     2.3870     0.1435
  689.0000   -49.5539     6.5897     5.7871     8.0717    78.1810     0.0284     2.3850     0.1441
  689.5000   -48.4266     7.3250     6.5667     8.0715    79.4529     0.0357     2.3896     0.1411
  690.0000   -47.2556     7.7096     7.8818     8.0712    79.5626     0.0357     2.3956     0.1380
  690.5000   -46.9679     7.9415     9.4603     8.0710    80.3961     0.0353     2.4008     0.1383
  691.0000   -47.0276     8.1797     9.7436     8.0707    81.8538     0.0350     2.3974     0.1401
  691.5000   -47.1279     8.4072     9.7436     8.0705    83.4620     0.0347     2.3939     0.1418
  692.0000   -46.2803     8.5756     9.7902     8.0702    83.5149     0.0344     2.3872     0.1436
  692.5000   -45.3322     8.7735     9.8914     8.0700    81.6805     0.0341     2.3811     0.1469
  693.0000   -44.8787     8.9760     9.9937     8.0697    79.7377     0.0341     2.3801     0.1471
  693.5000   -44.4384     9.1832    10.0970     8.0695    79.3384     0.0344     2.3793     0.1473
  694.0000   -43.7285     9.3046    10.2014     8.0692    79.5423     0.0347     2.3808     0.1454
  694.5000   -43.0195     9.3908    10.3068     8.0690    82.5708     0.0350     2.3865     0.1433
  695.0000   -42.7864     9.3900    10.4134     8.0687    84.6610     0.0353     2.3851     0.1446
  695.5000   -42.8716     9.4154    10.5210     8.0685    84.8160     0.0357     2.3839     0.1460
  696.0000   -42.8945     9.4358    10.6298     8.0682    84.1567     0.0361     2.3849     0.1480
  696.5000   -42.6818     9.4566    10.7397     8.0680    83.9036     0.0377     2.3858     0.1468
  697.0000   -42.4704     9.4778    10.8507     8.0677    85.8583     0.0393     2.3869     0.1425
  697.5000   -42.3157     9.5697    10.9629     8.0675    85.4268     0.0408     2.3888     0.1373
  698.0000   -42.2753     9.7376    11.0762     8.0673    81.3043     0.0403     2.3976     0.1341
  698.5000   -42.2340     9.9083    11.1907     8.0670    77.4976     0.0342     2.4042     0.1317
  699.0000   -42.1951    10.0821    11.2923     8.0668    77.4635     0.0339     2.4056     0.1353
  699.5000   -42.1552    10.2032    11.3760     8.0665    79.5249     0.0340     2.4050     0.1419
  700.0000   -42.3297    10.2169    11.4939     8.0663    81.9290     0.0334     2.3980     0.1491
  700.5000   -42.3338    10.2319    11.6129     8.0660    84.4566     0.0230     2.3827     0.1557
  701.0000   -42.3307    10.2470    11.7332     8.0658    85.3907     0.0197     2.3754     0.1583
  701.5000   -42.3311    10.2621    11.8548     8.0655    85.4645     0.0164     2.3682     0.1607
  702.0000   -42.3870    10.2772    11.9776     8.0653    85.5063     0.0129     2.3611     0.1631
  702.5000   -42.5112    10.2924    12.0506     8.0650    83.1350     0.0158     2.3550     0.1650
  703.0000   -42.6362    10.3412    12.0726     8.0648    80.4702     0.0201     2.3526     0.1649
  703.5000   -42.7153    10.4089    12.0947     8.0645    80.1597     0.0200     2.3511     0.1588
  704.0000   -42.1578    10.4769    12.1168     8.0643    80.4700     0.0237     2.3610     0.1531
  704.5000   -41.8148    10.5455    12.1408     8.0640    80.7672     0.0318     2.3688     0.1475
  705.0000   -41.6154    10.6145    12.1593     8.0638    79.8430     0.0326     2.3742     0.1443
  705.5000   -41.4184    10.6846    12.4481     8.0635    77.5893     0.0331     2.3904     0.1428
  706.0000   -41.0217    10.8915    12.6718     8.0633    79.3554     0.0337     2.3918     0.1412
  706.5000   -40.4624    11.1598    12.9002     8.0630    81.7093     0.0360     2.3930     0.1347
  707.0000   -40.4882    11.4348    13.1327     8.0628    82.4566     0.0394     2.4001     0.1269
  707.5000   -40.6796    11.7165    13.3685     8.0625    84.2153     0.0368     2.4125     0.1191
