~VERSION INFORMATION
 VERS.                2.0:   CWLS LOG ASCII STANDARD - VERSION 2.0
 WRAP.                 NO:   ONE LINE PER DEPTH STEP
~WELL INFORMATION
#MNEM.UNIT      DATA TYPE    INFORMATION
#----------   ------------   ------------------------------
 STRT.F           60.0000:   START DEPTH
 STOP.F         1143.0000:   STOP DEPTH
 STEP.F            0.5000:   STEP LENGTH
 NULL.          -999.2500:   NO VALUE
 COMP. U S NAVY-INTEX OIL:   COMPANY
 WELL.    N.P.R . 3 #63-2:   WELL
 FLD .             TEAPOT:   FIELD
 LOC .       S2 T38N R78W:   LOCATION
 CNTY.            NATRONA:   COUNTY
 STAT.            WYOMING:   STATE
 CTRY. UNITED STATES OF AMERICA:   COUNTRY
 SRVC. Schlumberger Well Surveying Corp:   SERVICE COMPANY
 DATE.        24-MAY-1964:   LOGDATE
 API .       490250645500:   API NUMBER
~CURVE INFORMATION
#MNEM.UNIT       API CODE    CURVE DESCRIPTION
#----------   ------------   ------------------------------
 DEPT.F                  :   
 SPR .MV     05 010 01 00:   SPONTANEOUS POTENTIAL FROM RES.
 ASN .OHMM   05 041 16 00:   AMPLIFIED SHORT NORMAL 16"
 ILD .OHMM   05 120 46 00:   INDUCTION LOG DEEP
 CILD.MMHO   05 110 46 00:   CONDUCTIVITY INDUCTION LOG DEEP
 CALS.IN     60 280 50 00:   CALIPER FROM SONIC LOG
 DT  .US/F   60 520 33 00:   INTERVAL TRANSIT TIME
~PARAMETER INFORMATION
#MNEM.UNIT          VALUE    DESCRIPTION
#----------   ------------   ------------------------------
 PD  .                 GL:   PERMANENT DATUM
 EPD .F              5181:   ELEVATION PERMANENT DATUM
 LMF .                 KB:   LOG MEASURED FROM
 DAPD.F                 5:   FEET ABOVE PERMANENT DATUM
 DMF .                 KB:   DRILLING MEASURED FROM
 EKB .F              5186:   KELLING BUSHING
 EGL .F              5181:   GROUND LEVEL
 DATE.        24-MAY-1964:   RUN DATE
 RUN .                  1:   RUN NUMBER
 DD  .F              1140:   DEPTH DRILLER
 DL  .F              1144:   DEPTH LOGGER
 BLI .F              1143:   BOTTOM LOG INTERVAL
 TLI .F                82:   TOP LOG INTERVAL
 CS  .IN            8.625:   CASING SIZE
 CBD .F                10:   CASING BOTTOM DRILLER
 BS  .IN            7.875:   BIT SIZE
 BSD .F              1140:   BIT SIZE AT DEPTH
 DFT .            GEL/OIL:   DRILLING FLUID TYPE
 DFD .                9.0:   DRILLING FLUID DENSITY
 DFV .                 63:   DRILLING FLUID VISCOSITY
 DFPH.                8.0:   DRILLING FLUID PH
 DFL .                7.6:   DRILLING FLUID LOSS
 MSS .           FLOWLINE:   MUD SAMPLE SOURCE
 RMS .OHMM           0.87:   RESISTIVITY MUD SAMPLE
 MST .F                84:   MUD SAMPLE TEMPERATURE
 RMF .OHMM           0.43:   RESISTIVITY MUD FILTRATE SAMPLE
 MFST.F                84:   MUD FILTRATE SAMPLE TEMPERATURE
 RMC .OHMM           1.52:   RESISTIVITY MUD CAKE
 MCST.F                84:   MUD CAKE SAMPLE TEMPERATURE
 MFSS.                 FP:   MUD FILTRATE SAMPLE SOURCE
 MCSS.                 FP:   MUD CAKE SAMPLE SOURCE
 TCS .HRS               2:   TIME CURCULATED STOPPED
 LUN .               4507:   LOGGING UNIT NUMBER
 LUL .               CSPR:   LOGGING UNIT LOCATION
 ENGI.             DANNER:   RECORDING ENGINEER
 WITN.          JORGENSEN:   WITNESSED BY
 CLNT.            A2DTECH:   CLIENT CODE
 ORIG.       2", 5" PRINT:   ORIGIN OF DATA
 UWI .       490250645500:   UNIQUE WELL ID
 DICO. A2D Technologies, Inc.:   DIGITIZING COMPANY
~OTHER INFORMATION
~A   DEPT      SPR          ASN        ILD      CILD      CALS         DT   
# ...
  892.0000   -42.3555     9.3652     7.1321   144.1364     7.8381    95.5094
  892.5000   -42.2024     9.3382     7.0452   146.1093     7.8232    95.7247
  893.0000   -42.2003     9.1851     6.9820   147.4859     7.8236    95.8181
  893.5000   -42.1980     9.0819     6.9069   148.9985     7.8239    95.8771
  894.0000   -42.0447     9.0341     6.8318   149.7693     7.8242    95.8778
  894.5000   -42.0429     9.0097     6.8318   150.9890     7.8245    95.7276
  895.0000   -42.0405     8.9853     6.8318   152.1033     7.8248    95.5774
  895.5000   -41.8878     8.9596     6.7196   152.5958     7.8099    95.2008
  896.0000   -41.7349     8.9515     6.6737   153.0883     7.8103    94.8997
  896.5000   -41.7323     8.9098     6.6066   153.6573     7.8257    94.8249
  897.0000   -41.5798     8.8243     6.5315   156.5967     7.8260    94.7502
  897.5000   -41.4269     8.6782     6.3814   160.6678     7.8263    94.7509
  898.0000   -41.4247     8.4932     6.1481   167.1391     7.8266    94.8333
  898.5000   -41.2719     8.3138     5.8187   182.9819     7.8117    95.5243
  899.0000   -41.2693     8.1419     5.4805   186.2276     7.8121    96.2628
  899.5000   -41.3261     7.8792     5.3303   189.8758     7.7821    96.4899
  900.0000   -41.5517     7.6338     5.2553   193.5240     7.7673    96.6984
  900.5000   -41.7686     7.3667     5.1511   194.2771     7.7675    97.3953
  901.0000   -41.8645     7.0995     5.1035   194.2771     7.7676    98.6808
  901.5000   -42.0898     6.8686     5.1780   194.2771     7.7678    99.7382
  902.0000   -42.3134     6.7992     5.2593   193.0475     7.7680   100.3427
  902.5000   -42.3115     7.1277     5.4766   187.5000     7.7681   100.5699
  903.0000   -42.3103     7.4260     5.6722   181.9078     7.7683   100.0423
  903.5000   -42.3087     7.7134     6.0007   176.2048     7.7836    99.3638
  904.0000   -42.3072     7.9245     6.0780   171.4260     7.7837    98.6853
  904.5000   -42.3057     8.0387     6.2340   167.6183     7.7839    98.0068
  905.0000   -42.3040     8.1235     6.4488   164.1566     7.7840    97.7434
  905.5000   -42.3027     8.2084     6.5488   162.0004     7.7842    98.5366
  906.0000   -42.3012     8.2975     6.5976   160.2857     7.7843    99.0657
  906.5000   -42.2997     8.3205     6.6384   157.1359     7.7845    98.8400
  907.0000   -42.1476     8.3446     6.6712   155.1205     7.7846    98.2370
  907.5000   -42.1460     8.3572     6.6703   155.1205     7.7848    97.7849
  908.0000   -41.9940     8.3989     6.6697   155.1205     7.7849    98.2385
  908.5000   -41.9785     8.4171     6.6689   156.7182     7.7851    98.4657
  909.0000   -41.8401     8.4318     6.6241   158.1325     7.7701    98.5419
  909.5000   -41.8389     8.4317     6.5633   159.4153     7.7703    98.4672
  910.0000   -41.8373     8.4166     6.3663   161.8976     7.7704    98.6943
  910.5000   -41.8359     8.2090     6.1684   165.4707     7.7706    99.4523
  911.0000   -41.8585     7.7168     5.7612   170.0203     7.7858    99.9059
  911.5000   -41.9834     7.5766     5.3056   177.7108     7.7860    99.9796
  912.0000   -41.8314     7.5459     4.8859   194.5210     7.7861    99.7539
  912.5000   -41.8298     7.3965     4.4857   212.5481     7.7863   100.3711
  913.0000   -41.7360     7.1020     4.2688   230.5751     7.7864   100.8876
  913.5000   -41.6762     6.8096     4.1054   248.6022     7.7866   100.5688
  914.0000   -41.6746     6.4415     4.0330   254.5181     7.7867   100.0488
  914.5000   -41.5226     6.0734     3.9572   253.7651     7.7869   100.3088
  915.0000   -41.3704     5.7053     3.9564   253.4263     7.7870   104.1484
  915.5000   -41.3687     5.3958     3.9557   252.2102     7.7872   106.4976
  916.0000   -41.2168     5.3567     4.0360   246.9879     7.7873   107.4583
  916.5000   -41.2153     5.4483     4.2544   235.0650     7.7875   107.3081
  917.0000   -41.2138     5.7771     4.6641   214.6084     7.8027   107.1577
  917.5000   -41.0618     6.7806     5.1539   199.1073     7.8029   106.5549
  918.0000   -41.0600     7.1307     5.5305   185.3617     7.8031   103.1594
  918.5000   -40.9081     7.4219     5.9202   177.2462     7.8032   101.1979
  919.0000   -40.7560     7.7698     6.2026   169.4277     7.8034   100.5194
  919.5000   -40.6039     7.9547     6.3261   164.9436     7.8035   100.3692
  920.0000   -40.7532     8.2343     6.5765   161.1446     7.8037   100.4454
  920.5000   -40.9019     8.4030     6.6915   158.0597     7.8189   100.5216
  921.0000   -41.0512     8.5582     6.8113   154.8748     7.8191   100.2960
  921.5000   -41.3509     8.8037     6.8746   152.1084     7.8343    99.4665
  922.0000   -41.4478     8.9295     6.9759   150.3061     7.8344    98.7880
  922.5000   -41.6493     9.0595     7.0233   149.0900     7.8497    98.4112
  923.0000   -41.6475     9.1565     7.0976   147.8740     7.8499    98.1103
  923.5000   -41.6461     9.2269     7.1720   146.6579     7.8651    98.9412
  924.0000   -41.6446     9.2529     7.1711   146.0843     7.8653    99.2439
  924.5000   -41.6428     9.2752     7.1704   146.0843     7.8654    99.0935
  925.0000   -41.6416     9.2994     7.1697   146.0215     7.8807    99.0188
  925.5000   -41.6400     9.3425     7.2440   145.3313     7.8809    99.4725
  926.0000   -41.4879     9.3830     7.2432   144.3424     7.8810    99.8506
  926.5000   -41.3358     9.4322     7.2424   143.0723     7.8812    99.3986
  927.0000   -41.1835     9.5038     7.3168   142.6632     7.8813    99.0220
  927.5000   -41.0316     9.5765     7.3161   142.2001     7.8663    98.7208
  928.0000   -40.8774     9.6568     7.3153   140.8132     7.8665    98.3442
  928.5000   -40.6331     9.7069     7.3146   140.8132     7.8515    97.1374
  929.0000   -40.5753     9.7765     7.3137   140.8132     7.8517    95.7042
  929.5000   -40.7243     9.7464     7.3131   140.3477     7.8518    95.4784
  930.0000   -40.7932     9.6436     7.3123   140.0602     7.8520    95.5548
  930.5000   -41.0227     9.4608     7.3116   140.0602     7.8370    95.7819
  931.0000   -41.1714     9.2503     7.3108   140.0602     7.8372    95.8580
  931.5000   -41.3211     9.1039     7.3100   140.9308     7.8373    95.4061
  932.0000   -41.4698     8.9662     7.2723   144.5783     7.8223    95.1802
  932.5000   -41.6190     8.8171     7.1509   148.5196     7.7923    94.8792
  933.0000   -41.6175     8.5198     6.9323   155.1205     7.7622    94.3517
  933.5000   -41.6157     8.2225     6.6359   162.1867     7.7473    94.8808
  934.0000   -41.5582     7.9252     6.1801   174.3477     7.7475    94.8815
  934.5000   -41.4623     7.6280     5.6064   188.2530     7.7627    94.9804
  935.0000   -41.3705     7.3009     4.9331   207.9144     7.7629    97.3107
  935.5000   -41.2766     6.7147     4.3982   252.6661     7.7630    98.4586
  936.0000   -41.0059     6.1285     3.8632   297.4178     7.7783    99.4884
  936.5000   -40.9382     5.5423     3.3283   342.7067     7.7935   101.4515
  937.0000   -40.7018     4.9560     2.7934   391.2590     7.7937   104.0183
  937.5000   -40.4995     4.4909     2.3836   439.8114     7.7787   105.9813
  938.0000   -40.3554     4.1752     1.9699   472.4160     7.7033   108.0952
  938.5000   -40.0948     3.8595     1.7905   486.1672     7.5524   114.7375
  939.0000   -39.7921     3.5437     1.7432   499.9184     7.5374   119.8703
  939.5000   -39.6401     3.2973     1.6674   484.7420     7.5981   123.1918
  940.0000   -39.6383     3.2564     1.7418   461.1685     7.6737   125.3058
  940.5000   -39.7877     3.2371     1.8911   435.2042     7.7494   124.0235
  941.0000   -39.7861     3.3057     2.3019   385.6204     7.8100   124.3262
  941.5000   -40.0215     3.7757     2.9497   336.5726     7.8252   121.8363
  942.0000   -40.2631     4.3530     3.6728   296.7019     7.8405   114.9692
  942.5000   -40.3840     5.0058     4.3781   268.4684     7.8558   109.8378
  943.0000   -40.4448     5.8814     5.0405   222.6694     7.8710   106.9707
  943.5000   -40.6823     6.4038     5.3321   202.7616     7.8863   106.8958
