~VERSION INFORMATION
 VERS.                2.0:   CWLS LOG ASCII STANDARD - VERSION 2.0
 WRAP.                 NO:   ONE LINE PER DEPTH STEP
~WELL INFORMATION
#MNEM.UNIT      DATA TYPE    INFORMATION
#----------   ------------   ------------------------------
 STRT.F           31.0000:   START DEPTH
 STOP.F          590.0000:   STOP DEPTH
 STEP.F            0.1000:   STEP LENGTH
 NULL.          -999.2500:   NO VALUE
 COMP. LAWRENCE/ALLISON INC:   COMPANY
 WELL. NPR 3 73-61 SX #3-3:   WELL
 FLD .             TEAPOT:   FIELD
 LOC .       S3 T38N R78W:   LOCATION
 CNTY.            NATRONA:   COUNTY
 STAT.            WYOMING:   STATE
 CTRY. UNITED STATES OF AMERICA:   COUNTRY
 SRVC.           Gearhart:   SERVICE COMPANY
 DATE.        14-AUG-1988:   LOGDATE
 API .       490251124200:   API NUMBER
~CURVE INFORMATION
#MNEM.UNIT       API CODE    CURVE DESCRIPTION
#----------   ------------   ------------------------------
 DEPT.F                  :   
 GRR .GAPI   07 310 01 00:   GAMMA RAY
 RILD.OHMM   07 120 46 00:   INDUCTION LOG DEEP RESISTIVITY
 RILM.OHMM   07 120 44 00:   INDUCTION LOG MEDIUM RESISTIVITY
~PARAMETER INFORMATION
#MNEM.UNIT          VALUE    DESCRIPTION
#----------   ------------   ------------------------------
 PD  .                 GL:   PERMANENT DATUM
 EPD .F              5136:   ELEVATION PERMANENT DATUM
 LMF .                 KB:   LOG MEASURED FROM
 DAPD.F                10:   FEET ABOVE PERMANENT DATUM
 DMF .                 KB:   DRILLING MEASURED FROM
 EKB .F              5146:   KELLING BUSHING
 EDF .F              5144:   DRILLING FLOOR
 EGL .F              5136:   GROUND LEVEL
 DATE.        14-AUG-1988:   RUN DATE
 RUN .                  1:   RUN NUMBER
 DD  .F               597:   DEPTH DRILLER
 DL  .F               598:   DEPTH LOGGER
 BLI .F               590:   BOTTOM LOG INTERVAL
 TLI .F                50:   TOP LOG INTERVAL
 CS  .IN            9.625:   CASING SIZE
 CBD .F                50:   CASING BOTTOM DRILLER
 CBL .F                50:   CASING BOTTOM LOGGER
 BS  .IN             8.75:   BIT SIZE
 BSD .F               597:   BIT SIZE AT DEPTH
 DFT .                AIR:   DRILLING FLUID TYPE
 TCS .HRS            1930:   TIME CURCULATED STOPPED
 TLAB.HRS            2030:   TIME LOGGER AT BOTTOM
 MRT .F                70:   MAXIMUM RECORDED TEMPERATURE
 LUN .               7597:   LOGGING UNIT NUMBER
 LUL .           GILLETTE:   LOGGING UNIT LOCATION
 ENGI.         WEATHERMON:   RECORDING ENGINEER
 WITN.             STRONG:   WITNESSED BY
 CLNT.            A2DTECH:   CLIENT CODE
 ORIG.           5" PRINT:   ORIGIN OF DATA
 UWI .       490251124200:   UNIQUE WELL ID
 DICO. A2D Technologies, Inc.:   DIGITIZING COMPANY
~OTHER INFORMATION
~A   DEPT       GRR      RILD       RILM   
# ...
  358.6000   126.0437     7.1313     6.6370
  358.7000   125.8138     7.0957     6.5990
  358.8000   125.7499     7.0552     6.5317
  358.9000   125.8777     7.0150     6.4574
  359.0000   126.1288     6.9750     6.3840
  359.1000   126.4067     6.9343     6.3160
  359.2000   127.2781     6.8956     6.2763
  359.3000   127.6917     6.8563     6.2118
  359.4000   128.1897     6.8172     6.1649
  359.5000   128.8769     6.7783     6.1296
  359.6000   129.7901     6.7396     6.0944
  359.7000   130.3199     6.6957     6.0594
  359.8000   131.0175     6.6630     6.0246
  359.9000   131.7624     6.6250     5.9900
  360.0000   132.6282     6.6024     5.9556
  360.1000   133.6206     6.5952     5.9331
  360.2000   134.6127     6.5561     5.9284
  360.3000   135.7838     6.5557     5.8911
  360.4000   136.5959     6.5282     5.8907
  360.5000   137.5880     6.4909     5.8902
  360.6000   138.5799     6.4539     5.8897
  360.7000   139.4984     6.4171     5.8892
  360.8000   140.0342     6.3745     5.8887
  360.9000   140.2664     6.3742     5.8882
  361.0000   140.3444     6.3519     5.8877
  361.1000   140.2305     6.3156     5.8872
  361.2000   139.9249     6.2853     5.8983
  361.3000   139.4355     6.2850     5.9273
  361.4000   138.8516     6.2513     5.9267
  361.5000   138.4563     6.2409     5.9566
  361.6000   137.9667     6.2233     5.9670
  361.7000   137.4771     6.1971     5.9820
  361.8000   136.9872     6.1953     6.0075
  361.9000   136.4554     6.1535     6.0070
  362.0000   136.0080     6.1532     6.0065
  362.1000   135.5186     6.1323     6.0060
  362.2000   135.0290     6.1100     6.0249
  362.3000   134.4191     6.1047     6.0468
  362.4000   133.4402     6.0671     6.0462
  362.5000   132.7038     6.0668     6.0457
  362.6000   131.9676     6.0427     6.0453
  362.7000   131.3724     6.0241     6.0448
  362.8000   130.7963     6.0155     6.0443
  362.9000   130.1217     5.9819     6.0438
  363.0000   129.8554     5.9816     6.0433
  363.1000   129.8592     5.9543     6.0427
  363.2000   130.0311     5.9395     6.0422
  363.3000   130.3947     5.9392     6.0417
  363.4000   130.8928     5.9348     6.0412
  363.5000   131.3926     5.8975     6.0367
  363.6000   132.1380     5.8972     5.9984
  363.7000   132.4953     5.8744     5.9980
  363.8000   133.0236     5.8558     5.9747
  363.9000   133.6019     5.8554     5.9404
  364.0000   133.8812     5.8551     5.9063
  364.1000   134.4337     5.8218     5.8721
  364.2000   134.6574     5.8140     5.8055
  364.3000   134.9084     5.8137     5.7396
  364.4000   135.1596     5.8134     5.6744
  364.5000   135.4109     5.8131     5.5992
  364.6000   135.6629     5.8127     5.5076
  364.7000   135.6671     5.8124     5.4384
  364.8000   135.8622     5.8121     5.3562
  364.9000   135.9776     5.8118     5.3054
  365.0000   136.0624     5.8114     5.2616
  365.1000   136.2882     5.8111     5.2084
  365.2000   136.2930     5.8108     5.1784
  365.3000   136.2967     5.8105     5.1196
  365.4000   136.4628     5.8101     5.0838
  365.5000   136.6072     5.8098     5.0547
  365.6000   136.6115     5.8095     5.0257
  365.7000   136.6158     5.8091     5.0000
  365.8000   136.6199     5.8088     4.9995
  365.9000   136.4361     5.8085     4.9740
  366.0000   136.3263     5.8082     4.9831
  366.1000   136.2528     5.8078     5.0110
  366.2000   135.9651     5.8075     5.0391
  366.3000   135.1311     5.8073     5.0673
  366.4000   134.4914     5.8070     5.0958
  366.5000   133.7549     5.8066     5.1243
  366.6000   133.0187     5.8063     5.1530
  366.7000   132.2338     5.8060     5.1918
  366.8000   131.2243     5.8056     5.2473
  366.9000   130.2667     5.8329     5.2799
  367.0000   129.6536     5.8454     5.3062
  367.1000   129.1638     5.8709     5.3562
  367.2000   128.5990     5.9319     5.4169
  367.3000   127.9023     5.9673     5.4783
  367.4000   127.6248     5.9988     5.5403
  367.5000   127.2054     6.0326     5.6030
  367.6000   126.8722     6.0665     5.6665
  367.7000   126.6295     6.1098     5.7307
  367.8000   126.4318     6.1775     5.7957
  367.9000   126.4370     6.2187     5.8612
  368.0000   126.2035     6.2473     5.9352
  368.1000   125.9606     6.3036     5.9948
  368.2000   125.8453     6.3750     6.0399
  368.3000   125.7775     6.4420     6.0891
  368.4000   125.5514     6.4812     6.1580
  368.5000   125.5565     6.5488     6.2279
  368.6000   125.5601     6.6231     6.2983
  368.7000   125.7179     6.6802     6.3696
  368.8000   125.8707     6.7177     6.4621
  368.9000   125.9179     6.7563     6.5600
  369.0000   126.1815     6.8330     6.6303
  369.1000   126.1855     6.8793     6.6718
  369.2000   126.1897     6.9180     6.7387
  369.3000   126.1939     6.9569     6.7894
  369.4000   126.1982     6.9912     6.8274
  369.5000   126.2165     6.9907     6.8657
  369.6000   126.5095     7.0260     6.9044
  369.7000   126.5130     7.0386     6.9038
  369.8000   126.5172     7.0562     6.9335
  369.9000   126.5214     7.0868     6.9507
  370.0000   126.5257     7.0864     6.9501
  370.1000   126.5302     7.0860     6.9495
  370.2000   126.5341     7.0546     6.9489
  370.3000   126.5383     7.0363     6.9484
  370.4000   126.5426     7.0229     6.9220
  370.5000   126.4804     6.9828     6.8822
  370.6000   126.2487     6.9382     6.8427
  370.7000   126.2539     6.9034     6.8031
  370.8000   126.2574     6.8640     6.7645
  370.9000   126.1138     6.8249     6.7256
  371.0000   125.9638     6.7860     6.6664
  371.1000   125.9679     6.7465     6.5906
  371.2000   125.9725     6.7088     6.5193
  371.3000   126.2057     6.6423     6.4774
  371.4000   126.2828     6.5867     6.4448
  371.5000   126.2870     6.5379     6.4077
  371.6000   126.3549     6.4667     6.3709
  371.7000   126.5975     6.4246     6.3344
  371.8000   126.6026     6.3624     6.2976
  371.9000   126.6060     6.3128     6.2269
  372.0000   126.6103     6.2624     6.1562
  372.1000   126.6145     6.1915     6.0863
  372.2000   126.6187     6.1185     6.0171
  372.3000   126.6233     6.0521     5.9486
  372.4000   126.6272     5.9837     5.8726
  372.5000   126.6314     5.9160     5.8431
  372.6000   126.6357     5.8489     5.7881
  372.7000   126.6398     5.7847     5.7224
  372.8000   126.6441     5.7463     5.6573
  372.9000   126.6483     5.6919     5.5921
  373.0000   126.6526     5.6469     5.5295
  373.1000   126.6568     5.6147     5.4667
  373.2000   126.7479     5.5827     5.3881
  373.3000   126.9992     5.5489     5.3061
  373.4000   127.2741     5.5192     5.2430
  373.5000   127.7251     5.5100     5.1429
  373.6000   128.2233     5.5097     5.0919
  373.7000   128.9480     5.5094     5.0156
  373.8000   129.9977     5.5091     4.9424
  373.9000   131.2360     5.5087     4.8862
  374.0000   132.4753     5.5084     4.8297
  374.1000   133.7140     5.5082     4.7758
  374.2000   134.6742     5.5079     4.7831
  374.3000   135.2510     5.5076     4.8099
  374.4000   135.5022     5.5072     4.8368
  374.5000   135.7799     5.5069     4.8665
  374.6000   135.7837     5.5283     4.9287
  374.7000   135.6224     5.5446     4.9528
  374.8000   135.3797     5.5443     4.9990
  374.9000   135.0819     5.5440     5.0556
  375.0000   134.5921     5.5438     5.1069
  375.1000   134.1024     5.5685     5.1361
  375.2000   133.6128     5.6181     5.1933
  375.3000   133.1231     5.6705     5.2521
  375.4000   132.5521     5.7063     5.3116
  375.5000   131.7897     5.7776     5.3717
  375.6000   130.6905     5.8069     5.4353
  375.7000   130.0406     5.8619     5.5404
  375.8000   129.1411     5.9284     5.6228
  375.9000   128.2651     5.9955     5.7189
  376.0000   127.5286     6.0634     5.8166
  376.1000   126.7837     6.1323     5.9158
  376.2000   126.2998     6.1745     6.0188
  376.3000   125.8100     6.2484     6.1196
  376.4000   125.4541     6.3432     6.1974
  376.5000   125.1329     6.4150     6.2868
  376.6000   124.6666     6.4967     6.3941
  376.7000   124.3927     6.5613     6.4998
