~VERSION INFORMATION
 VERS.                2.0:   CWLS LOG ASCII STANDARD - VERSION 2.0
 WRAP.                 NO:   ONE LINE PER DEPTH STEP
~WELL INFORMATION
#MNEM.UNIT      DATA TYPE    INFORMATION
#----------   ------------   ------------------------------
 STRT.F         1400.0000:   START DEPTH
 STOP.F         3422.0000:   STOP DEPTH
 STEP.F            0.5000:   STEP LENGTH
 NULL.          -999.2500:   NO VALUE
 COMP. LAWRENCE/ALLISON INC:   COMPANY
 WELL.   NPR 3 #36-STX-23:   WELL
 FLD .             TEAPOT:   FIELD
 LOC .      S23 T38N R78W:   LOCATION
 CNTY.            NATRONA:   COUNTY
 STAT.            WYOMING:   STATE
 CTRY. UNITED STATES OF AMERICA:   COUNTRY
 SRVC.            Unknown:   SERVICE COMPANY
 DATE.        04-JAN-1985:   LOGDATE
 API .       490251137700:   API NUMBER
~CURVE INFORMATION
#MNEM.UNIT       API CODE    CURVE DESCRIPTION
#----------   ------------   ------------------------------
 DEPT.F                  :   
 ROP .MIN/FT 91 810 01 00:   RAT OF DRILLING PENETRATION
 TGAS.UNITS  91 830 01 00:   TOTAL GAS UNIT
~PARAMETER INFORMATION
#MNEM.UNIT          VALUE    DESCRIPTION
#----------   ------------   ------------------------------
 DATE.           1-4-1985:   RUN DATE
 RUN .                  1:   RUN NUMBER
 DD  .F              3427:   DEPTH DRILLER
 TLI .F              1400:   TOP LOG INTERVAL
 BSD .F              3427:   BIT SIZE AT DEPTH
 WITN. RAY ANDERSON/JACK HARBISON:   WITNESSED BY
 CLNT.            A2DTECH:   CLIENT CODE
 ORIG.           5" PRINT:   ORIGIN OF DATA
 UWI .       490251137700:   UNIQUE WELL ID
 DICO. A2D Technologies, Inc.:   DIGITIZING COMPANY
~OTHER INFORMATION
~A  DEPT       ROP       TGAS   
# ...
 2250.5000     0.7339     0.0000
 2251.0000     0.7315     0.0000
 2251.5000     0.7291     0.0000
 2252.0000     0.7563     0.0000
 2252.5000     0.8209     0.0000
 2253.0000     0.8489     0.0000
 2253.5000     0.9049     0.0000
 2254.0000     0.9709     0.0000
 2254.5000     1.0558     0.0000
 2255.0000     1.0131     0.0000
 2255.5000     0.9298     0.0000
 2256.0000     0.8362     0.0000
 2256.5000     0.7637     0.0000
 2257.0000     0.7636     0.0000
 2257.5000     0.7635     0.0000
 2258.0000     0.7634     0.0000
 2258.5000     0.7633     0.0000
 2259.0000     0.7632     0.0000
 2259.5000     0.7632     0.0000
 2260.0000     0.7631     0.0000
 2260.5000     0.7630     0.0000
 2261.0000     0.7629     0.0000
 2261.5000     0.7628     0.0000
 2262.0000     0.7627     0.0000
 2262.5000     0.7626     0.0000
 2263.0000     0.7625     0.0000
 2263.5000     0.7624     0.0000
 2264.0000     0.7623     0.0000
 2264.5000     0.7648     0.0000
 2265.0000     0.7671     0.0000
 2265.5000     0.7694     0.0000
 2266.0000     0.7718     0.0000
 2266.5000     0.7741     0.0000
 2267.0000     0.7764     0.0000
 2267.5000     0.7787     0.0000
 2268.0000     0.8175     0.0000
 2268.5000     0.9107     0.0000
 2269.0000     1.0226     0.0000
 2269.5000     1.1251     0.0000
 2270.0000     1.1996     0.0000
 2270.5000     1.2648     0.0000
 2271.0000     1.2266     0.0000
 2271.5000     1.1611     0.0000
 2272.0000     1.1340     0.0000
 2272.5000     1.1432     0.0000
 2273.0000     1.1437     0.0000
 2273.5000     1.1441     0.0000
 2274.0000     1.1445     0.0000
 2274.5000     1.1449     0.0000
 2275.0000     1.1453     0.0000
 2275.5000     1.1458     0.0000
 2276.0000     1.1462     0.0000
 2276.5000     1.1466     0.0000
 2277.0000     1.1470     0.0000
 2277.5000     1.1474     0.0000
 2278.0000     1.1479     0.0000
 2278.5000     1.1483     0.0000
 2279.0000     1.1487     0.0000
 2279.5000     1.1491     0.0000
 2280.0000     1.1495     0.0000
 2280.5000     1.1500     0.0000
 2281.0000     1.1504     0.0000
 2281.5000     1.1508     0.0000
 2282.0000     1.1601     0.0000
 2282.5000     1.1880     0.0000
 2283.0000     1.2252     0.0000
 2283.5000     1.2718     0.0000
 2284.0000     1.2903     0.0000
 2284.5000     1.2435     0.0000
 2285.0000     1.1688     0.0000
 2285.5000     1.1221     0.0000
 2286.0000     1.0940     0.0000
 2286.5000     1.0939     0.0000
 2287.0000     1.0938     0.0000
 2287.5000     1.0938     0.0000
 2288.0000     1.1030     0.0000
 2288.5000     1.0469     0.0000
 2289.0000     1.0468     0.0000
 2289.5000     1.0281     0.0000
 2290.0000     0.9975     0.0000
 2290.5000     1.0012     0.0000
 2291.0000     1.0400     0.0000
 2291.5000     1.0867     0.0000
 2292.0000     1.1318     0.0000
 2292.5000     1.1674     0.0000
 2293.0000     1.1300     0.0000
 2293.5000     1.0553     0.0000
 2294.0000     1.0184     0.0000
 2294.5000     1.0195     0.0000
 2295.0000     1.0206     0.0000
 2295.5000     1.0217     0.0000
 2296.0000     1.0228     0.0000
 2296.5000     1.0239     0.0000
 2297.0000     1.0250     0.0000
 2297.5000     1.0261     0.0000
 2298.0000     1.0824     0.0000
 2298.5000     1.3529     0.0000
 2299.0000     1.6326     0.0000
 2299.5000     1.9031     0.0000
 2300.0000     2.0802     0.0000
 2300.5000     1.9868     0.0000
 2301.0000     1.5670     0.0000
 2301.5000     0.9131     0.0000
 2302.0000     0.7327     0.0000
 2302.5000     0.7236     0.0000
 2303.0000     0.7438     0.0000
 2303.5000     0.7828     0.0000
 2304.0000     0.8410     0.0000
 2304.5000     0.9000     0.0000
 2305.0000     0.9671     0.0000
 2305.5000     1.0167     0.0000
 2306.0000     1.0740     0.0000
 2306.5000     1.1227     0.0000
 2307.0000     1.1928     0.0000
 2307.5000     1.2668     0.0000
 2308.0000     1.2647     0.0000
 2308.5000     1.1991     0.0000
 2309.0000     1.1197     0.0000
 2309.5000     1.0557     0.0000
 2310.0000     1.0080     0.0000
 2310.5000     1.0005     0.0000
 2311.0000     1.0010     0.0000
 2311.5000     1.0014     0.0000
 2312.0000     1.0020     0.0000
 2312.5000     0.9929     0.0000
 2313.0000     0.9837     0.0000
 2313.5000     0.9842     0.0000
 2314.0000     0.9847     0.0000
 2314.5000     0.9948     0.0000
 2315.0000     1.0049     0.0000
 2315.5000     1.0438     0.0000
 2316.0000     1.1597     0.0000
 2316.5000     1.2563     0.0000
 2317.0000     1.3530     0.0000
 2317.5000     1.4785     0.0000
 2318.0000     1.4501     0.0000
 2318.5000     1.3929     0.0000
 2319.0000     1.3164     0.0000
 2319.5000     1.2496     0.0000
 2320.0000     1.1732     0.0000
 2320.5000     1.1159     0.0000
 2321.0000     1.0587     0.0000
 2321.5000     1.0302     0.0000
 2322.0000     0.9923     0.0000
 2322.5000     1.0027     0.0000
 2323.0000     1.0048     0.0000
 2323.5000     1.0069     0.0000
 2324.0000     1.0090     0.0000
 2324.5000     1.0111     0.0000
 2325.0000     1.0132     0.0000
 2325.5000     1.0166     0.0000
 2326.0000     1.1318     0.0000
 2326.5000     1.2580     0.0000
 2327.0000     1.3841     0.0000
 2327.5000     1.5103     0.0000
 2328.0000     1.6364     0.0000
 2328.5000     1.7626     0.0000
 2329.0000     1.8883     0.0000
 2329.5000     2.0091     0.0000
 2330.0000     1.7945     0.0000
 2330.5000     1.5969     0.0000
 2331.0000     1.4095     0.0000
 2331.5000     1.2697     0.0000
 2332.0000     1.1852     0.0000
 2332.5000     1.1006     0.0000
 2333.0000     1.0126     0.0000
 2333.5000     0.9874     0.0000
 2334.0000     1.0705     0.0000
 2334.5000     1.1535     0.0000
 2335.0000     1.2366     0.0000
 2335.5000     1.2944     0.0000
 2336.0000     1.2968     0.0000
 2336.5000     1.2992     0.0000
 2337.0000     1.3017     0.0000
 2337.5000     1.3041     0.0000
 2338.0000     1.2481     0.0000
 2338.5000     1.1428     0.0000
 2339.0000     1.0664     0.0000
 2339.5000     1.0380     0.0000
 2340.0000     1.0480     0.0000
 2340.5000     1.0305     0.0000
 2341.0000     1.0337     0.0000
 2341.5000     1.0369     0.0000
 2342.0000     1.0401     0.0000
 2342.5000     1.0433     0.0000
 2343.0000     1.0465     0.0000
 2343.5000     1.0497     0.0000
 2344.0000     1.0520     0.0000
 2344.5000     1.0717     0.0000
 2345.0000     1.1106     0.0000
 2345.5000     1.1495     0.0000
 2346.0000     1.1404     0.0000
 2346.5000     1.0736     0.0000
 2347.0000     1.0260     0.0000
 2347.5000     0.9975     0.0000
 2348.0000     0.9981     0.0000
 2348.5000     0.9986     0.0000
 2349.0000     0.9991     0.0000
 2349.5000     0.9995     0.0000
 2350.0000     1.0096     0.0000
 2350.5000     1.1255     0.0000
 2351.0000     1.1548     0.0000
 2351.5000     1.1553     0.0000
 2352.0000     1.1365     0.0000
 2352.5000     1.0601     0.0000
 2353.0000     1.0029     0.0000
 2353.5000     1.0130     0.0000
 2354.0000     1.0135     0.0000
 2354.5000     1.0236     0.0000
 2355.0000     1.0240     0.0000
 2355.5000     1.0245     0.0000
 2356.0000     1.0250     0.0000
 2356.5000     1.0255     0.0000
 2357.0000     1.0260     0.0000
 2357.5000     1.0264     0.0000
 2358.0000     1.0269     0.0000
 2358.5000     1.0274     0.0000
 2359.0000     1.0279     0.0000
 2359.5000     1.0284     0.0000
 2360.0000     1.0288     0.0000
 2360.5000     1.1657     0.0000
 2361.0000     1.3025     0.0000
 2361.5000     1.4448     0.0000
 2362.0000     1.4913     0.0000
 2362.5000     1.3666     0.0000
 2363.0000     1.2419     0.0000
 2363.5000     1.1460     0.0000
 2364.0000     1.0693     0.0000
 2364.5000     1.0406     0.0000
 2365.0000     1.0413     0.0000
 2365.5000     1.0420     0.0000
 2366.0000     1.0426     0.0000
 2366.5000     1.0433     0.0000
 2367.0000     1.0439     0.0000
 2367.5000     1.0446     0.0000
 2368.0000     1.0453     0.0000
 2368.5000     1.0459     0.0000
 2369.0000     1.0466     0.0000
 2369.5000     1.0472     0.0000
 2370.0000     1.0479     0.0000
 2370.5000     1.0485     0.0000
 2371.0000     1.0492     0.0000
 2371.5000     1.0498     0.0000
