~VERSION INFORMATION
 VERS.                2.0:   CWLS LOG ASCII STANDARD - VERSION 2.0
 WRAP.                 NO:   ONE LINE PER DEPTH STEP
~WELL INFORMATION
#MNEM.UNIT      DATA TYPE    INFORMATION
#----------   ------------   ------------------------------
 STRT.F           29.0000:   START DEPTH
 STOP.F          720.0000:   STOP DEPTH
 STEP.F            0.5000:   STEP LENGTH
 NULL.          -999.2500:   NO VALUE
 COMP.    FENIX & SCISSON:   COMPANY
 WELL. RES 3 TEAPOT DOM #21-S-14:   WELL
 FLD .        TEAPOT DOME:   FIELD
 LOC .      S14 T38N R78W:   LOCATION
 CNTY.            NATRONA:   COUNTY
 STAT.            WYOMING:   STATE
 CTRY. UNITED STATES OF AMERICA:   COUNTRY
 SRVC.            Unknown:   SERVICE COMPANY
 DATE.        25-MAY-1978:   LOGDATE
 API .       490251063300:   API NUMBER
~CURVE INFORMATION
#MNEM.UNIT       API CODE    CURVE DESCRIPTION
#----------   ------------   ------------------------------
 DEPT.F                  :   
 CALD.IN     45 280 60 00:   CALIPER FROM DENSITY LOG
 CORR.G/C3   45 356 01 00:   DENSITY CORRECTION
 DPHI.DEC    45 890 12 00:   DENSITY POROSITY SANDSTONE
 GRD .GAPI   45 310 01 00:   GAMMA RAY FROM DENSITY LOG
 RHOB.G/C3   45 350 01 00:   BULK DENSITY
 ILD .OHMM   05 120 46 00:   INDUCTION LOG DEEP
 SN  .OHMM   05 040 16 00:   SHORT NORMAL 16"
 SPR .MV     05 010 01 00:   SPONTANEOUS POTENTIAL FROM RES.
~PARAMETER INFORMATION
#MNEM.UNIT          VALUE    DESCRIPTION
#----------   ------------   ------------------------------
 PD  .                 GL:   PERMANENT DATUM
 EPD .F              5232:   ELEVATION PERMANENT DATUM
 LMF .                 KB:   LOG MEASURED FROM
 DAPD.F                 4:   FEET ABOVE PERMANENT DATUM
 DMF .                 KB:   DRILLING MEASURED FROM
 EKB .F              5236:   KELLING BUSHING
 EGL .F              5232:   GROUND LEVEL
 DATE.        25-MAY-1978:   RUN DATE
 RUN .                  1:   RUN NUMBER
 DD  .F               716:   DEPTH DRILLER
 DL  .F               727:   DEPTH LOGGER
 BLI .F               720:   BOTTOM LOG INTERVAL
 TLI .F                44:   TOP LOG INTERVAL
 CS  .IN            8.625:   CASING SIZE
 CBD .F                40:   CASING BOTTOM DRILLER
 CBL .F                44:   CASING BOTTOM LOGGER
 BS  .IN            7.875:   BIT SIZE
 BSD .F               716:   BIT SIZE AT DEPTH
 DFT .                KCL:   DRILLING FLUID TYPE
 DFD .                8.6:   DRILLING FLUID DENSITY
 DFV .                 31:   DRILLING FLUID VISCOSITY
 DFPH.                9.5:   DRILLING FLUID PH
 DFL .               10.8:   DRILLING FLUID LOSS
 MSS .            MUD PIT:   MUD SAMPLE SOURCE
 RMS .OHMM           0.32:   RESISTIVITY MUD SAMPLE
 MST .F                82:   MUD SAMPLE TEMPERATURE
 RMF .OHMM           0.34:   RESISTIVITY MUD FILTRATE SAMPLE
 MFST.F                72:   MUD FILTRATE SAMPLE TEMPERATURE
 RMC .OHMM            0.8:   RESISTIVITY MUD CAKE
 MCST.F                72:   MUD CAKE SAMPLE TEMPERATURE
 MFSS.               MEAS:   MUD FILTRATE SAMPLE SOURCE
 RMB .OHMM           0.35:   RESISTIVITY MUD AT BHT
 BHT .F                74:   BOTTOM HOLE TEMPERATURE
 TCS .HRS               1:   TIME CURCULATED STOPPED
 MRT .F                74:   MAXIMUM RECORDED TEMPERATURE
 LUN .               2958:   LOGGING UNIT NUMBER
 LUL .               CASP:   LOGGING UNIT LOCATION
 ENGI.             MILLER:   RECORDING ENGINEER
 WITN.           MCGINLEY:   WITNESSED BY
 CLNT.            A2DTECH:   CLIENT CODE
 ORIG.           5" PRINT:   ORIGIN OF DATA
 UWI .       490251063300:   UNIQUE WELL ID
 DICO. A2D Technologies, Inc.:   DIGITIZING COMPANY
~OTHER INFORMATION
~A   DEPT     CALD       CORR       DPHI         GRD      RHOB        ILD         SN        SPR   
# ...
  555.5000     7.5175     0.0128     0.1683    55.5733     2.3803    15.1556    14.0414   -19.9256
  556.0000     7.5331     0.0221     0.1641    54.9893     2.3871    15.1708    13.8626   -19.9081
  556.5000     7.5199     0.0312     0.1647    55.3096     2.3918    15.1831    13.7754   -19.7449
  557.0000     7.4913     0.0254     0.1763    56.2225     2.3948    15.1956    13.6940   -19.8793
  557.5000     7.4785     0.0166     0.1815    56.2399     2.3867    15.2104    13.7053   -19.7161
  558.0000     7.3603     0.0094     0.1882    56.2573     2.3696    15.3280    13.6219   -19.7017
  558.5000     7.3321     0.0050     0.1899    56.4240     2.3584    15.3403    13.4457   -19.6873
  559.0000     7.3642     0.0038     0.1905    56.8896     2.3525    15.3526    13.2718   -19.8217
  559.5000     7.3809     0.0024     0.1901    57.8064     2.3489    15.4713    13.2851   -19.8037
  560.0000     7.3827     0.0042     0.1886    59.6148     2.3557    15.4837    13.2016   -19.7893
  560.5000     7.3845     0.0059     0.1868    59.9308     2.3603    15.4963    13.1212   -19.9237
  561.0000     7.3717     0.0061     0.1858    56.2168     2.3619    15.4019    13.1344   -19.9093
  561.5000     7.3435     0.0048     0.1849    55.1851     2.3628    15.3083    13.0544   -19.8949
  562.0000     7.4200     0.0051     0.1855    55.0532     2.3629    15.3237    12.9749   -19.8805
  562.5000     7.4367     0.0083     0.1863    54.6272     2.3615    15.1228    12.9880   -20.0149
  563.0000     7.3787     0.0130     0.1695    54.4954     2.3608    15.0308    12.9984   -20.0000
  563.5000     7.3206     0.0146     0.1662    54.1925     2.3676    14.9420    12.9167   -19.9825
  564.0000     7.3224     0.0104     0.1725    55.2808     2.3864    14.9544    12.8380   -19.9681
  564.5000     7.3241     0.0061     0.1727    57.9848     2.3880    14.7613    12.6742   -19.9537
  565.0000     7.3707     0.0018     0.1730    59.4947     2.3844    14.7761    12.5106   -20.0917
  565.5000     7.3874     0.0080     0.1735    61.3032     2.3807    14.7880    12.5207   -19.9249
  566.0000     7.4942     0.0127     0.1728    60.4250     2.3779    14.7999    12.4444   -19.7617
  566.5000     7.5707     0.0159     0.1669    58.2030     2.3809    14.8117    12.4569   -19.5982
  567.0000     7.6024     0.0176     0.1656    58.2210     2.3870    14.8236    12.4669   -19.5805
  567.5000     7.6041     0.0223     0.1638    58.8606     2.3931    14.8355    12.5634   -19.7149
  568.0000     7.5909     0.0240     0.1605    58.2602     2.3954    14.8474    12.5735   -19.7005
  568.5000     7.5478     0.0242     0.1640    56.9343     2.3978    14.8597    12.5836   -19.6861
  569.0000     7.5192     0.0244     0.1667    56.0562     2.3986    14.9772    12.5939   -19.8241
  569.5000     7.4915     0.0246     0.1708    57.2676     2.3927    15.1975    12.6938   -19.8061
  570.0000     7.3438     0.0233     0.1669    58.7776     2.3860    15.5277    12.7920   -19.7917
  570.5000     7.1931     0.0220     0.1660    59.9890     2.3887    15.7561    12.9804   -19.7768
  571.0000     7.1081     0.0208     0.1668    60.0064     2.3908    16.0985    13.0809   -19.7593
  571.5000     7.0505     0.0210     0.1686    59.8722     2.3901    16.1114    13.1822   -19.7449
  572.0000     7.0373     0.0212     0.1904    59.2756     2.3880    16.1245    13.2843   -19.7305
  572.5000     7.0237     0.0229     0.1909    58.8646     2.3806    16.2523    13.3871   -19.7161
  573.0000     7.0259     0.0321     0.1951    59.7819     2.3575    16.2653    13.5036   -19.8541
  573.5000     7.0276     0.0503     0.1610    59.9485     2.3494    16.3910    13.6922   -20.2825
  574.0000     7.0294     0.0669     0.1621    60.4137     2.3749    16.2881    13.4221   -20.5754
  574.5000     7.0311     0.0402     0.1609    60.8788     2.4006    16.1891    13.2458   -20.7001
  575.0000     7.0329     0.0464     0.1617    61.6425     2.3997    15.6559    12.8977   -20.8345
  575.5000     7.0347     0.0481     0.1704    62.2569     2.3969    14.9297    12.5562   -20.8165
  576.0000     7.0368     0.0453     0.1646    62.8916     2.3918    14.0156    12.2237   -20.6533
  576.5000     7.0386     0.0425     0.1625    63.4901     2.3888    13.1192    12.0602   -20.6389
  577.0000     7.0403     0.0428     0.1664    63.8060     2.3927    13.1297    11.9096   -20.6245
  577.5000     7.0421     0.0460     0.1660    63.8234     2.3913    13.1402    11.9215   -20.4613
  578.0000     7.0737     0.0462     0.1645    61.0050     2.3914    12.9680    11.7674   -20.2976
  578.5000     7.0904     0.0464     0.1677    57.8881     2.3915    12.9810    11.6128   -20.2801
  579.0000     7.1370     0.0451     0.1692    57.9055     2.3893    13.0813    11.3860   -20.2657
  579.5000     6.9893     0.0438     0.1605    58.3707     2.3879    13.0918    11.3164   -20.2513
  580.0000     6.9910     0.0395     0.1712    59.1343     2.3940    13.1027    11.4043   -20.2369
  580.5000     7.0392     0.0367     0.1777    59.7841     2.3986    13.0253    11.4929   -20.2225
  581.0000     7.0996     0.0370     0.1822    62.3078     2.3718    13.0357    11.5041   -20.2081
  581.5000     7.1014     0.0432     0.1801    63.3700     2.3711    13.0462    11.3554   -20.1935
  582.0000     7.0578     0.0493     0.1761    62.4919     2.3735    13.0566    11.2840   -20.1757
  582.5000     7.0600     0.0540     0.1719    61.7587     2.3795    12.8881    11.2153   -20.4589
  583.0000     7.0618     0.0575     0.1682    63.7207     2.3819    12.7216    11.2265   -20.4445
  583.5000     7.0481     0.0650     0.1563    65.2307     2.3858    12.5574    11.2355   -20.7277
  584.0000     7.0354     0.0861     0.1530    64.0540     2.3980    12.4810    11.2447   -20.8621
  584.5000     6.9624     0.0579     0.1535    63.9222     2.4233    12.4936    11.2558   -20.9970
  585.0000     6.8595     0.0342     0.1553    64.0895     2.4115    12.4151    11.2649   -21.1310
  585.5000     6.8000     0.0239     0.1582    63.5136     2.4056    12.3421    11.1940   -21.2847
  586.0000     6.7584     0.0166     0.1630    62.3369     2.3997    12.2646    10.9754   -21.5486
  586.5000     6.7605     0.0153     0.1576    60.8618     2.4020    12.1087    10.8313   -21.6830
  587.0000     6.7623     0.0140     0.1605    60.5763     2.4044    12.1184    10.6197   -21.6650
  587.5000     6.7790     0.0110     0.1608    63.1354     2.4030    11.9619    10.5551   -21.6506
  588.0000     6.7807     0.0055     0.1778    63.4012     2.4000    11.8099    10.4908   -21.6362
  588.5000     6.7227     0.0041     0.1765    60.7822     2.3867    11.8193    10.4290   -21.6218
  589.0000     6.7245     0.0028     0.1756    60.5011     2.3771    11.6667    10.4374   -21.6071
  589.5000     6.7262     0.0076     0.1753    64.2542     2.3764    11.5161    10.4458   -21.7418
  590.0000     6.7728     0.0183     0.1725    61.2865     2.3765    11.4461    10.4541   -22.0250
  590.5000     6.8508     0.0335     0.1656    60.1099     2.3796    11.3762    10.4625   -22.1594
  591.0000     6.9711     0.0471     0.1617    59.9737     2.3917    11.3856    10.4709   -22.2938
  591.5000     7.0625     0.0610     0.1565    61.6372     2.3978    11.3071    10.4072   -22.2758
  592.0000     7.1390     0.0700     0.1476    63.2964     2.4091    11.1725    10.3438   -22.2614
  592.5000     7.1557     0.0717     0.1454    63.3259     2.4219    11.1024    10.2101   -22.3958
  593.0000     7.1873     0.0645     0.1508    62.5750     2.4250    11.1135    10.1499   -22.5302
  593.5000     7.2190     0.0587     0.1546    61.8344     2.4161    11.1224    10.1581   -22.5122
  594.0000     7.2656     0.0514     0.1597    62.0271     2.4140    11.1313    10.1662   -22.4978
  594.5000     7.2823     0.0516     0.1518    63.5370     2.4125    11.1403    10.1744   -22.3346
  595.0000     7.3139     0.0520     0.1491    64.0022     2.4156    11.0726    10.1826   -22.3202
  595.5000     7.3007     0.0445     0.1464    64.0196     2.4225    11.0818    10.1206   -22.4582
