~VERSION INFORMATION
 VERS.                2.0:   CWLS LOG ASCII STANDARD - VERSION 2.0
 WRAP.                 NO:   ONE LINE PER DEPTH STEP
~WELL INFORMATION
#MNEM.UNIT      DATA TYPE    INFORMATION
#----------   ------------   ------------------------------
 STRT.F            0.0000:   START DEPTH
 STOP.F         3030.0000:   STOP DEPTH
 STEP.F            0.5000:   STEP LENGTH
 NULL.          -999.2500:   NO VALUE
 COMP. LAWRENCE/ALLISON INC:   COMPANY
 WELL. NAVAL PETROLEUM RESERVE 3 AX-3 #36  X 34-34:   WELL
 FLD .         N. P. R #3:   FIELD
 LOC .      S34 T39N R78W:   LOCATION
 CNTY.            NATRONA:   COUNTY
 STAT.            WYOMING:   STATE
 CTRY. UNITED STATES OF AMERICA:   COUNTRY
 SRVC.      Dresser Atlas:   SERVICE COMPANY
 DATE.        29-JUN-1985:   LOGDATE
 API .       490251103200:   API NUMBER
~CURVE INFORMATION
#MNEM.UNIT       API CODE    CURVE DESCRIPTION
#----------   ------------   ------------------------------
 DEPT.F                  :   
 RFOC.OHMM   07 220 01 00:   RESISTIVITY FOCUSED LOG
 RILM.OHMM   07 120 44 00:   RESITIVITY LONG MEDIUM
 SPR .MV     07 010 01 00:   SPONTANEOUS POTENTIAL
 RILD.OHMM   07 120 46 00:   INDUCTION LOG DEEP RESITIVITY
 GRR .GAPI   07 310 01 00:   GAMMA RAY
 DT  .US/F   60 520 00 00:   INTERVAL TRANSIT TIME
 CALD.IN     45 280 60 00:   CALIPER FROM DENSITY LOG
 CORR.G/C3   45 356 01 00:   DENSITY CORRECTION
 CNC .DEC    42 890 03 00:   NEUTRON POROSITY SANDSTONE
 DEN .G/C3   45 350 01 00:   COMPENSATED BULK DENSTIY
 PORD.DEC    45 890 12 00:   POROSITY DENSITY SANDSTONE
~PARAMETER INFORMATION
#MNEM.UNIT          VALUE    DESCRIPTION
#----------   ------------   ------------------------------
 PD  .                 GL:   PERMANENT DATUM
 EPD .F              5108:   ELEVATION PERMANENT DATUM
 LMF .                 KB:   LOG MEASURED FROM
 DAPD.F                12:   FEET ABOVE PERMANENT DATUM
 DMF .                 KB:   DRILLING MEASURED FROM
 EKB .F              5120:   KELLING BUSHING
 EGL .F              5108:   GROUND LEVEL
 DATE.       29-JUNE-1985:   RUN DATE
 RUN .                  1:   RUN NUMBER
 DD  .F              3033:   DEPTH DRILLER
 DL  .F              3033:   DEPTH LOGGER
 BLI .F              3030:   BOTTOM LOG INTERVAL
 CS  .IN            8.625:   CASING SIZE
 CBD .F               601:   CASING BOTTOM DRILLER
 CBL .F               601:   CASING BOTTOM LOGGER
 BS  .IN            7.875:   BIT SIZE
 BSD .F              3033:   BIT SIZE AT DEPTH
 DFT .   FOAM & KCL WATER:   DRILLING FLUID TYPE
 MSS .           FLOWLINE:   MUD SAMPLE SOURCE
 RMS .OHMM           0.44:   RESISTIVITY MUD SAMPLE
 MST .F                82:   MUD SAMPLE TEMPERATURE
 RMF .OHMM           0.44:   RESISTIVITY MUD FILTRATE SAMPLE
 MFST.F                82:   MUD FILTRATE SAMPLE TEMPERATURE
 MFSS.               MEAS:   MUD FILTRATE SAMPLE SOURCE
 RMB .OHMM           0.31:   RESISTIVITY MUD AT BHT
 BHT .F               116:   BOTTOM HOLE TEMPERATURE
 TCS .HRS               3:   TIME CURCULATED STOPPED
 MRT .F               116:   MAXIMUM RECORDED TEMPERATURE
 LUN .               6274:   LOGGING UNIT NUMBER
 LUL .               GLTE:   LOGGING UNIT LOCATION
 ENGI.             RAUTIO:   RECORDING ENGINEER
 WITN.       MR. JENNINGS:   WITNESSED BY
 CLNT.            A2DTECH:   CLIENT CODE
 ORIG.        2" 5" PRINT:   ORIGIN OF DATA
 UWI .       490251103200:   UNIQUE WELL ID
 DICO. A2D Technologies, Inc.:   DIGITIZING COMPANY
~OTHER INFORMATION
~A    DEPT    RFOC       RILM        SPR       RILD         GRR        DT       CALD       CORR        CNC        DEN       PORD   
# ...
 2531.5000     8.0441     6.6666    34.8884     6.7903   118.4185    84.8963     7.3253     0.0398     0.2858     2.5356     0.0712
 2532.0000     8.1063     6.6709    35.1943     6.7952   117.2234    85.0416     7.3253     0.0159     0.2815     2.5356     0.0688
 2532.5000     8.2248     6.6754    35.3486     6.8001   122.0932    84.8114     7.3253    -0.0005     0.2778     2.5296     0.0681
 2533.0000     8.3450     6.6808    35.3585     6.8050   121.8030    84.4306     7.3253    -0.0170     0.2772     2.5214     0.0721
 2533.5000     8.2920     6.7319    35.5066     6.8111   121.8243    84.2756     7.3253    -0.0259     0.2763     2.5199     0.0774
 2534.0000     8.1821     6.7363    35.5094     6.8160   123.6638    84.2703     7.3253    -0.0228     0.2748     2.5192     0.0792
 2534.5000     8.0750     6.7418    35.3600     6.8209   124.5900    84.4177     7.3253     0.0019     0.2735     2.5200     0.0783
 2535.0000     8.0225     6.7462    35.2121     6.8259   124.6071    84.4887     7.3253     0.0180     0.2741     2.5215     0.0773
 2535.5000     8.0845     6.7978    35.2156     6.8319   119.4462    84.4833     7.3230     0.0135     0.2777     2.5223     0.0761
 2536.0000     8.2039     6.8022    35.2184     6.8364   116.1606    83.7647     7.3102     0.0001     0.2822     2.5155     0.0773
 2536.5000     8.3238     6.8078    35.2213     6.8416   114.6582    82.8924     7.2952    -0.0073     0.2801     2.5116     0.0821
 2537.0000     8.3287     6.8122    35.3764     6.8469   114.3723    82.4363     7.2952    -0.0102     0.2722     2.5096     0.0845
 2537.5000     8.2758     6.8167    35.5307     6.8529   112.8535    82.2061     7.2651    -0.0071     0.2610     2.5163     0.0838
 2538.0000     8.1107     6.8212    35.5336     6.8578   111.6834    82.2018     7.2500     0.0095     0.2607     2.5261     0.0781
 2538.5000     8.1722     6.8745    35.6879     6.8627   112.3108    82.1220     7.2500     0.0171     0.2670     2.5277     0.0732
 2539.0000     8.5258     6.8790    35.8430     6.9169   115.0551    82.0419     7.2651     0.0262     0.2649     2.5254     0.0720
 2539.5000     8.5904     6.9316    35.9973     6.9219   115.3758    81.6611     7.2692     0.0173     0.2600     2.5172     0.0746
 2540.0000     8.3607     6.9362    36.0002     6.9753   115.5993    81.0442     7.2801     0.0038     0.2593     2.5142     0.0785
 2540.5000     8.1927     6.9903    36.0030     6.9803   116.2425    80.8218     7.2801    -0.0021     0.2633     2.5195     0.0800
 2541.0000     8.0830     6.9463    35.9993     6.9381   116.9472    80.7922     7.2952    -0.0035     0.2654     2.5308     0.0767
 2541.5000     8.4945     6.8547    35.8916     6.7054   117.8733    80.7627     7.2952    -0.0004     0.2684     2.5338     0.0706
 2542.0000     8.8617     6.6652    35.7839     6.4805   119.8552    80.7342     7.2952     0.0027     0.2741     2.5316     0.0694
 2542.5000     8.8054     6.4916    35.5603     6.3954   127.0026    80.7299     7.3102     0.0133     0.2777     2.5308     0.0699
 2543.0000     8.6285     6.4059    35.1093     6.4459   129.7470    80.8762     7.3253     0.0393     0.2774     2.5332     0.0708
 2543.5000     7.5050     6.4560    34.9606     6.4956   133.4004    81.3990     7.3253     0.0480     0.2725     2.5407     0.0705
 2544.0000     6.9135     6.4154    34.8127     6.4540   129.4823    83.1815     7.2952     0.0316     0.2661     2.5497     0.0665
 2544.5000     6.9669     6.2878    34.8156     6.3704   127.3782    84.3261     7.2952     0.0257     0.2676     2.5572     0.0601
 2545.0000     7.2683     6.1608    34.8182     6.2868   126.4819    83.9453     7.2801     0.0333     0.2836     2.5565     0.0553
 2545.5000     8.0761     6.0382    34.8212     6.2043   129.2305    82.8115     7.2651     0.0424     0.2911     2.5498     0.0547
 2546.0000     8.1355     5.9182    34.8248     6.0814   130.4596    81.8283     7.2651     0.0485     0.2884     2.5303     0.0616
 2546.5000     7.5402     5.8800    34.5246     5.9610   129.8707    81.9735     7.2500     0.0456     0.2778     2.5032     0.0730
 2547.0000     7.3876     5.8430    34.3752     5.9228   129.8920    82.9482     7.2500     0.0352     0.2802     2.4987     0.0872
 2547.5000     7.5492     5.8478    34.0732     5.9281   132.0505    83.8475     7.2500     0.0217     0.2817     2.5063     0.0875
 2548.0000     7.6063     5.8525    33.9271     5.9324   136.5970    84.6715     7.2500     0.0080     0.2744     2.5093     0.0841
 2548.5000     7.3005     5.8973    34.0821     5.9377   138.1292    85.1995     7.2500    -0.0007     0.2674     2.5101     0.0835
 2549.0000     6.8612     5.9840    34.0850     5.9420   137.2372    85.7914     7.2526     0.0040     0.2680     2.5229     0.0819
 2549.5000     6.5735     6.0328    34.2394     6.0297   136.0450    85.8634     7.2651     0.0221     0.2686     2.5351     0.0753
 2550.0000     6.4073     6.1706    34.2429     6.1615   123.9408    85.0298     7.2651     0.0372     0.2698     2.5410     0.0653
 2550.5000     7.2681     6.2922    34.2457     6.3856   122.1394    83.5194     7.2651     0.0463     0.2679     2.5387     0.0637
 2551.0000     7.7967     6.4342    34.2486     6.5708   121.5550    82.5984     7.2801     0.0404     0.2540     2.5342     0.0679
 2551.5000     7.9108     6.8551    34.4030     6.8562   119.1478    81.7779     7.2801     0.0134     0.2452     2.5350     0.0688
 2552.0000     7.9165     7.1029    34.4065     7.0551   114.6151    81.0959     7.2801    -0.0030     0.2455     2.5358     0.0682
 2552.5000     8.0883     7.2578    34.4734     7.2105   114.9395    80.3386     7.2801    -0.0179     0.2467     2.5350     0.0681
 2553.0000     8.4972     7.3134    34.5515     7.3170   115.5668    79.4442     7.2801    -0.0254     0.2421     2.5328     0.0696
 2553.5000     9.1361     7.4730    34.6297     7.4250   120.4324    78.9052     7.2801    -0.0283     0.2385     2.5291     0.0714
 2554.0000     9.5761     7.6372    34.7078     7.5403   117.7222    78.7620     7.2801     0.0003     0.2381     2.5254     0.0732
 2554.5000     8.6824     7.7495    34.7382     7.7006   116.5159    78.8351     7.2651     0.0263     0.2478     2.5186     0.0750
 2555.0000     8.1589     7.8635    34.7426     7.8689   116.2411    78.9540     7.2651     0.0276     0.2532     2.5141     0.0785
 2555.5000     8.1052     7.8142    34.7469     7.9296   117.0380    79.0569     7.2651     0.0231     0.2580     2.5126     0.0806
 2556.0000     8.5149     7.7649    34.4494     7.8255   118.3513    79.2108     7.2651     0.0187     0.2604     2.5143     0.0815
 2556.5000     9.0748     7.6628    34.4538     7.6692   119.6646    79.7293     7.2651     0.0124     0.2520     2.5217     0.0779
 2557.0000     9.1374     7.5619    34.0036     7.5160   121.4261    80.0284     7.2651     0.0109     0.2468     2.5331     0.0707
 2557.5000     8.9527     7.4117    33.5534     7.3671   123.2589    80.3275     7.2651     0.0095     0.2462     2.5331     0.0698
 2558.0000     8.8331     7.2632    33.2537     7.2212   124.4856    80.5592     7.2651    -0.0219     0.2577     2.5264     0.0752
 2558.5000     8.7759     7.0684    32.9561     7.1749   124.8033    80.8498     7.2801    -0.0354     0.2594     2.5233     0.0737
 2559.0000     8.0773     7.0731    32.8090     7.1814   123.8525    80.9235     7.2801    -0.0185     0.2458     2.5250     0.0682
 2559.5000     7.6967     7.1273    32.9660     7.2874   118.1694    80.7703     7.2744     0.0203     0.2307     2.5393     0.0603
 2560.0000     8.1992     7.1853    33.2734     7.5001   114.5476    80.3715     7.2651     0.0309     0.2309     2.5476     0.0654
 2560.5000     8.7334     7.3398    33.5808     7.6108   110.0168    79.1842     7.2651     0.0264     0.2312     2.5354     0.0702
 2561.0000     9.1738     7.3961    33.8882     7.6163   107.0011    78.5043     7.2651     0.0174     0.2291     2.5326     0.0702
 2561.5000     9.2423     7.4011    34.1956     7.6217   104.8945    78.1257     7.2651     0.0040     0.2276     2.5364     0.0648
