~VERSION INFORMATION
 VERS.                2.0:   CWLS LOG ASCII STANDARD - VERSION 2.0
 WRAP.                 NO:   ONE LINE PER DEPTH STEP
~WELL INFORMATION
#MNEM.UNIT      DATA TYPE    INFORMATION
#----------   ------------   ------------------------------
 STRT.F           22.0000:   START DEPTH
 STOP.F          453.0000:   STOP DEPTH
 STEP.F            0.5000:   STEP LENGTH
 NULL.          -999.2500:   NO VALUE
 COMP. LAWRENCE/ALLISON INC:   COMPANY
 WELL.    53-41 SX #10-10:   WELL
 FLD .             TEAPOT:   FIELD
 LOC .      S10 T38N R78W:   LOCATION
 CNTY.            NATRONA:   COUNTY
 STAT.            WYOMING:   STATE
 CTRY. UNITED STATES OF AMERICA:   COUNTRY
 SRVC.           Gearhart:   SERVICE COMPANY
 DATE.        29-MAY-1988:   LOGDATE
 API .       490251122500:   API NUMBER
~CURVE INFORMATION
#MNEM.UNIT       API CODE    CURVE DESCRIPTION
#----------   ------------   ------------------------------
 DEPT.F                  :   
 GRR .GAPI   07 310 01 00:   GAMMA RAY
 ILD .OHMM   07 120 46 00:   INDUCTION LOG DEEP
 ILM .OHMM   07 120 44 00:   INDUCTION LOG MEDIUM
~PARAMETER INFORMATION
#MNEM.UNIT          VALUE    DESCRIPTION
#----------   ------------   ------------------------------
 PD  .                 GL:   PERMANENT DATUM
 EPD .F              5172:   ELEVATION PERMANENT DATUM
 LMF .                 KB:   LOG MEASURED FROM
 DAPD.F                 5:   FEET ABOVE PERMANENT DATUM
 DMF .                 KB:   DRILLING MEASURED FROM
 EKB .F              5177:   KELLING BUSHING
 EGL .F              5172:   GROUND LEVEL
 DATE.        29-MAY-1988:   RUN DATE
 RUN .                  1:   RUN NUMBER
 DD  .F               470:   DEPTH DRILLER
 DL  .F               461:   DEPTH LOGGER
 BLI .F               453:   BOTTOM LOG INTERVAL
 CS  .IN            8.625:   CASING SIZE
 CBD .F                43:   CASING BOTTOM DRILLER
 CBL .F                43:   CASING BOTTOM LOGGER
 BS  .IN            7.875:   BIT SIZE
 BSD .F               470:   BIT SIZE AT DEPTH
 DFT .                AIR:   DRILLING FLUID TYPE
 TLAB.HRS            0530:   TIME LOGGER AT BOTTOM
 MRT .F                70:   MAXIMUM RECORDED TEMPERATURE
 LUN .               7597:   LOGGING UNIT NUMBER
 LUL .           GILLETTE:   LOGGING UNIT LOCATION
 ENGI.          HUCKFELDT:   RECORDING ENGINEER
 WITN.             STRONG:   WITNESSED BY
 CLNT.            A2DTECH:   CLIENT CODE
 ORIG.       2", 5" PRINT:   ORIGIN OF DATA
 UWI .       490251122500:   UNIQUE WELL ID
 DICO. A2D Technologies, Inc.:   DIGITIZING COMPANY
~OTHER INFORMATION
~A   DEPT       GRR       ILD        ILM   
# ...
  113.0000   109.1248     8.2006     8.2488
  113.5000   109.7490     8.0893     7.9145
  114.0000   109.4547     7.8149     7.5901
  114.5000   107.3599     7.4398     7.3815
  115.0000   106.1631     7.1425     7.1787
  115.5000   106.1804     6.9961     7.0798
  116.0000   107.7151     6.8537     7.0314
  116.5000   110.5534     6.8555     7.0819
  117.0000   112.0027     6.8577     7.1827
  117.5000   111.7121     6.9075     7.3363
  118.0000   110.8232     7.0552     7.4930
  118.5000   109.9300     7.2565     7.6530
  119.0000   109.9515     7.3608     7.8164
  119.5000   109.9687     7.5182     7.9833
  120.0000   109.6782     7.7327     8.1541
  120.5000   110.3067     7.8433     8.2701
  121.0000   111.5422     7.9076     8.3878
  121.5000   111.8629     8.0697     8.3889
  122.0000   111.5767     8.0718     8.3903
  122.5000   110.9863     8.0740     8.3766
  123.0000   111.9433     8.0761     8.3337
  123.5000   113.1501     8.0221     8.2769
  124.0000   113.1674     7.9690     8.1632
  124.5000   112.2741     7.9711     8.1071
  125.0000   110.7739     7.9179     7.9400
  125.5000   109.2737     7.5435     7.7760
  126.0000   108.9874     7.1364     7.4957
  126.5000   109.9194     6.7985     6.8098
  127.0000   109.9367     6.5219     6.3950
  127.5000   109.9140     6.1275     6.0054
  128.0000   109.3642     6.0440     5.7969
  128.5000   109.6849     5.9209     5.5233
  129.0000   109.3986     5.7999     5.3713
  129.5000   108.2062     5.8015     5.6419
  130.0000   108.5312     5.8034     5.9676
  130.5000   110.3694     5.8864     6.2683
  131.0000   111.2971     6.0543     6.5380
  131.5000   111.3143     6.2750     6.9154
  132.0000   110.4254     6.7723     7.2636
  132.5000   108.9209     7.1126     7.6832
  133.0000   109.2459     7.3155     7.9578
  133.5000   110.1736     7.4720     8.1278
  134.0000   111.7329     7.7394     8.2434
  134.5000   112.3325     7.9602     8.4254
  135.0000   112.0463     8.1873     8.5395
  135.5000   111.7600     8.2467     8.6611
  136.0000   111.1746     8.3647     8.7230
  136.5000   113.0170     8.4848     8.7875
  137.0000   114.8552     8.4871     8.9108
  137.5000   115.7829     8.5486     8.9746
  138.0000   116.4071     8.6107     9.0388
  138.5000   115.7815     8.7344     9.1035
  139.0000   114.9241     8.8593     9.1689
  139.5000   114.3344     8.8616     9.1701
  140.0000   113.7447     8.9259     9.1713
  140.5000   113.7663     8.9913     9.1726
  141.0000   114.0912     8.9936     9.1738
  141.5000   114.4119     9.1222     9.1753
  142.0000   114.1257     9.1884     9.1765
  142.5000   112.0185     9.1270     9.1777
  143.0000   109.0051     9.1300     9.1789
  143.5000   107.8084     9.0684     9.1804
  144.0000   108.4326     8.9458     9.1817
  144.5000   108.4499     8.9483     9.1185
  145.0000   109.7016     8.9512     9.0564
  145.5000   110.3096     8.8291     8.9320
  146.0000   110.1669     8.7701     8.8706
  146.5000   109.4336     8.6516     8.8099
  147.0000   110.0578     8.5938     8.7499
  147.5000   111.2933     8.5369     8.6900
  148.0000   111.6140     8.5392     8.5707
  148.5000   111.9347     8.5414     8.4526
  149.0000   112.2555     8.4255     8.3362
  149.5000   113.2160     8.2539     8.1585
  150.0000   114.7236     7.9175     7.6135
  150.5000   115.0465     7.8100     7.2505
  151.0000   114.4655     7.1745     6.9533
  151.5000   114.1944     6.4737     6.3910
  152.0000   113.3164     6.0814     5.6381
  152.5000   112.4253     5.5174     4.9714
  153.0000   112.4577     5.1831     4.5715
  153.5000   111.5732     4.3254     4.1165
  154.0000   110.3852     3.7115     3.4563
  154.5000   110.4176     3.4866     3.2231
  155.0000   110.7470     3.2753     3.0267
  155.5000   110.4694     3.0965     2.9001
  156.0000   108.3709     3.0140     2.8627
  156.5000   102.9024     2.9935     2.8832
  157.0000   101.7460     2.9942     2.9863
  157.5000   102.6889     3.0368     3.1816
  158.0000   105.1428     3.3722     3.4602
  158.5000   111.8455     3.7706     3.9252
  159.0000   115.2163     4.1868     4.4528
  159.5000   115.5457     4.7472     5.0868
  160.0000   114.3577     5.1335     5.5488
  160.5000   114.0736     5.5747     6.0612
  161.0000   116.2387     5.6540     6.3664
  161.5000   118.0838     5.9793     6.6403
  162.0000   121.1447     6.4120     6.7821
  162.5000   116.6118     6.6409     6.8306
  163.0000   116.0364     6.6883     6.7839
  163.5000   116.0920     6.5971     6.7377
  164.0000   118.2200     6.4622     6.4615
  164.5000   121.8813     6.3278     6.1472
  165.0000   122.5207     6.0722     5.7787
  165.5000   124.6711     5.8655     5.5807
  166.0000   126.8279     5.4718     5.4272
  166.5000   127.7643     5.2488     5.3526
  167.0000   126.2728     5.2134     5.3911
  167.5000   123.5673     5.2879     5.4297
  168.0000   119.0329     5.3259     5.5070
  168.5000   118.4598     5.4395     5.6614
  169.0000   120.3132     5.6749     5.8729
  169.5000   124.5880     5.9994     6.2054
  170.0000   126.1314     6.2568     6.6097
  170.5000   124.5918     6.5708     6.9913
  171.0000   120.7269     6.9488     7.3998
  171.5000   116.8074     7.3040     7.8220
  172.0000   117.4404     7.5581     7.9334
  172.5000   118.6803     7.7192     8.0462
  173.0000   119.6621     7.8291     8.1038
  173.5000   121.4700     8.0523     8.2772
  174.0000   122.7099     8.1670     8.3364
  174.5000   123.3428     8.1115     8.2791
  175.0000   123.9757     8.1135     8.2224
  175.5000   124.0081     8.0587     8.1063
  176.0000   123.4271     8.0044     7.9344
  176.5000   122.8396     7.9504     7.7783
  177.0000   123.1755     7.7879     7.5646
  177.5000   123.2018     7.4701     7.4084
  178.0000   122.6203     7.3174     7.1548
  178.5000   120.5283     7.1181     6.9582
  179.0000   119.0368     7.0206     6.7198
  179.5000   118.1523     6.7349     6.4896
  180.0000   117.8747     6.2393     6.2644
  180.5000   119.7281     5.8577     5.9270
  181.0000   122.1819     5.6226     5.6050
  181.5000   123.4218     5.4689     5.2635
  182.0000   124.8113     5.3943     5.0125
  182.5000   125.9081     5.3210     4.9782
  183.0000   126.2375     5.3223     5.1926
  183.5000   126.2634     5.3981     5.5698
  184.0000   125.9859     5.6296     5.9743
  184.5000   125.1013     5.8711     6.3705
  185.0000   123.3128     6.1744     6.8740
  185.5000   121.5178     6.7991     7.2708
  186.0000   119.7163     7.6024     7.6369
  186.5000   122.7836     7.6571     7.9099
  187.0000   126.2579     7.7121     8.0791
  187.5000   128.9118     7.7680     8.1369
  188.0000   128.6342     7.9336     8.1952
  188.5000   127.7497     7.8797     8.1963
  189.0000   126.5615     7.9367     8.2549
  189.5000   126.5940     7.9991     8.3141
  190.0000   127.8339     8.3371     8.3152
  190.5000   128.1634     8.3388     8.3164
  191.0000   127.5823     8.2821     8.3176
  191.5000   127.2929     8.2266     8.3190
  192.0000   126.1167     8.1711     8.3201
  192.5000   125.5357     8.1160     8.3212
  193.0000   126.1751     8.1180     8.3223
  193.5000   127.1115     8.1196     8.3234
  194.0000   128.3521     8.1213     8.3247
  194.5000   128.9908     8.0665     8.3259
  195.0000   129.3202     8.0685     8.3270
  195.5000   129.3461     8.0701     8.3281
  196.0000   129.3720     8.0156     8.3294
  196.5000   128.7975     8.0244     8.3305
  197.0000   128.5199     8.1886     8.3316
  197.5000   127.3319     8.2474     8.3328
  198.0000   125.2334     8.1918     8.3339
  198.5000   124.3488     8.1365     8.3352
  199.0000   127.4162     8.0255     8.1062
  199.5000   128.6561     7.7527     7.8835
  200.0000   129.8895     7.5935     7.6134
  200.5000   130.8347     7.2853     7.3015
  201.0000   133.2888     7.0377     7.2007
  201.5000   134.5289     7.0396     7.1016
  202.0000   135.4659     6.9441     6.9067
  202.5000   134.5877     6.8976     6.7586
  203.0000   132.4894     6.7531     6.6244
  203.5000   129.7841     6.5733     6.5332
