~VERSION INFORMATION
 VERS.                2.0:   CWLS LOG ASCII STANDARD - VERSION 2.0
 WRAP.                 NO:   ONE LINE PER DEPTH STEP
~WELL INFORMATION
#MNEM.UNIT      DATA TYPE    INFORMATION
#----------   ------------   ------------------------------
 STRT.F            1.0000:   START DEPTH
 STOP.F          600.0000:   STOP DEPTH
 STEP.F            0.5000:   STEP LENGTH
 NULL.          -999.2500:   NO VALUE
 COMP.       F D SERV INC:   COMPANY
 WELL.    62-1 SX-3 #62-3:   WELL
 FLD .             TEAPOT:   FIELD
 LOC .       S3 T38N R78W:   LOCATION
 CNTY.            NATRONA:   COUNTY
 STAT.            WYOMING:   STATE
 CTRY. UNITED STATES OF AMERICA:   COUNTRY
 SRVC.     Atlas Wireline:   SERVICE COMPANY
 DATE.        05-MAY-1992:   LOGDATE
 API .       490252250800:   API NUMBER
~CURVE INFORMATION
#MNEM.UNIT       API CODE    CURVE DESCRIPTION
#----------   ------------   ------------------------------
 DEPT.F                  :   
 GRR .GAPI   07 310 01 00:   GAMMA RAY
 RILD.OHMM   07 120 46 00:   INDUCTION LOG DEEP RESISTIVITY
 RILM.OHMM   07 120 44 00:   INDUCTION LOG MEDIUM RESISTIVITY
~PARAMETER INFORMATION
#MNEM.UNIT          VALUE    DESCRIPTION
#----------   ------------   ------------------------------
 PD  .                 GL:   PERMANENT DATUM
 EPD .F              5159:   ELEVATION PERMANENT DATUM
 LMF .                 KB:   LOG MEASURED FROM
 DAPD.F                 5:   FEET ABOVE PERMANENT DATUM
 DMF .                 KB:   DRILLING MEASURED FROM
 EKB .F              5164:   KELLING BUSHING
 EGL .F              5159:   GROUND LEVEL
 DATE.        06-MAY-1992:   RUN DATE
 RUN .                  1:   RUN NUMBER
 DD  .F               605:   DEPTH DRILLER
 DL  .F               609:   DEPTH LOGGER
 BLI .F               607:   BOTTOM LOG INTERVAL
 CS  .IN            8.625:   CASING SIZE
 CBD .F                51:   CASING BOTTOM DRILLER
 CBL .F                51:   CASING BOTTOM LOGGER
 BS  .IN            7.875:   BIT SIZE
 BSD .F               605:   BIT SIZE AT DEPTH
 DFT .                AIR:   DRILLING FLUID TYPE
 TCS .HRS               3:   TIME CURCULATED STOPPED
 LUN .            HL-6272:   LOGGING UNIT NUMBER
 LUL .             CASPER:   LOGGING UNIT LOCATION
 ENGI.             ZIEGER:   RECORDING ENGINEER
 WITN.             STRONG:   WITNESSED BY
 CLNT.            A2DTECH:   CLIENT CODE
 ORIG.           5" PRINT:   ORIGIN OF DATA
 UWI .       490252250800:   UNIQUE WELL ID
 DICO. A2D Technologies, Inc.:   DIGITIZING COMPANY
~OTHER INFORMATION
~A    DEPT      GRR      RILD       RILM   
# ...
  547.0000   118.4674    10.5177    10.7945
  547.5000   116.3224    10.7369    10.8763
  548.0000   116.2954    10.8102    11.0873
  548.5000   118.3865    10.9589    11.2351
  549.0000   119.2677    11.0337    11.3864
  549.5000   119.2403    11.1085    11.3801
  550.0000   118.3056    11.1249    11.3751
  550.5000   115.7070    11.2374    11.3719
  551.0000   113.7410    11.3499    11.3686
  551.5000   113.4265    11.4624    11.3654
  552.0000   112.2042    11.4035    11.3623
  552.5000   112.4948    11.3988    11.3584
  553.0000   113.3905    11.3949    11.3553
  553.5000   113.6841    11.3910    11.3522
  554.0000   114.2742    11.3870    11.3491
  554.5000   113.0519    11.3042    11.2672
  555.0000   113.6451    11.1440    11.1859
  555.5000   115.4485    11.0629    11.0280
  556.0000   116.0447    11.0591    11.0250
  556.5000   116.3329    11.0553    11.0220
  557.0000   116.0177    11.0515    11.0189
  557.5000   114.7954    10.9710    11.0159
  558.0000   115.0860    10.8912    11.0129
  558.5000   114.7714    10.8874    10.9334
  559.0000   112.3389    10.8082    10.9304
  559.5000   112.3269    10.6551    10.7013
  560.0000   115.0978    10.3589    10.5504
  560.5000   115.9337    10.0709    10.4015
  561.0000   119.4183     9.8576    10.1128
  561.5000   122.9219     9.5852     9.8321
  562.0000   124.0672     9.4416     9.6774
  562.5000   120.4214     9.3156     9.4903
  563.0000   118.5939     9.2471     9.4871
  563.5000   119.4897     9.1861     9.4186
  564.0000   122.2008     9.1105     9.3507
  564.5000   124.3098     9.0469     9.2832
  565.0000   125.5081     9.0438     9.1522
  565.5000   125.4931     8.9779     9.0231
  566.0000   124.8760     8.7893     8.7727
  566.5000   123.9563     8.7254     8.7703
  567.0000   122.1288     8.6618     8.7070
  567.5000   122.7220     8.5988     8.6442
  568.0000   125.1306     8.5362     8.6418
  568.5000   126.9340     8.5333     8.7004
  569.0000   128.7375     8.5302     8.6974
  569.5000   129.0310     8.5273     8.6950
  570.0000   128.7135     8.5237     8.7535
  570.5000   128.7015     8.5208     8.6902
  571.0000   128.0844     8.5179     8.6275
  571.5000   123.8363     8.5149     8.5054
  572.0000   121.4038     8.2782     8.2697
  572.5000   126.2329     8.0481     8.0401
  573.0000   131.3996     7.9341     7.9186
  573.5000   135.0348     7.7675     7.8144
  574.0000   135.2741     7.6043     7.7580
  574.5000   133.3283     7.5489     7.6486
  575.0000   131.2152     7.4940     7.5934
  575.5000   128.8811     7.3878     7.5386
  576.0000   128.8691     7.3341     7.3806
  576.5000   130.0704     7.2807     7.2765
  577.0000   130.9661     7.1775     7.1240
  577.5000   130.0434     6.9296     6.9263
  578.0000   132.1494     6.5977     6.6409
  578.5000   133.3477     6.2818     6.2356
  579.0000   133.6413     5.9378     5.8550
  579.5000   130.9032     5.7343     5.6530
  580.0000   128.7732     5.7723     5.7311
  580.5000   130.2740     5.8513     5.8912
  581.0000   132.9852     5.9722     6.1838
  581.5000   133.8839     6.1816     6.4910
  582.0000   131.1458     6.5334     6.8612
  582.5000   128.7132     6.9535     7.3049
  583.0000   126.8858     7.1973     7.7283
  583.5000  -999.2500     7.6600     8.0685
  584.0000  -999.2500     7.9840     8.4776
  584.5000  -999.2500     8.3217     8.8659
  585.0000  -999.2500     8.6135     9.1140
  585.5000  -999.2500     8.6714     9.2393
  586.0000  -999.2500     8.6677     9.3020
  586.5000  -999.2500     8.7870     9.3644
  587.0000  -999.2500     8.8453     9.3612
  587.5000  -999.2500     8.9034     9.2291
  588.0000  -999.2500     8.9002     9.1625
  588.5000  -999.2500     8.8972     9.1600
  589.0000  -999.2500     8.8941     9.0939
  589.5000  -999.2500     8.8910     9.0914
  590.0000  -999.2500     8.8263     8.9009
  590.5000  -999.2500     8.7012     8.8367
  591.0000  -999.2500     8.6378     8.6515
  591.5000  -999.2500     8.5148     8.4114
  592.0000  -999.2500     8.3942     8.1780
  592.5000  -999.2500     8.3331     8.1190
  593.0000  -999.2500     8.5655     7.9481
  593.5000  -999.2500     8.8043     7.7283
  594.0000  -999.2500     8.8013     7.6668
  594.5000  -999.2500     8.6164     7.5116
  595.0000  -999.2500     8.3769     7.3028
  595.5000  -999.2500     8.2009     7.1997
  596.0000  -999.2500     7.6442     7.0981
  596.5000  -999.2500  -999.2500     6.9980
  597.0000  -999.2500  -999.2500     6.8993
  597.5000  -999.2500  -999.2500     6.7078
  598.0000  -999.2500  -999.2500     6.5217
  598.5000  -999.2500  -999.2500     6.3407
  599.0000  -999.2500  -999.2500     5.9537
  599.5000  -999.2500  -999.2500     5.0708
  600.0000  -999.2500  -999.2500     4.8281
