~VERSION INFORMATION
 VERS.                2.0:   CWLS LOG ASCII STANDARD - VERSION 2.0
 WRAP.                 NO:   ONE LINE PER DEPTH STEP
~WELL INFORMATION
#MNEM.UNIT      DATA TYPE    INFORMATION
#----------   ------------   ------------------------------
 STRT.F           26.0000:   START DEPTH
 STOP.F          484.0000:   STOP DEPTH
 STEP.F            0.5000:   STEP LENGTH
 NULL.          -999.2500:   NO VALUE
 COMP.    FENIX & SCISSON:   COMPANY
 WELL.        NPR #44-S-3:   WELL
 FLD .              NPR-3:   FIELD
 LOC .       S3 T38N R78W:   LOCATION
 CNTY.            NATRONA:   COUNTY
 STAT.            WYOMING:   STATE
 CTRY. UNITED STATES OF AMERICA:   COUNTRY
 SRVC.              Welex:   SERVICE COMPANY
 DATE.        22-APR-1977:   LOGDATE
 API .       490251034000:   API NUMBER
~CURVE INFORMATION
#MNEM.UNIT       API CODE    CURVE DESCRIPTION
#----------   ------------   ------------------------------
 DEPT.F                  :   
 SPR .MV     07 010 01 00:   SPONTANEOUS POTENTIAL
 ILD .OHMM   07 120 46 00:   INDUCTION LOG DEEP
 ILM .OHMM   07 120 44 00:   INDUCTION LOG MEDIUM
 SGRD.OHMM   07 221 05 00:   SHALLOW SHORT GUARD RESISTIVITY
 GRD .GAPI   45 310 01 00:   GAMMA RAY FROM DENSITY LOG
 CALD.IN     45 280 60 00:   CALIPER FROM DENSITY LOG
 CORR.G/C3   45 356 01 00:   DENSITY CORRECTION
 RHOB.G/C3   45 350 01 00:   BULK DENSITY
 DPHI.DEC    45 890 12 00:   DENSITY POROSITY SANDSTONE
~PARAMETER INFORMATION
#MNEM.UNIT          VALUE    DESCRIPTION
#----------   ------------   ------------------------------
 PD  .                 GL:   PERMANENT DATUM
 EPD .F              5160:   ELEVATION PERMANENT DATUM
 LMF .                 GL:   LOG MEASURED FROM
 DMF .                 GL:   DRILLING MEASURED FROM
 EGL .F              5160:   GROUND LEVEL
 DATE.        22-APR-1977:   RUN DATE
 RUN .                  1:   RUN NUMBER
 DD  .F               490:   DEPTH DRILLER
 DL  .F               486:   DEPTH LOGGER
 BLI .F               484:   BOTTOM LOG INTERVAL
 TLI .F                30:   TOP LOG INTERVAL
 CS  .IN            8.625:   CASING SIZE
 CBD .F                40:   CASING BOTTOM DRILLER
 CBL .F                38:   CASING BOTTOM LOGGER
 BS  .IN            7.875:   BIT SIZE
 BSD .F               490:   BIT SIZE AT DEPTH
 DFT .            KCL GEL:   DRILLING FLUID TYPE
 DFD .                8.8:   DRILLING FLUID DENSITY
 DFV .                 36:   DRILLING FLUID VISCOSITY
 DFPH.                8.0:   DRILLING FLUID PH
 DFL .                6.4:   DRILLING FLUID LOSS
 MSS .            MUD PIT:   MUD SAMPLE SOURCE
 RMS .OHMM            .36:   RESISTIVITY MUD SAMPLE
 MST .F                60:   MUD SAMPLE TEMPERATURE
 RMF .OHMM            .30:   RESISTIVITY MUD FILTRATE SAMPLE
 MFST.F                60:   MUD FILTRATE SAMPLE TEMPERATURE
 RMC .OHMM            .42:   RESISTIVITY MUD CAKE
 MCST.F                60:   MUD CAKE SAMPLE TEMPERATURE
 MFSS.               MEAS:   MUD FILTRATE SAMPLE SOURCE
 MCSS.               MEAS:   MUD CAKE SAMPLE SOURCE
 RMB .OHMM            .30:   RESISTIVITY MUD AT BHT
 BHT .F                70:   BOTTOM HOLE TEMPERATURE
 TCS .HRS            0200:   TIME CURCULATED STOPPED
 MRT .F                70:   MAXIMUM RECORDED TEMPERATURE
 LUN .               8611:   LOGGING UNIT NUMBER
 LUL .             CASPER:   LOGGING UNIT LOCATION
 ENGI.          T. JOYNER:   RECORDING ENGINEER
 WITN.           ROB LYON:   WITNESSED BY
 CLNT.            A2DTECH:   CLIENT CODE
 ORIG.           5" PRINT:   ORIGIN OF DATA
 UWI .       490251034000:   UNIQUE WELL ID
 DICO. A2D Technologies, Inc.:   DIGITIZING COMPANY
~OTHER INFORMATION
~A   DEPT      SPR        ILD        ILM       SGRD        GRD       CALD       CORR       RHOB       DPHI   
# ...
  172.0000   -54.7344     6.9958     6.8313    10.4302   118.2449     7.7263    -0.0129     2.4578     0.1166
  172.5000   -54.5756     7.0477     7.0258    10.7959   119.8927     7.7131    -0.0128     2.4556     0.1172
  173.0000   -54.2686     7.1493     7.2258    10.2768   116.3487     7.7000    -0.0126     2.4527     0.1177
  173.5000   -54.1099     7.2524     7.4315    10.4553   114.4348     7.7018    -0.0110     2.4535     0.1177
  174.0000   -53.8028     7.4080     7.5904    10.9699   115.0470     7.7039    -0.0093     2.4558     0.1171
  174.5000   -53.6441     7.4629     7.6462    11.0403   115.6855     7.7056    -0.0092     2.4589     0.1164
  175.0000   -53.6337     7.5705     7.7559    10.8809   113.7452     7.7073    -0.0075     2.4634     0.1157
  175.5000   -53.6234     7.6796     7.8130    10.7482   111.0883     7.7090    -0.0073     2.4687     0.1145
  176.0000   -53.7640     7.6295     7.7615    10.7538   113.3349     7.7107    -0.0057     2.4725     0.1121
  176.5000   -53.9020     7.5815     7.6589    10.7582   119.4448     7.7124    -0.0071     2.4659     0.1104
  177.0000   -54.0400     7.5319     7.5568    10.6875   120.0569     7.7141    -0.0069     2.4705     0.1109
  177.5000   -54.0271     7.4836     7.4554    10.4738   119.4803     7.7306    -0.0053     2.4757     0.1108
  178.0000   -54.1677     7.3344     7.2557    10.4060   121.1325     7.7323    -0.0051     2.4683     0.1087
  178.5000   -54.4541     7.2372     7.1097    10.1969   118.9215     7.7488    -0.0035     2.4744     0.1059
  179.0000   -54.5921     7.0919     7.0142    10.2718   119.9793     7.7505    -0.0003     2.4775     0.1036
  179.5000   -55.0243     6.9019     6.8264    10.4911   121.9287     7.7522     0.0014     2.4790     0.1037
  180.0000   -55.1649     6.8102     6.6429    10.3515   121.9465     7.7539     0.0015     2.4761     0.1081
  180.5000   -55.5971     6.6737     6.4644     9.9355   120.4734     7.7404    -0.0030     2.4658     0.1131
  181.0000   -55.7377     6.4501     6.2043     9.5363   118.9954     7.7425    -0.0057     2.4584     0.1169
  181.5000   -56.0241     6.1909     6.0375     9.2165   120.5289     7.7442    -0.0086     2.4510     0.1202
  182.0000   -56.1621     5.9012     5.8347     8.7853   117.9366     7.7459    -0.0099     2.4421     0.1226
  182.5000   -56.0008     5.7034     5.6388     7.8156   114.8786     7.7476    -0.0114     2.4347     0.1261
  183.0000   -55.8421     5.6669     5.5252     6.7170   113.9999     7.7493    -0.0141     2.4355     0.1267
  183.5000   -55.6834     5.7089     5.5276     6.4020   112.2574     7.7510    -0.0140     2.4393     0.1246
  184.0000   -55.2280     5.8325     5.6850     7.9890   109.7557     7.7375    -0.0123     2.4506     0.1204
  184.5000   -55.0693     6.0395     5.8468     9.8998   111.6688     7.7396    -0.0107     2.4552     0.1179
  185.0000   -54.9105     6.2147     6.1819     9.9725   114.7206     7.7261    -0.0105     2.4575     0.1167
  185.5000   -54.6035     6.4413     6.4020    10.1854   118.8884     7.6986    -0.0104     2.4605     0.1155
  186.0000   -54.4448     6.7709     6.6760    10.7683   120.3765     7.6707    -0.0102     2.4658     0.1125
  186.5000   -54.2860     7.1498     6.9137    11.1511   116.0852     7.6131    -0.0133     2.4726     0.1101
  187.0000   -53.9790     7.3474     7.1105    11.1557   118.6334     7.5111    -0.0144     2.4757     0.1085
  187.5000   -53.8203     7.5051     7.3637    10.8563   121.3258     7.3350    -0.0113     2.4780     0.1037
  188.0000   -53.8099     7.6231     7.6795    10.7107   124.6125     7.6479    -0.0081     2.4773     0.1037
  188.5000   -53.7996     7.7773     8.0104    11.1695   126.1161     7.7705    -0.0065     2.4744     0.1055
  189.0000   -53.6409     7.7811     8.2400    11.4870   125.8367     7.7549    -0.0048     2.4737     0.1063
  189.5000   -53.4822     7.8389     8.4730    11.5702   123.3284     7.7419    -0.0047     2.4790     0.1039
  190.0000   -53.3234     7.8970     8.6510    11.1822   121.4145     7.7287    -0.0045     2.4836     0.1003
  190.5000   -53.4615     7.9557     8.7800    11.5809   119.5007     7.7305    -0.0059     2.4859     0.0964
  191.0000   -53.4510     8.0147     8.9010    11.9089   119.8156     7.7322    -0.0042     2.4897     0.0946
  191.5000   -53.4407     8.0186     8.9665    11.4315   120.7249     7.7339    -0.0056     2.4972     0.0933
  192.0000   -53.4303     8.0781     9.0324    11.6756   118.8110     7.7356    -0.0039     2.4883     0.0969
  192.5000   -53.4199     8.1381     9.0989    11.9249   115.7039     7.7373    -0.0037     2.4944     0.0939
  193.0000   -53.4095     8.1985     9.1658    12.0124   116.1719     7.7390    -0.0036     2.4997     0.0915
  193.5000   -53.3991     8.2025     9.1696    12.0174   116.6354     7.7407    -0.0019     2.5028     0.0902
  194.0000   -53.5374     8.2064     9.2371    12.2740   116.2074     7.7424    -0.0003     2.5036     0.0908
  194.5000   -53.6755     8.1528     9.1771    12.9763   114.8879     7.7441     0.0014     2.4992     0.0926
  195.0000   -53.6647     8.1577     9.1185    13.6245   114.0141     7.7458     0.0015     2.4948     0.0946
  195.5000   -53.6543     8.1044     8.9970    12.5464   113.4331     7.7475     0.0032     2.4889     0.0967
  196.0000   -53.6418     8.1093     8.9378    12.2828   115.3869     7.7321     0.0003     2.4860     0.0993
  196.5000   -53.6315     8.1132     8.6985    12.3845   118.3764     7.7187    -0.0040     2.4801     0.1026
  197.0000   -53.6212     8.0602     8.6412    12.3981   120.0287     7.6938    -0.0054     2.4734     0.1061
  197.5000   -53.6108     8.0651     8.4673    12.2247   121.5323     7.6955    -0.0068     2.4743     0.1064
  198.0000   -53.6005     8.0134     8.2406    11.8967   122.8829     7.7120    -0.0081     2.4780     0.1040
  198.5000   -53.5901     8.0172     8.2440    11.6576   122.1622     7.7137    -0.0094     2.4744     0.1037
  199.0000   -53.7307     8.0211     8.1897    11.5025   121.4370     7.7302    -0.0108     2.4715     0.1054
  199.5000   -53.8688     7.9687     8.1939    11.4281   120.1175     7.7319    -0.0106     2.4716     0.1087
  200.0000   -54.0358     7.9507     8.0281    11.5024   113.3016     7.7370    -0.0105     2.4697     0.1104
  200.5000   -54.3859     8.0676     8.1462    11.5096   113.4681     7.7643    -0.0088     2.4673     0.1131
  201.0000   -54.7330     8.0158     8.0938    11.4374   114.9718     7.7362    -0.0072     2.4629     0.1143
  201.5000   -54.7256     7.8033     7.9337    11.4445   118.1100     7.7381    -0.0055     2.4600     0.1154
  202.0000   -55.3117     7.5430     7.6689    11.2943   120.2080     7.7397    -0.0054     2.4570     0.1157
  202.5000   -55.6133     7.2411     7.3111    11.0643   116.9569     7.7412    -0.0037     2.4571     0.1157
  203.0000   -56.0534     6.9514     7.0183    10.6940   115.0386     7.7428    -0.0021     2.4564     0.1169
  203.5000   -56.4936     6.7195     6.6908    10.2583   117.7355     7.7291    -0.0004     2.4543     0.1195
  204.0000   -57.0626     6.3183     6.2046     9.7105   121.7652     7.7311    -0.0018     2.4484     0.1219
  204.5000   -57.5223     5.8191     5.7141     9.2481   120.1486     7.7326    -0.0032     2.4388     0.1252
  205.0000   -57.8141     5.3966     5.2623     8.7011   117.1946     7.7342    -0.0045     2.4299     0.1291
  205.5000   -58.2542     5.0394     4.7798     8.1152   116.0193     7.7505    -0.0043     2.4166     0.1365
  206.0000   -58.8116     4.4837     4.2523     7.4635   121.2422     7.7521    -0.0042     2.4055     0.1464
  206.5000   -59.1009     3.8805     3.8093     6.7766   121.4042     7.7536    -0.0040     2.3988     0.1521
  207.0000   -59.5386     3.4765     3.5081     5.9701   119.9406     7.7552    -0.0039     2.3907     0.1592
  207.5000   -59.8280     3.1798     3.2085     4.8587   118.6211     7.7567    -0.0022     2.3818     0.1643
  208.0000   -59.9708     2.9899     2.9143     4.1756   117.0045     7.7583    -0.0006     2.3737     0.1690
