~VERSION INFORMATION
 VERS.                2.0:   CWLS LOG ASCII STANDARD - VERSION 2.0
 WRAP.                 NO:   ONE LINE PER DEPTH STEP
~WELL INFORMATION
#MNEM.UNIT      DATA TYPE    INFORMATION
#----------   ------------   ------------------------------
 STRT.F            0.0000:   START DEPTH
 STOP.F          700.0000:   STOP DEPTH
 STEP.F            0.5000:   STEP LENGTH
 NULL.          -999.2500:   NO VALUE
 COMP. FENIX & SCISSON INC:   COMPANY
 WELL. 37-11 SX 11 WP #11-11:   WELL
 FLD .             TEAPOT:   FIELD
 LOC .      S11 T38N R78W:   LOCATION
 CNTY.            NATRONA:   COUNTY
 STAT.            WYOMING:   STATE
 CTRY. UNITED STATES OF AMERICA:   COUNTRY
 SRVC.      Dresser Atlas:   SERVICE COMPANY
 DATE.        21-AUG-1980:   LOGDATE
 API .       490251084200:   API NUMBER
~CURVE INFORMATION
#MNEM.UNIT       API CODE    CURVE DESCRIPTION
#----------   ------------   ------------------------------
 DEPT.F                  :   
 SPR .MV     07 010 01 00:   SPONTANEOUS POTENTIAL
 RFOC.OHMM   07 220 04 00:   RESISTIVITY FOCUSED LOG
 RILD.OHMM   07 120 46 00:   INDUCTION LOG DEEP RESISTIVITY
 RILM.OHMM   07 120 44 00:   INDUCTION LOG MEDIUM RESISTIVITY
 GRD .GAPI   45 310 01 00:   GAMMA RAY FROM DENSITY LOG
 CALD.IN     45 280 60 00:   CALIPER
 RHOB.G/C3   45 350 01 00:   BULK DENSITY
 CORR.G/C3   45 356 01 00:   DENSITY CORRECTION
 CNC .DEC    42 890 03 00:   NEUTRON POROSITY SANDSTONE
 PORD.DEC    45 890 12 00:   POROSITY DENSITY SANDSTONE
~PARAMETER INFORMATION
#MNEM.UNIT          VALUE    DESCRIPTION
#----------   ------------   ------------------------------
 PD  .                 GL:   PERMANENT DATUM
 EPD .F              5194:   ELEVATION PERMANENT DATUM
 LMF .                 KB:   LOG MEASURED FROM
 DAPD.F                 5:   FEET ABOVE PERMANENT DATUM
 DMF .                 KB:   DRILLING MEASURED FROM
 EKB .F              5199:   KELLING BUSHING
 EDF .F              5198:   DRILLING FLOOR
 EGL .F              5194:   GROUND LEVEL
 DATE.            8-21-80:   RUN DATE
 RUN .                  1:   RUN NUMBER
 DD  .F               695:   DEPTH DRILLER
 DL  .F               700:   DEPTH LOGGER
 BLI .F               699:   BOTTOM LOG INTERVAL
 BS  .IN            7.875:   BIT SIZE
 BSD .F               695:   BIT SIZE AT DEPTH
 DFT .      DISPERSED KCL:   DRILLING FLUID TYPE
 DFD .               2.68:   DRILLING FLUID DENSITY
 DFV .                 50:   DRILLING FLUID VISCOSITY
 DFPH.                 14:   DRILLING FLUID PH
 DFL .                 18:   DRILLING FLUID LOSS
 MSS .           FLOWLINE:   MUD SAMPLE SOURCE
 RMS .OHMM           .256:   RESISTIVITY MUD SAMPLE
 MST .F                70:   MUD SAMPLE TEMPERATURE
 RMF .OHMM           .393:   RESISTIVITY MUD FILTRATE SAMPLE
 MFST.F                66:   MUD FILTRATE SAMPLE TEMPERATURE
 RMC .OHMM           .858:   RESISTIVITY MUD CAKE
 MCST.F                66:   MUD CAKE SAMPLE TEMPERATURE
 MFSS.               MEAS:   MUD FILTRATE SAMPLE SOURCE
 MCSS.               MEAS:   MUD CAKE SAMPLE SOURCE
 RMB .OHMM            .53:   RESISTIVITY MUD AT BHT
 BHT .F                99:   BOTTOM HOLE TEMPERATURE
 TCS .HRS               3:   TIME CURCULATED STOPPED
 MRT .F                99:   MAXIMUM RECORDED TEMPERATURE
 LUN .               9369:   LOGGING UNIT NUMBER
 LUL .       ROCK SPRINGS:   LOGGING UNIT LOCATION
 ENGI.            PAULSON:   RECORDING ENGINEER
 WITN.              SCOTT:   WITNESSED BY
 CLNT.            A2DTECH:   CLIENT CODE
 ORIG.       2", 5" PRINT:   ORIGIN OF DATA
 UWI .       490251084200:   UNIQUE WELL ID
 DICO. A2D Technologies, Inc.:   DIGITIZING COMPANY
~OTHER INFORMATION
~A    DEPT     SPR       RFOC       RILD       RILM        GRD       CALD       RHOB       CORR        CNC         PORD 
# ...
  502.5000   -53.9174    10.0682     8.4413     8.5993   100.7185     7.9736     2.5462     0.1066     0.2712     0.1021
  503.0000   -54.2323     9.9619     8.5994     8.6380    99.6297     7.9706     2.5475     0.1093     0.2736     0.0931
  503.5000   -54.3517     9.8524     8.7672     8.8691   100.0923     7.9676     2.5294     0.1123     0.2574     0.0851
  504.0000   -54.2219     9.7442     8.9383     9.1063   102.5909     7.9657     2.5098     0.0922     0.2435     0.0884
  504.5000   -53.8345     9.7013     9.3446     9.3480   105.1722     7.9659     2.5197     0.0771     0.2298     0.0998
  505.0000   -53.2892    10.1543     9.9339    10.0184   105.6747     7.9654     2.5346     0.0807     0.2257     0.1063
  505.5000   -52.7350    11.2517    10.5604    10.7311   103.2150     7.9496     2.5306     0.0770     0.2217     0.1072
  506.0000   -52.5418    12.5932    11.2264    11.4945    99.4926     7.9141     2.5159     0.0619     0.2213     0.0947
  506.5000   -52.5450    14.0947    11.9343    12.3123    95.9530     7.8832     2.5008     0.0479     0.2414     0.0867
  507.0000   -52.7010    14.5307    12.6870    13.1881    92.4127     7.8523     2.4961     0.0509     0.2554     0.1051
  507.5000   -53.4028    14.6448    13.4220    13.8290    83.1387     7.8213     2.5187     0.0678     0.2694     0.1267
  508.0000   -54.1637    14.9779    13.8536    14.1553    78.3033     7.7985     2.5351     0.0820     0.2822     0.1352
  508.5000   -54.9266    15.8829    14.2660    14.4907    74.9013     7.7856     2.5161     0.0753     0.2821     0.1509
  509.0000   -55.6785    16.4829    14.7265    14.8348    72.8935     7.7927     2.4745     0.0674     0.2686     0.1625
  509.5000   -56.2143    16.9537    15.5404    15.1870    70.3148     7.8024     2.4525     0.0631     0.2595     0.1826
  510.0000   -56.1819    17.4379    16.4794    15.5730    67.3409     7.8121     2.4378     0.0695     0.2504     0.1961
  510.5000   -55.1160    18.0601    17.4023    15.5676    63.8206     7.8222     2.4126     0.0755     0.2463     0.1757
  511.0000   -53.9521    17.8623    17.2756    15.5699    63.0916     7.8282     2.3763     0.0641     0.2555     0.1535
  511.5000   -52.7861    17.5128    17.0513    15.5693    62.5061     7.8333     2.3498     0.0505     0.2634     0.1492
  512.0000   -52.5819    17.1701    16.8285    15.5339    61.4368     7.8384     2.3738     0.0533     0.2656     0.1762
  512.5000   -52.8267    16.8341    16.6092    15.3449    60.1787     7.8437     2.4216     0.0645     0.2508     0.1997
  513.0000   -53.0645    16.7200    16.3928    15.1582    59.7379     7.8448     2.4298     0.0753     0.2524     0.1997
  513.5000   -53.3052    16.6597    16.1792    14.9737    60.2026     7.8448     2.3901     0.0662     0.2634     0.1875
  514.0000   -53.5453    16.5659    15.9684    14.7911    63.0791     7.8448     2.3572     0.0558     0.2708     0.1784
  514.5000   -53.7850    16.3626    15.7604    14.6486    68.3250     7.8448     2.3440     0.0560     0.2639     0.1692
  515.0000   -53.9960    16.1617    15.5551    14.5278    72.5800     7.8448     2.3607     0.0637     0.2528     0.1674
  515.5000   -54.1242    15.9633    15.3524    14.4080    73.4036     7.8448     2.3773     0.0740     0.2427     0.1696
  516.0000   -54.2484    15.8608    15.1524    14.3224    71.8141     7.8448     2.3942     0.0816     0.2398     0.1703
  516.5000   -54.4092    16.0267    14.9550    14.2705    70.2865     7.8448     2.3980     0.0710     0.2406     0.1564
  517.0000   -55.1447    16.1399    14.7602    14.2227    68.7408     7.8448     2.3948     0.0566     0.2414     0.1496
  517.5000   -55.5607    16.2540    14.5905    14.1901    66.2269     7.8448     2.3935     0.0517     0.2398     0.1488
  518.0000   -55.9701    16.3083    14.5905    14.4664    65.2603     7.8448     2.4081     0.0543     0.2321     0.1549
  518.5000   -56.3905    16.2202    14.5905    14.7180    66.9521     7.8448     2.4260     0.0657     0.2241     0.1584
  519.0000   -56.7535    16.1541    14.7692    14.9740    67.3604     7.8448     2.4293     0.0673     0.2195     0.1581
  519.5000   -57.1225    16.0883    15.0491    15.2344    66.4381     7.8448     2.4194     0.0686     0.2145     0.1670
  520.0000   -57.4935    16.0086    15.3343    15.4993    66.2250     7.8448     2.4165     0.0702     0.2145     0.1782
  520.5000   -57.8675    16.9393    15.6248    15.7688    68.0733     7.8448     2.4147     0.0765     0.2246     0.1716
  521.0000   -58.2120    18.2076    15.9212    16.0431    69.6697     7.8448     2.4049     0.0767     0.2350     0.1631
  521.5000   -57.9133    19.2716    16.2191    16.3221    68.8447     7.8448     2.3863     0.0667     0.2416     0.1573
  522.0000   -57.5860    18.4328    16.6049    16.6059    65.6895     7.8448     2.3832     0.0615     0.2459     0.1569
  522.5000   -57.2525    17.6420    16.4058    16.7682    63.9004     7.8448     2.3991     0.0676     0.2491     0.1631
  523.0000   -57.5848    16.9249    16.1696    16.7316    64.2047     7.8448     2.4148     0.0740     0.2448     0.1647
  523.5000   -58.0253    16.9586    15.9307    16.7050    65.7336     7.8431     2.4148     0.0926     0.2360     0.1653
  524.0000   -58.4686    16.9951    15.7144    16.6785    67.2897     7.8410     2.4079     0.1119     0.2314     0.1682
  524.5000   -58.9114    17.0305    15.7939    16.6522    68.1993     7.8389     2.4041     0.1202     0.2398     0.1922
  525.0000   -59.2243    17.0653    15.8682    16.6257    69.0365     7.8368     2.4011     0.1189     0.2451     0.2100
  525.5000   -59.4796    17.1001    15.9427    16.4981    70.1517     7.8347     2.3960     0.1113     0.2332     0.2098
  526.0000   -59.7359    17.1350    16.0085    16.2719    70.6252     7.8325     2.3694     0.0932     0.2237     0.1857
  526.5000   -59.9899    17.1700    15.6982    16.0488    68.3772     7.8304     2.3241     0.0759     0.2327     0.1674
  527.0000   -60.6824    17.2051    15.4261    15.8288    66.9978     7.8283     2.3267     0.0650     0.2397     0.1712
  527.5000   -61.5280    17.2416    15.1590    15.6118    67.0542     7.8262     2.3628     0.0714     0.2404     0.1787
  528.0000   -61.7522    17.0310    14.8966    15.3978    68.3139     7.8248     2.3949     0.0798     0.2360     0.1819
  528.5000   -61.5150    16.8158    14.6387    15.1867    69.1856     7.8261     2.3995     0.0801     0.2367     0.1708
  529.0000   -62.0019    16.4315    14.3853    14.9785    68.5794     7.8273     2.3791     0.0730     0.2382     0.1578
  529.5000   -62.6574    16.0125    14.1362    14.7732    67.6592     7.8285     2.3716     0.0637     0.2313     0.1426
  530.0000   -63.3177    15.6047    13.8915    14.5707    67.6466     7.8297     2.3849     0.0602     0.2218     0.1319
  530.5000   -63.9758    15.1420    13.7603    14.3709    69.5701     7.8309     2.4029     0.0681     0.2264     0.1242
  531.0000   -64.6214    15.2935    13.6959    14.1739    70.6298     7.8321     2.4288     0.0790     0.2338     0.1238
  531.5000   -65.4119    15.5347    13.6318    13.9796    71.4926     7.8333     2.4483     0.0894     0.2319     0.1480
  532.0000   -66.2114    15.8608    13.5680    13.8007    72.3485     7.8345     2.4654     0.0934     0.2298     0.1626
  532.5000   -67.0129    15.7475    13.5044    13.7294    73.2254     7.8357     2.4716     0.0920     0.2327     0.1431
  533.0000   -67.8146    15.5805    13.4411    13.6628    74.0882     7.8369     2.4511     0.0846     0.2290     0.1327
  533.5000   -68.6124    15.4151    13.4219    13.5967    74.9751     7.8381     2.4119     0.0794     0.2225     0.1301
  534.0000   -69.1923    15.2516    13.4220    13.5307    75.8178     7.8393     2.4016     0.0898     0.2227     0.1394
  534.5000   -66.8251    15.1367    13.4220    13.4654    75.3101     7.8405     2.4406     0.1001     0.2228     0.1531
  535.0000   -64.1975    15.0950    13.4220    13.4220    75.6336     7.8417     2.4612     0.1106     0.2213     0.1611
  535.5000   -61.5892    15.0534    13.4220    13.6074    75.9552     7.8427     2.4482     0.1110     0.2291     0.1662
