~VERSION INFORMATION
 VERS.                2.0:   CWLS LOG ASCII STANDARD - VERSION 2.0
 WRAP.                 NO:   ONE LINE PER DEPTH STEP
~WELL INFORMATION
#MNEM.UNIT      DATA TYPE    INFORMATION
#----------   ------------   ------------------------------
 STRT.F            3.0000:   START DEPTH
 STOP.F          587.0000:   STOP DEPTH
 STEP.F            0.5000:   STEP LENGTH
 NULL.          -999.2500:   NO VALUE
 COMP.   FLUOR DANIEL INC:   COMPANY
 WELL. NAVAL PETROLEUM RESERVE 3 STX- #1-3:   WELL
 FLD .          N.P.R. #3:   FIELD
 LOC .       S3 T38N R78W:   LOCATION
 CNTY.            NATRONA:   COUNTY
 STAT.            WYOMING:   STATE
 CTRY. UNITED STATES OF AMERICA:   COUNTRY
 SRVC.      Western Atlas:   SERVICE COMPANY
 DATE.        03-FEB-1995:   LOGDATE
 API .       490252269200:   API NUMBER
~CURVE INFORMATION
#MNEM.UNIT       API CODE    CURVE DESCRIPTION
#----------   ------------   ------------------------------
 DEPT.F                  :   
 GRR .GAPI   07 310 01 00:   GAMMA RAY FROM RES. LOG.
 RILD.OHMM   07 120 46 00:   INDUCTION LOG DEEP RESISTIVITY
 RILM.OHMM   07 120 44 00:   INDUCTION LOG MEDIUM RESISTIVITY
~PARAMETER INFORMATION
#MNEM.UNIT          VALUE    DESCRIPTION
#----------   ------------   ------------------------------
 PD  .                 GL:   PERMANENT DATUM
 EPD .F              5226:   ELEVATION PERMANENT DATUM
 LMF .                 KB:   LOG MEASURED FROM
 DAPD.F                10:   FEET ABOVE PERMANENT DATUM
 DMF .                 KB:   DRILLING MEASURED FROM
 EKB .F              5236:   KELLING BUSHING
 EDF .F              5235:   DRILLING FLOOR
 EGL .F              5226:   GROUND LEVEL
 DATE.         3-FEB-1995:   RUN DATE
 RUN .                  1:   RUN NUMBER
 DD  .F               595:   DEPTH DRILLER
 DL  .F               595:   DEPTH LOGGER
 BLI .F               587:   BOTTOM LOG INTERVAL
 CS  .IN            9.625:   CASING SIZE
 CBD .F                55:   CASING BOTTOM DRILLER
 CBL .F                55:   CASING BOTTOM LOGGER
 BS  .IN             8.75:   BIT SIZE
 BSD .F               595:   BIT SIZE AT DEPTH
 DFT .                AIR:   DRILLING FLUID TYPE
 MRT .F                90:   MAXIMUM RECORDED TEMPERATURE
 LUN .             HL6274:   LOGGING UNIT NUMBER
 LUL .             CASPER:   LOGGING UNIT LOCATION
 ENGI.        VERN RAUTIO:   RECORDING ENGINEER
 WITN.        STEVE HARDY:   WITNESSED BY
 CLNT.            A2DTECH:   CLIENT CODE
 ORIG.           5" PRINT:   ORIGIN OF DATA
 UWI .       490252269200:   UNIQUE WELL ID
 DICO. A2D Technologies, Inc.:   DIGITIZING COMPANY
~OTHER INFORMATION
~A    DEPT      GRR      RILD       RILM   
# ...
  276.0000   117.5243     8.0781     8.1342
  276.5000   114.1070     8.0105     8.0360
  277.0000   110.7059     7.9101     7.9101
  277.5000   107.2718     7.9846     7.9846
  278.0000   106.0142     7.8241     7.7997
  278.5000   109.5574     7.7029     7.6788
  279.0000   113.3320     7.5835     7.5481
  279.5000   113.9838     7.3855     7.3247
  280.0000   113.8876     7.0865     7.0281
  280.5000   113.7686     6.7995     6.7432
  281.0000   113.8212     6.4947     6.4967
  281.5000   114.7472     6.5086     6.4685
  282.0000   116.2991     6.5222     6.3745
  282.5000   118.8646     6.5365     6.3766
  283.0000   117.3519     6.5511     6.4957
  283.5000   115.6368     6.5584     6.6307
  284.0000   114.8197     6.7138     6.7685
  284.5000   117.0992     6.8583     6.9092
  285.0000   119.3675     7.0059     7.0528
  285.5000   118.5533     7.1567     7.1993
  286.0000   115.9503     7.3108     7.3489
  286.5000   113.0380     7.4681     7.5492
  287.0000   112.4252     7.5481     7.5262
  287.5000   112.6888     7.4890     7.4804
  288.0000   114.2548     7.4439     7.4350
  288.5000   115.1399     7.3990     7.3900
  289.0000   114.5161     7.3544     7.3455
  289.5000   114.6596     7.3101     7.3012
  290.0000   115.3360     7.2704     7.2364
  290.5000   112.7012     7.0713     7.0194
  291.0000   110.4805     6.8157     6.7657
  291.5000   110.9849     6.5694     6.4972
  292.0000   112.3884     6.3190     6.2515
  292.5000   114.5427     5.9771     5.9124
  293.0000   116.6995     5.6536     5.5925
  293.5000   118.4226     5.3870     5.4137
  294.0000   116.9097     5.4042     5.3131
  294.5000   113.9026     5.4388     5.2354
  295.0000   110.9948     5.4737     5.4783
  295.5000   109.5842     5.5088     5.7059
  296.0000   110.3676     5.5406     5.9161
  296.5000   111.4269     5.8551     6.3214
  297.0000   112.5027     6.1565     6.7138
  297.5000   113.5768     6.4734     7.1307
  298.0000   114.6492     6.8066     7.6191
  298.5000   115.7225     7.3389     7.7134
  299.0000   116.7961     7.2704     7.7587
  299.5000   117.7781     7.3941     7.8043
  300.0000   118.0355     7.4559     7.8503
  300.5000   117.9997     7.5183     7.8966
  301.0000   117.3656     7.5811     7.9104
  301.5000   116.7542     7.6445     7.9102
  302.0000   116.1059     7.7085     7.9100
  302.5000   113.5940     7.7728     7.9102
  303.0000   111.2310     7.8375     7.9102
  303.5000   112.4333     7.9095     7.9105
  304.0000   114.1674     7.9332     7.9546
  304.5000   115.7069     7.9663     8.0045
  305.0000   115.2096     7.9995     8.0547
  305.5000   112.5627     8.0329     8.1052
  306.0000   110.0154     8.0664     8.1559
  306.5000   107.4035     8.1001     8.2071
  307.0000   107.0255     8.1339     8.2586
  307.5000   108.0458     8.1678     8.3104
  308.0000   109.3491     8.2132     8.3678
  308.5000   110.8144     8.1817     8.2542
  309.0000   112.4429     8.0774     8.0945
  309.5000   113.2599     7.9846     7.9650
  310.0000   113.2669     7.9693     7.9004
  310.5000   113.2598     7.9555     7.8363
  311.0000   112.9323     7.9417     7.7729
  311.5000   111.6487     7.9280     7.7097
  312.0000   110.6869     7.9142     7.5796
  312.5000   113.3989     7.7754     7.4234
  313.0000   116.3925     7.5869     7.2704
  313.5000   117.7188     7.4030     7.1206
  314.0000   117.5441     7.2231     6.9739
  314.5000   117.2727     6.9579     6.7913
  315.0000   117.0185     6.6170     6.5262
  315.5000   116.7764     6.2608     6.2715
  316.0000   116.4564     5.7425     6.0266
  316.5000   114.6401     5.2161     5.8063
  317.0000   112.8852     4.7381     4.9654
  317.5000   111.1390     4.3050     4.3072
  318.0000   109.5650     3.7983     3.7362
  318.5000   109.7598     3.3094     3.2409
  319.0000   114.0316     2.8834     2.8113
  319.5000   117.7643     2.5939     2.5309
  320.0000   118.5226     2.4734     2.3317
  320.5000   114.1268     2.3687     2.2538
  321.0000   109.1337     2.3180     2.3508
  321.5000   104.5030     2.3787     2.4636
  322.0000   104.2682     2.4404     2.5697
  322.5000   111.0526     2.6836     2.9436
  323.0000   116.5361     3.0124     3.3306
  323.5000   121.4711     3.3832     3.7684
  324.0000   122.7302     3.8537     4.2638
  324.5000   121.2769     4.4664     4.8244
  325.0000   119.8425     5.1164     5.4586
  325.5000   119.8041     5.8609     6.0848
  326.0000   122.3906     6.1999     6.2582
  326.5000   125.3761     6.5584     6.4366
  327.0000   125.0480     6.6825     6.4972
  327.5000   124.4763     6.6825     6.4230
  328.0000   123.9088     6.6668     6.3414
  328.5000   124.3997     6.6548     6.3172
  329.0000   124.4714     6.6428     6.3748
  329.5000   122.3482     6.6309     6.3753
  330.0000   120.1837     6.6201     6.3758
  330.5000   118.0240     6.3896     6.4378
  331.0000   116.4185     6.0740     6.1425
  331.5000   115.2870     5.7740     5.9250
  332.0000   116.3955     5.4889     5.5722
  332.5000   121.8934     5.2178     5.1837
  333.0000   127.8938     4.9601     4.8228
  333.5000   133.2618     4.7152     4.4875
  334.0000   134.1309     4.5085     4.1413
  334.5000   133.2770     4.5938     4.3320
  335.0000   131.7807     4.5926     4.6143
  335.5000   130.3261     4.7243     4.9155
  336.0000   129.5980     4.9961     5.2364
  336.5000   129.5937     5.3397     5.5783
  337.0000   129.5889     5.7071     5.9425
  337.5000   129.5889     6.0995     6.3305
  338.0000   129.5980     6.5183     6.7438
  338.5000   129.8813     6.9657     6.9768
  339.0000   131.1888     7.2026     7.1891
  339.5000   133.2092     7.2859     7.4079
  340.0000   132.1629     7.3796     7.6334
  340.5000   131.1841     7.4485     7.8625
  341.0000   133.6785     7.4864     8.0644
  341.5000   136.4763     7.5157     7.8348
  342.0000   134.0338     7.5451     7.8552
  342.5000   129.7458     7.5746     7.9210
  343.0000   125.9000     7.6191     7.9868
  343.5000   124.6775     7.5981     8.0597
  344.0000   123.4906     7.5564     8.0597
  344.5000   124.0394     7.5149     7.8832
  345.0000   126.9995     7.4777     7.7500
  345.5000   129.5475     7.4653     7.6191
  346.0000   129.2228     7.4540     7.4777
  346.5000   129.4857     7.4427     7.4623
  347.0000   130.6547     7.4315     7.4453
  347.5000   131.2052     7.4203     7.4283
  348.0000   132.0420     7.4079     7.4113
  348.5000   132.8638     7.3938     7.3943
  349.0000   132.4901     7.3780     7.3771
  349.5000   131.2405     7.3623     7.3606
  350.0000   132.0379     7.3467     7.3446
  350.5000   133.6694     7.1603     7.1377
  351.0000   134.4695     6.8155     6.8596
  351.5000   133.1276     6.4873     6.5923
  352.0000   131.9938     6.1421     6.2582
  352.5000   133.1729     6.1562     6.3172
  353.0000   134.7931     6.1768     6.3172
  353.5000   136.4872     6.1975     6.2694
  354.0000   136.9204     6.0172     6.1724
  354.5000   135.1483     5.8174     6.0770
  355.0000   133.2618     5.6242     5.9830
  355.5000   132.4550     5.3923     5.6042
  356.0000   131.7085     5.0592     5.1053
  356.5000   130.9449     4.7692     4.6502
  357.0000   129.8417     4.7909     4.5474
  357.5000   127.5720     4.8159     4.7460
  358.0000   125.5021     4.8409     4.9335
  358.5000   127.3293     4.9052     5.1291
  359.0000   130.0282     4.9513     5.3570
  359.5000   129.8908     5.1609     5.6242
  360.0000   128.7861     5.5121     5.9046
  360.5000   127.9703     5.9125     6.1988
  361.0000   128.6726     6.3421     6.5077
  361.5000   127.4282     6.6825     6.7179
  362.0000   125.8859     6.6813     6.8615
  362.5000   125.0252     6.6851     7.0098
  363.0000   126.6816     6.4972     6.8548
  363.5000   127.4551     6.4988     6.4974
  364.0000   124.0230     5.9831     5.9472
  364.5000   119.7267     5.4208     5.4163
  365.0000   118.5729     5.1906     4.9328
  365.5000   124.4095     5.0855     4.6807
  366.0000   129.2352     4.9826     4.7564
  366.5000   131.8215     4.9052     4.9344
