~VERSION INFORMATION
 VERS.                2.0:   CWLS LOG ASCII STANDARD - VERSION 2.0
 WRAP.                 NO:   ONE LINE PER DEPTH STEP
~WELL INFORMATION
#MNEM.UNIT      DATA TYPE    INFORMATION
#----------   ------------   ------------------------------
 STRT.F           46.0000:   START DEPTH
 STOP.F         2100.0000:   STOP DEPTH
 STEP.F            0.5000:   STEP LENGTH
 NULL.          -999.2500:   NO VALUE
 COMP. LAWRENCE/ALLISON INC:   COMPANY
 WELL.    58-21 SX #10-10:   WELL
 FLD .             TEAPOT:   FIELD
 LOC .      S10 T38N R78W:   LOCATION
 CNTY.            NATRONA:   COUNTY
 STAT.            WYOMING:   STATE
 CTRY. UNITED STATES OF AMERICA:   COUNTRY
 SRVC.           Gearhart:   SERVICE COMPANY
 DATE.        06-JUL-1987:   LOGDATE
 API .       490251114400:   API NUMBER
~CURVE INFORMATION
#MNEM.UNIT       API CODE    CURVE DESCRIPTION
#----------   ------------   ------------------------------
 DEPT.F                  :   
 GR  .GAPI   81 310 01 00:   GAMMA RAY
 TGAS.UNITS  91 830 01 00:   TOTAL GAS FROM HOTWIRE
 ROP .MIN/FT 91 810 01 00:   RAT OF DRILLING PENETRATION
~PARAMETER INFORMATION
#MNEM.UNIT          VALUE    DESCRIPTION
#----------   ------------   ------------------------------
 PD  .                 GL:   PERMANENT DATUM
 EPD .F              5219:   ELEVATION PERMANENT DATUM
 LMF .                 KB:   LOG MEASURED FROM
 DAPD.F                 8:   FEET ABOVE PERMANENT DATUM
 DMF .                 KB:   DRILLING MEASURED FROM
 EKB .F              5227:   KELLING BUSHING
 EDF .F              5225:   DRILLING FLOOR
 EGL .F              5219:   GROUND LEVEL
 DATE.             7-6-87:   RUN DATE
 RUN .                  1:   RUN NUMBER
 DD  .F               610:   DEPTH DRILLER
 DL  .F             531.5:   DEPTH LOGGER
 BLI .F               526:   BOTTOM LOG INTERVAL
 TLI .F                50:   TOP LOG INTERVAL
 BS  .IN            7.875:   BIT SIZE
 BSD .F               610:   BIT SIZE AT DEPTH
 DFT .              WATER:   DRILLING FLUID TYPE
 LUN .               6084:   LOGGING UNIT NUMBER
 LUL .           GILLETTE:   LOGGING UNIT LOCATION
 ENGI.                COX:   RECORDING ENGINEER
 WITN.               LOWE:   WITNESSED BY
 CLNT.            A2DTECH:   CLIENT CODE
 ORIG.           5" PRINT:   ORIGIN OF DATA
 UWI .       490251114400:   UNIQUE WELL ID
 DICO. A2D Technologies, Inc.:   DIGITIZING COMPANY
~OTHER INFORMATION
~A   DEPT        GR      TGAS        ROP   
# ...
 1138.0000  -999.2500     6.6878     0.4313
 1138.5000  -999.2500     6.6976     0.4313
 1139.0000  -999.2500     6.7073     0.4313
 1139.5000  -999.2500     6.7171     0.4313
 1140.0000  -999.2500     6.7269     0.4313
 1140.5000  -999.2500     6.7366     0.4313
 1141.0000  -999.2500     6.7464     0.4313
 1141.5000  -999.2500     6.7560     0.4313
 1142.0000  -999.2500     6.7673     0.4313
 1142.5000  -999.2500     6.7200     0.4312
 1143.0000  -999.2500     6.6527     0.4311
 1143.5000  -999.2500     6.5843     0.4314
 1144.0000  -999.2500     6.5158     0.4426
 1144.5000  -999.2500     6.4475     0.4893
 1145.0000  -999.2500     6.3791     0.5341
 1145.5000  -999.2500     6.3107     0.5787
 1146.0000  -999.2500     6.2423     0.6199
 1146.5000  -999.2500     6.1740     0.6187
 1147.0000  -999.2500     6.1056     0.6182
 1147.5000  -999.2500     6.0372     0.6178
 1148.0000  -999.2500     5.9689     0.6175
 1148.5000  -999.2500     5.9005     0.6171
 1149.0000  -999.2500     5.8321     0.6168
 1149.5000  -999.2500     5.7637     0.6164
 1150.0000  -999.2500     5.6954     0.6161
 1150.5000  -999.2500     5.6270     0.6157
 1151.0000  -999.2500     5.5586     0.6154
 1151.5000  -999.2500     5.4903     0.6150
 1152.0000  -999.2500     5.4219     0.6147
 1152.5000  -999.2500     5.3535     0.6143
 1153.0000  -999.2500     5.2820     0.6140
 1153.5000  -999.2500     5.2648     0.6136
 1154.0000  -999.2500     5.2644     0.6133
 1154.5000  -999.2500     5.2646     0.6129
 1155.0000  -999.2500     5.2646     0.6126
 1155.5000  -999.2500     5.2646     0.6122
 1156.0000  -999.2500     5.2646     0.6119
 1156.5000  -999.2500     5.2646     0.6115
 1157.0000  -999.2500     5.2646     0.6112
 1157.5000  -999.2500     5.2646     0.6108
 1158.0000  -999.2500     5.2646     0.6105
 1158.5000  -999.2500     5.2646     0.6101
 1159.0000  -999.2500     5.2647     0.6098
 1159.5000  -999.2500     5.2642     0.6094
 1160.0000  -999.2500     5.2678     0.6091
 1160.5000  -999.2500     5.0971     0.6087
 1161.0000  -999.2500     4.8654     0.6084
 1161.5000  -999.2500     4.6302     0.6080
 1162.0000  -999.2500     4.3948     0.6077
 1162.5000  -999.2500     4.1575     0.6073
 1163.0000  -999.2500     3.9262     0.6070
 1163.5000  -999.2500     3.7539     0.6069
 1164.0000  -999.2500     5.9112     0.6076
 1164.5000  -999.2500     9.2149     0.5607
 1165.0000  -999.2500    12.6047     0.5098
 1165.5000  -999.2500    12.8127     0.4559
 1166.0000  -999.2500    12.7909     0.4567
 1166.5000  -999.2500    12.7690     0.4548
 1167.0000  -999.2500    12.3372     0.4537
 1167.5000  -999.2500    11.9042     0.4524
 1168.0000  -999.2500    11.3993     0.4511
 1168.5000  -999.2500    10.8797     0.4498
 1169.0000  -999.2500    10.3590     0.4485
 1169.5000  -999.2500     9.8386     0.4472
 1170.0000  -999.2500     9.3183     0.4459
 1170.5000  -999.2500     8.7980     0.4445
 1171.0000  -999.2500     8.2776     0.4432
 1171.5000  -999.2500     7.7557     0.4419
 1172.0000  -999.2500     7.2355     0.4406
 1172.5000  -999.2500     6.7548     0.4393
 1173.0000  -999.2500     6.7665     0.4380
 1173.5000  -999.2500     6.7686     0.4366
 1174.0000  -999.2500     6.7701     0.4353
 1174.5000  -999.2500     6.7026     0.4340
 1175.0000  -999.2500     6.6111     0.4327
 1175.5000  -999.2500     6.5181     0.4313
 1176.0000  -999.2500     6.4264     0.4312
 1176.5000  -999.2500     6.3392     0.4313
 1177.0000  -999.2500     6.2283     0.4313
 1177.5000  -999.2500     5.5155     0.4313
 1178.0000  -999.2500     4.7990     0.4313
 1178.5000  -999.2500     4.7450     0.4313
 1179.0000  -999.2500     5.1838     0.4313
 1179.5000  -999.2500     5.6574     0.4313
 1180.0000  -999.2500     6.1471     0.4313
 1180.5000  -999.2500     6.0480     0.4313
 1181.0000  -999.2500     5.2326     0.4313
 1181.5000  -999.2500     5.1248     0.4313
 1182.0000  -999.2500     5.0138     0.4313
 1182.5000  -999.2500     4.9076     0.4313
 1183.0000  -999.2500     4.7878     0.4313
 1183.5000  -999.2500     4.5129     0.4313
 1184.0000  -999.2500     4.2647     0.4313
 1184.5000  -999.2500     4.2590     0.4313
 1185.0000  -999.2500     4.2614     0.4313
 1185.5000  -999.2500     4.2618     0.4313
 1186.0000  -999.2500     4.2618     0.4313
 1186.5000  -999.2500     4.2618     0.4313
 1187.0000  -999.2500     4.2618     0.4313
 1187.5000  -999.2500     4.2618     0.4313
 1188.0000  -999.2500     4.2618     0.4313
 1188.5000  -999.2500     4.2618     0.4313
 1189.0000  -999.2500     4.2618     0.4313
 1189.5000  -999.2500     4.2618     0.4313
 1190.0000  -999.2500     4.2618     0.4313
 1190.5000  -999.2500     4.2618     0.4313
 1191.0000  -999.2500     4.2618     0.4313
 1191.5000  -999.2500     4.2618     0.4313
 1192.0000  -999.2500     4.2618     0.4313
 1192.5000  -999.2500     4.2618     0.4313
 1193.0000  -999.2500     4.2618     0.4313
 1193.5000  -999.2500     4.2618     0.4313
 1194.0000  -999.2500     4.2618     0.4313
 1194.5000  -999.2500     4.2618     0.4313
 1195.0000  -999.2500     4.2618     0.4313
 1195.5000  -999.2500     4.2618     0.4313
 1196.0000  -999.2500     4.2618     0.4313
 1196.5000  -999.2500     4.2618     0.4313
 1197.0000  -999.2500     4.2618     0.4313
 1197.5000  -999.2500     4.2618     0.4313
 1198.0000  -999.2500     4.2618     0.4313
 1198.5000  -999.2500     4.2618     0.4313
 1199.0000  -999.2500     4.2618     0.4313
 1199.5000  -999.2500     4.2618     0.4313
 1200.0000  -999.2500     4.2618     0.4313
 1200.5000  -999.2500     4.2618     0.4313
 1201.0000  -999.2500     4.2618     0.4313
 1201.5000  -999.2500     4.2618     0.4313
 1202.0000  -999.2500     4.2618     0.4313
 1202.5000  -999.2500     4.2618     0.4313
 1203.0000  -999.2500     4.2618     0.4312
 1203.5000  -999.2500     4.2618     0.4311
 1204.0000  -999.2500     4.2618     0.4315
 1204.5000  -999.2500     4.2618     0.4622
 1205.0000  -999.2500     4.2618     0.4978
 1205.5000  -999.2500     4.2618     0.5068
 1206.0000  -999.2500     4.2618     0.5078
 1206.5000  -999.2500     4.2618     0.5086
 1207.0000  -999.2500     4.2618     0.5094
 1207.5000  -999.2500     4.2618     0.5103
 1208.0000  -999.2500     4.2618     0.5111
 1208.5000  -999.2500     4.2618     0.5120
 1209.0000  -999.2500     4.2618     0.5129
 1209.5000  -999.2500     4.2618     0.5137
 1210.0000  -999.2500     4.2618     0.5146
 1210.5000  -999.2500     4.2618     0.5154
 1211.0000  -999.2500     4.2618     0.5163
 1211.5000  -999.2500     4.2618     0.5171
 1212.0000  -999.2500     4.2618     0.5180
 1212.5000  -999.2500     4.2618     0.5187
 1213.0000  -999.2500     4.2618     0.5179
 1213.5000  -999.2500     4.2618     0.5172
 1214.0000  -999.2500     4.2618     0.5165
 1214.5000  -999.2500     4.2618     0.5157
 1215.0000  -999.2500     4.2618     0.5150
 1215.5000  -999.2500     4.2618     0.5143
 1216.0000  -999.2500     4.2618     0.5135
 1216.5000  -999.2500     4.2618     0.5128
 1217.0000  -999.2500     4.2618     0.5121
 1217.5000  -999.2500     4.2625     0.5113
 1218.0000  -999.2500     4.2527     0.5106
 1218.5000  -999.2500     4.2287     0.5099
 1219.0000  -999.2500     4.7478     0.5092
 1219.5000  -999.2500     4.7594     0.5084
 1220.0000  -999.2500     4.7628     0.5077
 1220.5000  -999.2500     4.6794     0.5070
 1221.0000  -999.2500     4.5895     0.5062
 1221.5000  -999.2500     4.4997     0.5055
 1222.0000  -999.2500     4.4092     0.5048
 1222.5000  -999.2500     4.3256     0.5040
 1223.0000  -999.2500     4.2758     0.5033
 1223.5000  -999.2500     4.7902     0.5026
 1224.0000  -999.2500     5.0507     0.5018
 1224.5000  -999.2500     5.4115     0.5011
 1225.0000  -999.2500     5.7847     0.5004
 1225.5000  -999.2500     6.1568     0.4996
 1226.0000  -999.2500     6.5247     0.4989
 1226.5000  -999.2500     6.7729     0.4982
 1227.0000  -999.2500     6.7698     0.4974
 1227.5000  -999.2500     6.7638     0.4967
 1228.0000  -999.2500     6.5038     0.4960
 1228.5000  -999.2500     6.2241     0.4952
