~VERSION INFORMATION
 VERS.                2.0:   CWLS LOG ASCII STANDARD - VERSION 2.0
 WRAP.                 NO:   ONE LINE PER DEPTH STEP
~WELL INFORMATION
#MNEM.UNIT      DATA TYPE    INFORMATION
#----------   ------------   ------------------------------
 STRT.F            8.0000:   START DEPTH
 STOP.F          866.5000:   STOP DEPTH
 STEP.F            0.5000:   STEP LENGTH
 NULL.          -999.2500:   NO VALUE
 COMP. LAWRENCE/ALLISON INC:   COMPANY
 WELL.    42-11 SX #11-11:   WELL
 FLD .              NPR 3:   FIELD
 LOC .      S11 T38N R78W:   LOCATION
 CNTY.            NATRONA:   COUNTY
 STAT.            WYOMING:   STATE
 CTRY. UNITED STATES OF AMERICA:   COUNTRY
 SRVC.           Gearhart:   SERVICE COMPANY
 DATE.        17-MAY-1987:   LOGDATE
 API .       490251112700:   API NUMBER
~CURVE INFORMATION
#MNEM.UNIT       API CODE    CURVE DESCRIPTION
#----------   ------------   ------------------------------
 DEPT.F                  :   
 GRR .GAPI   07 310 01 00:   GAMMA RAY FROM RES. LOG.
 RILD.OHMM   07 120 46 00:   INDUCTION LOG DEEP RESISTIVITY
 RILM.OHMM   07 120 44 00:   INDUCTION LOG MEDIUM RESISTIVITY
~PARAMETER INFORMATION
#MNEM.UNIT          VALUE    DESCRIPTION
#----------   ------------   ------------------------------
 PD  .                 GL:   PERMANENT DATUM
 EPD .F              5166:   ELEVATION PERMANENT DATUM
 LMF .                 KB:   LOG MEASURED FROM
 DAPD.F                 8:   FEET ABOVE PERMANENT DATUM
 DMF .                 KB:   DRILLING MEASURED FROM
 EKB .F              5174:   KELLING BUSHING
 EDF .F              5174:   DRILLING FLOOR
 EGL .F              5166:   GROUND LEVEL
 DATE.            5-17-87:   RUN DATE
 RUN .                  1:   RUN NUMBER
 DD  .F               891:   DEPTH DRILLER
 DL  .F               874:   DEPTH LOGGER
 BLI .F               865:   BOTTOM LOG INTERVAL
 TLI .F                44:   TOP LOG INTERVAL
 CS  .IN            8.625:   CASING SIZE
 CBD .F                49:   CASING BOTTOM DRILLER
 CBL .F                44:   CASING BOTTOM LOGGER
 BS  .IN            7.875:   BIT SIZE
 BSD .F               891:   BIT SIZE AT DEPTH
 DFT .           AIR FOAM:   DRILLING FLUID TYPE
 TCS .HRS            0300:   TIME CURCULATED STOPPED
 TLAB.HRS            1255:   TIME LOGGER AT BOTTOM
 MRT .F                80:   MAXIMUM RECORDED TEMPERATURE
 LUN .               7597:   LOGGING UNIT NUMBER
 LUL .           GILLETTE:   LOGGING UNIT LOCATION
 ENGI.            WANGLER:   RECORDING ENGINEER
 WITN.             STRONG:   WITNESSED BY
 CLNT.            A2DTECH:   CLIENT CODE
 ORIG.       2", 5" PRINT:   ORIGIN OF DATA
 UWI .       490251112700:   UNIQUE WELL ID
 DICO. A2D Technologies, Inc.:   DIGITIZING COMPANY
~OTHER INFORMATION
~A    DEPT      GRR      RILD       RILM   
# ...
  372.0000   109.1656     7.3301     7.6303
  372.5000   111.8530     7.5125     7.7555
  373.0000   114.1329     7.7227     7.9908
  373.5000   112.9667     7.9389     8.2298
  374.0000   109.1401     8.1622     8.3685
  374.5000   105.7264     8.3560     8.4972
  375.0000   102.3769     8.4662     8.6278
  375.5000    98.9294     8.4329     8.5871
  376.0000    97.3245     8.3787     8.5467
  376.5000    98.2644     8.3249     8.5064
  377.0000    99.7465     8.2713     8.4663
  377.5000    99.4004     8.2181     8.4263
  378.0000    98.9920     8.1653     8.3866
  378.5000    98.5592     8.1128     8.3471
  379.0000    99.9496     8.0606     8.3077
  379.5000   101.8336     8.0088     8.2685
  380.0000   103.7283     7.9573     8.2295
  380.5000   105.4974     7.9246     8.1907
  381.0000   105.8865     7.9908     8.1524
  381.5000   105.5702     8.0744     8.2509
  382.0000   104.8513     8.1670     8.3497
  382.5000   104.4305     8.2606     8.4498
  383.0000   104.0682     8.3552     8.5511
  383.5000   103.2763     8.4509     8.6535
  384.0000   101.8696     8.5471     8.7574
  384.5000   100.4577     8.6632     8.8628
  385.0000    99.4330     8.7924     8.9598
  385.5000    99.9570     8.6941     8.8912
  386.0000   101.0325     8.5537     8.8264
  386.5000   102.5308     8.4511     8.7628
  387.0000   103.8452     8.4099     8.6996
  387.5000   105.0575     8.3868     8.6369
  388.0000   106.2661     8.3835     8.6020
  388.5000   105.6353     8.3766     8.5723
  389.0000   104.8705     8.3696     8.5461
  389.5000   104.2374     8.3627     8.5468
  390.0000   105.6915     8.3558     8.5467
  390.5000   105.9187     8.3489     8.5467
  391.0000   105.9006     8.3420     8.5469
  391.5000   106.9652     8.3351     8.5412
  392.0000   107.8849     8.3282     8.4947
  392.5000   106.2897     8.3213     8.4617
  393.0000   104.3044     8.3144     8.4324
  393.5000   104.8931     8.3063     8.4036
  394.0000   108.5556     8.2528     8.3750
  394.5000   111.7375     8.2009     8.3465
  395.0000   110.1941     8.1494     8.3181
  395.5000   106.6208     8.0982     8.2898
  396.0000   103.3686     8.0472     8.2616
  396.5000   104.4385     7.9999     8.2334
  397.0000   108.2241     8.0111     8.2298
  397.5000   111.1105     8.0222     8.2298
  398.0000   111.4451     8.0331     8.2298
  398.5000   111.6408     8.0440     8.2298
  399.0000   111.2681     8.0549     8.2298
  399.5000   110.8101     8.0661     8.2299
  400.0000   110.4060     8.0745     8.2297
  400.5000   111.6607     8.0039     8.2237
  401.0000   113.0080     7.9389     8.1764
  401.5000   113.7294     7.8698     8.1293
  402.0000   111.5428     7.8001     8.0834
  402.5000   109.4161     7.7310     7.9983
  403.0000   108.8321     7.6625     7.9089
  403.5000   108.9896     7.6308     7.8501
  404.0000   109.2525     7.7748     8.0156
  404.5000   109.4964     7.9027     8.1414
  405.0000   110.2301     8.0326     8.2691
  405.5000   111.2057     8.1648     8.3868
  406.0000   111.6190     8.2990     8.4930
  406.5000   107.9878     8.4664     8.5451
  407.0000   104.3539     8.4485     8.5975
  407.5000   100.7405     8.4256     8.6278
  408.0000   100.0041     8.4028     8.5998
  408.5000   102.9085     8.3823     8.5771
  409.0000   106.7332     8.3677     8.5544
  409.5000   108.6842     8.3531     8.5318
  410.0000   107.1157     8.3385     8.5093
  410.5000   105.5748     8.3239     8.4868
  411.0000   106.3510     8.3100     8.4664
  411.5000   107.1866     8.2852     8.4664
  412.0000   106.1567     8.2598     8.4669
  412.5000   103.6244     8.2346     8.3812
  413.0000   101.6545     8.1762     8.3082
  413.5000   101.7331     8.0897     8.2359
  414.0000   103.2874     8.0041     8.1644
  414.5000   104.9625     7.9194     8.0931
  415.0000   106.6379     7.8301     7.9901
  415.5000   108.4329     7.7160     7.8772
  416.0000   110.7671     7.6036     7.7660
  416.5000   112.2680     7.4928     7.6565
  417.0000   111.2921     7.3836     7.5485
  417.5000   110.3785     7.2760     7.4176
  418.0000   109.4758     7.2103     7.4681
  418.5000   109.1401     7.3379     7.5569
  419.0000   111.1013     7.4314     7.6466
  419.5000   112.3670     7.5264     7.7375
  420.0000   111.3671     7.6225     7.8295
  420.5000   109.2347     7.7198     7.9244
  421.0000   107.1070     7.8184     8.0307
  421.5000   105.8835     7.9182     8.1404
  422.0000   105.5921     8.0194     8.2519
  422.5000   106.6573     8.1222     8.3172
  423.0000   107.7134     8.2294     8.3476
  423.5000   108.7187     8.2413     8.3778
  424.0000   108.6434     8.2524     8.4082
  424.5000   105.9350     8.2639     8.4387
  425.0000   103.1228     8.2754     8.4664
  425.5000   100.4134     8.2870     8.4664
  426.0000   102.4398     8.2987     8.4385
  426.5000   105.4745     8.3079     8.3883
  427.0000   105.5230     8.2380     8.3384
  427.5000   105.7159     8.1529     8.2888
  428.0000   107.3179     8.0687     8.2395
  428.5000   108.9087     7.9853     8.1903
  429.0000   110.5012     7.9028     8.1411
  429.5000   110.7857     7.8211     8.0933
  430.0000   108.8288     7.7763     7.9998
  430.5000   106.8598     7.8336     8.1201
  431.0000   105.9633     7.8798     8.1866
  431.5000   108.0407     7.9262     8.2537
  432.0000   110.3037     7.9729     8.3330
  432.5000   111.0587     8.0834     8.4614
  433.0000   105.8390     8.2836     8.5917
  433.5000   100.5955     8.4888     8.7298
  434.0000    98.6189     8.6990     8.9175
  434.5000    99.2347     8.9154     9.1093
  435.0000   101.1639     9.0499     9.3051
  435.5000   103.0565     9.1652     9.5052
  436.0000   104.9728     9.2816     9.6599
  436.5000   105.4081     9.3995     9.7921
  437.0000   105.0880     9.5190     9.9261
  437.5000   104.7648     9.6399    10.0855
  438.0000   104.3572     9.8076    10.3479
  438.5000   102.7018    10.0267    10.6172
  439.0000   100.0342    10.3598    10.8935
  439.5000    98.0646    10.7027    11.1770
  440.0000    97.6821    11.0578    11.4678
  440.5000    96.4038    11.4249    11.7662
  441.0000    91.3074    11.7128    12.0724
  441.5000    86.6595    11.9566    12.3320
  442.0000    85.1990    12.1213    12.4710
  442.5000    87.9277    11.9935    12.2723
  443.0000    91.2424    11.8957    12.1231
  443.5000    94.5668    11.6768    11.9898
  444.0000    97.8608    11.4612    11.9063
  444.5000    99.9703    11.2495    11.8361
  445.0000    98.7562    11.0298    11.7681
  445.5000    97.6291    10.9292    11.7006
  446.0000    96.5775    10.7963    11.4818
  446.5000    96.9953    10.7010    11.1652
  447.0000    97.0291    10.6535    10.8234
  447.5000    95.6257    10.6179    10.9261
  448.0000    94.6621    10.6086    10.9064
  448.5000    96.0868    10.5993    10.8947
  449.0000    96.2131    10.5900    10.8831
  449.5000    94.3858    10.5807    10.8715
  450.0000    92.5067    10.5714    10.8599
  450.5000    94.2960    10.5621    10.8483
  451.0000    97.1343    10.5528    10.8366
  451.5000    99.7073    10.5435    10.8250
  452.0000    98.7029    10.5344    10.8235
  452.5000    97.5965    10.5249    10.8234
  453.0000    96.6086    10.5210    10.8234
  453.5000    98.2761    10.4299    10.7614
  454.0000   100.1267    10.2815    10.6141
  454.5000    98.8411    10.1352    10.4682
  455.0000    96.3103     9.9910    10.3245
  455.5000    95.7593     9.8489    10.1829
  456.0000    96.4397     9.7088    10.0432
  456.5000    96.7162     9.5707     9.9054
  457.0000    94.8096     9.4826     9.7695
  457.5000    93.1834     9.4635     9.6624
  458.0000    94.7616     9.4160     9.6262
  458.5000    96.5865     9.3687     9.5894
  459.0000    98.4258     9.3216     9.5530
  459.5000   100.2494     9.2748     9.5167
  460.0000    96.9445     9.2283     9.4805
  460.5000    93.5181     9.1819     9.4445
  461.0000    92.4106     9.1358     9.4086
  461.5000    93.7446     9.0900     9.3729
  462.0000    96.4813     9.0443     9.3372
  462.5000    99.2839     8.9989     9.3018
