~VERSION INFORMATION
 VERS.                2.0:   CWLS LOG ASCII STANDARD - VERSION 2.0
 WRAP.                 NO:   ONE LINE PER DEPTH STEP
~WELL INFORMATION
#MNEM.UNIT      DATA TYPE    INFORMATION
#----------   ------------   ------------------------------
 STRT.F           53.0000:   START DEPTH
 STOP.F         4152.0000:   STOP DEPTH
 STEP.F            0.5000:   STEP LENGTH
 NULL.          -999.2500:   NO VALUE
 COMP. DEPARTMENT OF ENERGY:   COMPANY
 WELL. RES 3 TEAPOT #11-STX-11:   WELL
 FLD . TEAPOT NAVAL RESERVE:   FIELD
 LOC .      S11 T38N R78W:   LOCATION
 CNTY.            NATRONA:   COUNTY
 STAT.            WYOMING:   STATE
 CTRY. UNITED STATES OF AMERICA:   COUNTRY
 SRVC.       Schlumberger:   SERVICE COMPANY
 DATE.        24-JUL-1975:   LOGDATE
 API .       490251025200:   API NUMBER
~CURVE INFORMATION
#MNEM.UNIT       API CODE    CURVE DESCRIPTION
#----------   ------------   ------------------------------
 DEPT.F                  :   
 SPR .MV     07 010 01 00:   SPONTANEOUS POTENTIAL
 ILD .OHMM   07 120 46 00:   INDUCTION LOG DEEP
 ILM .OHMM   07 120 44 00:   INDUCTION LOG MEDIUM
 LL8 .OHMM   07 220 08 00:   LATEROLOG-8 RES.
 DPOR.DEC    45 890 12 00:   DENSITY POROSITY SANDSTONE
 NPOR.DEC    42 890 03 00:   NEUTRON POROSITY SANDSTONE
 RHOB.G/C3   45 350 01 00:   BULK DENSITY
 CORR.G/C3   45 356 01 00:   DENSITY CORRECTION
 GRD .GAPI   45 310 01 00:   GAMMA RAY FROM DENSITY LOG
 CALD.IN     45 280 60 00:   CALIPER FROM DENSITY LOG
~PARAMETER INFORMATION
#MNEM.UNIT          VALUE    DESCRIPTION
#----------   ------------   ------------------------------
 PD  .                 GL:   PERMANENT DATUM
 EPD .F              5165:   ELEVATION PERMANENT DATUM
 LMF .                 KB:   LOG MEASURED FROM
 DAPD.F                13:   FEET ABOVE PERMANENT DATUM
 DMF .                 KB:   DRILLING MEASURED FROM
 EKB .F              5178:   KELLING BUSHING
 EGL .F              5165:   GROUND LEVEL
 DATE.            7-24-75:   RUN DATE
 RUN .                  1:   RUN NUMBER
 DD  .F              4150:   DEPTH DRILLER
 DL  .F              4154:   DEPTH LOGGER
 BLI .F              4152:   BOTTOM LOG INTERVAL
 TLI .F              1800:   TOP LOG INTERVAL
 CS  .IN            8.625:   CASING SIZE
 CBD .F               625:   CASING BOTTOM DRILLER
 CBL .F               627:   CASING BOTTOM LOGGER
 BS  .IN            7.875:   BIT SIZE
 BSD .F              4150:   BIT SIZE AT DEPTH
 DFT .                FGM:   DRILLING FLUID TYPE
 DFD .                9.5:   DRILLING FLUID DENSITY
 DFV .                 85:   DRILLING FLUID VISCOSITY
 MSS .           FLOWLINE:   MUD SAMPLE SOURCE
 RMS .OHMM           1.34:   RESISTIVITY MUD SAMPLE
 MST .F                91:   MUD SAMPLE TEMPERATURE
 RMF .OHMM           1.17:   RESISTIVITY MUD FILTRATE SAMPLE
 MFST.F                91:   MUD FILTRATE SAMPLE TEMPERATURE
 MFSS.                  M:   MUD FILTRATE SAMPLE SOURCE
 RMB .OHMM            .94:   RESISTIVITY MUD AT BHT
 BHT .F               130:   BOTTOM HOLE TEMPERATURE
 TCS .HRS            1230:   TIME CURCULATED STOPPED
 TLAB.HRS            1900:   TIME LOGGER AT BOTTOM
 MRT .F               132:   MAXIMUM RECORDED TEMPERATURE
 LUN .               7680:   LOGGING UNIT NUMBER
 LUL .               CSPR:   LOGGING UNIT LOCATION
 ENGI.             FRENCH:   RECORDING ENGINEER
 WITN.             CARTER:   WITNESSED BY
 CLNT.            A2DTECH:   CLIENT CODE
 ORIG.       2", 5" PRINT:   ORIGIN OF DATA
 UWI .       490251025200:   UNIQUE WELL ID
 DICO. A2D Technologies, Inc.:   DIGITIZING COMPANY
~OTHER INFORMATION
~A   DEPT      SPR          ILD        ILM       LL8      DPOR       NPOR       RHOB       CORR        GRD       CALD   
# ...
 3302.5000  -999.2500  -999.2500  -999.2500  -999.2500     0.0650     0.2371     2.5136    -0.0038   178.3826     8.7331
 3303.0000  -999.2500  -999.2500  -999.2500  -999.2500     0.0778     0.2503     2.5150     0.0004   181.4049     8.7461
 3303.5000  -999.2500  -999.2500  -999.2500  -999.2500     0.0844     0.2540     2.5316    -0.0030   185.1707     8.7591
 3304.0000  -999.2500  -999.2500  -999.2500  -999.2500     0.0800     0.2550     2.5286     0.0026   188.0233     8.7728
 3304.5000  -999.2500  -999.2500  -999.2500  -999.2500     0.0749     0.2469     2.5373     0.0098   189.5615     8.7639
 3305.0000  -999.2500  -999.2500  -999.2500  -999.2500     0.0715     0.2397     2.5402     0.0117   191.0678     8.7481
 3305.5000  -999.2500  -999.2500  -999.2500  -999.2500     0.0680     0.2324     2.5285     0.0078   196.0941     8.7320
 3306.0000  -999.2500  -999.2500  -999.2500  -999.2500     0.0715     0.2295     2.5136     0.0036   204.8972     8.7161
 3306.5000  -999.2500  -999.2500  -999.2500  -999.2500     0.0813     0.2455     2.4886     0.0008   213.8993     8.7166
 3307.0000  -999.2500  -999.2500  -999.2500  -999.2500     0.0955     0.2611     2.4636    -0.0020   219.9919     8.7204
 3307.5000  -999.2500  -999.2500  -999.2500  -999.2500     0.1097     0.2765     2.4718    -0.0025   218.4564     8.7242
 3308.0000  -999.2500  -999.2500  -999.2500  -999.2500     0.1140     0.2856     2.4677    -0.0003   214.3609     8.7279
 3308.5000  -999.2500  -999.2500  -999.2500  -999.2500     0.1122     0.2886     2.4807     0.0093   213.7408     8.7316
 3309.0000  -999.2500  -999.2500  -999.2500  -999.2500     0.1046     0.2951     2.4941     0.0063   217.9761     8.7355
 3309.5000  -999.2500  -999.2500  -999.2500  -999.2500     0.0944     0.3055     2.4962     0.0106   222.2247     8.7410
 3310.0000  -999.2500  -999.2500  -999.2500  -999.2500     0.0976     0.3139     2.4838     0.0167   226.5210     8.7468
 3310.5000  -999.2500  -999.2500  -999.2500  -999.2500     0.1003     0.3198     2.4960     0.0274   228.6582     8.7526
 3311.0000  -999.2500  -999.2500  -999.2500  -999.2500     0.0952     0.3186     2.5046     0.0332   228.3988     8.7583
 3311.5000  -999.2500  -999.2500  -999.2500  -999.2500     0.0912     0.3188     2.4846     0.0158   226.8051     8.7641
 3312.0000  -999.2500  -999.2500  -999.2500  -999.2500     0.0969     0.3233     2.4657     0.0085   225.9236     8.7699
 3312.5000  -999.2500  -999.2500  -999.2500  -999.2500     0.1070     0.3270     2.4556     0.0046   226.2746     8.7755
 3313.0000  -999.2500  -999.2500  -999.2500  -999.2500     0.1171     0.3202     2.4605     0.0017   229.2197     8.7696
 3313.5000  -999.2500  -999.2500  -999.2500  -999.2500     0.1192     0.3118     2.4642     0.0023   232.4510     8.7622
 3314.0000  -999.2500  -999.2500  -999.2500  -999.2500     0.1167     0.3090     2.4578     0.0059   235.7044     8.7547
 3314.5000  -999.2500  -999.2500  -999.2500  -999.2500     0.1167     0.3225     2.4462     0.0094   237.0557     8.7472
 3315.0000  -999.2500  -999.2500  -999.2500  -999.2500     0.1229     0.3314     2.4354     0.0104   237.9094     8.7396
 3315.5000  -999.2500  -999.2500  -999.2500  -999.2500     0.1288     0.3369     2.4418     0.0084   240.4726     8.7244
 3316.0000  -999.2500  -999.2500  -999.2500  -999.2500     0.1301     0.3446     2.4108     0.0126   245.6933     8.6978
 3316.5000  -999.2500  -999.2500  -999.2500  -999.2500     0.1427     0.3618     2.3922     0.0164   250.9042     8.6713
 3317.0000  -999.2500  -999.2500  -999.2500  -999.2500     0.1565     0.3781     2.3716     0.0096   255.7205     8.6449
 3317.5000  -999.2500  -999.2500  -999.2500  -999.2500     0.1652     0.3889     2.3914    -0.0008   259.0965     8.6184
 3318.0000  -999.2500  -999.2500  -999.2500  -999.2500     0.1679     0.3889     2.4233     0.0071   262.8569     8.5919
 3318.5000  -999.2500  -999.2500  -999.2500  -999.2500     0.1463     0.3677     2.4246     0.0209   266.7271     8.5654
 3319.0000  -999.2500  -999.2500  -999.2500  -999.2500     0.1359     0.3794     2.4211     0.0384   273.7054     8.5384
 3319.5000  -999.2500  -999.2500  -999.2500  -999.2500     0.1404     0.3896     2.4304     0.0476   284.7916     8.5607
 3320.0000  -999.2500  -999.2500  -999.2500  -999.2500     0.1328     0.3981     2.4219     0.0605   299.0411     8.5994
 3320.5000  -999.2500  -999.2500  -999.2500  -999.2500     0.1393     0.4036     2.4194     0.0978   293.4432     8.6348
 3321.0000  -999.2500  -999.2500  -999.2500  -999.2500     0.1228     0.3817     2.4891     0.1227   284.4280     8.6327
 3321.5000  -999.2500  -999.2500  -999.2500  -999.2500     0.0989     0.3461     2.4551     0.0139   272.4528     8.5024
 3322.0000  -999.2500  -999.2500  -999.2500  -999.2500     0.1143     0.2898     2.4750     0.0029   236.7485     8.2836
 3322.5000  -999.2500  -999.2500  -999.2500  -999.2500     0.1188     0.2153     2.5161     0.0389   204.6304     8.2625
 3323.0000  -999.2500  -999.2500  -999.2500  -999.2500     0.0948     0.1771     2.4845     0.0498   161.0540     8.2387
 3323.5000  -999.2500  -999.2500  -999.2500  -999.2500     0.0876     0.1835     2.4430     0.0336   132.6771     8.2257
 3324.0000  -999.2500  -999.2500  -999.2500  -999.2500     0.1192     0.1861     2.4610     0.0195   131.6922     8.2708
 3324.5000  -999.2500  -999.2500  -999.2500  -999.2500     0.1243     0.1748     2.5050     0.0090   148.4528     8.3144
 3325.0000  -999.2500  -999.2500  -999.2500  -999.2500     0.1106     0.1940     2.5333     0.0054   160.1749     8.3582
 3325.5000  -999.2500  -999.2500  -999.2500  -999.2500     0.0867     0.2121     2.5438     0.0033   166.5751     8.4042
 3326.0000  -999.2500  -999.2500  -999.2500  -999.2500     0.0671     0.2301     2.5371     0.0136   167.7753     8.3987
 3326.5000  -999.2500  -999.2500  -999.2500  -999.2500     0.0692     0.2415     2.5693     0.0257   163.9311     8.3761
 3327.0000  -999.2500  -999.2500  -999.2500  -999.2500     0.0548     0.2229     2.6017     0.0455   163.8234     8.3789
 3327.5000  -999.2500  -999.2500  -999.2500  -999.2500     0.0352     0.2099     2.6250     0.0577   178.5343     8.3936
 3328.0000  -999.2500  -999.2500  -999.2500  -999.2500     0.0169     0.2212     2.6109     0.0396   193.5421     8.4080
 3328.5000  -999.2500  -999.2500  -999.2500  -999.2500     0.0165     0.2346     2.5881     0.0323   202.9346     8.4224
 3329.0000  -999.2500  -999.2500  -999.2500  -999.2500     0.0297     0.2480     2.5638     0.0317   212.5824     8.4368
 3329.5000  -999.2500  -999.2500  -999.2500  -999.2500     0.0457     0.2614     2.5373     0.0258   224.8235     8.4512
 3330.0000  -999.2500  -999.2500  -999.2500  -999.2500     0.0616     0.2853     2.5166     0.0249   229.5296     8.4653
 3330.5000  -999.2500  -999.2500  -999.2500  -999.2500     0.0775     0.3095     2.5167     0.0176   224.3226     8.4701
 3331.0000  -999.2500  -999.2500  -999.2500  -999.2500     0.0844     0.3214     2.5279     0.0096   217.8789     8.4546
 3331.5000  -999.2500  -999.2500  -999.2500  -999.2500     0.0788     0.3151     2.5196     0.0027   211.4682     8.4396
 3332.0000  -999.2500  -999.2500  -999.2500  -999.2500     0.0764     0.2949     2.5162     0.0080   205.9833     8.4246
 3332.5000  -999.2500  -999.2500  -999.2500  -999.2500     0.0804     0.2832     2.5318     0.0106   203.4120     8.4177
 3333.0000  -999.2500  -999.2500  -999.2500  -999.2500     0.0754     0.2760     2.5194     0.0103   203.6279     8.4381
 3333.5000  -999.2500  -999.2500  -999.2500  -999.2500     0.0782     0.2772     2.5407     0.0270   203.6778     8.4583
 3334.0000  -999.2500  -999.2500  -999.2500  -999.2500     0.0745     0.2728     2.5330     0.0206   200.2097     8.4784
 3334.5000  -999.2500  -999.2500  -999.2500  -999.2500     0.0689     0.2642     2.5389     0.0123   199.4329     8.4986
 3335.0000  -999.2500  -999.2500  -999.2500  -999.2500     0.0680     0.2556     2.5271     0.0045   200.2851     8.5155
 3335.5000  -999.2500  -999.2500  -999.2500  -999.2500     0.0741     0.2470     2.5113    -0.0021   202.1122     8.5151
