~VERSION INFORMATION
 VERS.                2.0:   CWLS LOG ASCII STANDARD - VERSION 2.0
 WRAP.                 NO:   ONE LINE PER DEPTH STEP
~WELL INFORMATION
#MNEM.UNIT      DATA TYPE    INFORMATION
#----------   ------------   ------------------------------
 STRT.F           23.0000:   START DEPTH
 STOP.F         1106.0000:   STOP DEPTH
 STEP.F            0.5000:   STEP LENGTH
 NULL.          -999.2500:   NO VALUE
 COMP. FENIX & SCISSON INC:   COMPANY
 WELL.       NPR-3 #67-11:   WELL
 FLD . TEAPOT DOME NPR #3:   FIELD
 LOC .      S11 T38N R78W:   LOCATION
 CNTY.            NATRONA:   COUNTY
 STAT.            WYOMING:   STATE
 CTRY. UNITED STATES OF AMERICA:   COUNTRY
 SRVC.            Unknown:   SERVICE COMPANY
 DATE.        06-MAR-1978:   LOGDATE
 API .       490251059100:   API NUMBER
~CURVE INFORMATION
#MNEM.UNIT       API CODE    CURVE DESCRIPTION
#----------   ------------   ------------------------------
 DEPT.F                  :   
 ILD .OHMM   05 120 46 00:   INDUCTION LOG DEEP
 SN  .OHMM   05 040 16 00:   SHORT NORMAL 16"
 SPR .MV     05 010 01 00:   SPONTANEOUS POTENTIAL FROM RES.
 CALD.IN     45 280 60 00:   CALIPER
 GRD .GAPI   45 310 01 00:   GAMMA RAY FROM DENSITY LOG
 CORR.G/C3   45 356 01 00:   DENSITY CORRECTION
 DPHI.DEC    45 890 12 00:   DENSITY POROSITY SANDSTONE
 RHOB.G/C3   45 350 01 00:   BULK DENSITY
~PARAMETER INFORMATION
#MNEM.UNIT          VALUE    DESCRIPTION
#----------   ------------   ------------------------------
 PD  .                 GL:   PERMANENT DATUM
 EPD .F              5243:   ELEVATION PERMANENT DATUM
 LMF .                 KB:   LOG MEASURED FROM
 DAPD.F                 4:   FEET ABOVE PERMANENT DATUM
 DMF .                 KB:   DRILLING MEASURED FROM
 EKB .F              5247:   KELLING BUSHING
 EGL .F              5243:   GROUND LEVEL
 DATE.           3-6-1978:   RUN DATE
 RUN .                  1:   RUN NUMBER
 DD  .F              1104:   DEPTH DRILLER
 DL  .F              1108:   DEPTH LOGGER
 BLI .F              1102:   BOTTOM LOG INTERVAL
 TLI .F                40:   TOP LOG INTERVAL
 CS  .IN            8.625:   CASING SIZE
 CBD .F                40:   CASING BOTTOM DRILLER
 CBL .F                40:   CASING BOTTOM LOGGER
 BS  .IN            7.875:   BIT SIZE
 BSD .F              1104:   BIT SIZE AT DEPTH
 DFT .         LIGNO/SULF:   DRILLING FLUID TYPE
 DFD .                8.6:   DRILLING FLUID DENSITY
 DFV .                 31:   DRILLING FLUID VISCOSITY
 DFL .                  8:   DRILLING FLUID LOSS
 MSS .            MUD PIT:   MUD SAMPLE SOURCE
 RMS .OHMM              2:   RESISTIVITY MUD SAMPLE
 MST .F                58:   MUD SAMPLE TEMPERATURE
 RMF .OHMM            1.2:   RESISTIVITY MUD FILTRATE SAMPLE
 MFST.F                64:   MUD FILTRATE SAMPLE TEMPERATURE
 RMC .OHMM              3:   RESISTIVITY MUD CAKE
 MCST.F                64:   MUD CAKE SAMPLE TEMPERATURE
 MFSS.               MEAS:   MUD FILTRATE SAMPLE SOURCE
 RMB .OHMM            1.5:   RESISTIVITY MUD AT BHT
 BHT .F                78:   BOTTOM HOLE TEMPERATURE
 TCS .HRS               4:   TIME CURCULATED STOPPED
 MRT .F                78:   MAXIMUM RECORDED TEMPERATURE
 LUN .               2959:   LOGGING UNIT NUMBER
 LUL .               CASP:   LOGGING UNIT LOCATION
 ENGI.             MILLER:   RECORDING ENGINEER
 WITN.           MCGINLEY:   WITNESSED BY
 CLNT.            A2DTECH:   CLIENT CODE
 ORIG.       2", 5" PRINT:   ORIGIN OF DATA
 UWI .       490251059100:   UNIQUE WELL ID
 DICO. A2D Technologies, Inc.:   DIGITIZING COMPANY
~OTHER INFORMATION
~A   DEPT      ILD         SN        SPR       CALD         GRD      CORR       DPHI       RHOB   
# ...
 1076.0000     8.1132     9.2812   -29.2901     7.8054    87.6126     0.0212     0.1079     2.4756
 1076.5000     8.2579     9.4105   -29.1632     7.8037    86.6014     0.0212     0.1051     2.4797
 1077.0000     8.4550     9.5820   -29.0754     7.8019    85.5699     0.0214     0.1024     2.4840
 1077.5000     8.6916     9.7825   -28.9851     7.8002    84.9587     0.0216     0.0997     2.4860
 1078.0000     8.8532     9.9880   -28.8945     7.8025    85.2158     0.0218     0.0999     2.4847
 1078.5000     8.9609    10.1987   -28.8047     7.8332    86.1569     0.0220     0.1021     2.4836
 1079.0000     9.0701    10.3991   -28.7286     7.8642    87.0948     0.0222     0.1038     2.4840
 1079.5000     9.1805    10.5062   -28.6557     7.8797    87.9360     0.0224     0.1036     2.4846
 1080.0000     9.2903    10.6144   -28.5943     7.8827    87.0077     0.0226     0.1035     2.4851
 1080.5000     9.3958    10.7236   -28.8701     7.8854    85.3425     0.0228     0.1041     2.4831
 1081.0000     9.5048    10.8341   -29.1634     7.8881    83.8590     0.0231     0.1058     2.4706
 1081.5000     9.6149    10.9456   -29.4576     7.8908    83.7337     0.0234     0.1074     2.4672
 1082.0000     9.7264    11.0583   -29.5441     7.8935    84.0970     0.0237     0.1091     2.4666
 1082.5000     9.8198    11.1756   -29.4836     7.8963    84.4933     0.0239     0.1077     2.4660
 1083.0000     9.8121    11.1940   -29.4222     7.8990    84.8880     0.0242     0.1057     2.4660
 1083.5000     9.8020    11.2263   -29.3596     7.9017    85.2825     0.0245     0.1047     2.4751
 1084.0000     9.7920    11.2586   -29.2968     7.9044    85.6778     0.0248     0.1057     2.4671
 1084.5000     9.7820    11.2793   -29.2357     7.9071    86.0741     0.0251     0.1074     2.4668
 1085.0000     9.7719    11.3037   -29.2148     7.9099    86.1960     0.0254     0.1091     2.4702
 1085.5000     9.7619    11.3472   -29.4300     7.9126    85.1803     0.0257     0.1096     2.4735
 1086.0000     9.7520    11.3840   -29.6424     7.9153    80.7821     0.0260     0.1098     2.4703
 1086.5000     9.7421    11.3648   -29.7630     7.9180    79.1715     0.0263     0.1101     2.4664
 1087.0000     9.7319    11.3107   -29.7013     7.9208    83.6606     0.0266     0.1103     2.4636
 1087.5000     9.7294    11.2569   -29.6408     7.9235    84.5590     0.0269     0.1106     2.4689
 1088.0000     9.6763    11.2034   -29.5893     7.9262    83.9384     0.0283     0.1055     2.4742
 1088.5000     9.6208    11.1500   -29.9822     7.9289    84.4285     0.0303     0.0982     2.4794
 1089.0000     9.5656    11.0969   -30.0390     7.9316    84.7429     0.0323     0.0988     2.4846
 1089.5000     9.5106    11.0728   -29.7940     7.9344    83.5310     0.0343     0.0996     2.4884
 1090.0000     9.4500    11.1019   -29.5480     7.9371    80.4496     0.0325     0.1004     2.4877
 1090.5000     9.3535    11.1416   -29.2988     7.9398    79.1199     0.0268     0.1012     2.4870
 1091.0000     9.2899    11.1767   -29.2069     7.9425    79.8663     0.0251     0.1019     2.4864
 1091.5000     9.2914    11.1708   -29.2474     7.9452    81.5553     0.0255     0.1028     2.4858
 1092.0000     9.2931    11.1846   -29.2880     7.9480    84.7294     0.0260     0.1038     2.4799
 1092.5000     9.2938    10.4758   -29.3297     7.9507    84.2018     0.0264     0.1047     2.4800
 1093.0000     9.1743    10.4758   -29.3722     7.9534    83.7036     0.0268     0.1054     2.4836
 1093.5000     9.1196    10.4296   -29.3823     7.9561    83.9421     0.0273     0.1032     2.4872
 1094.0000     9.0344    10.3426   -29.3826     7.9582    85.9222     0.0345     0.1013     2.4899
 1094.5000     8.9295    10.2840   -29.3825     7.9582    87.8750     0.0409     0.1035     2.4792
 1095.0000     8.7346    10.0848   -29.3825     7.9582    88.7114     0.0412     0.1058     2.4755
 1095.5000     8.5441     9.8150   -29.3823     7.9582    88.6028     0.0414     0.1052     2.4799
 1096.0000     8.3578     9.5524   -29.3816     7.9582    87.7408     0.0416     0.1027     2.4842
 1096.5000     8.1757     9.2903   -29.3844     7.9582    84.0320     0.0418     0.0993     2.4850
 1097.0000     8.0583     9.2808   -29.5635     7.9582    81.0701     0.0420     0.0962     2.4878
 1097.5000     7.9998     9.2503   -29.7628     7.9582    82.9395     0.0421     0.0949     2.4944
 1098.0000     7.9418     9.2198   -29.9642     7.9582    85.8132     0.0423     0.0938     2.5008
 1098.5000     7.8843     9.1335   -30.1700     7.9582    87.5125     0.0425     0.0938     2.4995
 1099.0000     7.7487     8.9942   -30.1108     7.9582    86.8882     0.0427     0.0966     2.4983
 1099.5000     7.5839     8.8472   -30.0315     7.9582    85.6141     0.0429     0.0986     2.4962
 1100.0000     7.4226     8.6176   -29.9531     7.9582    84.7114     0.0428     0.0956     2.4910
 1100.5000     7.3451     8.3938   -29.8753     7.9582    84.8884     0.0424     0.0926     2.4885
 1101.0000     7.3067     8.2400   -29.7973     7.9582    85.0408     0.0421     0.0932     2.4973
 1101.5000     7.2857     8.3847   -29.7193     7.9582    86.4723     0.0417     0.0937     2.5027
 1102.0000     7.2619     8.4705   -29.6420     7.9582    89.1215     0.0413     0.0975     2.4987
 1102.5000  -999.2500  -999.2500  -999.2500     7.9581    91.8780     0.0410     0.1017     2.4948
 1103.0000  -999.2500  -999.2500  -999.2500     7.9581    93.6268     0.0407     0.1059     2.4910
 1103.5000  -999.2500  -999.2500  -999.2500     7.9590    95.1714     0.0404     0.1103     2.4872
 1104.0000  -999.2500  -999.2500  -999.2500     7.9658    90.0831     0.0401     0.1146     2.4836
 1104.5000  -999.2500  -999.2500  -999.2500     7.9727    86.2007     0.0398     0.1189     2.4835
 1105.0000  -999.2500  -999.2500  -999.2500     7.9798    88.6559     0.0395     0.1233     2.4836
 1105.5000  -999.2500  -999.2500  -999.2500     7.9278    90.9196     0.0392     0.1280     2.4736
 1106.0000  -999.2500  -999.2500  -999.2500     7.7175    90.8882     0.0390     0.1330     2.4572
