~VERSION INFORMATION
 VERS.                2.0:   CWLS LOG ASCII STANDARD - VERSION 2.0
 WRAP.                 NO:   ONE LINE PER DEPTH STEP
~WELL INFORMATION
#MNEM.UNIT      DATA TYPE    INFORMATION
#----------   ------------   ------------------------------
 STRT.F           32.0000:   START DEPTH
 STOP.F          812.0000:   STOP DEPTH
 STEP.F            0.5000:   STEP LENGTH
 NULL.          -999.2500:   NO VALUE
 COMP. FENIX & SCISSON INC:   COMPANY
 WELL.       75 SX #15-15:   WELL
 FLD .             TEAPOT:   FIELD
 LOC .      S15 T38N R78W:   LOCATION
 CNTY.            NATRONA:   COUNTY
 STAT.            WYOMING:   STATE
 CTRY. UNITED STATES OF AMERICA:   COUNTRY
 SRVC.              Welex:   SERVICE COMPANY
 DATE.        28-FEB-1977:   LOGDATE
 API .       490251030100:   API NUMBER
~CURVE INFORMATION
#MNEM.UNIT       API CODE    CURVE DESCRIPTION
#----------   ------------   ------------------------------
 DEPT.F                  :   
 SPR .MV     07 010 01 00:   SPONTANEOUS POTENTIAL
 ILD .OHMM   07 120 46 00:   INDUCTION LOG DEEP
 SGRD.OHMM   07 220 05 00:   SHALLOW RESISTIVITY
 ILM .OHMM   07 120 44 00:   INDUCTION LOG MEDIUM
 GRD .GAPI   45 310 01 00:   GAMMA RAY FROM DENSITY LOG
 CALD.IN     45 280 60 00:   CALIPER FROM DENSITY LOG
 RHOB.G/C3   45 350 01 00:   BULK DENSITY
 DPHI.DEC    45 890 12 00:   DENSITY POROSITY SANDSTONE
 CORR.G/C3   45 356 01 00:   DENSITY CORRECTION
~PARAMETER INFORMATION
#MNEM.UNIT          VALUE    DESCRIPTION
#----------   ------------   ------------------------------
 PD  .                 GL:   PERMANENT DATUM
 EPD .F              5264:   ELEVATION PERMANENT DATUM
 LMF .                 GL:   LOG MEASURED FROM
 DMF .                 GL:   DRILLING MEASURED FROM
 EGL .F              5264:   GROUND LEVEL
 DATE.          2-28-1977:   RUN DATE
 RUN .                  1:   RUN NUMBER
 DD  .F               830:   DEPTH DRILLER
 DL  .F               814:   DEPTH LOGGER
 BLI .F               812:   BOTTOM LOG INTERVAL
 TLI .F                42:   TOP LOG INTERVAL
 CS  .IN            8.625:   CASING SIZE
 CBD .F                40:   CASING BOTTOM DRILLER
 CBL .F                42:   CASING BOTTOM LOGGER
 BS  .IN            7.875:   BIT SIZE
 BSD .F               830:   BIT SIZE AT DEPTH
 DFT .           CHEM-GEL:   DRILLING FLUID TYPE
 DFD .                9.3:   DRILLING FLUID DENSITY
 DFV .                 38:   DRILLING FLUID VISCOSITY
 DFPH.               10.5:   DRILLING FLUID PH
 DFL .               16.2:   DRILLING FLUID LOSS
 MSS .          FLOW LINE:   MUD SAMPLE SOURCE
 RMS .OHMM           0.44:   RESISTIVITY MUD SAMPLE
 MST .F                62:   MUD SAMPLE TEMPERATURE
 RMF .OHMM            .38:   RESISTIVITY MUD FILTRATE SAMPLE
 MFST.F                62:   MUD FILTRATE SAMPLE TEMPERATURE
 RMC .OHMM           0.79:   RESISTIVITY MUD CAKE
 MCST.F                62:   MUD CAKE SAMPLE TEMPERATURE
 MFSS.           MEASURED:   MUD FILTRATE SAMPLE SOURCE
 MCSS.           MEASURED:   MUD CAKE SAMPLE SOURCE
 RMB .OHMM           .368:   RESISTIVITY MUD AT BHT
 BHT .F                74:   BOTTOM HOLE TEMPERATURE
 TCS .HRS               3:   TIME CURCULATED STOPPED
 MRT .F                74:   MAXIMUM RECORDED TEMPERATURE
 LUN .               8611:   LOGGING UNIT NUMBER
 LUL .           GILLETTE:   LOGGING UNIT LOCATION
 ENGI.               DOAK:   RECORDING ENGINEER
 WITN.               JAPP:   WITNESSED BY
 CLNT.            A2DTECH:   CLIENT CODE
 ORIG.       2", 5" PRINT:   ORIGIN OF DATA
 UWI .       490251030100:   UNIQUE WELL ID
 DICO. A2D Technologies, Inc.:   DIGITIZING COMPANY
~OTHER INFORMATION
~A   DEPT      SPR        ILD       SGRD        ILM         GRD        CALD       RHOB       DPHI      CORR  
# ...
  506.5000   -45.9422     7.9945    11.6228     9.4413   121.0092     7.7684     2.4688     0.1074     0.0249
  507.0000   -45.9206     8.0404    11.5615     9.4413   124.3776     7.7365     2.4667     0.1070     0.0230
  507.5000   -45.8989     8.0866    11.7614     9.4413   131.3649     7.7048     2.4732     0.1036     0.0249
  508.0000   -45.8773     8.1330    11.9311     9.1786   133.4075     7.6731     2.4795     0.1002     0.0270
  508.5000   -45.8556     8.1598    12.1033     8.7788   128.0582     7.6413     2.4825     0.0979     0.0290
  509.0000   -45.8340     8.1775    12.2779     8.5336   126.4972     7.6094     2.4838     0.0962     0.0311
  509.5000   -45.8123     8.1952    12.4559     8.9078   127.5176     7.5795     2.4852     0.0944     0.0327
  510.0000   -45.7907     8.2130    12.5607     9.2029   128.6104     7.6211     2.4864     0.0926     0.0304
  510.5000   -45.7690     8.2309    12.5251     9.5079   126.7478     7.6678     2.4820     0.0956     0.0281
  511.0000   -45.7474     8.2487    12.4987     9.8182   123.7539     7.7146     2.4771     0.0987     0.0258
  511.5000   -45.7257     8.2666    12.4727     9.9777   121.5991     7.7607     2.4722     0.1018     0.0236
  512.0000   -45.7041     8.2846    12.4460     9.9777   119.6262     7.7992     2.4672     0.1050     0.0213
  512.5000   -45.6824     8.3026    12.5419     9.9777   117.6372     7.8335     2.4621     0.1081     0.0190
  513.0000   -45.6608     8.3206    12.7092     9.9777   117.7492     7.8394     2.4689     0.1082     0.0170
  513.5000   -45.6391     8.3386    12.8788     9.9777   120.1936     7.8392     2.4775     0.1050     0.0193
  514.0000   -45.6175     8.3567    13.0326     9.9777   122.5971     7.8386     2.4861     0.0983     0.0216
  514.5000   -45.5958     8.3749    13.0326     9.9779   124.4288     7.8286     2.4947     0.0916     0.0238
  515.0000   -45.5742     8.3931    12.5805     9.9780   125.6165     7.8158     2.4966     0.0900     0.0260
  515.5000   -45.5525     8.4113    12.2514     9.9836   126.6733     7.7696     2.4931     0.0924     0.0283
  516.0000   -45.5309     8.4298    11.8858     9.8167   126.6516     7.6930     2.4940     0.0934     0.0305
  516.5000   -45.5092     8.4520    12.1539     9.5663   126.1010     7.6150     2.4960     0.0893     0.0328
  517.0000   -45.4876     8.3354    12.5612     9.3222   125.0654     7.5351     2.4964     0.0862     0.0348
  517.5000   -45.4653     8.1686    12.0075     9.0844   124.0393     7.5447     2.4693     0.1029     0.0333
  518.0000   -45.4423     8.0056    11.2952     8.8526   123.3119     7.5753     2.4417     0.1163     0.0280
  518.5000   -45.4286     7.8467    10.5461     8.6268   125.3538     7.6062     2.4290     0.1262     0.0225
  519.0000   -45.8081     7.6885    10.5771     8.4067   127.5009     7.6369     2.4219     0.1327     0.0169
  519.5000   -46.2791     7.3118    10.6160     8.1923   129.1458     7.6675     2.4150     0.1393     0.0113
  520.0000   -46.6141     6.8557    10.6422     7.9833   126.2936     7.6982     2.4081     0.1428     0.0093
  520.5000   -46.9499     6.4276     9.8437     7.6202   122.9143     7.7289     2.4025     0.1454     0.0098
  521.0000   -47.2863     6.0300     9.2823     7.0131   119.4293     7.7592     2.3992     0.1480     0.0103
  521.5000   -47.6228     5.4328     8.7530     6.4539   119.8417     7.7801     2.3958     0.1506     0.0107
  522.0000   -47.9593     4.8562     8.2538     5.9393   120.9372     7.7814     2.3902     0.1532     0.0159
  522.5000   -48.2960     4.3402     7.7831     5.4660   122.0315     7.7831     2.3734     0.1602     0.0217
  523.0000   -48.6342     3.8790     7.3393     4.9940   122.9141     7.7846     2.3572     0.1678     0.0268
  523.5000   -48.9670     3.4667     6.9207     4.3800   121.5553     7.7862     2.3409     0.1780     0.0239
  524.0000   -48.8368     3.0984     5.1384     3.8414   117.0915     7.7878     2.3246     0.1893     0.0211
  524.5000   -48.6496     2.9517     3.8412     3.3691   113.8508     7.7894     2.3082     0.2005     0.0183
  525.0000   -48.4631     2.8479     3.4916     3.0692   113.8912     7.7910     2.2948     0.2118     0.0156
  525.5000   -48.2773     2.7229     3.3280     3.2149   112.8078     7.7926     2.3162     0.2066     0.0128
  526.0000   -48.0916     2.8214     5.1549     3.3456   113.9828     7.7941     2.3385     0.1924     0.0101
  526.5000   -47.9058     2.9593     6.9730     3.4829   120.4797     7.7957     2.3606     0.1785     0.0073
  527.0000   -47.7200     3.1512     5.3363     3.6821   126.8822     7.7973     2.3827     0.1646     0.0090
  527.5000   -47.5336     3.4238     3.9722     4.1026   132.1517     7.7990     2.4048     0.1507     0.0114
  528.0000   -47.3482     3.7200     6.3309     4.5711   129.3965     7.7923     2.4269     0.1390     0.0138
  528.5000   -47.2231     4.0418     9.8605     5.0303   126.1543     7.7811     2.4490     0.1292     0.0161
  529.0000   -47.3324     4.3957     9.4882     5.4034   126.9637     7.7698     2.4709     0.1195     0.0185
  529.5000   -47.4359     4.6626     9.0528     5.8043   127.8430     7.7586     2.4651     0.1176     0.0209
  530.0000   -47.5381     4.9491     8.6475     6.0299   126.4307     7.7473     2.4576     0.1182     0.0232
  530.5000   -47.6055     5.2730     8.2991     6.1166   125.6633     7.7360     2.4502     0.1188     0.0256
  531.0000   -47.6047     5.1788     8.6897     6.1900   128.2348     7.7248     2.4428     0.1194     0.0259
  531.5000   -47.6049     5.0639     9.0633     6.2378   130.3398     7.7135     2.4355     0.1209     0.0238
  532.0000   -47.6051     4.9507     9.5286     5.8637   130.6074     7.7019     2.4294     0.1235     0.0216
  532.5000   -47.6043     4.8403     9.1671     5.6021   130.7556     7.7033     2.4246     0.1260     0.0194
  533.0000   -47.5526     4.7324     7.0395     5.3522   131.9250     7.7079     2.4197     0.1286     0.0197
  533.5000   -47.3890     4.6264     4.7756     5.0937   133.3338     7.7124     2.4152     0.1290     0.0207
  534.0000   -47.2273     4.5175     5.9172     5.2115   134.4036     7.7170     2.4236     0.1262     0.0217
  534.5000   -47.0653     4.5194     7.9989     5.3434   130.6556     7.7215     2.4328     0.1222     0.0227
  535.0000   -46.9035     4.5942     7.4839     5.4786   126.0100     7.7261     2.4420     0.1182     0.0237
  535.5000   -46.7416     4.6911     6.9948     5.6172   123.9911     7.7306     2.4511     0.1142     0.0248
  536.0000   -46.5797     4.7900     6.8396     5.8531   126.1646     7.7351     2.4570     0.1110     0.0235
  536.5000   -46.4177     5.0233     9.1840     6.1147   129.8848     7.7397     2.4533     0.1129     0.0214
  537.0000   -46.2558     5.3277     9.1840     6.4019   132.9216     7.7442     2.4500     0.1149     0.0212
  537.5000   -46.0944     5.6506     8.4534     6.7145   133.4738     7.7488     2.4594     0.1105     0.0216
  538.0000   -46.0078     5.9931     9.4883     7.0428   135.7660     7.7533     2.4700     0.1038     0.0221
  538.5000   -46.0080     6.3563    10.5446     7.3870   137.6634     7.7579     2.4808     0.0972     0.0225
  539.0000   -46.0079     6.7769    10.8503     7.7484   135.5138     7.7579     2.4778     0.0966     0.0230
  539.5000   -46.0079     6.9718    11.1440     8.1281   133.9458     7.7557     2.4715     0.1018     0.0234
  540.0000   -46.0078     7.1921    11.4458     8.6887   135.6402     7.7533     2.4652     0.1069     0.0238
  540.5000   -46.0087     7.4194    11.7557     8.5643   134.8165     7.7510     2.4589     0.1106     0.0243
  541.0000   -46.0455     7.6539    11.9958     8.3471   133.4320     7.7487     2.4581     0.1089     0.0247
  541.5000   -46.1249     7.7809    11.9958     8.1390   132.0486     7.7464     2.4630     0.1066     0.0258
  542.0000   -46.2041     7.7313    11.7350     7.9989   132.0358     7.7441     2.4679     0.1042     0.0275
  542.5000   -46.2836     7.5748    11.4423     8.0525   133.6705     7.7418     2.4728     0.1018     0.0292
