~VERSION INFORMATION
 VERS.                2.0:   CWLS LOG ASCII STANDARD - VERSION 2.0
 WRAP.                 NO:   ONE LINE PER DEPTH STEP
~WELL INFORMATION
#MNEM.UNIT      DATA TYPE    INFORMATION
#----------   ------------   ------------------------------
 STRT.F          160.0000:   START DEPTH
 STOP.F         1181.5000:   STOP DEPTH
 STEP.F            0.5000:   STEP LENGTH
 NULL.          -999.2500:   NO VALUE
 COMP.            US NAVY:   COMPANY
 WELL. RES 3 TEAPOT DOM #71-SX-14:   WELL
 FLD .             TEAPOT:   FIELD
 LOC .      S14 T38N R78W:   LOCATION
 CNTY.            NATRONA:   COUNTY
 STAT.            WYOMING:   STATE
 CTRY. UNITED STATES OF AMERICA:   COUNTRY
 SRVC.       Schlumberger:   SERVICE COMPANY
 DATE.        23-AUG-1959:   LOGDATE
 API .       490250632200:   API NUMBER
~CURVE INFORMATION
#MNEM.UNIT       API CODE    CURVE DESCRIPTION
#----------   ------------   ------------------------------
 DEPT.F                  :   
 SPR .MV     05 010 01 00:   SPONTANEOUS POTENTIAL FROM RES.
 IL  .OHMM   05 120 00 00:   INDUCTION LOG
 ASN .OHMM   05 041 16 00:   AMPLIFIED SHORT NORMAL 16"
 CIL .MMHO   05 110 00 00:   CONDUCTIVITY INDUCTION LOG
~PARAMETER INFORMATION
#MNEM.UNIT          VALUE    DESCRIPTION
#----------   ------------   ------------------------------
 PD  .                 GL:   PERMANENT DATUM
 EPD .F              5259:   ELEVATION PERMANENT DATUM
 LMF .                 KB:   LOG MEASURED FROM
 DAPD.F                 4:   FEET ABOVE PERMANENT DATUM
 DMF .                 KB:   DRILLING MEASURED FROM
 EKB .F              5263:   KELLING BUSHING
 EGL .F              5259:   GROUND LEVEL
 DATE.            8-23-59:   RUN DATE
 RUN .                  1:   RUN NUMBER
 DD  .F              1190:   DEPTH DRILLER
 DL  .F              1186:   DEPTH LOGGER
 BLI .F              1180:   BOTTOM LOG INTERVAL
 TLI .F               150:   TOP LOG INTERVAL
 CBD .F                17:   CASING BOTTOM DRILLER
 BS  .IN             6.75:   BIT SIZE
 BSD .F              1190:   BIT SIZE AT DEPTH
 DFT .                GEL:   DRILLING FLUID TYPE
 DFD .                9.5:   DRILLING FLUID DENSITY
 DFV .                 52:   DRILLING FLUID VISCOSITY
 MSS .           FLOWLINE:   MUD SAMPLE SOURCE
 RMS .OHMM            2.6:   RESISTIVITY MUD SAMPLE
 MST .F                62:   MUD SAMPLE TEMPERATURE
 MFSS.                  M:   MUD FILTRATE SAMPLE SOURCE
 MCSS.                  M:   MUD CAKE SAMPLE SOURCE
 RMB .OHMM            2.2:   RESISTIVITY MUD AT BHT
 BHT .F                80:   BOTTOM HOLE TEMPERATURE
 TCS .HRS               1:   TIME CURCULATED STOPPED
 MRT .F                80:   MAXIMUM RECORDED TEMPERATURE
 LUN .               2523:   LOGGING UNIT NUMBER
 LUL .               CSPR:   LOGGING UNIT LOCATION
 ENGI.             ATWOOD:   RECORDING ENGINEER
 WITN.             MARTIN:   WITNESSED BY
 CLNT.            A2DTECH:   CLIENT CODE
 ORIG.     1", 2.5" PRINT:   ORIGIN OF DATA
 UWI .       490250632200:   UNIQUE WELL ID
 DICO. A2D Technologies, Inc.:   DIGITIZING COMPANY
~OTHER INFORMATION
~A   DEPT      SPR           IL        ASN      CIL   
# ...
  671.0000   -46.7564     6.5396     6.9675   183.9494
  671.5000   -46.6212     6.4743     6.9651   183.9494
  672.0000   -46.4851     6.4720     6.9217   183.9494
  672.5000   -46.3459     6.4704     6.8813   183.9494
  673.0000   -46.2093     6.4722     6.8381   183.9494
  673.5000   -46.0715     6.4698     6.7946   183.9494
  674.0000   -45.9336     6.4724     6.7608   183.6167
  674.5000   -45.7969     6.4777     6.8012   183.1812
  675.0000   -45.6581     6.5909     7.0113   182.7456
  675.5000   -45.5217     6.7052     7.2259   182.3101
  676.0000   -45.3861     6.8243     7.4468   178.0953
  676.5000   -45.2378     6.9409     7.6631   172.5783
  677.0000   -45.2088     7.0580     7.8823   167.0613
  677.5000   -45.2991     7.1747     8.1000   161.5443
  678.0000   -45.3768     7.2941     8.3151   156.0272
  678.5000   -45.4554     7.4069     8.5423   150.5102
  679.0000   -45.5358     7.5289     8.7442   147.6868
  679.5000   -45.6156     7.5337     8.9614   147.1790
  680.0000   -45.6945     7.5343     8.5881   149.9805
  680.5000   -45.7727     7.4475     8.1791   153.9628
  681.0000   -45.8606     7.3515     7.6983   157.9450
  681.5000   -45.8556     7.2528     7.5183   161.9272
  682.0000   -45.7578     7.1551     7.2962   165.9094
  682.5000   -45.6698     7.0577     7.2460   169.8916
  683.0000   -45.5813     6.9607     7.1856   173.8738
  683.5000   -45.4909     6.8599     7.1368   176.3589
  684.0000   -45.4020     6.7685     7.0830   176.9455
  684.5000   -45.3122     6.6585     7.0297   175.7986
  685.0000   -45.2234     6.7133     6.9807   174.0564
  685.5000   -45.1328     6.7909     6.9690   172.3142
  686.0000   -45.0444     6.8738     7.1003   169.5914
  686.5000   -44.9567     6.9521     7.2734   166.3248
  687.0000   -44.8577     7.0324     7.4459   163.0581
  687.5000   -44.8641     7.1126     7.6158   159.7915
  688.0000   -44.9760     7.1919     7.7880   156.5248
  688.5000   -45.0763     7.2727     7.9606   153.2581
  689.0000   -45.1782     7.3524     8.1273   149.9915
  689.5000   -45.2808     7.4297     8.3025   146.7248
  690.0000   -45.3821     7.5170     8.2484   145.4280
  690.5000   -45.4891     7.4882     8.0861   147.5117
  691.0000   -45.5396     7.3997     7.9298   150.9961
  691.5000   -45.5386     7.3199     7.7762   154.4805
  692.0000   -45.4982     7.2416     7.6187   157.9650
  692.5000   -45.4121     7.1604     7.4639   161.4494
  693.0000   -45.3297     7.0809     7.3105   164.9339
  693.5000   -45.2479     7.0014     7.2014   168.4183
  694.0000   -45.1648     6.9205     7.1217   171.9027
  694.5000   -45.0826     6.8411     7.0451   175.3872
  695.0000   -44.9999     6.7630     6.9564   176.9455
  695.5000   -44.9172     6.6763     6.9893   175.7998
  696.0000   -44.8354     6.6811     7.1109   173.7081
  696.5000   -44.7515     6.7550     7.2217   171.6164
  697.0000   -44.6701     6.8208     7.3313   169.5247
  697.5000   -44.5894     6.8863     7.4433   167.4330
  698.0000   -44.4960     6.9538     7.5568   165.3413
  698.5000   -44.5219     7.0198     7.6280   163.2496
  699.0000   -44.6674     7.0864     7.6607   161.1579
  699.5000   -44.8003     7.1530     7.6967   159.0662
  700.0000   -44.9329     7.2194     7.7326   156.9745
  700.5000   -45.0701     7.2859     7.7678   155.5549
  701.0000   -45.2029     7.3525     7.8036   154.8007
  701.5000   -45.3354     7.4187     7.8391   154.0466
  702.0000   -45.4813     7.4857     7.8749   153.2924
  702.5000   -45.4959     7.5519     7.9101   152.5382
  703.0000   -45.3886     7.6172     7.9461   151.7841
  703.5000   -45.2945     7.6881     7.9826   151.0299
  704.0000   -45.1999     7.6983     7.9966   150.6809
  704.5000   -45.1027     7.6610     8.0017   151.6352
  705.0000   -45.0076     7.6290     7.9422   153.3949
  705.5000   -44.9116     7.5970     7.8342   155.1547
  706.0000   -44.8157     7.5637     7.7327   156.9144
  706.5000   -44.7199     7.5314     7.6320   158.6741
  707.0000   -44.6238     7.4988     7.5309   160.4339
  707.5000   -44.5288     7.4661     7.4273   162.1936
  708.0000   -44.4317     7.4337     7.3908   163.9533
  708.5000   -44.3366     7.4010     7.3940   164.6887
  709.0000   -44.2434     7.3684     7.3920   164.6887
  709.5000   -44.1368     7.3582     7.4094   164.6887
  710.0000   -44.1679     7.3556     7.4390   164.7042
  710.5000   -44.2993     7.3602     7.4657   164.7042
  711.0000   -44.4181     7.2339     7.4922   164.7042
  711.5000   -44.5365     7.1775     7.5194   164.2060
  712.0000   -44.6572     7.1801     7.5464   163.3911
  712.5000   -44.7774     7.1817     7.5729   162.5760
  713.0000   -44.8971     7.1801     7.5995   161.7606
  713.5000   -45.0141     7.1806     7.6072   160.9459
  714.0000   -45.1430     7.1811     7.6069   160.1308
  714.5000   -45.1308     7.1813     7.6407   159.3186
  715.0000   -45.0306     7.2184     7.6861   158.5064
  715.5000   -44.9413     7.2670     7.7310   157.6942
  716.0000   -44.8531     7.3155     7.7755   156.8821
  716.5000   -44.7618     7.3635     7.8204   156.0699
  717.0000   -44.6725     7.4118     7.8652   155.2577
  717.5000   -44.5822     7.4601     7.9099   154.4455
  718.0000   -44.4927     7.5083     7.9546   153.2899
  718.5000   -44.4026     7.5565     7.9995   151.9701
  719.0000   -44.3118     7.6048     8.0438   150.6503
  719.5000   -44.2255     7.6530     8.0893   149.3305
  720.0000   -44.1325     7.7012     8.1388   148.0107
  720.5000   -44.2133     7.7494     8.2402   146.6909
  721.0000   -44.3783     7.7976     8.3539   145.3711
  721.5000   -44.5384     7.8458     8.4669   144.0513
  722.0000   -44.6972     7.8940     8.5826   142.7315
  722.5000   -44.8574     7.9422     8.6924   141.4117
  723.0000   -45.0168     7.9904     8.8035   140.0919
  723.5000   -45.1786     8.0387     8.7760   138.7721
  724.0000   -45.3332     8.0868     8.7446   137.1284
  724.5000   -45.4944     8.1351     8.7029   136.6732
  725.0000   -45.4080     8.1832     8.6721   136.6732
  725.5000   -45.2235     8.2313     8.6443   136.6732
  726.0000   -45.0424     8.2801     8.7811   136.6732
  726.5000   -44.8647     8.3268     8.9202   135.5700
  727.0000   -44.6837     8.3770     9.0663   134.1208
  727.5000   -44.5044     8.4269     9.2091   132.6717
  728.0000   -44.3250     8.5440     9.3513   131.2225
  728.5000   -44.1439     8.6567     9.4962   129.7733
  729.0000   -43.9665     8.7734     9.6334   128.3241
  729.5000   -43.7896     8.8880     9.7663   126.8755
  730.0000   -43.7490     9.0031     9.9032   125.4257
  730.5000   -43.8339     9.1184    10.0443   123.9765
  731.0000   -43.9436     9.2336    10.3814   122.5269
  731.5000   -44.0511     9.3488    10.5410   121.0775
  732.0000   -44.1587     9.4640    10.5536   119.6292
  732.5000   -44.2671     9.5796    10.6035   118.1830
  733.0000   -44.3748     9.6935    10.6440   116.7386
  733.5000   -44.4819     9.8108    10.6910   115.2814
  734.0000   -44.5921     9.9251    10.7354   113.8322
  734.5000   -44.6960    10.0116    10.7797   112.1595
  735.0000   -44.8123     9.9546    10.8243   112.1595
  735.5000   -44.8186     9.9080    10.8712   112.8011
  736.0000   -44.7531     9.8544  -999.2500   113.5553
  736.5000   -44.6678     9.8037  -999.2500   114.3095
  737.0000   -44.5852     9.7527  -999.2500   115.0637
  737.5000   -44.5026     9.7011  -999.2500   115.8178
  738.0000   -44.4193     9.6500  -999.2500   116.5720
  738.5000   -44.3365     9.5987  -999.2500   117.4125
  739.0000   -44.2536     9.5477  -999.2500   117.8800
  739.5000   -44.1705     9.4960  -999.2500   118.4079
  740.0000   -44.0877     9.4455  -999.2500   118.9358
  740.5000   -44.0054     9.3945  -999.2500   119.4637
  741.0000   -43.9208     9.3391  -999.2500   119.9916
  741.5000   -43.8408     9.3054  -999.2500   120.5195
  742.0000   -43.7554     9.3092  -999.2500   121.0475
  742.5000   -43.7507     9.3084  -999.2500   121.5754
  743.0000   -43.7487     9.3082  -999.2500   122.1033
  743.5000   -43.7504     9.3086  -999.2500   122.6654
