~VERSION INFORMATION
 VERS.                2.0:   CWLS LOG ASCII STANDARD - VERSION 2.0
 WRAP.                 NO:   ONE LINE PER DEPTH STEP
~WELL INFORMATION
#MNEM.UNIT      DATA TYPE    INFORMATION
#----------   ------------   ------------------------------
 STRT.F            0.0000:   START DEPTH
 STOP.F          752.0000:   STOP DEPTH
 STEP.F            0.1000:   STEP LENGTH
 NULL.          -999.2500:   NO VALUE
 COMP. BROWN JOHN E&C INC:   COMPANY
 WELL. N P R 3 STX-34 #53-1-34:   WELL
 FLD .             TEAPOT:   FIELD
 LOC .      S34 T39N R78W:   LOCATION
 CNTY.            NATRONA:   COUNTY
 STAT.            WYOMING:   STATE
 CTRY. UNITED STATES OF AMERICA:   COUNTRY
 SRVC.     Atlas Wireline:   SERVICE COMPANY
 DATE.        29-OCT-1991:   LOGDATE
 API .       490252248700:   API NUMBER
~CURVE INFORMATION
#MNEM.UNIT       API CODE    CURVE DESCRIPTION
#----------   ------------   ------------------------------
 DEPT.F                  :   
 GRR .GAPI   07 310 01 00:   GAMMA RAY
 RILD.OHMM   07 120 46 00:   INDUCTION LOG DEEP RESISTIVITY
 RILM.OHMM   07 120 44 00:   RESITIVITY LONG MEDIUM
~PARAMETER INFORMATION
#MNEM.UNIT          VALUE    DESCRIPTION
#----------   ------------   ------------------------------
 PD  .                 GL:   PERMANENT DATUM
 EPD .F              5067:   ELEVATION PERMANENT DATUM
 LMF .                 KB:   LOG MEASURED FROM
 DAPD.F                10:   FEET ABOVE PERMANENT DATUM
 DMF .                 KB:   DRILLING MEASURED FROM
 EKB .F              5077:   KELLING BUSHING
 EGL .F              5067:   GROUND LEVEL
 DATE.        29-OCT-1991:   RUN DATE
 RUN .                  1:   RUN NUMBER
 DD  .F               760:   DEPTH DRILLER
 DL  .F               760:   DEPTH LOGGER
 BLI .F               758:   BOTTOM LOG INTERVAL
 TLI .F                 0:   TOP LOG INTERVAL
 CS  .IN            9.625:   CASING SIZE
 CBD .F                52:   CASING BOTTOM DRILLER
 CBL .F                52:   CASING BOTTOM LOGGER
 BS  .IN             8.75:   BIT SIZE
 BSD .F               760:   BIT SIZE AT DEPTH
 DFT .        AIR DRILLED:   DRILLING FLUID TYPE
 MRT .F               154:   MAXIMUM RECORDED TEMPERATURE
 LUN .            HL 6307:   LOGGING UNIT NUMBER
 LUL .             CASPER:   LOGGING UNIT LOCATION
 ENGI.          RASMUSSEN:   RECORDING ENGINEER
 WITN.        GARY STRONG:   WITNESSED BY
 CLNT.            A2DTECH:   CLIENT CODE
 ORIG.           5" PRINT:   ORIGIN OF DATA
 UWI .       490252248700:   UNIQUE WELL ID
 DICO. A2D Technologies, Inc.:   DIGITIZING COMPANY
~OTHER INFORMATION
~A    DEPT      GRR      RILD       RILM   
# ...
  236.6000   140.7188     6.9670     6.9567
  236.7000   139.5660     6.9895     6.9566
  236.8000   138.9265     7.0028     6.9672
  236.9000   138.0134     7.0161     6.9874
  237.0000   137.1195     7.0289     7.0051
  237.1000   136.2535     7.0287     7.0050
  237.2000   134.9907     7.0285     7.0422
  237.3000   132.9058     7.0283     7.0539
  237.4000   131.6853     7.0281     7.0538
  237.5000   130.6353     7.0279     7.0537
  237.6000   130.3794     7.0278     7.0536
  237.7000   130.8327     7.0449     7.0535
  237.8000   131.0874     7.0621     7.0534
  237.9000   131.5782     7.0764     7.0533
  238.0000   132.0787     7.0761     7.0532
  238.1000   132.7208     7.0759     7.0531
  238.2000   133.4717     7.0757     7.0530
  238.3000   134.2226     7.0951     7.0529
  238.4000   135.0172     7.1154     7.0528
  238.5000   135.9607     7.1247     7.0527
  238.6000   136.9622     7.1245     7.0526
  238.7000   137.8318     7.1243     7.0525
  238.8000   138.6626     7.1241     7.0524
  238.9000   139.6085     7.1239     7.0523
  239.0000   140.1573     7.1237     7.0522
  239.1000   140.6094     7.1235     7.0521
  239.2000   141.1098     7.1233     7.0520
  239.3000   141.6103     7.1231     7.0519
  239.4000   142.1107     7.1228     7.0528
  239.5000   142.6112     7.1227     7.1011
  239.6000   143.1794     7.1225     7.1010
  239.7000   143.8288     7.1223     7.1263
  239.8000   144.4151     7.1221     7.1506
  239.9000   145.0281     7.1219     7.1505
  240.0000   145.7791     7.1216     7.1504
  240.1000   146.5216     7.1215     7.1503
  240.2000   147.1091     7.1213     7.1502
  240.3000   147.1086     7.1211     7.1501
  240.4000   146.9531     7.1209     7.1660
  240.5000   146.8049     7.1207     7.2000
  240.6000   146.7534     7.1204     7.1999
  240.7000   146.5011     7.1203     7.2406
  240.8000   146.2511     7.1201     7.2501
  240.9000   145.8027     7.1199     7.2500
  241.0000   145.4463     7.1197     7.2499
  241.1000   145.1020     7.1195     7.2564
  241.2000   144.6003     7.1593     7.3005
  241.3000   144.0768     7.2005     7.3408
  241.4000   143.8366     7.2189     7.3515
  241.5000   143.3979     7.2187     7.3514
  241.6000   142.8962     7.2185     7.3657
  241.7000   142.3945     7.2182     7.4084
  241.8000   141.8615     7.2180     7.4544
  241.9000   141.0475     7.2178     7.5350
  242.0000   140.8169     7.2392     7.5591
  242.1000   140.3878     7.2679     7.6047
  242.2000   139.8862     7.2677     7.6651
  242.3000   139.3108     7.2675     7.6650
  242.4000   138.5150     7.2673     7.6649
  242.5000   137.1104     7.2671     7.7051
  242.6000   136.4490     7.2669     7.7498
  242.7000   135.5286     7.2667     7.7724
  242.8000   133.8289     7.2665     7.7464
  242.9000   131.5795     7.2663     7.6644
  243.0000   130.0150     7.2661     7.6643
  243.1000   126.8193     7.2659     7.6253
  243.2000   125.1341     7.2657     7.5811
  243.3000   122.9707     7.2655     7.5577
  243.4000   121.1412     7.2653     7.5460
  243.5000   120.1059     7.2651     7.5023
  243.6000   119.8572     7.2649     7.4525
  243.7000   120.1590     7.2647     7.4156
  243.8000   121.1631     7.2645     7.3727
  243.9000   121.9686     7.2643     7.3489
  244.0000   122.7595     7.2641     7.3386
  244.1000   123.9219     7.2639     7.2975
  244.2000   124.6947     7.2637     7.2974
  244.3000   126.1537     7.2635     7.2973
  244.4000   127.2738     7.2633     7.3238
  244.5000   128.1362     7.2695     7.3483
  244.6000   128.8871     7.3137     7.3482
  244.7000   129.6380     7.3135     7.3481
  244.8000   130.4399     7.3133     7.3479
  244.9000   131.1401     7.3131     7.3824
  245.0000   131.7095     7.3129     7.4252
  245.1000   132.3395     7.3127     7.4510
  245.2000   133.0905     7.3125     7.4509
  245.3000   133.8160     7.3123     7.4508
  245.4000   134.3697     7.3121     7.4507
  245.5000   134.8169     7.3119     7.4506
  245.6000   135.3174     7.3117     7.4505
  245.7000   135.6980     7.3115     7.4343
  245.8000   136.0157     7.3112     7.3984
  245.9000   136.5004     7.3110     7.3983
  246.0000   136.7866     7.3108     7.3570
  246.1000   137.4288     7.3106     7.3466
  246.2000   138.0176     7.3104     7.3465
  246.3000   138.4079     7.3102     7.3464
  246.4000   138.7159     7.3100     7.3463
  246.5000   139.2163     7.3098     7.3462
  246.6000   139.8087     7.3096     7.3461
  246.7000   140.2173     7.3094     7.3460
  246.8000   140.7177     7.3092     7.3459
  246.9000   141.2182     7.3090     7.3597
  247.0000   141.6702     7.3088     7.4024
  247.1000   141.9237     7.3086     7.4489
  247.2000   142.1700     7.3084     7.4488
  247.3000   142.4200     7.3082     7.5105
  247.4000   142.6699     7.3080     7.5534
  247.5000   142.9198     7.3078     7.5665
  247.6000   143.1698     7.3076     7.6103
  247.7000   143.4330     7.3074     7.6593
  247.8000   143.9068     7.3072     7.6592
  247.9000   144.0369     7.3070     7.6590
  248.0000   144.3026     7.3068     7.6589
  248.1000   144.8030     7.3065     7.6588
  248.2000   145.3035     7.3846     7.6587
  248.3000   145.8039     7.4087     7.6586
  248.4000   146.3044     7.4085     7.6585
  248.5000   146.8048     7.4211     7.6584
  248.6000   147.3053     7.4639     7.6583
  248.7000   147.9485     7.5119     7.6657
  248.8000   148.8727     7.5117     7.6954
  248.9000   148.8719     7.5409     7.7251
  249.0000   148.6535     7.5843     7.7548
  249.1000   148.4024     7.6166     7.7943
  249.2000   148.2651     7.6186     7.8395
  249.3000   148.2027     7.6694     7.8745
  249.4000   147.9516     7.7067     7.8766
  249.5000   147.6580     7.7227     7.9850
  249.6000   147.2411     7.7225     8.0229
  249.7000   146.8956     7.7321     8.0694
  249.8000   146.5404     7.7766     8.0969
  249.9000   145.9346     7.8302     8.0968
  250.0000   144.9319     7.8300     8.0967
  250.1000   141.5556     7.8298     8.1437
  250.2000   141.3023     7.8296     8.1909
  250.3000   141.0562     7.8294     8.2102
  250.4000   140.8065     7.8291     8.2101
  250.5000   140.6990     7.8289     8.2100
  250.6000   140.6996     7.8287     8.2099
  250.7000   140.7379     7.8285     8.2098
  250.8000   141.0034     7.8283     8.2097
  250.9000   141.0039     7.8281     8.2095
  251.0000   141.1881     7.8278     8.2094
  251.1000   141.4390     7.8276     8.2019
  251.2000   141.6900     7.8274     8.1521
  251.3000   141.9141     7.8272     8.1071
  251.4000   141.9147     7.8270     8.0951
  251.5000   141.9153     7.8267     8.0697
  251.6000   141.7432     7.8265     8.0386
  251.7000   141.2526     7.8263     8.0323
  251.8000   140.5705     7.8261     7.9824
  251.9000   140.0863     7.8259     7.9823
  252.0000   139.8004     7.8381     7.9489
  252.1000   139.8009     7.8802     7.9028
  252.2000   139.8015     7.8799     7.8713
  252.3000   139.9117     7.9189     7.8712
  252.4000   140.1626     7.9347     7.8710
  252.5000   140.4136     7.9344     7.8709
  252.6000   140.7118     7.9450     7.8708
  252.7000   140.9154     7.9908     7.8707
  252.8000   142.0716     8.0451     7.8706
  252.9000   143.7012     8.0450     7.8782
  253.0000   145.1412     8.0732     7.9811
  253.1000   146.5811     8.1198     7.9810
  253.2000   148.0211     8.1573     8.0122
  253.3000   149.4611     8.1570     8.0586
  253.4000   150.7962     8.1568     8.0929
  253.5000   151.6097     8.1199     8.0984
  253.6000   151.5748     8.0997     8.2064
  253.7000   151.3084     8.0994     8.2063
  253.8000   151.3089     8.0919     8.2373
  253.9000   150.9468     8.0427     8.2850
  254.0000   150.5759     8.0867     8.3214
  254.1000   150.1725     8.0985     8.3213
  254.2000   149.3729     8.1234     8.3211
  254.3000   147.9837     8.1547     8.4018
  254.4000   147.3162     8.1658     8.4380
  254.5000   146.0544     8.2688     8.4585
  254.6000   144.7896     8.3562     8.5076
  254.7000   143.7229     8.4530     8.5563
