~VERSION INFORMATION
 VERS.                2.0:   CWLS LOG ASCII STANDARD - VERSION 2.0
 WRAP.                 NO:   ONE LINE PER DEPTH STEP
~WELL INFORMATION
#MNEM.UNIT      DATA TYPE    INFORMATION
#----------   ------------   ------------------------------
 STRT.F          550.0000:   START DEPTH
 STOP.F         2078.5000:   STOP DEPTH
 STEP.F            0.5000:   STEP LENGTH
 NULL.          -999.2500:   NO VALUE
 COMP. BROWN JOHN E&C INC:   COMPANY
 WELL. 58-61 STX-10 #58-10:   WELL
 FLD .             TEAPOT:   FIELD
 LOC .      S10 T38N R78W:   LOCATION
 CNTY.            NATRONA:   COUNTY
 STAT.            WYOMING:   STATE
 CTRY. UNITED STATES OF AMERICA:   COUNTRY
 SRVC.            Unknown:   SERVICE COMPANY
 DATE.        07-SEP-1991:   LOGDATE
 API .       490251108000:   API NUMBER
~CURVE INFORMATION
#MNEM.UNIT       API CODE    CURVE DESCRIPTION
#----------   ------------   ------------------------------
 DEPT.F                  :   
 ROP .MIN/FT 91 810 01 00:   RAT OF DRILLING PENETRATION
 TGAS.UNITS  91 830 01 00:   TOTAL GAS FROM HOTWIRE
~PARAMETER INFORMATION
#MNEM.UNIT          VALUE    DESCRIPTION
#----------   ------------   ------------------------------
 EKB .F              5216:   KELLING BUSHING
 EGL .F              5206:   GROUND LEVEL
 DATE.             9-7-91:   RUN DATE
 DD  .F              2079:   DEPTH DRILLER
 TCS .HRS            1815:   TIME CURCULATED STOPPED
 TLAB.HRS            1930:   TIME LOGGER AT BOTTOM
 ENGI.         HUSK/TOWER:   RECORDING ENGINEER
 WITN.             HENDRY:   WITNESSED BY
 CLNT.            A2DTECH:   CLIENT CODE
 ORIG.           5" PRINT:   ORIGIN OF DATA
 UWI .       490251108000:   UNIQUE WELL ID
 DICO. A2D Technologies, Inc.:   DIGITIZING COMPANY
~OTHER INFORMATION
~A   DEPT        ROP       TGAS 
# ...
 1643.5000     1.9706     4.7597
 1644.0000     1.8668     4.8009
 1644.5000     1.7627     5.9779
 1645.0000     1.6588    10.6565
 1645.5000     1.5548    15.1952
 1646.0000     1.4509    19.7009
 1646.5000     1.3469    24.2000
 1647.0000     1.2430    28.7027
 1647.5000     1.1391    33.2040
 1648.0000     1.0333    37.6973
 1648.5000     0.9669    41.8371
 1649.0000     0.9116    42.6560
 1649.5000     0.8568    42.7692
 1650.0000     0.8097    42.7473
 1650.5000     0.8124    42.7321
 1651.0000     0.8193    42.7243
 1651.5000     0.8259    42.7161
 1652.0000     0.8327    42.7078
 1652.5000     0.8567    42.6995
 1653.0000     0.8304    42.6912
 1653.5000     0.7782    42.6829
 1654.0000     0.7295    42.6747
 1654.5000     0.7573    42.6664
 1655.0000     0.8004    42.6581
 1655.5000     0.8440    42.6498
 1656.0000     0.8870    42.6416
 1656.5000     0.9098    42.6333
 1657.0000     0.8682    42.6250
 1657.5000     0.8284    42.6167
 1658.0000     0.7886    42.6084
 1658.5000     0.7491    42.6002
 1659.0000     0.7446    42.5919
 1659.5000     0.7330    42.5836
 1660.0000     0.7830    42.5753
 1660.5000     0.8322    42.5671
 1661.0000     0.8814    42.5588
 1661.5000     0.9306    42.5505
 1662.0000     0.9787    42.5422
 1662.5000     1.0089    42.5339
 1663.0000     0.9588    42.5257
 1663.5000     0.9098    42.5174
 1664.0000     0.9152    42.5091
 1664.5000     0.9475    42.5008
 1665.0000     0.9800    42.4925
 1665.5000     1.0124    42.4843
 1666.0000     1.0166    42.4760
 1666.5000     0.9830    42.4677
 1667.0000     0.9498    42.4594
 1667.5000     0.9162    42.4512
 1668.0000     0.8827    42.4429
 1668.5000     0.8493    42.4346
 1669.0000     0.8158    42.4263
 1669.5000     0.7813    42.4180
 1670.0000     0.7342    42.4098
 1670.5000     0.7874    42.4015
 1671.0000     0.8955    42.3932
 1671.5000     1.0029    42.3849
 1672.0000     1.1101    42.3767
 1672.5000     1.2173    42.3684
 1673.0000     1.3247    42.3601
 1673.5000     1.4316    42.3518
 1674.0000     1.5370    42.3435
 1674.5000     1.5966    42.3353
 1675.0000     1.4163    42.3270
 1675.5000     1.2692    42.3187
 1676.0000     1.1215    42.3104
 1676.5000     0.9722    42.3022
 1677.0000     0.9438    42.2939
 1677.5000     0.9435    42.2856
 1678.0000     0.9293    42.2773
 1678.5000     0.9076    42.2691
 1679.0000     0.8837    42.2643
 1679.5000     0.8595    42.2623
 1680.0000     0.8355    42.2344
 1680.5000     0.8117    41.4490
 1681.0000     0.8165    38.3708
 1681.5000     0.8190    35.3882
 1682.0000     0.8182    32.4092
 1682.5000     0.8395    29.4254
 1683.0000     0.8661    26.4430
 1683.5000     0.8927    23.4605
 1684.0000     0.9196    20.4781
 1684.5000     0.9102    17.4962
 1685.0000     0.8656    14.5102
 1685.5000     0.8204    11.4936
 1686.0000     0.8185     8.3847
 1686.5000     0.8343     8.4742
 1687.0000     0.8620     8.7360
 1687.5000     0.8896     8.5031
 1688.0000     0.9170     8.2611
 1688.5000     0.9403     8.2626
 1689.0000     0.9345     8.2749
 1689.5000     0.9262     8.2850
 1690.0000     0.9123     8.2944
 1690.5000     1.0532     8.3039
 1691.0000     1.2496     8.3133
 1691.5000     1.4300     8.3228
 1692.0000     1.5933     8.3322
 1692.5000     1.6390     8.3417
 1693.0000     1.5067     8.3511
 1693.5000     1.3673     8.3606
 1694.0000     1.2285     8.3700
 1694.5000     1.0897     8.3795
 1695.0000     0.9589     8.3889
 1695.5000     0.9448     8.3984
 1696.0000     0.9325     8.4078
 1696.5000     0.9441     8.4173
 1697.0000     0.9814     8.4268
 1697.5000     1.0233     8.4362
 1698.0000     1.0648     8.4457
 1698.5000     1.0944     8.4551
 1699.0000     1.0979     8.4646
 1699.5000     1.1028     8.4740
 1700.0000     1.1132     8.4835
 1700.5000     1.1605     8.4929
 1701.0000     1.2665     8.5024
 1701.5000     1.3699     8.5118
 1702.0000     1.4728     8.5213
 1702.5000     1.5453     8.5307
 1703.0000     1.5455     8.5402
 1703.5000     1.4795     8.5496
 1704.0000     1.3903     8.5591
 1704.5000     1.3593     8.5685
 1705.0000     1.3737     8.5780
 1705.5000     1.3878     8.5874
 1706.0000     1.4025     8.5969
 1706.5000     1.4362     8.6063
 1707.0000     1.5516     8.6158
 1707.5000     1.6684     8.6252
 1708.0000     1.7362     8.6347
 1708.5000     1.7577     8.6441
 1709.0000     1.7639     8.6536
 1709.5000     1.7680     8.6630
 1710.0000     1.7217     8.6725
 1710.5000     1.6728     8.6819
 1711.0000     1.6242     8.6914
 1711.5000     1.5755     8.7008
 1712.0000     1.5270     8.7103
 1712.5000     1.4805     8.7198
 1713.0000     1.3903     8.7292
 1713.5000     1.2932     8.7387
 1714.0000     1.1953     8.7481
 1714.5000     1.0979     8.7576
 1715.0000     1.0011     8.7670
 1715.5000     0.9244     8.7765
 1716.0000     0.8767     8.7859
 1716.5000     0.8652     8.7954
 1717.0000     0.8569     8.8048
 1717.5000     0.8487     8.8143
 1718.0000     0.8408     8.8237
 1718.5000     0.8339     8.8332
 1719.0000     0.8296     8.8426
 1719.5000     0.8540     8.8521
 1720.0000     0.8779     8.8615
 1720.5000     0.9022     8.8710
 1721.0000     0.9259     8.8804
 1721.5000     0.9342     8.8899
 1722.0000     0.8917     8.8993
 1722.5000     0.8507     8.9088
 1723.0000     0.8100     8.9182
 1723.5000     0.7687     8.9277
 1724.0000     0.7443     8.9372
 1724.5000     0.7932     8.9466
 1725.0000     0.8483     8.9560
 1725.5000     0.9038     8.9655
 1726.0000     0.9308     8.9749
 1726.5000     0.9184     8.9844
 1727.0000     0.8707     8.9939
 1727.5000     0.8243     9.0033
 1728.0000     0.7777     9.0128
 1728.5000     0.7324     9.0222
 1729.0000     0.7304     9.0317
 1729.5000     0.7452     9.0411
 1730.0000     0.7646     9.0506
 1730.5000     0.8134     9.0600
 1731.0000     0.8945     9.0695
 1731.5000     0.9753     9.0789
 1732.0000     1.0565     9.0884
 1732.5000     1.0601     9.0978
 1733.0000     1.0690     9.1073
 1733.5000     1.0779     9.1167
 1734.0000     1.1105     9.1262
 1734.5000     1.2136     9.1356
 1735.0000     1.3167     9.1451
 1735.5000     1.4195     9.1545
 1736.0000     1.5236     9.1640
 1736.5000     1.5436     9.1734
 1737.0000     1.5441     9.1829
 1737.5000     1.5442     9.1923
 1738.0000     1.5437     9.2018
 1738.5000     1.4360     9.2113
 1739.0000     1.2992     9.2207
 1739.5000     1.1635     9.2302
 1740.0000     1.0526     9.2397
 1740.5000     1.0498     9.2496
 1741.0000     1.0451     9.2501
 1741.5000     1.0126     9.2470
 1742.0000     0.9692     9.2541
 1742.5000     0.9264     9.3018
 1743.0000     0.8758     8.7519
 1743.5000     0.8075     8.8035
 1744.0000     0.8108     8.8439
 1744.5000     0.8223     8.8931
 1745.0000     0.8337     8.9435
 1745.5000     0.8423     8.9931
 1746.0000     0.8060     9.0427
 1746.5000     0.7697     9.0923
 1747.0000     0.7337     9.1420
 1747.5000     0.6988     9.1916
 1748.0000     0.6838     9.2412
 1748.5000     0.7488     9.2908
 1749.0000     0.8116     9.3404
 1749.5000     0.8744     9.3900
 1750.0000     0.8922     9.4396
 1750.5000     0.8935     9.4893
 1751.0000     0.8936     9.5389
 1751.5000     0.8925     9.5885
 1752.0000     0.8992     9.6381
 1752.5000     1.0362     9.6877
 1753.0000     1.1702     9.7373
 1753.5000     1.3024     9.7870
 1754.0000     1.4349     9.8366
 1754.5000     1.5206     9.8862
 1755.0000     1.5374     9.9358
 1755.5000     1.5475     9.9854
 1756.0000     1.5552    10.0350
 1756.5000     1.6054    10.0847
 1757.0000     1.6868    10.1342
 1757.5000     1.7672    10.1839
 1758.0000     1.7942    10.2356
 1758.5000     1.7614    10.2513
 1759.0000     1.7113    10.2503
 1759.5000     1.6612     9.8698
 1760.0000     1.6353     9.4312
 1760.5000     1.6439     8.9931
 1761.0000     1.6514     8.7518
 1761.5000     1.6683     8.7510
 1762.0000     1.6695     8.7495
 1762.5000     1.7205     8.7498
 1763.0000     1.7702     8.7500
 1763.5000     1.8196     8.7500
 1764.0000     1.8691     8.7500
 1764.5000     1.9187     8.7500
