~VERSION INFORMATION
 VERS.                2.0:   CWLS LOG ASCII STANDARD - VERSION 2.0
 WRAP.                 NO:   ONE LINE PER DEPTH STEP
~WELL INFORMATION
#MNEM.UNIT      DATA TYPE    INFORMATION
#----------   ------------   ------------------------------
 STRT.F           42.0000:   START DEPTH
 STOP.F         3145.0000:   STOP DEPTH
 STEP.F            0.5000:   STEP LENGTH
 NULL.          -999.2500:   NO VALUE
 COMP. LAWRENCE/ALLISON INC:   COMPANY
 WELL.      46 STX #34-34:   WELL
 FLD .             TEAPOT:   FIELD
 LOC .      S34 T39N R78W:   LOCATION
 CNTY.            NATRONA:   COUNTY
 STAT.            WYOMING:   STATE
 CTRY. UNITED STATES OF AMERICA:   COUNTRY
 SRVC.              Welex:   SERVICE COMPANY
 DATE.        01-MAY-1977:   LOGDATE
 API .       490251104800:   API NUMBER
~CURVE INFORMATION
#MNEM.UNIT       API CODE    CURVE DESCRIPTION
#----------   ------------   ------------------------------
 DEPT.F                  :   
 ILD .OHMM   07 120 46 00:   INDUCTION LOG DEEP
 ILM .OHMM   07 120 44 00:   INDUCTION LOG MEDIUM
 SGRD.OHMM   07 221 05 00:   SHALLOW SHORT GUARD RESISTIVITY
 SPR .MV     07 010 01 00:   SPONTANEOUS POTENTIAL
 GR  .GAPI   81 310 01 00:   GAMMA RAY
~PARAMETER INFORMATION
#MNEM.UNIT          VALUE    DESCRIPTION
#----------   ------------   ------------------------------
 PD  .                 GL:   PERMANENT DATUM
 EPD .F              5120:   ELEVATION PERMANENT DATUM
 LMF .                 GL:   LOG MEASURED FROM
 DMF .                 GL:   DRILLING MEASURED FROM
 EGL .F              5120:   GROUND LEVEL
 DATE.        01-MAY-1977:   RUN DATE
 RUN .                  1:   RUN NUMBER
 DD  .F               660:   DEPTH DRILLER
 DL  .F               661:   DEPTH LOGGER
 BLI .F               659:   BOTTOM LOG INTERVAL
 TLI .F                40:   TOP LOG INTERVAL
 CS  .IN            8.625:   CASING SIZE
 CBD .F                40:   CASING BOTTOM DRILLER
 CBL .F                42:   CASING BOTTOM LOGGER
 BS  .IN            7.875:   BIT SIZE
 BSD .F               660:   BIT SIZE AT DEPTH
 DFT .             KCLMUD:   DRILLING FLUID TYPE
 DFD .                8.7:   DRILLING FLUID DENSITY
 DFV .                 31:   DRILLING FLUID VISCOSITY
 DFPH.                  9:   DRILLING FLUID PH
 DFL .                  5:   DRILLING FLUID LOSS
 MSS .           FLOWLINE:   MUD SAMPLE SOURCE
 RMS .OHMM            .23:   RESISTIVITY MUD SAMPLE
 MST .F                62:   MUD SAMPLE TEMPERATURE
 RMF .OHMM            .17:   RESISTIVITY MUD FILTRATE SAMPLE
 MFST.F                62:   MUD FILTRATE SAMPLE TEMPERATURE
 RMC .OHMM            .32:   RESISTIVITY MUD CAKE
 MCST.F                62:   MUD CAKE SAMPLE TEMPERATURE
 MFSS.           MEASURED:   MUD FILTRATE SAMPLE SOURCE
 MCSS.           MEASURED:   MUD CAKE SAMPLE SOURCE
 RMB .OHMM             .2:   RESISTIVITY MUD AT BHT
 BHT .F                71:   BOTTOM HOLE TEMPERATURE
 TCS .HRS             1.5:   TIME CURCULATED STOPPED
 MRT .F                71:   MAXIMUM RECORDED TEMPERATURE
 LUL .             CASPER:   LOGGING UNIT LOCATION
 ENGI.          T. JOYNER:   RECORDING ENGINEER
 WITN.            R. LYON:   WITNESSED BY
 CLNT.            A2DTECH:   CLIENT CODE
 ORIG.        2" 5" PRINT:   ORIGIN OF DATA
 UWI .       490251104800:   UNIQUE WELL ID
 DICO. A2D Technologies, Inc.:   DIGITIZING COMPANY
~OTHER INFORMATION
~A   DEPT      ILD        ILM       SGRD        SPR         GR   
# ...
  530.0000    13.6382    15.9154    17.2652   -31.8397  -999.2500
  530.5000    13.4437    15.9053    17.1374   -31.9968  -999.2500
  531.0000    13.2520    15.8952    17.0106   -32.0044  -999.2500
  531.5000    13.0631    15.8852    16.7680   -32.1614  -999.2500
  532.0000    12.7878    15.8772    16.6439   -32.1674  -999.2500
  532.5000    12.6932    15.9780    16.6357   -32.0252  -999.2500
  533.0000    12.5122    16.0791    16.5126   -31.8833  -999.2500
  533.5000    12.4196    16.1809    16.5045   -31.7414  -999.2500
  534.0000    12.3277    16.2834    16.6132   -31.4501  -999.2500
  534.5000    12.4074    16.3866    16.7206   -31.3079  -999.2500
  535.0000    12.4876    16.4904    16.8287   -30.8670  -999.2500
  535.5000    12.7439    16.5969    17.0553   -30.2770  -999.2500
  536.0000    13.1871    16.7019    17.2850   -29.6867  -999.2500
  536.5000    13.8363    16.8075    17.5178   -29.0945  -999.2500
  537.0000    15.0298    17.1503    17.6479   -28.0576  -999.2500
  537.5000    15.9366    17.7418    17.8787   -27.3178  -999.2500
  538.0000    17.2944    18.4846    18.1125   -26.1296  -999.2500
  538.5000    18.3815    18.9929    18.7390   -25.0909  -999.2500
  539.0000    19.5330    19.7880    20.3552   -24.3511  -999.2500
  539.5000    20.2049    21.3444    23.5350   -23.7607  -999.2500
  540.0000    20.3357    23.1558    29.7791   -23.2885  -999.2500
  540.5000    20.6094    25.9699    30.3939   -22.7070  -999.2500
  541.0000    20.8870    27.3857    29.1371   -22.2750  -999.2500
  541.5000    21.1684    28.7029    28.7216   -21.9926  -999.2500
  542.0000    21.7532    29.2842    28.5126   -21.5546  -999.2500
  542.5000    22.5097    29.6748    28.8966   -21.4126  -999.2500
  543.0000    23.2925    29.6559    29.0834   -21.4203  -999.2500
  543.5000    24.1026    29.6371    29.8831   -21.2765  -999.2500
  544.0000    24.9408    29.4135    30.7086   -21.2860  -999.2500
  544.5000    24.5851    28.9896    31.9977   -21.2936  -999.2500
  545.0000    23.7355    28.5719    32.6543   -21.3012  -999.2500
  545.5000    23.2354    27.9653    32.0363   -21.3088  -999.2500
  546.0000    22.7457    27.3717    29.5337   -21.3164  -999.2500
  546.5000    23.5368    26.6054    27.7776   -21.3240  -999.2500
  547.0000    24.3553    25.5040    26.8399   -21.3316  -999.2500
  547.5000    24.5158    24.2791    26.4584   -21.3391  -999.2500
  548.0000    24.1345    23.4361    27.3785   -21.3467  -999.2500
  548.5000    23.7982    23.1014    28.1348   -21.5022  -999.2500
  549.0000    23.1433    23.0678    27.9266   -21.5097  -999.2500
  549.5000    22.5136    22.9129    27.1491   -21.6667  -999.2500
  550.0000    22.0393    22.8986    26.3966   -21.8236  -999.2500
  550.5000    21.5749    22.9759    26.5229   -22.1043  -999.2500
  551.0000    21.2673    23.0325    25.8244   -22.3850  -999.2500
  551.5000    21.2568    23.0193    25.1055   -22.5806  -999.2500
  552.0000    20.8090    22.8472    25.0932   -22.7324  -999.2500
  552.5000    20.7988    22.3638    25.0808   -22.7579  -999.2500
  553.0000    20.7886    22.1967    25.4187   -23.1868  -999.2500
  553.5000    20.7784    22.0308    26.2682   -23.3393  -999.2500
  554.0000    20.7682    22.0184    28.3046   -23.6413  -999.2500
  554.5000    20.7580    22.1624    33.2673   -23.6442  -999.2500
  555.0000    20.8922    22.1469    35.6012   -23.3483  -999.2500
  555.5000    20.8820    22.1344    25.5348   -23.0523  -999.2500
  556.0000    20.8717    21.9690    23.6476   -22.7564  -999.2500
  556.5000    20.7173    21.9566    23.3104   -22.6099  -999.2500
  557.0000    20.7072    21.7925    23.2989   -22.3140  -999.2500
  557.5000    20.6970    21.6296    23.4524   -22.1668  -999.2500
  558.0000    20.6869    21.6175    23.4380   -22.0211  -999.2500
  558.5000    20.6767    21.6077    23.7566   -21.8739  -999.2500
  559.0000    20.6666    21.7467    23.9102   -21.5780  -999.2500
  559.5000    20.6565    21.7341    24.0648   -21.2820  -999.2500
  560.0000    20.6484    21.7220    24.0500   -20.9861  -999.2500
  560.5000    20.6383    21.5598    24.0382   -20.8396  -999.2500
  561.0000    20.4857    21.3987    23.8603   -21.1424  -999.2500
  561.5000    20.4758    21.3867    23.4926   -21.4443  -999.2500
  562.0000    20.3244    21.3747    23.0056   -21.7463  -999.2500
  562.5000    20.1741    21.3627    22.5288   -22.1978  -999.2500
  563.0000    20.1642    21.2030    22.0568   -22.6492  -999.2500
  563.5000    20.0151    20.8990    21.4526   -23.1006  -999.2500
  564.0000    19.8670    20.7428    21.1467   -23.4026  -999.2500
  564.5000    19.7200    20.7311    20.8452   -23.5551  -999.2500
  565.0000    19.5741    20.4338    20.8349   -23.8571  -999.2500
  565.5000    19.1616    20.1408    21.1156   -24.0090  -999.2500
  566.0000    18.8884    19.4429    21.2547   -24.1614  -999.2500
  566.5000    18.4904    18.7692    21.3921   -24.3139  -999.2500
  567.0000    17.9757    18.5001    21.3789   -24.4794  -999.2500
  567.5000    17.4753    18.4897    21.3684   -24.6188  -999.2500
  568.0000    16.9888    18.6106    21.3579   -24.7713  -999.2500
  568.5000    16.7466    18.7297    20.7634   -24.9238  -999.2500
  569.0000    16.5078    18.8496    20.0458   -25.0763  -999.2500
  569.5000    16.4997    18.8621    19.4878   -25.2288  -999.2500
  570.0000    16.4916    18.9595    19.3459   -25.3813  -999.2500
  570.5000    16.4835    18.9487    19.6065   -25.6832  -999.2500
  571.0000    16.4754    18.8019    19.5945   -25.8357  -999.2500
  571.5000    16.3536    18.4094    19.5868   -25.9882  -999.2500
  572.0000    16.1204    18.0199    19.4420   -26.2902  -999.2500
  572.5000    15.9805    17.8852    19.1649   -26.4427  -999.2500
  573.0000    15.6482    17.7515    19.0232   -26.7447  -999.2500
  573.5000    15.3228    17.6188    18.8825   -27.0466  -999.2500
  574.0000    15.0042    17.4871    18.6132   -27.1991  -999.2500
  574.5000    14.6881    17.4773    18.7338   -27.5011  -999.2500
  575.0000    14.1884    17.4675    18.5949   -28.1020  -999.2500
  575.5000    13.7934    17.4577    18.4573   -28.7029  -999.2500
  576.0000    13.4095    17.3272    18.3208   -29.3039  -999.2500
  576.5000    13.3103    17.1977    18.0595   -29.6058  -999.2500
  577.0000    13.3037    17.0691    17.9259   -29.7583  -999.2500
  577.5000    13.2972    16.9416    17.9171   -29.7614  -999.2500
  578.0000    13.2907    16.9320    17.9083   -29.7644  -999.2500
  578.5000    13.2842    16.9225    17.6529   -29.9169  -999.2500
  579.0000    13.2777    17.0332    17.6442   -30.0688  -999.2500
  579.5000    13.2711    17.0213    17.6355   -30.2212  -999.2500
  580.0000    13.2646    17.0136    17.8731   -30.3737  -999.2500
  580.5000    13.3520    17.1408    17.9886   -30.5262  -999.2500
  581.0000    13.3439    17.2325    18.1071   -30.5291  -999.2500
  581.5000    13.3373    17.3499    18.3510   -30.5321  -999.2500
  582.0000    13.4252    17.6978    18.4865   -30.6846  -999.2500
  582.5000    13.5104    17.8111    18.8487   -30.6876  -999.2500
  583.0000    13.5994    18.0500    19.2399   -30.8401  -999.2500
  583.5000    13.7826    18.4193    19.4947   -30.9926  -999.2500
  584.0000    13.7741    19.1917    19.0838   -31.1451  -999.2500
  584.5000    13.8649    18.9165    18.6817   -31.2976  -999.2500
  585.0000    13.7620    16.8017    18.2880   -31.3006  -999.2500
  585.5000    13.6602    15.3456    18.1527   -31.3036  -999.2500
  586.0000    13.4543    15.9870    17.7701   -31.3067  -999.2500
  586.5000    13.3585    16.5422    17.3957   -31.4592  -999.2500
  587.0000    13.1718    16.7640    17.2669   -31.4622  -999.2500
  587.5000    13.0780    16.9888    17.3786   -31.4654  -999.2500
  588.0000    13.0716    16.9793    17.4931   -31.4682  -999.2500
  588.5000    13.0652    16.8524    17.7287   -31.6203  -999.2500
  589.0000    12.9685    16.6107    17.8433   -31.7732  -999.2500
  589.5000    12.9622    16.4865    17.9586   -31.7762  -999.2500
  590.0000    12.8663    16.3633    17.3359   -31.9287  -999.2500
  590.5000    12.7711    16.2410    16.9706   -31.9317  -999.2500
