~VERSION INFORMATION
 VERS.                2.0:   CWLS LOG ASCII STANDARD - VERSION 2.0
 WRAP.                 NO:   ONE LINE PER DEPTH STEP
~WELL INFORMATION
#MNEM.UNIT      DATA TYPE    INFORMATION
#----------   ------------   ------------------------------
 STRT.F           30.0000:   START DEPTH
 STOP.F          468.0000:   STOP DEPTH
 STEP.F            0.1000:   STEP LENGTH
 NULL.          -999.2500:   NO VALUE
 COMP. LAWRENCE/ALLISON INC:   COMPANY
 WELL.    72-12 SX #10-10:   WELL
 FLD .             TEAPOT:   FIELD
 LOC .      S10 T38N R78W:   LOCATION
 CNTY.            NATRONA:   COUNTY
 STAT.            WYOMING:   STATE
 CTRY. UNITED STATES OF AMERICA:   COUNTRY
 SRVC.           Gearhart:   SERVICE COMPANY
 DATE.        17-MAY-1988:   LOGDATE
 API .       490251122400:   API NUMBER
~CURVE INFORMATION
#MNEM.UNIT       API CODE    CURVE DESCRIPTION
#----------   ------------   ------------------------------
 DEPT.F                  :   
 GRR .GAPI   07 310 01 00:   GAMMA RAY
 RILD.OHMM   07 120 46 00:   INDUCTION LOG DEEP RESISTIVITY
 RILM.OHMM   07 120 44 00:   INDUCTION LOG MEDIUM RESISTIVITY
~PARAMETER INFORMATION
#MNEM.UNIT          VALUE    DESCRIPTION
#----------   ------------   ------------------------------
 PD  .                 GL:   PERMANENT DATUM
 EPD .F              5166:   ELEVATION PERMANENT DATUM
 LMF .                 KB:   LOG MEASURED FROM
 DAPD.F              10.2:   FEET ABOVE PERMANENT DATUM
 DMF .                 KB:   DRILLING MEASURED FROM
 EKB .F            5176.2:   KELLING BUSHING
 EGL .F              5166:   GROUND LEVEL
 DATE.        17-MAY-1988:   RUN DATE
 RUN .                  1:   RUN NUMBER
 DD  .F               480:   DEPTH DRILLER
 DL  .F               476:   DEPTH LOGGER
 BLI .F               468:   BOTTOM LOG INTERVAL
 TLI .F                47:   TOP LOG INTERVAL
 CS  .IN            9.625:   CASING SIZE
 CBD .F                43:   CASING BOTTOM DRILLER
 CBL .F                47:   CASING BOTTOM LOGGER
 BS  .IN             8.75:   BIT SIZE
 BSD .F               480:   BIT SIZE AT DEPTH
 DFT .                AIR:   DRILLING FLUID TYPE
 TCS .HRS            0630:   TIME CURCULATED STOPPED
 TLAB.HRS            0930:   TIME LOGGER AT BOTTOM
 LUN .               7597:   LOGGING UNIT NUMBER
 LUL .           GILLETTE:   LOGGING UNIT LOCATION
 ENGI.             SLATKY:   RECORDING ENGINEER
 WITN.             STRONG:   WITNESSED BY
 CLNT.            A2DTECH:   CLIENT CODE
 ORIG.           5" PRINT:   ORIGIN OF DATA
 UWI .       490251122400:   UNIQUE WELL ID
 DICO. A2D Technologies, Inc.:   DIGITIZING COMPANY
~OTHER INFORMATION
~A   DEPT      GRR       RILD       RILM   
# ...
  339.4000    94.7661    12.8273    12.1707
  339.5000    94.7697    12.8280    12.1713
  339.6000    94.7733    12.8289    12.1720
  339.7000    94.7770    12.8295    12.1727
  339.8000    94.7809    12.8302    12.1734
  339.9000    94.5624    12.8542    12.1741
  340.0000    94.4848    12.9212    12.1747
  340.1000    94.4885    12.9220    12.1754
  340.2000    94.4509    12.9226    12.1761
  340.3000    94.1930    12.9233    12.1768
  340.4000    93.9725    12.9240    12.1774
  340.5000    93.5696    12.9335    12.1781
  340.6000    93.2945    13.0158    12.1788
  340.7000    93.2549    13.0808    12.1795
  340.8000    92.9990    13.1551    12.1802
  340.9000    93.0024    13.2298    12.1809
  341.0000    93.0061    13.2932    12.1815
  341.1000    93.0097    13.2940    12.1822
  341.2000    93.0586    13.4322    12.1829
  341.3000    93.3202    13.5329    12.1835
  341.4000    93.3236    13.6097    12.1843
  341.5000    93.4949    13.7021    12.1849
  341.6000    93.7414    13.8644    12.2296
  341.7000    93.9879    14.0145    12.2714
  341.8000    94.2475    14.1166    12.2721
  341.9000    94.4808    14.2346    12.2728
  342.0000    94.5576    14.3770    12.3375
  342.1000    94.6707    14.4593    12.4077
  342.2000    94.8679    14.6219    12.4783
  342.3000    94.8717    14.7877    12.5642
  342.4000    94.8752    14.9124    12.7110
  342.5000    95.0505    14.9971    12.7813
  342.6000    95.1855    15.0822    12.9073
  342.7000    95.1891    15.1679    13.0539
  342.8000    95.1929    15.2540    13.2021
  342.9000    95.1964    15.3880    13.3531
  343.0000    95.0263    15.5624    13.5813
  343.1000    94.7871    15.7385    13.7527
  343.2000    94.5479    15.9483    13.9515
  343.3000    94.3019    16.0975    14.1651
  343.4000    93.5975    16.3882    14.3309
  343.5000    93.0485    16.7277    14.6191
  343.6000    92.5665    17.0219    14.8246
  343.7000    92.0845    17.4626    15.1279
  343.8000    91.5928    17.8057    15.4418
  343.9000    90.8824    18.2109    15.7145
  344.0000    89.7385    18.6247    16.1201
  344.1000    88.4413    19.0321    16.5209
  344.2000    87.1441    19.3886    16.9323
  344.3000    85.8469    19.6859    17.3570
  344.4000    84.5497    20.0211    17.8514
  344.5000    83.1337    20.4103    18.4049
  344.6000    82.4752    20.8524    18.8865
  344.7000    81.7504    21.2296    19.3519
  344.8000    80.9255    21.5685    19.7929
  344.9000    79.9977    21.8499    20.2204
  345.0000    79.2124    22.1546    20.5791
  345.1000    78.5477    22.5312    20.9164
  345.2000    77.9854    22.9242    21.3607
  345.3000    77.5034    23.1774    21.8476
  345.4000    77.0214    23.6354    22.3139
  345.5000    76.5033    24.0381    22.6938
  345.6000    75.8326    24.3801    23.0817
  345.7000    75.4368    24.9299    23.4759
  345.8000    75.1976    25.2128    23.8764
  345.9000    74.9144    25.7217    24.2834
  346.0000    74.4002    26.2275    24.6900
  346.1000    74.1769    26.6735    25.0238
  346.2000    73.9378    27.1193    25.3707
  346.3000    73.6986    27.4861    25.8037
  346.4000    73.4594    27.8646    26.2436
  346.5000    73.2063    28.2482    26.6761
  346.6000    73.2097    28.5682    27.0228
  346.7000    73.2133    28.8776    27.2861
  346.8000    73.2170    29.0671    27.5962
  346.9000    73.2686    29.4858    27.9698
  347.0000    73.5275    29.7840    28.4009
  347.1000    73.5309    29.9531    28.5784
  347.2000    73.5345    30.1231    28.8716
  347.3000    73.4279    30.3144    29.1997
  347.4000    73.2388    30.4663    29.4605
  347.5000    73.2426    30.6394    29.6281
  347.6000    73.2461    30.8133    29.8056
  347.7000    73.2497    30.9882    29.9664
  347.8000    73.2533    31.1784    30.1371
  347.9000    73.2570    31.1800    30.3086
  348.0000    73.2607    31.3007    30.4811
  348.1000    73.2642    31.4011    30.6557
  348.2000    73.0933    31.4377    30.8291
  348.3000    72.9685    31.6239    31.0046
  348.4000    72.9180    31.6256    31.0907
  348.5000    72.6728    31.6274    31.1410
  348.6000    72.6764    31.6291    31.3114
  348.7000    72.5034    31.6309    31.3132
  348.8000    72.2643    31.6327    31.4561
  348.9000    72.0251    31.6344    31.5354
  349.0000    71.7819    31.6362    31.5372
  349.1000    71.7855    31.6379    31.5389
  349.2000    71.6104    31.6397    31.5410
  349.3000    71.4897    31.6360    31.5425
  349.4000    71.4351    31.4610    31.5442
  349.5000    71.1940    31.2869    31.4810
  349.6000    70.9567    31.1137    31.3062
  349.7000    70.7175    30.9414    31.1134
  349.8000    70.5988    30.7700    31.1150
  349.9000    70.5422    30.5703    31.0032
  350.0000    70.3030    29.6027    30.2772
  350.1000    70.6091    29.1187    28.9981
  350.2000    70.6124    29.0625    28.8252
  350.3000    70.8374    28.8999    28.6753
  350.4000    71.2445    28.7164    28.6260
  350.5000    71.6313    28.7164    28.5543
  350.6000    71.9171    28.6163    28.4282
  350.7000    72.4457    28.4563    28.4286
  350.8000    72.8930    28.3196    28.2749
  350.9000    73.2192    28.3196    28.1171
  351.0000    73.5656    28.1770    27.9602
  351.1000    74.0535    28.0195    27.8426
  351.2000    74.5821    27.7977    27.8419
  351.3000    75.2516    27.5149    27.6866
  351.4000    75.8202    27.3515    27.5322
  351.5000    75.9041    27.0656    27.3785
  351.6000    75.4626    26.8684    27.2256
  351.7000    75.2033    26.5827    27.0736
  351.8000    75.2061    26.2017    26.8928
  351.9000    75.2091    26.0516    26.7723
  352.0000    75.3131    25.7684    26.5395
  352.1000    75.5989    25.5861    26.2906
  352.2000    76.1275    25.4430    26.1438
  352.3000    76.5748    25.3366    25.9746
  352.4000    77.2244    25.3366    25.7316
  352.5000    77.8536    25.3366    25.6161
  352.6000    78.3414    25.3366    25.5650
  352.7000    78.8699    25.3366    25.4391
  352.8000    79.0950    25.3366    25.4395
  352.9000    79.3405    25.3366    25.3150
  353.0000    79.4848    25.3366    25.2637
  353.1000    79.4879    25.3366    25.2640
  353.2000    79.4912    25.3366    25.2644
  353.3000    79.0494    25.3366    25.2647
  353.4000    78.5676    25.3366    25.2651
  353.5000    78.0858    25.3366    25.2654
  353.6000    77.6445    25.2167    25.2658
  353.7000    77.3851    25.0758    25.2661
  353.8000    76.9434    24.9356    25.2665
  353.9000    76.2999    24.7960    25.1323
  354.0000    75.7778    24.6413    25.0919
  354.1000    75.5384    24.6413    25.0922
  354.2000    75.2790    24.5528    25.0603
  354.3000    75.0596    24.4155    24.9189
  354.4000    74.8202    24.2789    24.9192
  354.5000    74.8839    24.1324    24.8152
  354.6000    75.3717    24.0082    24.7470
  354.7000    75.9003    23.9651    24.7104
  354.8000    76.3474    23.9651    24.5724
  354.9000    76.8354    23.9384    24.4353
  355.0000    77.4243    23.7990    24.2990
  355.1000    78.0333    23.6715    24.1634
  355.2000    78.0366    23.6340    24.0285
  355.3000    78.4838    23.5084    23.8943
  355.4000    78.8101    23.3075    23.7373
  355.5000    78.9545    23.3075    23.6284
  355.6000    78.9980    23.1778    23.4965
  355.7000    79.2639    23.0482    23.3653
  355.8000    79.0445    22.9194    23.2218
  355.9000    79.1283    22.7912    22.9269
  356.0000    79.2727    22.6595    22.9271
  356.1000    79.2758    22.4071    22.8480
  356.2000    79.2790    22.2557    22.7205
  356.3000    79.2818    22.1313    22.5936
  356.4000    79.1232    22.0458    22.4545
  356.5000    78.9848    22.0372    22.3422
  356.6000    78.9879    21.8930    22.2994
  356.7000    78.9912    21.7915    22.2478
  356.8000    78.9939    21.6697    22.1236
  356.9000    78.9970    21.5905    21.9920
  357.0000    79.1010    21.5775    21.7632
  357.1000    79.3061    21.4408    21.6043
  357.2000    79.3093    21.4408    21.4837
  357.3000    79.3121    21.4408    21.3385
  357.4000    79.3152    21.4408    21.0937
  357.5000    79.3182    21.4408    20.9794
