~VERSION INFORMATION
 VERS.                2.0:   CWLS LOG ASCII STANDARD - VERSION 2.0
 WRAP.                 NO:   ONE LINE PER DEPTH STEP
~WELL INFORMATION
#MNEM.UNIT      DATA TYPE    INFORMATION
#----------   ------------   ------------------------------
 STRT.F            6.0000:   START DEPTH
 STOP.F         2600.0000:   STOP DEPTH
 STEP.F            0.5000:   STEP LENGTH
 NULL.          -999.2500:   NO VALUE
 COMP. FENIX & SCISSON INC:   COMPANY
 WELL.   NPR 3 SH #17 -34:   WELL
 FLD .             TEAPOT:   FIELD
 LOC .      S34 T39N R78W:   LOCATION
 CNTY.            NATRONA:   COUNTY
 STAT.            WYOMING:   STATE
 CTRY. UNITED STATES OF AMERICA:   COUNTRY
 SRVC.            Unknown:   SERVICE COMPANY
 DATE.        21-MAR-1978:   LOGDATE
 API .       490251060600:   API NUMBER
~CURVE INFORMATION
#MNEM.UNIT       API CODE    CURVE DESCRIPTION
#----------   ------------   ------------------------------
 DEPT.F                  :   
 NPHI.DEC    42 890 03 00:   NEUTRON POROSITY SANDSTONE
 CALD.IN     45 280 60 00:   CALIPER FROM DENSITY LOG
 GRD .GAPI   45 310 01 00:   GAMMA RAY FROM DENSITY LOG
 CORR.G/C3   45 356 01 00:   DENSITY CORRECTION
 RHOB.G/C3   45 350 01 00:   BULK DENSITY
 DPHI.DEC    45 890 12 00:   DENSITY POROSITY SANDSTONE
~PARAMETER INFORMATION
#MNEM.UNIT          VALUE    DESCRIPTION
#----------   ------------   ------------------------------
 PD  .                 GL:   PERMANENT DATUM
 EPD .F              5150:   ELEVATION PERMANENT DATUM
 LMF .                 KB:   LOG MEASURED FROM
 DMF .                 KB:   DRILLING MEASURED FROM
 EKB .F              5160:   KELLING BUSHING
 EGL .F              5150:   GROUND LEVEL
 DATE.          3-21-1978:   RUN DATE
 RUN .                  1:   RUN NUMBER
 DD  .F              2612:   DEPTH DRILLER
 DL  .F              2592:   DEPTH LOGGER
 BLI .F              2590:   BOTTOM LOG INTERVAL
 TLI .F                20:   TOP LOG INTERVAL
 CS  .IN            9.625:   CASING SIZE
 CBD .F               710:   CASING BOTTOM DRILLER
 CBL .F               710:   CASING BOTTOM LOGGER
 BS  .IN            8.625:   BIT SIZE
 BSD .F              2612:   BIT SIZE AT DEPTH
 DFT .           AIR MIST:   DRILLING FLUID TYPE
 BHT .F               110:   BOTTOM HOLE TEMPERATURE
 TCS .HRS               2:   TIME CURCULATED STOPPED
 MRT .F               110:   MAXIMUM RECORDED TEMPERATURE
 LUN .               2958:   LOGGING UNIT NUMBER
 LUL .               CASP:   LOGGING UNIT LOCATION
 ENGI.            POINTER:   RECORDING ENGINEER
 WITN.           MCGINLEY:   WITNESSED BY
 CLNT.            A2DTECH:   CLIENT CODE
 ORIG.      2" , 5" PRINT:   ORIGIN OF DATA
 UWI .       490251060600:   UNIQUE WELL ID
 DICO. A2D Technologies, Inc.:   DIGITIZING COMPANY
~OTHER INFORMATION
~A    DEPT      NPHI     CALD        GRD       CORR       RHOB       DPHI   
# ...
  942.0000  -999.2500     9.5899   101.6077     0.1241     2.4624     0.1177
  942.5000  -999.2500     9.5883    99.5020     0.1389     2.4583     0.1184
  943.0000  -999.2500     9.5868    97.6896     0.1535     2.4574     0.1164
  943.5000  -999.2500     9.5852    97.7449     0.1680     2.4613     0.1144
  944.0000  -999.2500     9.5836    96.8904     0.1757     2.4646     0.1209
  944.5000  -999.2500     9.5820    95.9733     0.1742     2.4534     0.1284
  945.0000  -999.2500     9.5805    96.1855     0.1920     2.4438     0.0784
  945.5000  -999.2500     9.5789    95.1883     0.2060     2.4835     0.0933
  946.0000  -999.2500     9.5773    94.4034     0.1478     2.5252     0.1096
  946.5000  -999.2500     9.5757    96.6346     0.1010     2.4777     0.1133
  947.0000  -999.2500     9.5742    99.0527     0.0927     2.4701     0.1173
  947.5000  -999.2500     9.5726    99.0571     0.0874     2.4571     0.1213
  948.0000  -999.2500     9.5710    98.9608     0.0903     2.4481     0.1226
  948.5000  -999.2500     9.5694    99.6827     0.0936     2.4476     0.1217
  949.0000  -999.2500     9.5678   100.4758     0.0968     2.4532     0.1207
  949.5000  -999.2500     9.5663   100.4065     0.1000     2.4571     0.1196
  950.0000  -999.2500     9.5647    99.0108     0.1031     2.4569     0.1180
  950.5000  -999.2500     9.5631    97.7544     0.1054     2.4653     0.1155
  951.0000  -999.2500     9.5621    98.3350     0.1050     2.4757     0.1113
  951.5000  -999.2500     9.5614    99.1777     0.1046     2.4721     0.1110
  952.0000  -999.2500     9.5606   100.0406     0.1043     2.4681     0.1111
  952.5000  -999.2500     9.5599   100.7853     0.1039     2.4692     0.1094
  953.0000  -999.2500     9.5591   100.0807     0.1036     2.4725     0.1066
  953.5000  -999.2500     9.5584    99.1239     0.1028     2.4758     0.1044
  954.0000  -999.2500     9.5577    98.8546     0.1013     2.4788     0.1085
  954.5000  -999.2500     9.5569    98.7562     0.0997     2.4750     0.1124
  955.0000  -999.2500     9.5562    97.8669     0.0983     2.4710     0.1138
  955.5000  -999.2500     9.5554    97.2651     0.0967     2.4671     0.1146
  956.0000  -999.2500     9.5547    98.4927     0.0953     2.4667     0.1155
  956.5000  -999.2500     9.5540    99.9947     0.0937     2.4664     0.1172
  957.0000  -999.2500     9.5532   101.4733     0.0945     2.4659     0.1188
  957.5000  -999.2500     9.5525   100.0144     0.0959     2.4587     0.1201
  958.0000  -999.2500     9.5517    97.4585     0.0973     2.4566     0.1203
  958.5000  -999.2500     9.5510    96.7594     0.0919     2.4600     0.1211
  959.0000  -999.2500     9.5503    97.3840     0.0859     2.4521     0.1224
  959.5000  -999.2500     9.5495    98.1766     0.0796     2.4503     0.1242
  960.0000  -999.2500     9.5488   100.3889     0.0773     2.4486     0.1260
  960.5000  -999.2500     9.5480    97.5576     0.0756     2.4211     0.1263
  961.0000  -999.2500     9.5473    93.5604     0.0801     2.4392     0.1267
  961.5000  -999.2500     9.5465    93.7323     0.0844     2.4489     0.1235
  962.0000  -999.2500     9.5458    95.1387     0.0887     2.4543     0.1170
  962.5000  -999.2500     9.5451    96.4790     0.0930     2.4611     0.1122
  963.0000  -999.2500     9.5443    97.4173     0.0985     2.4654     0.1068
  963.5000  -999.2500     9.5436    97.5542     0.1056     2.4750     0.1023
  964.0000  -999.2500     9.5428    98.1110     0.1127     2.4867     0.1036
  964.5000  -999.2500     9.5424    98.7421     0.1138     2.4850     0.1048
  965.0000  -999.2500     9.5421    99.0265     0.1118     2.4828     0.1027
  965.5000  -999.2500     9.5417   100.3606     0.1212     2.4808     0.0993
  966.0000  -999.2500     9.5414   105.6936     0.1281     2.4817     0.0981
  966.5000  -999.2500     9.5411   106.2074     0.1187     2.4895     0.1004
  967.0000  -999.2500     9.5407   103.7839     0.1094     2.4821     0.1027
  967.5000  -999.2500     9.5404   101.0328     0.1064     2.4746     0.1050
  968.0000  -999.2500     9.5400   100.5596     0.1051     2.4762     0.1069
  968.5000  -999.2500     9.5397   100.0879     0.1038     2.4749     0.1083
  969.0000  -999.2500     9.5393    98.8344     0.1025     2.4721     0.1100
  969.5000  -999.2500     9.5390    98.3838     0.1016     2.4724     0.1086
  970.0000  -999.2500     9.5386   101.8036     0.1036     2.4732     0.1072
  970.5000  -999.2500     9.5383   102.4897     0.1055     2.4769     0.1074
  971.0000  -999.2500     9.5379   101.5182     0.1078     2.4762     0.1076
  971.5000  -999.2500     9.5376   100.4619     0.1172     2.4755     0.1058
  972.0000  -999.2500     9.5372    99.4203     0.1263     2.4787     0.1020
  972.5000  -999.2500     9.5369    99.3243     0.1319     2.4865     0.0984
  973.0000  -999.2500     9.5366   100.1534     0.1333     2.4894     0.1008
  973.5000  -999.2500     9.5362   100.2744     0.1347     2.4859     0.1030
  974.0000  -999.2500     9.5359   100.4550     0.1360     2.4825     0.1048
  974.5000  -999.2500     9.5355   101.1450     0.1376     2.4791     0.1044
  975.0000  -999.2500     9.5352   102.2867     0.1454     2.4776     0.1040
  975.5000  -999.2500     9.5348   102.7722     0.1535     2.4794     0.1036
  976.0000  -999.2500     9.5345   101.3376     0.1617     2.4832     0.0965
  976.5000  -999.2500     9.5341   100.3137     0.1590     2.4814     0.0920
  977.0000  -999.2500     9.5338   100.7723     0.1376     2.4915     0.1000
  977.5000  -999.2500     9.5334   101.1183     0.1150     2.4891     0.1013
  978.0000  -999.2500     9.5331   100.3606     0.0974     2.4860     0.1031
  978.5000  -999.2500     9.5328    99.9219     0.0972     2.4829     0.1048
  979.0000  -999.2500     9.5324   100.2394     0.1004     2.4797     0.1050
  979.5000  -999.2500     9.5321   100.3847     0.1046     2.4771     0.1039
  980.0000  -999.2500     9.5317   100.5340     0.1088     2.4838     0.0975
  980.5000  -999.2500     9.5314   100.5399     0.1129     2.4912     0.0896
  981.0000  -999.2500     9.5310   100.5252     0.1083     2.4979     0.0950
  981.5000  -999.2500     9.5307   100.5157     0.1026     2.4944     0.0996
  982.0000  -999.2500     9.5303    99.0962     0.0997     2.4902     0.1014
  982.5000  -999.2500     9.5300    97.2324     0.1010     2.4869     0.1031
  983.0000  -999.2500     9.5296    98.1807     0.1022     2.4861     0.1044
  983.5000  -999.2500     9.5293    98.5777     0.1034     2.4850     0.1014
  984.0000  -999.2500     9.5289    98.3464     0.1046     2.4884     0.0983
  984.5000  -999.2500     9.5286   101.5648     0.1051     2.4924     0.0952
  985.0000  -999.2500     9.5283   102.5197     0.1046     2.4930     0.0973
  985.5000  -999.2500     9.5279   101.4847     0.1040     2.4905     0.1000
  986.0000  -999.2500     9.5276   100.4149     0.1034     2.4881     0.0990
  986.5000  -999.2500     9.5272   100.7734     0.1037     2.4874     0.0980
  987.0000  -999.2500     9.5269   102.1216     0.1041     2.4893     0.0986
  987.5000  -999.2500     9.5265   103.6434     0.1045     2.4900     0.0994
  988.0000  -999.2500     9.5262   104.6619     0.1049     2.4841     0.0993
  988.5000  -999.2500     9.5258   102.9052     0.1052     2.4873     0.0973
  989.0000  -999.2500     9.5255   101.2313     0.1069     2.4909     0.0954
  989.5000  -999.2500     9.5251   100.1507     0.1099     2.4945     0.0934
  990.0000  -999.2500     9.5248   100.3024     0.1128     2.4980     0.0914
  990.5000  -999.2500     9.5245    99.5016     0.1157     2.5016     0.0896
  991.0000  -999.2500     9.5241   101.1364     0.1187     2.4964     0.0879
  991.5000  -999.2500     9.5238   102.9679     0.1209     2.4947     0.0864
  992.0000  -999.2500     9.5234   104.8126     0.1109     2.5020     0.0952
  992.5000  -999.2500     9.5231   106.1014     0.1010     2.4993     0.0978
  993.0000  -999.2500     9.5240   105.6046     0.0954     2.4923     0.1005
  993.5000  -999.2500     9.5269   105.1047     0.0954     2.4852     0.1033
