~VERSION INFORMATION
 VERS.                2.0:   CWLS LOG ASCII STANDARD - VERSION 2.0
 WRAP.                 NO:   ONE LINE PER DEPTH STEP
~WELL INFORMATION
#MNEM.UNIT      DATA TYPE    INFORMATION
#----------   ------------   ------------------------------
 STRT.F           21.0000:   START DEPTH
 STOP.F          495.0000:   STOP DEPTH
 STEP.F            0.5000:   STEP LENGTH
 NULL.          -999.2500:   NO VALUE
 COMP. FENIX & SCISSON U.S. NAVY:   COMPANY
 WELL.        NPR #42-S-3:   WELL
 FLD .             TEAPOT:   FIELD
 LOC .       S3 T38N R78W:   LOCATION
 CNTY.            NATRONA:   COUNTY
 STAT.            WYOMING:   STATE
 CTRY. UNITED STATES OF AMERICA:   COUNTRY
 SRVC.              Welex:   SERVICE COMPANY
 DATE.        05-MAY-1977:   LOGDATE
 API .       490251034800:   API NUMBER
~CURVE INFORMATION
#MNEM.UNIT       API CODE    CURVE DESCRIPTION
#----------   ------------   ------------------------------
 DEPT.F                  :   
 SPR .MV     07 010 01 00:   SPONTANEOUS POTENTIAL
 SGRD.OHMM   07 221 05 00:   SHALLOW SHORT GUARD RESISTIVITY
 ILD .OHMM   07 120 46 00:   INDUCTION LOG DEEP
 ILM .OHMM   07 120 44 00:   INDUCTION LOG MEDIUM
 GRD .GAPI   45 310 01 00:   GAMMA RAY FROM DENSITY LOG
 CALD.IN     45 280 60 00:   CALIPER FROM DENSITY LOG
 CORR.G/C3   45 356 01 00:   DENSITY CORRECTION
 RHOB.G/C3   45 350 01 00:   BULK DENSITY
 DPHI.DEC    45 890 12 00:   DENSITY POROSITY SANDSTONE
~PARAMETER INFORMATION
#MNEM.UNIT          VALUE    DESCRIPTION
#----------   ------------   ------------------------------
 PD  .                 GL:   PERMANENT DATUM
 EPD .F              5120:   ELEVATION PERMANENT DATUM
 LMF .                 GL:   LOG MEASURED FROM
 DMF .                 GL:   DRILLING MEASURED FROM
 EGL .F              5120:   GROUND LEVEL
 DATE.        05-MAY-1977:   RUN DATE
 RUN .                  1:   RUN NUMBER
 DD  .F               490:   DEPTH DRILLER
 DL  .F               495:   DEPTH LOGGER
 BLI .F               493:   BOTTOM LOG INTERVAL
 TLI .F                20:   TOP LOG INTERVAL
 CS  .IN            8.625:   CASING SIZE
 CBD .F                25:   CASING BOTTOM DRILLER
 CBL .F                25:   CASING BOTTOM LOGGER
 BS  .IN            7.875:   BIT SIZE
 BSD .F               490:   BIT SIZE AT DEPTH
 DFT .            KCL MUD:   DRILLING FLUID TYPE
 DFD .                8.8:   DRILLING FLUID DENSITY
 DFV .                 34:   DRILLING FLUID VISCOSITY
 DFPH.                8.0:   DRILLING FLUID PH
 DFL .                8.4:   DRILLING FLUID LOSS
 MSS .           FLOWLINE:   MUD SAMPLE SOURCE
 RMS .OHMM           0.26:   RESISTIVITY MUD SAMPLE
 MST .F                60:   MUD SAMPLE TEMPERATURE
 RMF .OHMM           0.14:   RESISTIVITY MUD FILTRATE SAMPLE
 MFST.F                60:   MUD FILTRATE SAMPLE TEMPERATURE
 RMC .OHMM           0.41:   RESISTIVITY MUD CAKE
 MCST.F                60:   MUD CAKE SAMPLE TEMPERATURE
 MFSS.           FANN KIT:   MUD FILTRATE SAMPLE SOURCE
 MCSS.            FANNKIT:   MUD CAKE SAMPLE SOURCE
 RMB .OHMM           0.21:   RESISTIVITY MUD AT BHT
 BHT .F                71:   BOTTOM HOLE TEMPERATURE
 TCS .HRS            0130:   TIME CURCULATED STOPPED
 MRT .F                71:   MAXIMUM RECORDED TEMPERATURE
 LUN .               8611:   LOGGING UNIT NUMBER
 LUL .             CASPER:   LOGGING UNIT LOCATION
 ENGI.            C. DOAK:   RECORDING ENGINEER
 WITN.            R. LYON:   WITNESSED BY
 CLNT.            A2DTECH:   CLIENT CODE
 ORIG.           5" PRINT:   ORIGIN OF DATA
 UWI .       490251034800:   UNIQUE WELL ID
 DICO. A2D Technologies, Inc.:   DIGITIZING COMPANY
~OTHER INFORMATION
~A   DEPT      SPR       SGRD        ILD        ILM         GRD        CALD       CORR       RHOB       DPHI 
# ...
  422.5000   -40.4996    18.0475    11.7779    14.9356    93.0075     7.8862     0.0063     2.4913     0.1090
  423.0000   -40.5096    18.0451    11.7748    13.0094    92.4060     7.8862     0.0063     2.4989     0.1063
  423.5000   -40.5197    18.3045    12.0185    13.8393    93.9098     7.8862     0.0055     2.4958     0.1099
  424.0000   -40.6786    18.5447    12.0984    15.8821    95.7943     7.8862     0.0048     2.4869     0.1123
  424.5000   -40.9887    18.2877    11.7654    15.4165    97.9699     7.8862     0.0041     2.4861     0.1132
  425.0000   -41.1475    18.0349    11.6815    13.7360    96.9173     7.8862     0.0034     2.4847     0.1129
  425.5000   -41.3064    17.6633    12.0049    15.1240    95.8647     7.9012     0.0019     2.4786     0.1150
  426.0000   -41.6140    17.5396    12.0847    11.7977    94.9624     7.8862     0.0012     2.4757     0.1194
  426.5000   -41.7728    17.5373    11.9977    13.0803    94.5113     7.8862     0.0004     2.4787     0.1182
  427.0000   -41.7829    17.4145    11.7490    15.4308    94.6617     7.8862    -0.0003     2.4660     0.1245
  427.5000   -41.9420    17.5326    11.5054    14.5999    95.7143     7.8862    -0.0003     2.4653     0.1233
  428.0000   -42.2519    18.0198    11.3449    14.1793    95.5639     7.8862     0.0005     2.4758     0.1194
  428.5000   -42.4107    17.8936    11.2639    15.4215    96.9173     7.8862     0.0005     2.4893     0.1119
  429.0000   -42.4207    17.5250    11.1828    13.3397    99.4737     7.8862     0.0021     2.4908     0.1107
  429.5000   -42.4308    17.2828    11.1798    13.8047    99.3159     7.8862     0.0036     2.4893     0.1116
  430.0000   -42.5896    17.1617    11.1769    14.1886    93.3083     7.8862     0.0058     2.4969     0.1050
  430.5000   -42.7485    17.0415    11.2519    11.5348    93.2858     7.8862     0.0059     2.5029     0.1005
  431.0000   -42.9098    16.9059    11.3268    12.3556    95.5740     7.8862     0.0051     2.5029     0.0999
  431.5000   -42.7685    16.5731    11.3230    14.0819    97.5188     7.8862     0.0044     2.5022     0.1005
  432.0000   -42.7811    16.5709    11.2381    14.8774   100.6767     7.8862     0.0029     2.5059     0.0981
  432.5000   -42.9399    17.3878    11.0846    13.5059   104.4361     7.8862     0.0015     2.5089     0.0963
  433.0000   -43.0987    17.5063    11.0816    14.4662   106.8421     7.8713     0.0007     2.5045     0.0987
  433.5000   -43.1088    17.5034    11.0787    15.4956   107.1580     7.8713     0.0008     2.4993     0.1002
  434.0000   -43.2679    17.5011    11.0757    15.0711   104.0753     7.8713     0.0023     2.5068     0.0969
  434.5000   -43.4290    17.4987    11.3042    13.0372   103.2331     7.8713     0.0045     2.5180     0.0921
  435.0000   -43.5878    17.3757    11.3794    14.4546   104.1353     7.8713     0.0068     2.5255     0.0891
  435.5000   -43.7467    17.0177    11.2981    14.1559   105.3383     7.8713     0.0053     2.5173     0.0942
  436.0000   -43.7567    16.8985    11.2168    12.0778   104.1353     7.8862     0.0039     2.5054     0.0975
  436.5000   -44.0643    16.7802    11.0603    13.2362   103.9850     7.9012     0.0016     2.5046     0.0978
  437.0000   -44.3720    16.8940    10.7566    13.6681   105.9398     7.9012     0.0009     2.4987     0.0999
  437.5000   -44.4072    16.7757    10.4612    12.5797   105.3383     7.9162     0.0009     2.4890     0.1070
  438.0000   -44.6922    16.5438    10.7516    13.0183   103.6842     7.9162     0.0010     2.4957     0.1022
  438.5000   -44.8510    16.5411    10.9003    13.9453   103.3835     7.9162     0.0017     2.5047     0.0980
  439.0000   -45.0099    16.4252    10.6634    13.3769   105.0376     7.9162     0.0040     2.4913     0.1013
  439.5000   -45.0199    16.3102    10.3776    11.8134   101.1655     7.9012     0.0063     2.5040     0.0968
  440.0000   -45.1787    16.0847    10.1625    12.7593   100.9774     7.9012     0.0078     2.5130     0.0953
  440.5000   -45.4995    15.9721     9.8835    10.5749   103.2331     7.8862     0.0078     2.5145     0.0953
  441.0000   -45.6477    15.6431     9.8808    11.4057   107.1429     7.8862     0.0078     2.5146     0.0937
  441.5000   -45.9554    15.2155     9.8782    11.8040   109.4509     7.8862     0.0094     2.5231     0.0890
  442.0000   -46.2630    15.2134     9.8756    10.4238   107.1228     7.9012     0.0101     2.5333     0.0869
  442.5000   -46.4219    15.3167     9.8729    10.7872   105.4887     7.9012     0.0109     2.5348     0.0869
  443.0000   -46.8783    15.2090    10.0759    11.7152   104.8872     7.9012     0.0132     2.5379     0.0845
  443.5000   -47.0372    14.9987    10.0040    12.2920   104.5865     7.9012     0.0147     2.5543     0.0716
  444.0000   -47.4940    14.7913     9.4647    11.9205   104.8872     7.9012     0.0155     2.5559     0.0719
  444.5000   -47.9526    13.8041     9.0788    10.2703   106.0902     7.9012     0.0140     2.5559     0.0737
  445.0000   -48.2603    13.5198     9.0140     9.8522   108.6466     7.9012     0.0132     2.5529     0.0797
  445.5000   -48.5679    13.3328     8.8263     9.8502   110.3008     7.9012     0.0133     2.5410     0.0857
  446.0000   -48.8756    13.2391     8.2666     9.5803   107.7444     7.9012     0.0133     2.5275     0.0905
  446.5000   -49.3320    12.9663     7.4766     9.3179   105.9398     7.9012     0.0126     2.5208     0.0935
  447.0000   -49.4911    12.6992     6.8339     8.6954   108.3459     7.9012     0.0111     2.5171     0.0953
  447.5000   -49.5034    12.0993     6.4210     7.8903   112.6062     7.9162     0.0104     2.5111     0.0985
  448.0000   -49.5134    10.9847     6.0749     7.0397   115.7143     7.9162     0.0104     2.5037     0.1018
  448.5000   -49.3722     9.0552     5.8272     6.3283   118.1203     7.9311     0.0112     2.4984     0.1066
  449.0000   -49.0871     6.2171     5.7856     5.8246   119.6241     7.9311     0.0112     2.4902     0.1114
  449.5000   -48.7991     4.9692     5.8640     5.9043   120.2256     7.9461     0.0089     2.4849     0.1141
  450.0000   -48.5119     8.6537     6.0033     6.3489   116.4662     7.9461     0.0075     2.4888     0.1039
  450.5000   -48.1992    13.4048     6.2276     7.0348   108.0451     7.9311     0.0075     2.5187     0.0889
  451.0000   -47.6501    14.7594     6.6313     7.7215   104.2857     7.9311     0.0083     2.5405     0.0751
  451.5000   -47.2144    14.5419     7.0528     8.3284   101.1278     7.9162     0.0076     2.5532     0.0781
  452.0000   -46.9346    14.2513     7.5012     8.9213    99.9248     7.9158     0.0068     2.5500     0.0805
  452.5000   -46.4844    14.1507     7.9849     9.4365   102.4812     7.9012     0.0054     2.5465     0.0772
  453.0000   -46.0704    14.2451     8.3115    10.3785   103.5338     7.9012     0.0054     2.5503     0.0724
  453.5000   -45.9359    14.5382     8.7179    10.6674   101.8797     7.8862     0.0054     2.5533     0.0724
  454.0000   -45.8014    14.6353     9.0822    10.2334   104.2857     7.8862     0.0039     2.5526     0.0745
  454.5000   -45.5217    14.5293     9.4619    10.8862   105.9398     7.8862     0.0024     2.5534     0.0742
  455.0000   -45.3869    13.8428     9.7896    11.5811   104.5865     7.8862     0.0057     2.5586     0.0685
  455.5000   -44.9551    13.7444     9.7856    11.5833   103.6817     7.8862     0.0085     2.5624     0.0658
  456.0000   -44.8206    14.0282     9.7143    10.4399   103.8346     7.8862     0.0092     2.5624     0.0682
  456.5000   -44.3921    14.5156     9.8440    11.0296   105.0376     7.9012     0.0078     2.5579     0.0745
  457.0000   -44.2540    15.0209    10.0456    11.9788   105.1880     7.9012     0.0071     2.5535     0.0781
  457.5000   -44.1195    15.4372    10.3222    12.3122   105.6391     7.9012     0.0078     2.5453     0.0807
  458.0000   -43.8393    15.9818    10.7536    11.2549   106.9925     7.9012     0.0078     2.5430     0.0816
  458.5000   -43.7053    16.3043    11.0497    12.5648   108.0975     7.9012     0.0079     2.5475     0.0798
