~VERSION INFORMATION
 VERS.                2.0:   CWLS LOG ASCII STANDARD - VERSION 2.0
 WRAP.                 NO:   ONE LINE PER DEPTH STEP
~WELL INFORMATION
#MNEM.UNIT      DATA TYPE    INFORMATION
#----------   ------------   ------------------------------
 STRT.F           66.0000:   START DEPTH
 STOP.F          814.0000:   STOP DEPTH
 STEP.F            0.5000:   STEP LENGTH
 NULL.          -999.2500:   NO VALUE
 COMP.   FLUOR DANIEL INC:   COMPANY
 WELL. NAVAL PETROLEUM RESERVE 3 SX-2 #32-11-2:   WELL
 FLD .        N.P.R NO. 3:   FIELD
 LOC .       S2 T38N R78W:   LOCATION
 CNTY.            NATRONA:   COUNTY
 STAT.            WYOMING:   STATE
 CTRY. UNITED STATES OF AMERICA:   COUNTRY
 SRVC.      Dresser Atlas:   SERVICE COMPANY
 DATE.        15-AUG-1985:   LOGDATE
 API .       490251104000:   API NUMBER
~CURVE INFORMATION
#MNEM.UNIT       API CODE    CURVE DESCRIPTION
#----------   ------------   ------------------------------
 DEPT.F                  :   
 SPR .MV     07 010 01 00:   SPONTANEOUS POTENTIAL
 RILD.OHMM   07 120 46 00:   INDUCTION LOG DEEP RESISTIVITY
 RILM.OHMM   07 120 44 00:   INDUCTION LOG MEDIUM RESISTIVITY
 RFOC.OHMM   07 220 04 00:   RESISTIVITY FOCUSED LOG
 PORD.DEC    45 890 12 00:   POROSITY DENSITY SANDSTONE
 CNC .DEC    42 890 03 00:   NEUTRON POROSITY SANDSTONE
 GRD .GAPI   45 310 01 00:   GAMMA RAY FROM DENSITY LOG
 CALD.IN     45 280 60 00:   CALIPER FROM DENSITY LOG
 CORR.G/C3   45 356 01 00:   DENSITY CORRECTION
 DEN .G/C3   45 350 01 00:   COMPENSATED BULK DENSTIY
~PARAMETER INFORMATION
#MNEM.UNIT          VALUE    DESCRIPTION
#----------   ------------   ------------------------------
 PD  .                 GL:   PERMANENT DATUM
 EPD .F              5113:   ELEVATION PERMANENT DATUM
 LMF .                 GL:   LOG MEASURED FROM
 DMF .                 GL:   DRILLING MEASURED FROM
 EGL .F              5113:   GROUND LEVEL
 DATE.            8-15-85:   RUN DATE
 RUN .                  1:   RUN NUMBER
 DD  .F               817:   DEPTH DRILLER
 DL  .F               817:   DEPTH LOGGER
 BLI .F               814:   BOTTOM LOG INTERVAL
 CS  .IN            8.625:   CASING SIZE
 CBD .F                79:   CASING BOTTOM DRILLER
 CBL .F                79:   CASING BOTTOM LOGGER
 BS  .IN            7.875:   BIT SIZE
 BSD .F               817:   BIT SIZE AT DEPTH
 DFT .          KCL WATER:   DRILLING FLUID TYPE
 MSS .               TANK:   MUD SAMPLE SOURCE
 RMS .OHMM            .25:   RESISTIVITY MUD SAMPLE
 MST .F                70:   MUD SAMPLE TEMPERATURE
 BHT .F               100:   BOTTOM HOLE TEMPERATURE
 TCS .HRS               2:   TIME CURCULATED STOPPED
 MRT .F               100:   MAXIMUM RECORDED TEMPERATURE
 LUN .            HL-6274:   LOGGING UNIT NUMBER
 LUL .           GILLETTE:   LOGGING UNIT LOCATION
 ENGI.             RAUTIO:   RECORDING ENGINEER
 WITN.           JENNINGS:   WITNESSED BY
 CLNT.            A2DTECH:   CLIENT CODE
 ORIG.       2", 5" PRINT:   ORIGIN OF DATA
 UWI .       490251104000:   UNIQUE WELL ID
 DICO. A2D Technologies, Inc.:   DIGITIZING COMPANY
~OTHER INFORMATION
~A   DEPT      SPR       RILD       RILM       RFOC       PORD        CNC        GRD       CALD       CORR        DEN   
# ...
  200.0000   -29.9544     6.0031     5.9878     5.9464     0.1344     0.3148    97.2983     8.2590     0.0597     2.4500
  200.5000   -29.9529     6.0043     5.9894     5.9476     0.1383     0.2976    95.3820     8.2506     0.0276     2.4433
  201.0000   -29.9890     6.0897     6.1175     5.9488     0.1459     0.2939    93.3806     8.2418    -0.0092     2.4298
  201.5000   -29.9818     6.1765     6.2916     6.1652     0.1520     0.3018    91.5731     8.2559    -0.0227     2.4222
  202.0000   -29.8231     6.2662     6.5613     6.4747     0.1543     0.3048    88.8647     8.2699     0.0074     2.4207
  202.5000   -29.6658     6.3557     6.7060     6.6138     0.1497     0.3060    90.8409     8.2840     0.0421     2.4252
  203.0000   -29.9631     6.7681     6.6566     6.6625     0.1423     0.3036    95.7589     8.2828     0.0437     2.4335
  203.5000   -30.1103     7.3082     6.8943     6.6190     0.1420     0.2977    99.3568     8.2818     0.0422     2.4380
  204.0000   -30.2546     7.5767     7.0415     6.5757     0.1447     0.2798    93.3451     8.2805     0.0498     2.4403
  204.5000   -30.5519     7.8394     7.1917     6.7570     0.1456     0.2747    88.7717     8.2795     0.0559     2.4358
  205.0000   -30.6976     7.8962     7.2948     7.0202     0.1431     0.2731    84.6236     8.2785     0.0590     2.4373
  205.5000   -30.8434     7.9534     7.3989     7.2068     0.1329     0.2693    82.5158     8.2625     0.0560     2.4455
  206.0000   -30.6847     7.9555     7.4525     7.4745     0.1293     0.2607    82.2113     8.2614     0.0486     2.4560
  206.5000   -30.3758     8.0696     7.4028     7.8400     0.1354     0.2721    84.3063     8.2602     0.0397     2.4584
  207.0000   -30.2172     7.9602     7.1938     7.2154     0.1399     0.2815    85.5018     8.2442     0.0232     2.4485
  207.5000   -30.0599     7.6901     6.6738     7.1193     0.1442     0.2897    85.1944     8.2432     0.0128     2.4388
  208.0000   -30.0542     6.6466     5.8496     6.9745     0.1499     0.2927    83.3869     8.2422     0.0204     2.4267
  208.5000   -29.8969     5.3591     4.9866     6.9785     0.1559     0.3006    81.2792     8.2409     0.0205     2.4095
  209.0000   -29.4352     4.2314     4.2215     6.9322     0.1695     0.3262    81.2733     8.2399     0.0115     2.3854
  209.5000   -28.2173     3.4593     3.1537     6.8392     0.1972     0.3787    83.6688     8.2389     0.0071     2.3358
  210.0000   -27.3025     3.0318     2.6884     6.7952     0.2481     0.4111    91.4709     8.2530     0.0026     2.2832
  210.5000   -27.2967     2.3667     2.1679     4.2084     0.3007     0.4447    98.6724     8.2517     0.0027     2.1811
  211.0000   -27.2909     1.9436     1.9402     2.6610     0.3237     0.4553   106.5646     8.2661     0.0103     2.1044
  211.5000   -27.2838     1.8906     1.8606     2.3489     0.3457     0.4392   108.2707     8.2648     0.0224     2.0969
  212.0000   -26.8235     1.8780     1.9413     2.2228     0.3466     0.4176   110.0654     8.2638     0.0315     2.0984
  212.5000   -26.5147     2.0422     2.0672     2.1627     0.3394     0.3746   111.8629     8.2628     0.0255     2.1300
  213.0000   -26.3574     2.4140     2.5472     2.1940     0.3189     0.3525   103.1471     8.2616     0.0121     2.2141
  213.5000   -26.3515     3.0167     2.8083     2.6851     0.2392     0.2897    89.6265     8.2606    -0.0043     2.2847
  214.0000   -26.3445     3.5165     3.6080     3.7500     0.2086     0.2673    77.6088     8.2596    -0.0193     2.3749
  214.5000   -26.3387     4.2148     4.8325     6.7271     0.1596     0.2624    74.9018     8.2586     0.0064     2.4020
  215.0000   -26.7875     6.0632     6.3832     8.4650     0.1548     0.2736    77.8978     8.2573     0.0455     2.4132
  215.5000   -27.2363     8.7550     7.8654     8.5869     0.1596     0.2739    80.6336     8.2563     0.0606     2.4050
  216.0000   -28.7442    10.7896    10.1951     8.8941     0.1632     0.2693    82.0892     8.2553     0.0441     2.4035
  216.5000   -30.4052    12.2321    11.4551     9.3413     0.1628     0.2590    82.3852     8.2543    -0.0056     2.4095
  217.0000   -31.6115    12.4068    10.9139     9.8642     0.1533     0.2472    79.3751     8.2533    -0.0144     2.4237
  217.5000   -33.8785    11.9035    10.2548    10.9705     0.1455     0.2387    73.3333     8.2521     0.0023     2.4358
  218.0000   -36.3030    11.1840     9.5024    11.1274     0.1434     0.2397    75.1581     8.2360     0.0144     2.4343
  218.5000   -38.5625     9.8703     8.2891    10.3133     0.1488     0.2553    75.1525     8.2351     0.0190     2.4230
  219.0000   -39.1628     8.1256     6.6700    10.0345     0.1572     0.2704    75.1468     8.2190     0.0280     2.4125
  219.5000   -39.9147     6.4610     5.1947    10.0394     0.1663     0.2880    75.7417     8.2177     0.0326     2.3892
  220.0000   -40.3636     5.8630     4.6492     9.9728     0.1868     0.3131    87.4463     8.2168     0.0297     2.3373
  220.5000   -40.3455     5.5470     4.5229     6.7605     0.2278     0.3385   102.1553     8.2311     0.0207     2.2787
  221.0000   -39.7444     5.3588     4.8839     3.7719     0.2587     0.3434   114.1617     8.2298    -0.0017     2.2412
  221.5000   -38.3750     5.4415     5.1645     3.1495     0.2568     0.3279   109.9518     8.2439    -0.0182     2.2682
  222.0000   -36.5511     5.8288     5.4613     3.8548     0.2249     0.3075    92.6965     8.2426    -0.0031     2.3118
  222.5000   -34.8787     6.5623     5.9380     6.5005     0.1980     0.2989    81.7108     8.2416     0.0076     2.3554
  223.0000   -33.7899     6.8829     6.9022     9.0719     0.1754     0.2811    74.4979     8.2557     0.0196     2.3802
  223.5000   -32.7445     7.7587     8.1802     9.2667     0.1748     0.2723    72.6904     8.2568     0.0212     2.3794
  224.0000   -32.1327     9.2356     9.1449     9.2061     0.1766     0.2696    75.4355     8.2688     0.0228     2.3749
  224.5000   -31.6724     9.8349     9.6034     9.1460     0.1787     0.2717    80.4854     8.2675     0.0197     2.3734
  225.0000   -31.5152    10.0449     9.8768     9.0241     0.1802     0.2723    82.8822     8.2665     0.0094     2.3764
  225.5000   -31.3579    10.3311    10.0882     9.0907     0.1803     0.2698    82.2759     8.2655     0.0020     2.3817
  226.0000   -31.9568    10.5606    10.3754     9.4159     0.1778     0.2616    79.8678     8.2492    -0.0055     2.3862
  226.5000   -32.8601    10.8530    10.6707     9.8893     0.1736     0.2577    80.4613     8.2482     0.0042     2.3899
  227.0000   -33.7634    11.0848    11.0510    10.1784     0.1721     0.2570    81.9571     8.2322     0.0458     2.3892
  227.5000   -34.8384    11.3215    11.2948    10.2481     0.1718     0.2625    81.0506     8.2312     0.0639     2.3847
  228.0000   -36.1747    11.4853    11.4487    10.3237     0.1733     0.2707    78.0419     8.2299     0.0474     2.3802
  228.5000   -36.6235    11.7292    11.6120    10.4723     0.1758     0.2615    75.2673     8.2139     0.0166     2.3779
  229.0000   -37.0723    11.8142    11.6961    10.6231     0.1788     0.2612    74.1266     8.2129    -0.0050     2.3711
  229.5000   -37.5211    11.8173    11.7403    10.9280     0.1809     0.2551    77.4228     8.2119    -0.0004     2.3651
  230.0000   -37.6869    11.8204    11.7847    10.7800     0.1833     0.2515    77.1168     8.1958    -0.0109     2.3606
  230.5000   -37.9641    11.9900    11.7878    10.7106     0.1857     0.2490    75.9100     8.1946    -0.0183     2.3561
  231.0000   -37.9569    12.0769    11.7909    10.7906     0.1892     0.2544    79.5065     8.1936    -0.0137     2.3531
  231.5000   -37.9512    12.2493    11.9591    10.9460     0.1936     0.2659    82.5038     8.1926     0.0179     2.3546
  232.0000   -37.7939    12.4242    12.1298    11.0267     0.1954     0.2696    83.4004     8.1916     0.0285     2.3606
  232.5000   -37.9397    12.6016    12.3036    11.1080     0.1939     0.2601    83.3933     8.2056     0.0346     2.3614
  233.0000   -38.0854    12.6937    12.4791    11.3477     0.1900     0.2534    83.3862     8.2044     0.0196     2.3569
