~VERSION INFORMATION
 VERS.                2.0:   CWLS LOG ASCII STANDARD - VERSION 2.0
 WRAP.                 NO:   ONE LINE PER DEPTH STEP
~WELL INFORMATION
#MNEM.UNIT      DATA TYPE    INFORMATION
#----------   ------------   ------------------------------
 STRT.F           95.0000:   START DEPTH
 STOP.F          914.0000:   STOP DEPTH
 STEP.F            0.5000:   STEP LENGTH
 NULL.          -999.2500:   NO VALUE
 COMP. LAWRENCE/ALLISON INC:   COMPANY
 WELL. NPR ##3 31-61 SX 2:   WELL
 FLD .             TEAPOT:   FIELD
 LOC .       S2 T38N R78W:   LOCATION
 CNTY.            NATRONA:   COUNTY
 STAT.            WYOMING:   STATE
 CTRY. UNITED STATES OF AMERICA:   COUNTRY
 SRVC.      Dresser Atlas:   SERVICE COMPANY
 DATE.        30-JAN-1986:   LOGDATE
 API .       490251106800:   API NUMBER
~CURVE INFORMATION
#MNEM.UNIT       API CODE    CURVE DESCRIPTION
#----------   ------------   ------------------------------
 DEPT.F                  :   
 RILD.OHMM   07 120 46 00:   INDUCTION LOG DEEP RESISTIVITY
 RILM.OHMM   07 120 44 00:   INDUCTION LOG MEDIUM RESISTIVITY
 CALD.IN     45 280 60 00:   CALIPER FROM DENSITY
 GRD .GAPI   45 310 01 00:   GAMMA RAY FROM DENSITY LOG
 CORR.G/C3   45 356 01 00:   DENSITY CORRECTION
 PORD.DEC    45 890 10 00:   POROSITY DENSITY LIMESTONE
 DEN .G/C3   45 350 01 00:   COMPENSATED BULK DENSITY
~PARAMETER INFORMATION
#MNEM.UNIT          VALUE    DESCRIPTION
#----------   ------------   ------------------------------
 PD  .                 GL:   PERMANENT DATUM
 EPD .F              5126:   ELEVATION PERMANENT DATUM
 LMF .                 GL:   LOG MEASURED FROM
 DMF .                 GL:   DRILLING MEASURED FROM
 EGL .F              5126:   GROUND LEVEL
 DATE.        30-JAN-1986:   RUN DATE
 RUN .                  1:   RUN NUMBER
 DD  .F               925:   DEPTH DRILLER
 DL  .F               918:   DEPTH LOGGER
 BLI .F               910:   BOTTOM LOG INTERVAL
 CS  .IN            8.625:   CASING SIZE
 CBD .F               127:   CASING BOTTOM DRILLER
 CBL .F               127:   CASING BOTTOM LOGGER
 BS  .IN             6.25:   BIT SIZE
 BSD .F               925:   BIT SIZE AT DEPTH
 DFT .                AIR:   DRILLING FLUID TYPE
 LUN .            HL-6264:   LOGGING UNIT NUMBER
 LUL .           GILLETTE:   LOGGING UNIT LOCATION
 ENGI.     P. M. FAHLSING:   RECORDING ENGINEER
 WITN.        LINOA FIVAS:   WITNESSED BY
 CLNT.            A2DTECH:   CLIENT CODE
 ORIG.           5" PRINT:   ORIGIN OF DATA
 UWI .       490251106800:   UNIQUE WELL ID
 DICO. A2D Technologies, Inc.:   DIGITIZING COMPANY
~OTHER INFORMATION
~A   DEPT     RILD       RILM       CALD         GRD      CORR       PORD        DEN   
# ...
  868.5000     9.9763     9.7039     6.5377   108.5967     0.1369     0.1147     2.4854
  869.0000     9.8356     9.5010     6.5245   110.6959     0.1248     0.1138     2.4869
  869.5000     9.7643     9.3670     6.5247   112.1944     0.1157     0.1126     2.4899
  870.0000     9.6935     9.2348     6.5248   113.0923     0.1036     0.1117     2.4929
  870.5000     9.5568     9.1679     6.5250   113.0893     0.1005     0.1114     2.4952
  871.0000     9.3569     9.1015     6.5251   113.6869     0.1140     0.1108     2.4959
  871.5000     9.1612     8.9731     6.5253   114.5848     0.1275     0.1093     2.4959
  872.0000     9.0320     8.9080     6.5254   116.6840     0.1304     0.1115     2.4929
  872.5000     8.9046     8.7218     6.5256   118.1825     0.1213     0.1169     2.4846
  873.0000     8.7184     8.5393     6.5257   119.9813     0.1138     0.1193     2.4808
  873.5000     8.4771     8.2457     6.5409   120.8792     0.1092     0.1183     2.4808
  874.0000     8.1856     7.9621     6.5411   121.1780     0.1016     0.1159     2.4838
  874.5000     7.8495     7.6883     6.5412   120.5729     0.1001     0.1129     2.4876
  875.0000     7.4236     7.3726     6.5414   120.8710     0.1105     0.1101     2.4921
  875.5000     6.8288     6.8241     6.5415   122.3688     0.1255     0.1080     2.4989
  876.0000     5.9429     5.9737     6.5417   125.0685     0.1465     0.1070     2.5027
  876.5000     5.4290     4.9824     6.5418   128.9694     0.1570     0.1124     2.4995
  877.0000     5.0288     4.3957     6.5420   136.7742     0.1494     0.1257     2.4817
  877.5000     4.8223     4.1655     6.5270   143.3779     0.1403     0.1413     2.4555
  878.0000     4.8542     4.2946     6.5272   149.3809     0.1312     0.1501     2.4351
  878.5000     4.9545     4.5455     6.5274   140.6692     0.1236     0.1513     2.4273
  879.0000     5.1274     4.9184     6.5275   130.4560     0.1221     0.1387     2.4370
  879.5000     5.4178     5.3061     6.5277   122.3449     0.1250     0.1001     2.4743
  880.0000     5.8856     5.8044     6.5278   117.8374     0.1295     0.0883     2.5161
  880.5000     6.7117     6.4828     6.5129   114.8314     0.1369     0.0853     2.5357
  881.0000     7.1412     6.9939     6.5131   114.2286     0.1459     0.0835     2.5387
  881.5000     7.5457     7.4932     6.5132   113.9245     0.1579     0.0802     2.5424
  882.0000     7.9731     7.9728     6.5134   111.8194     0.1669     0.0784     2.5507
  882.5000     8.3665     8.3084     6.5135   108.8135     0.1683     0.0839     2.5522
  883.0000     8.5987     8.4800     6.5137   107.0087     0.1421     0.0869     2.5409
  883.5000     8.6556     8.5954     6.5138   108.5072     0.1242     0.0902     2.5274
  884.0000     8.8343     8.7124     6.5134   111.8075     0.1122     0.0911     2.5206
  884.5000     8.9546     8.8310     6.4991   112.1056     0.1129     0.0905     2.5198
  885.0000     9.2031     8.9511     6.4992   110.3000     0.1259     0.0899     2.5236
  885.5000     9.3283     9.0737     6.4994   106.9937     0.1348     0.0893     2.5258
  886.0000     9.5219     9.2604     6.4995   105.7896     0.1408     0.0893     2.5273
  886.5000     9.6530     9.3872     6.4997   105.4863     0.1437     0.0894     2.5273
  887.0000     9.7859     9.5803     6.4999   102.1800     0.1391     0.0924     2.5243
  887.5000     9.9840     9.7782     6.5000    99.1740     0.1256     0.0969     2.5183
  888.0000    10.1198     9.9802     6.5002    96.7686     0.1074     0.1017     2.5107
  888.5000    10.2575    10.1872     6.5003    95.2634     0.0984     0.1039     2.5047
  889.0000    10.3971    10.5418     6.5005    94.9601     0.1013     0.1033     2.5032
  889.5000    10.5514    10.7596     6.5006    95.2581     0.1118     0.0988     2.5084
  890.0000    10.7554    10.9060     6.5008    95.8565     0.1222     0.0948     2.5152
  890.5000    10.9017    10.9783     6.5009    95.2514     0.1207     0.0921     2.5182
  891.0000    10.9747    11.0508     6.5011    95.5487     0.1101     0.0937     2.5167
  891.5000    11.0472    11.1238     6.5163    96.7469     0.1040     0.0955     2.5182
  892.0000    11.1202    11.1198     6.5164    98.2455     0.1025     0.0985     2.5212
  892.5000    11.1937    11.1160     6.5166    97.3416     0.1009     0.1018     2.5091
  893.0000    11.2676    11.1895     6.5167    96.4377     0.0993     0.1033     2.5054
  893.5000    11.3421    11.1856     6.5169    95.8341     0.0963     0.1049     2.5031
  894.0000    11.3372    11.1817     6.5019    94.0293     0.0962     0.1067     2.5008
  894.5000    11.3333    11.1779     6.5021    93.4257     0.0961     0.1082     2.4978
  895.0000    11.4092    11.1740     6.5023    93.4228     0.0976     0.1079     2.4978
  895.5000    11.4043    11.1701     6.5024    94.9213     0.1005     0.1052     2.5008
  896.0000    11.4003    11.1663     6.5026    95.8207     0.1080     0.1007     2.5061
  896.5000    11.3964    11.0853     6.5027    94.6150     0.1245     0.0956     2.5129
  897.0000    11.3925    11.0815     6.5029    93.7111     0.1395     0.0917     2.5196
  897.5000    11.3099    11.0768     6.5030    93.4078     0.1398     0.0893     2.5264
  898.0000    11.2279    11.0730     6.5032    93.4048     0.1108     0.0902     2.5256
  898.5000    11.1465    10.9928     6.5033    92.5010     0.0972     0.0938     2.5143
  899.0000    11.0657    10.9131     6.5035    91.2968     0.1031     0.0938     2.5128
  899.5000    10.9855    10.8340     6.5036    90.6932     0.1166     0.0905     2.5203
  900.0000    10.9062    10.8030     6.5038    90.9872     0.1316     0.0887     2.5286
  900.5000    10.8309    10.5348     6.5038    91.5765     0.1331     0.0881     2.5294
  901.0000    10.6818    10.3898     6.5038    92.7589     0.1241     0.0887     2.5279
  901.5000    10.6080    10.2467     6.5038    93.9450     0.1226     0.0890     2.5256
  902.0000    10.3898    10.1760     6.5038    95.7317     0.1316     0.0882     2.5271
  902.5000    10.3180    10.0359     6.5038    97.8187     0.1436     0.0873     2.5309
  903.0000    10.1760     9.8932     6.5038    99.9058     0.1301     0.0903     2.5286
  903.5000    10.0359     9.6941     6.5038   102.2931     0.1075     0.0969     2.5181
  904.0000     9.8978     9.4946     6.5038   103.7795     0.0895     0.1006     2.5090
  904.5000     9.8215     9.3639     6.5038   104.3726     0.0820     0.0988     2.5105
  905.0000     9.7615     9.2351     6.5038   101.0467     0.0850     0.0955     2.5151
  905.5000     9.6941     9.1079     6.5038   199.2348     0.1030     0.0916     2.5218
  906.0000     9.6941     8.9826     6.5038   399.8205     0.1241     0.0874     2.5309
  906.5000     9.6272     8.8589     6.5038   399.8053     0.1331     0.0850     2.5361
  907.0000     9.6272     8.7977     6.5038   399.7901     0.1105     0.0907     2.5256
  907.5000     9.6272     8.7370     6.5038   399.7749     0.1015     0.0928     2.5158
  908.0000     9.6272     8.6167     6.5038   280.8456     0.1030     0.0910     2.5181
  908.5000     9.6272     8.4981     6.5038  -999.2500     0.1301     0.0859     2.5294
  909.0000     9.6272     8.4394     6.5038  -999.2500     0.1466     0.0817     2.5437
  909.5000     9.6272     8.3811     6.5038  -999.2500     0.1511     0.0793     2.5542
  910.0000     9.6272     8.3811     6.5038  -999.2500     0.1150     0.0857     2.5429
  910.5000  -999.2500  -999.2500     6.5038  -999.2500     0.0910     0.0947     2.5195
  911.0000  -999.2500  -999.2500     6.5038  -999.2500     0.0759     0.0993     2.5052
  911.5000  -999.2500  -999.2500     6.5038  -999.2500     0.0774     0.1002     2.5015
  912.0000  -999.2500  -999.2500     6.5038  -999.2500     0.0970     0.0972     2.5084
  912.5000  -999.2500  -999.2500     6.5038  -999.2500     0.1180     0.0948     2.5144
  913.0000  -999.2500  -999.2500     6.5038  -999.2500     0.1195     0.0921     2.5205
  913.5000  -999.2500  -999.2500     6.5038  -999.2500     0.1120     0.0906     2.5256
