~VERSION INFORMATION
 VERS.                2.0:   CWLS LOG ASCII STANDARD - VERSION 2.0
 WRAP.                 NO:   ONE LINE PER DEPTH STEP
~WELL INFORMATION
#MNEM.UNIT      DATA TYPE    INFORMATION
#----------   ------------   ------------------------------
 STRT.F           70.0000:   START DEPTH
 STOP.F          853.0000:   STOP DEPTH
 STEP.F            0.5000:   STEP LENGTH
 NULL.          -999.2500:   NO VALUE
 COMP. U S NAVY/INTEX OIL CO:   COMPANY
 WELL.     31S-2 NPR #3-2:   WELL
 FLD .             TEAPOT:   FIELD
 LOC .       S2 T38N R78W:   LOCATION
 CNTY.            NATRONA:   COUNTY
 STAT.            WYOMING:   STATE
 CTRY. UNITED STATES OF AMERICA:   COUNTRY
 SRVC.         Lane Wells:   SERVICE COMPANY
 DATE.        17-MAR-1960:   LOGDATE
 API .       490250648000:   API NUMBER
~CURVE INFORMATION
#MNEM.UNIT       API CODE    CURVE DESCRIPTION
#----------   ------------   ------------------------------
 DEPT.F                  :   
 ASN .OHMM   05 041 16 00:   AMPLIFIED SHORT NORMAL 16"
 CILD.MMHO   05 110 46 00:   CONDUCTIVITY INDUCTION LOG DEEP
 ILD .OHMM   05 120 46 00:   INDUCTION LOG DEEP
 SPR .MV     05 010 01 00:   SPONTANEOUS POTENTIAL FROM RES.
~PARAMETER INFORMATION
#MNEM.UNIT          VALUE    DESCRIPTION
#----------   ------------   ------------------------------
 PD  .                 GL:   PERMANENT DATUM
 EPD .F              5118:   ELEVATION PERMANENT DATUM
 LMF .                 KB:   LOG MEASURED FROM
 DAPD.F                 5:   FEET ABOVE PERMANENT DATUM
 DMF .                 KB:   DRILLING MEASURED FROM
 EKB .F              5123:   KELLING BUSHING
 EGL .F              5118:   GROUND LEVEL
 DATE.        17-MAR-1960:   RUN DATE
 RUN .                  1:   RUN NUMBER
 DD  .F               860:   DEPTH DRILLER
 DL  .F               855:   DEPTH LOGGER
 BLI .F               853:   BOTTOM LOG INTERVAL
 TLI .F                70:   TOP LOG INTERVAL
 CS  .IN            8.625:   CASING SIZE
 CBD .F                12:   CASING BOTTOM DRILLER
 BS  .IN            7.875:   BIT SIZE
 BSD .F               860:   BIT SIZE AT DEPTH
 DFT .  GEL- OIL EMULSION:   DRILLING FLUID TYPE
 DFD .                9.7:   DRILLING FLUID DENSITY
 DFV .                 40:   DRILLING FLUID VISCOSITY
 MSS .    CIRC.- FLOWLINE:   MUD SAMPLE SOURCE
 RMS .OHMM           1.75:   RESISTIVITY MUD SAMPLE
 MST .F                60:   MUD SAMPLE TEMPERATURE
 RMF .OHMM            1.2:   RESISTIVITY MUD FILTRATE SAMPLE
 MFST.F                60:   MUD FILTRATE SAMPLE TEMPERATURE
 RMC .OHMM            2.4:   RESISTIVITY MUD CAKE
 MCST.F                60:   MUD CAKE SAMPLE TEMPERATURE
 MFSS.                MUD:   MUD FILTRATE SAMPLE SOURCE
 MCSS.              PRESS:   MUD CAKE SAMPLE SOURCE
 RMB .OHMM            1.5:   RESISTIVITY MUD AT BHT
 BHT .F                70:   BOTTOM HOLE TEMPERATURE
 MRT .F                70:   MAXIMUM RECORDED TEMPERATURE
 LUN .            HL 4474:   LOGGING UNIT NUMBER
 LUL .             CASPER:   LOGGING UNIT LOCATION
 ENGI.             NELSON:   RECORDING ENGINEER
 WITN.   JORGENSEN-HUDSON:   WITNESSED BY
 CLNT.            A2DTECH:   CLIENT CODE
 ORIG.        2" 5" PRINT:   ORIGIN OF DATA
 UWI .       490250648000:   UNIQUE WELL ID
 DICO. A2D Technologies, Inc.:   DIGITIZING COMPANY
~OTHER INFORMATION
~A   DEPT        ASN      CILD         ILD      SPR   
# ...
  435.0000    11.1167   112.7307     9.2391   -38.2398
  435.5000    11.0903   112.7375     9.2391   -38.2398
  436.0000    11.0459   112.7455     9.2391   -38.1014
  436.5000    10.9806   113.2413     9.2147   -37.9666
  437.0000    10.8891   114.1195     9.1712   -37.9243
  437.5000    10.7512   114.1263     9.1259   -37.6935
  438.0000    10.5965   114.1331     9.0815   -37.4203
  438.5000    10.4418   114.1401     8.9674   -37.2489
  439.0000    10.2871   114.1467     8.9248   -37.0106
  439.5000    10.1325   114.5348     8.7935   -36.8741
  440.0000     9.9955   115.5222     8.6957   -36.8741
  440.5000     9.8262   115.5287     8.5879   -36.8741
  441.0000     9.6126   117.2239     8.4755   -36.8741
  441.5000     9.4972   118.2659     8.3560   -36.7375
  442.0000     9.4866   120.3782     8.2509   -36.7375
  442.5000     9.4792   121.2746     8.1522   -36.7375
  443.0000     9.4541   123.7328     8.0842   -36.7436
  443.5000     9.4183   126.4622     8.0163   -36.8741
  444.0000     9.3310   128.0484     7.9375   -36.8741
  444.5000     9.0510   130.5613     7.8804   -37.0154
  445.0000     8.7259   132.5643     7.7808   -37.1472
  445.5000     8.4645   134.8222     7.6685   -37.4203
  446.0000     8.1956   137.3897     7.6087   -37.4203
  446.5000     8.0064   137.3956     7.6377   -37.5569
  447.0000     7.9431   138.7640     7.6821   -37.7313
  447.5000     7.8967   138.7719     7.7446   -37.9666
  448.0000     7.8838   138.2511     7.8125   -37.9666
  448.5000     7.9261   137.4227     7.8804   -37.9061
  449.0000     7.9936   137.4309     7.8804   -37.4203
  449.5000     8.1005   137.4365     7.8804   -37.0056
  450.0000     8.2090   137.4433     7.8804   -36.7147
  450.5000     8.3852   136.5605     7.8804   -36.4643
  451.0000     8.5186   136.0941     7.8804   -36.4011
  451.5000     8.7216   136.1023     7.8804   -36.3278
  452.0000     9.0361   136.1089     7.8804   -36.4643
  452.5000     9.3182   136.1157     7.8804   -36.5201
  453.0000     9.6167   136.1229     7.8804   -36.6086
  453.5000    10.1597   136.1293     7.8804   -36.8741
  454.0000    10.8402   136.1362     7.8804   -36.8741
  454.5000    10.8400   134.7819     7.8804   -36.8741
  455.0000    10.6771   134.7882     7.8804   -36.9628
  455.5000    10.5005   134.7950     7.8804   -37.0514
  456.0000     9.3199   134.8025     7.8804   -37.1472
  456.5000     8.9339   134.8086     7.8804   -37.1472
  457.0000     8.8041   134.8154     7.8804   -37.2838
  457.5000     8.8582   134.8231     7.8804   -37.4203
  458.0000     8.9234   134.2118     7.8804   -37.4203
  458.5000     8.9994   133.4738     7.8804   -37.4203
  459.0000     9.0749   133.4821     7.8804   -37.4203
  459.5000     9.1323   132.1263     7.8804   -37.4203
  460.0000     9.1986   132.1331     7.8850   -37.4203
  460.5000     9.2509   132.1411     7.9484   -37.4203
  461.0000     9.2643   132.1467     7.9484   -37.3616
  461.5000     9.2224   132.1535     7.9502   -37.2838
  462.0000     9.1555   130.8001     8.0163   -37.1472
  462.5000     9.1237   132.1672     8.0163   -37.1216
  463.0000     9.1145   132.1740     8.0163   -37.0090
  463.5000     9.1453   132.1808     8.0163   -36.8741
  464.0000     9.2076   132.5870     8.0163   -36.8741
  464.5000     9.2905   133.5562     8.0163   -36.7375
  465.0000     9.3501   134.9244     7.9959   -36.6009
  465.5000     9.3751   134.9312     7.9484   -36.5647
  466.0000     9.3715   134.9384     7.9484   -36.4643
  466.5000     9.3290   134.9448     7.9484   -36.3278
  467.0000     9.2840   134.9516     7.9484   -36.3278
  467.5000     9.2354   134.9589     7.9484   -36.3278
  468.0000     9.1940   134.9652     8.0163   -36.2586
  468.5000     9.1514   134.9720     8.0163   -36.1912
  469.0000     9.1129   134.9795     8.0163   -36.1912
  469.5000     9.0992   134.9856     8.0163   -36.1912
  470.0000     9.0855   134.9924     8.0163   -36.3278
  470.5000     9.0718   134.9992     8.0842   -36.3278
  471.0000     9.0657   135.0061     8.0842   -36.4643
  471.5000     9.0444   135.0129     8.0906   -36.4643
  472.0000     9.0442   135.0207     8.1522   -36.4643
  472.5000     9.0495   135.0265     8.1522   -36.5110
  473.0000     9.0725   135.0333     8.1522   -36.6009
  473.5000     9.1252   135.0413     8.1522   -36.6009
  474.0000     9.1620   135.0469     8.1522   -36.6009
  474.5000     9.1930   135.0537     8.1522   -36.6009
  475.0000     9.2153   135.0605     8.1522   -36.6009
  475.5000     9.2018   135.0673     8.1522   -36.4643
  476.0000     9.1653   135.0742     8.1522   -36.4363
  476.5000     9.1074   135.0809     8.1522   -36.3519
  477.0000     9.0624   135.0878     8.1522   -36.3278
  477.5000     9.0427   135.0948     8.1522   -36.3278
  478.0000     9.0721   133.7398     8.1522   -36.2954
  478.5000     9.1201   132.3840     8.1522   -36.1912
  479.0000     9.1916   132.3923     8.1522   -36.0546
  479.5000     9.2828   132.3986     8.1522   -36.0546
  480.0000     9.4084   132.1331     8.2201   -35.9090
  480.5000     9.5304   131.0507     8.2880   -35.7815
  481.0000     9.6325   129.6959     8.2880   -35.7815
  481.5000     9.7445   129.7027     8.3668   -35.7815
  482.0000     9.8556   129.7103     8.4239   -35.6913
  482.5000     9.9188   129.0810     8.4239   -35.6449
  483.0000     9.8250   129.7231     8.2880   -35.6449
  483.5000     9.7467   129.7309     8.1522   -35.7545
  484.0000     9.6943   129.7368     8.1522   -35.7815
  484.5000     9.6335   131.2141     8.0788   -35.7815
  485.0000     9.4477   132.4746     7.9484   -35.7815
  485.5000     9.3212   133.0067     7.8804   -35.9181
  486.0000     9.1989   135.2103     7.8777   -35.9181
  486.5000     8.9860   136.5799     7.8125   -36.0546
  487.0000     8.8397   137.9471     7.7446   -36.0546
  487.5000     8.6601   137.9539     7.6766   -36.0546
  488.0000     8.4805   140.2118     7.6087   -36.0546
  488.5000     8.3405   141.1082     7.5879   -36.0426
  489.0000     8.2255   143.4207     7.4728   -35.8678
  489.5000     8.1514   143.4274     7.4728   -35.7815
  490.0000     8.0651   143.4342     7.4547   -35.7815
  490.5000     7.9809   143.4413     7.4049   -35.7815
  491.0000     7.9905   143.4478     7.4049   -35.6907
  491.5000     8.0441   143.4546     7.4049   -35.5083
  492.0000     8.1161   143.4619     7.4049   -35.4228
  492.5000     8.1576   142.1067     7.4728   -35.3718
  493.0000     8.2295   140.7511     7.4728   -35.2352
  493.5000     8.2921   140.7594     7.5408   -35.2352
  494.0000     8.3528   139.4039     7.5743   -35.2352
  494.5000     8.4180   138.0486     7.6087   -35.2352
  495.0000     8.4817   138.0568     7.6087   -35.2352
  495.5000     8.5271   138.0628     7.7074   -35.2352
  496.0000     8.5672   138.0696     7.7518   -35.0986
  496.5000     8.6189   137.5590     7.8125   -35.0986
  497.0000     8.6496   136.7216     7.8804   -35.0986
  497.5000     8.6863   136.7284     7.8804   -35.0986
  498.0000     8.7658   136.7364     7.8804   -35.2352
  498.5000     8.8029   136.7421     7.8804   -35.2427
  499.0000     8.8198   136.7489     7.8804   -35.5083
  499.5000     8.7789   136.7570     7.8804   -35.6929
  500.0000     8.7653   136.7625     7.8804   -35.7815
  500.5000     8.7516   138.1309     7.8804   -36.0066
  501.0000     8.7379   138.1377     7.8513   -36.0546
  501.5000     8.7377   138.6153     7.7762   -35.9833
  502.0000     8.7511   139.2240     7.7010   -35.9228
  502.5000     8.7374   139.8327     7.6259   -35.7314
  503.0000     8.7304   140.4414     7.6904   -35.4960
  503.5000     8.7100   140.8472     7.8101   -35.2209
  504.0000     8.6811   140.8472     7.8777   -35.1824
  504.5000     8.6555   139.4856     7.8774   -35.0801
  505.0000     8.6689   138.1241     7.9449   -35.2147
  505.5000     8.7242   136.5582     8.0454   -35.3822
  506.0000     8.8456   134.0393     8.1662   -35.6202
  506.5000     9.0213   132.6778     8.3515   -35.7549
  507.0000     9.2019   129.8185     8.4780   -35.7528
  507.5000     9.4724   127.2315     8.7019   -35.8872
