~VERSION INFORMATION
 VERS.                2.0:   CWLS LOG ASCII STANDARD - VERSION 2.0
 WRAP.                 NO:   ONE LINE PER DEPTH STEP
~WELL INFORMATION
#MNEM.UNIT      DATA TYPE    INFORMATION
#----------   ------------   ------------------------------
 STRT.F            3.0000:   START DEPTH
 STOP.F          477.0000:   STOP DEPTH
 STEP.F            0.5000:   STEP LENGTH
 NULL.          -999.2500:   NO VALUE
 COMP. BROWN JOHN E&C INC:   COMPANY
 WELL. NAVAL PETROLEUM RESERVE 3 SX-1 #73-4-10:   WELL
 FLD .             TEAPOT:   FIELD
 LOC .      S10 T38N R78W:   LOCATION
 CNTY.            NATRONA:   COUNTY
 STAT.            WYOMING:   STATE
 CTRY. UNITED STATES OF AMERICA:   COUNTRY
 SRVC.     Atlas Wireline:   SERVICE COMPANY
 DATE.        19-SEP-1991:   LOGDATE
 API .       490252244500:   API NUMBER
~CURVE INFORMATION
#MNEM.UNIT       API CODE    CURVE DESCRIPTION
#----------   ------------   ------------------------------
 DEPT.F                  :   
 GRR .GAPI   07 310 01 00:   GAMMA RAY
 RILD.OHMM   07 120 46 00:   INDUCTION LOG DEEP
 RILM.OHMM   07 120 44 00:   RESITIVITY LONG MEDIUM
~PARAMETER INFORMATION
#MNEM.UNIT          VALUE    DESCRIPTION
#----------   ------------   ------------------------------
 PD  .                 GL:   PERMANENT DATUM
 EPD .F              5171:   ELEVATION PERMANENT DATUM
 LMF .                 GL:   LOG MEASURED FROM
 DMF .                 GL:   DRILLING MEASURED FROM
 EGL .F              5171:   GROUND LEVEL
 DATE.        19-SEP-1991:   RUN DATE
 RUN .                  1:   RUN NUMBER
 DD  .F               490:   DEPTH DRILLER
 DL  .F               489:   DEPTH LOGGER
 BLI .F               482:   BOTTOM LOG INTERVAL
 CS  .IN                7:   CASING SIZE
 CBD .F                80:   CASING BOTTOM DRILLER
 BS  .IN             6.25:   BIT SIZE
 BSD .F               490:   BIT SIZE AT DEPTH
 DFT .                AIR:   DRILLING FLUID TYPE
 LUN .            HL 6272:   LOGGING UNIT NUMBER
 LUL .             CASPER:   LOGGING UNIT LOCATION
 ENGI.          OTTERHOLT:   RECORDING ENGINEER
 WITN.             STRONG:   WITNESSED BY
 CLNT.            A2DTECH:   CLIENT CODE
 ORIG.           5" PRINT:   ORIGIN OF DATA
 UWI .       490252244500:   UNIQUE WELL ID
 DICO. A2D Technologies, Inc.:   DIGITIZING COMPANY
~OTHER INFORMATION
~A    DEPT      GRR      RILD       RILM   
# ...
   94.0000   129.0384     2.6881     4.2231
   94.5000   133.5692     2.0969     5.5322
   95.0000   136.5917     2.3460     6.3542
   95.5000   137.5026     3.5631     6.9541
   96.0000   134.1902     7.3891     8.4652
   96.5000   134.4977     9.2373    10.2526
   97.0000   136.3399     9.5065    10.2485
   97.5000   136.9243     7.9792     9.9496
   98.0000   135.7235     7.5316     9.8344
   98.5000   127.8863     8.3131    10.5408
   99.0000   124.3037     8.0962    11.0655
   99.5000   121.8634     7.8807    11.2988
  100.0000   122.4741     8.0639    10.8435
  100.5000   123.0833    10.0809    10.2556
  101.0000   122.4595    10.5694    10.1204
  101.5000   120.6727    10.7185    10.4147
  102.0000   122.8477    10.2831    10.7883
  102.5000   125.8572     9.7971    11.0979
  103.0000   129.2187     9.7985    11.3499
  103.5000   132.2182    10.0059    11.6625
  104.0000   134.6446    10.1470    11.9800
  104.5000   135.7737    10.0086    12.2360
  105.0000   132.4084     9.6688    12.3248
  105.5000   124.2061    10.0114    12.5009
  106.0000   117.9855    10.8065    12.6796
  106.5000   114.3686    11.1121    12.7716
  107.0000   114.0692    11.3472    12.8634
  107.5000   117.3912    11.4278    12.5148
  108.0000   119.2042    11.3500    12.3444
  108.5000   117.0956    11.2731    12.2622
  109.0000   117.0986    11.1967    12.0961
  109.5000   118.0065    11.0444    12.0156
  110.0000   118.9145    10.8938    11.8537
  110.5000   117.7109    10.7451    11.6931
  111.0000   113.7923    10.3804    11.5348
  111.5000   113.1913     9.8898    11.3778
  112.0000   112.8926     8.6700    11.3020
  112.5000   114.1030     7.9787    11.1489
  113.0000   115.3126     8.1476    11.1528
  113.5000   117.7289     8.6136    11.3122
  114.0000   119.5419     9.1063    11.3943
  114.5000   121.3548     9.3644    11.3974
  115.0000   121.9612     9.4959    11.4802
  115.5000   118.9476     9.6299    11.5635
  116.0000   115.9340     9.7712    11.5667
  116.5000   115.3329     9.9724    11.4100
  117.0000   117.1466    10.0432    11.3341
  117.5000   116.8480    10.0446    11.1806
  118.0000   116.8510     9.9646    11.0291
  118.5000   115.9490     9.9089    10.8798
  119.0000   115.3479     9.9106    10.6580
  119.5000   115.0500     9.7751    10.5108
  120.0000   120.1812     9.7089    10.2947
  120.5000   126.5191     9.6431    10.2308
  121.0000   129.8403     9.5116    10.1627
  121.5000   130.4459     9.3819    10.1656
  122.0000   124.4165     9.2542    10.1684
  122.5000   120.1955     9.1912    10.1718
  123.0000   119.5952     9.1290    10.2457
  123.5000   120.8056     9.0045    10.1069
  124.0000   122.0152     9.0060    10.0396
  124.5000   122.6216     9.0072    10.0424
  125.0000   122.6246     8.9459     9.9748
  125.5000   122.0241     8.8853     9.9783
  126.0000   121.7256     8.8251     9.8431
  126.5000   121.4268     8.8266     9.7091
  127.0000   123.2399     8.8279     9.6452
  127.5000   122.6396     8.8291     9.5803
  128.0000   122.0392     8.7690     9.5172
  128.5000   120.2323     8.7705     9.5862
  129.0000   119.9236     8.7717     9.5889
  129.5000   119.0317     8.7729     9.5915
  130.0000   117.2247     8.7741     9.5942
  130.5000   116.0111     8.7753     9.5969
  131.0000   114.2041     8.7765     9.5995
  131.5000   113.9155     8.7777     9.6022
  132.0000   114.5219     8.7789     9.6048
  132.5000   115.4550     8.7802     9.5409
  133.0000   116.9714     8.8425     9.4767
  133.5000   117.2458     8.7219     9.2198
  134.0000   116.9471     8.4258     8.8454
  134.5000   118.4585     8.1397     8.4861
  135.0000   120.3721     7.9732     8.1983
  135.5000   122.7983     7.8645     8.0311
  136.0000   125.1047     7.6503     7.8674
  136.5000   126.3143     7.5985     7.8151
  137.0000   126.3173     7.5470     7.8173
  137.5000   123.3030     7.5525     7.8194
  138.0000   120.8935     7.6073     7.8762
  138.5000   119.6898     7.6556     7.9334
  139.0000   120.2962     7.6567     7.9910
  139.5000   124.2207     7.7111     8.0490
  140.0000   127.5420     7.7660     8.2287
  140.5000   128.7516     7.8756     8.4061
  141.0000   127.5480     7.8767     8.5874
  141.5000   123.9311     7.8778     8.7600
  142.0000   120.3142     7.8788     8.9472
  142.5000   122.7305     7.7711     9.0122
  143.0000   123.9401     7.6124     9.1409
  143.5000   123.3390     7.3540     9.2073
  144.0000   121.5328     6.7209     9.2741
  144.5000   122.7425     6.0576     9.4067
  145.0000   126.3654     5.8927     9.4749
  145.5000   125.7643     5.9758     9.5437
  146.0000   124.5614     6.1448     9.4802
  146.5000   123.6595     6.4068     9.3518
  147.0000   122.4558     6.5879     9.2889
  147.5000   121.5531     6.6347     9.1631
  148.0000   120.3502     6.6356     9.0390
  148.5000   119.1466     6.5451     9.0421
  149.0000   122.1662     6.5005     9.0446
  149.5000   125.7891     6.5016     9.1738
  150.0000   133.1608     6.5963     9.3049
  150.5000   131.2881     6.6155     9.3048
  151.0000   124.9895     6.6372     9.3047
  151.5000   122.1985     6.5904     9.3697
  152.0000   121.6062     6.2773     9.3697
  152.5000   121.6151     5.9790     9.3047
  153.0000   121.9256     5.9369     9.2402
  153.5000   123.4428     5.9774     9.1126
  154.0000   127.3732     6.3175     9.0494
  154.5000   128.2870     6.9607     8.9867
  155.0000   127.3909     7.3094     8.9867
  155.5000   127.7014     7.5682     8.8011
  156.0000   128.3135     7.7300     8.6795
  156.5000   125.8582     7.9918     8.5595
  157.0000   125.3147     8.1026     8.3827
  157.5000   127.1357     8.1012     8.3246
  158.0000   128.9545     8.1001     8.2287
  158.5000   128.3578     7.8774     8.0047
  159.0000   128.9722     7.5553     7.8408
  159.5000   129.2827     7.3476     7.6273
  160.0000   128.9877     7.2454     7.4711
  160.5000   125.9821     7.1446     7.2676
  161.0000   123.2761     6.9965     7.0697
  161.5000   123.5867     6.7105     6.8288
  162.0000   124.1991     6.4803     6.5937
  162.5000   123.9081     6.3870     6.4628
  163.0000   122.1070     6.2150     6.4633
  163.5000   117.2893     6.1284     6.4638
  164.0000   114.8849     6.1275     6.5543
  164.5000   115.7988     6.2125     6.6922
  165.0000   124.2541     6.2984     6.7860
  165.5000   126.3745     6.4297     6.8336
  166.0000   126.0817     6.6097     7.0258
  166.5000   124.2806     6.8420     7.2235
  167.0000   124.5912     6.9849     7.3755
  167.5000   124.9472     7.1308     7.4788
  168.0000   126.4210     7.2797     7.5836
  168.5000   128.2398     7.4317     7.6948
  169.0000   129.1536     7.4824     7.8582
  169.5000   128.5569     7.5335     7.9617
  170.0000   127.0597     7.4803     8.0175
  170.5000   125.8597     7.4791     8.0181
  171.0000   126.1724     7.4781     8.0186
  171.5000   128.0045     7.4254     7.9088
  172.0000   129.8100     7.3221     7.7470
  172.5000   129.2156     7.2203     7.4840
  173.0000   129.8280     7.1198     7.2300
  173.5000   131.9504     7.0208     6.9846
  174.0000   132.8643     6.8278     6.7475
  174.5000   134.0797     6.4584     6.4500
  175.0000   135.8985     6.1943     6.1679
  175.5000   135.9074     5.8999     5.9145
  176.0000   130.1847     5.5422     5.6714
  176.5000   128.6831     5.2757     5.4467
  177.0000   129.5991     5.1296     5.3722
  177.5000   130.8296     5.0622     5.4099
  178.0000   129.6168     5.0968     5.4857
  178.5000   125.6259     5.1671     5.6400
  179.0000   125.1096     5.3859     5.8390
  179.5000   127.2323     5.5752     6.1718
  180.0000   131.7660     5.6919     6.5235
  180.5000   135.9981     5.8510     6.8953
  181.0000   136.3064     6.1840     7.1881
  181.5000   132.0942     6.4458     7.3903
  182.0000   129.3882     6.8601     7.7042
  182.5000   128.7934     7.1012     7.8718
  183.0000   131.2158     7.2495     8.0876
  183.5000   131.8280     7.3497     8.2580
  184.0000   131.8371     7.4562     8.3736
  184.5000   131.2446     7.6070     8.5499
