~VERSION INFORMATION
 VERS.                2.0:   CWLS LOG ASCII STANDARD - VERSION 2.0
 WRAP.                 NO:   ONE LINE PER DEPTH STEP
~WELL INFORMATION
#MNEM.UNIT      DATA TYPE    INFORMATION
#----------   ------------   ------------------------------
 STRT.F           20.0000:   START DEPTH
 STOP.F          488.0000:   STOP DEPTH
 STEP.F            0.5000:   STEP LENGTH
 NULL.          -999.2500:   NO VALUE
 COMP.    FENIX & SCISSON:   COMPANY
 WELL.  SX-3 NPR #3-3 #43:   WELL
 FLD .             TEAPOT:   FIELD
 LOC .       S3 T38N R78W:   LOCATION
 CNTY.            NATRONA:   COUNTY
 STAT.            WYOMING:   STATE
 CTRY. UNITED STATES OF AMERICA:   COUNTRY
 SRVC.           BIRDWELL:   SERVICE COMPANY
 DATE.        04-JAN-1978:   LOGDATE
 API .       490251044800:   API NUMBER
~CURVE INFORMATION
#MNEM.UNIT       API CODE    CURVE DESCRIPTION
#----------   ------------   ------------------------------
 DEPT.F                  :   
 ILD .OHMM   05 120 46 00:   INDUCTION LOG DEEP
 SN  .OHMM   05 040 16 00:   SHORT NORMAL 16"
 SPR .MV     05 010 01 00:   SPONTANEOUS POTENTIAL FROM RES.
 CALD.IN     45 280 60 00:   CALIPER FROM DENSITY LOG
 DPHI.DEC    45 890 12 00:   DENSITY POROSITY SANDSTONE
 DRHO.G/C3   45 356 01 00:   DENSITY CORRECTION
 GRD .GAPI   45 310 01 00:   GAMMA RAY FROM DENSITY LOG
 RHOB.G/C3   45 350 01 00:   BULK DENSITY
~PARAMETER INFORMATION
#MNEM.UNIT          VALUE    DESCRIPTION
#----------   ------------   ------------------------------
 PD  .                 GL:   PERMANENT DATUM
 LMF .                 KB:   LOG MEASURED FROM
 DAPD.F                 4:   FEET ABOVE PERMANENT DATUM
 DMF .                 KB:   DRILLING MEASURED FROM
 EKB .F              5163:   KELLING BUSHING
 EGL .F              5159:   GROUND LEVEL
 DATE.        04-JAN-1978:   RUN DATE
 RUN .                  1:   RUN NUMBER
 DD  .F               490:   DEPTH DRILLER
 DL  .F               490:   DEPTH LOGGER
 BLI .F               485:   BOTTOM LOG INTERVAL
 TLI .F                20:   TOP LOG INTERVAL
 CS  .IN            8.625:   CASING SIZE
 CBD .F                40:   CASING BOTTOM DRILLER
 CBL .F                44:   CASING BOTTOM LOGGER
 BS  .IN            7.875:   BIT SIZE
 BSD .F               490:   BIT SIZE AT DEPTH
 DFT .                KCL:   DRILLING FLUID TYPE
 DFD .                8.4:   DRILLING FLUID DENSITY
 DFV .                 32:   DRILLING FLUID VISCOSITY
 DFPH.                 11:   DRILLING FLUID PH
 DFL .                  8:   DRILLING FLUID LOSS
 MSS .                PIT:   MUD SAMPLE SOURCE
 RMS .OHMM           0.32:   RESISTIVITY MUD SAMPLE
 MST .F                62:   MUD SAMPLE TEMPERATURE
 RMF .OHMM           0.30:   RESISTIVITY MUD FILTRATE SAMPLE
 MFST.F                62:   MUD FILTRATE SAMPLE TEMPERATURE
 RMC .OHMM           0.35:   RESISTIVITY MUD CAKE
 MCST.F                62:   MUD CAKE SAMPLE TEMPERATURE
 MFSS.               MEAS:   MUD FILTRATE SAMPLE SOURCE
 MCSS.               MEAS:   MUD CAKE SAMPLE SOURCE
 RMB .OHMM           0.26:   RESISTIVITY MUD AT BHT
 BHT .F                75:   BOTTOM HOLE TEMPERATURE
 TCS .HRS               2:   TIME CURCULATED STOPPED
 MRT .F                75:   MAXIMUM RECORDED TEMPERATURE
 LUN .               2958:   LOGGING UNIT NUMBER
 LUL .             CASPER:   LOGGING UNIT LOCATION
 ENGI.             HUGHES:   RECORDING ENGINEER
 WITN.         HARRINGTON:   WITNESSED BY
 CLNT.            A2DTECH:   CLIENT CODE
 ORIG.           5" PRINT:   ORIGIN OF DATA
 UWI .       490251044800:   UNIQUE WELL ID
 DICO. A2D Technologies, Inc.:   DIGITIZING COMPANY
~OTHER INFORMATION
~A   DEPT      ILD         SN        SPR       CALD       DPHI       DRHO         GRD      RHOB   
# ...
  101.0000    16.3561    12.4132   -97.8916     8.2926     0.1094     0.0431   112.4996     2.4661
  101.5000    16.7039    12.6744  -101.8000     8.2929     0.1061     0.0363   112.6539     2.4825
  102.0000    17.0511    12.7632  -101.7983     8.2931     0.0959     0.0266   109.8905     2.5042
  102.5000    17.4096    12.8526  -101.4961     8.3080     0.0941     0.0394   105.5192     2.5132
  103.0000    17.4096    12.7648  -100.5925     8.3084     0.0991     0.0470   103.3377     2.4863
  103.5000    17.8993    12.7657   -99.3877     8.2794     0.1048     0.0538   101.8701     2.4990
  104.0000    17.8993    12.6785   -98.3337     8.1921     0.1096     0.0532    99.8526     2.4789
  104.5000    18.0239    12.6796   -98.1820     8.0464     0.1126     0.0458   100.1528     2.4636
  105.0000    18.1308    12.5928   -97.5787     7.9737     0.1137     0.0398   102.4968     2.4668
  105.5000    18.0941    12.5071   -97.5773     8.0324     0.1143     0.0316   106.3138     2.4624
  106.0000    18.2154    12.4217   -96.9744     8.1495     0.1155     0.0303   113.1723     2.4594
  106.5000    18.3363    12.4227   -96.8223     8.2958     0.1155     0.0274   113.9085     2.4571
  107.0000    18.3315    12.3377   -96.3698     8.3253     0.1155     0.0243   110.2691     2.4556
  107.5000    18.3258    12.2535   -95.7669     8.3110     0.1152     0.0178   108.0876     2.4542
  108.0000    18.3211    12.2545   -95.4645     8.3113     0.1145     0.0269   104.0104     2.4624
  108.5000    18.3163    12.1711   -95.1623     8.2969     0.1119     0.0299    96.5734     2.4699
  109.0000    18.0583    12.0878   -95.1609     8.2826     0.1167     0.0255    97.0196     2.4601
  109.5000    17.6820    12.0053   -95.1592     8.2830     0.1155     0.0226   101.5534     2.4669
  110.0000    17.3123    12.0063   -95.1578     8.2833     0.1104     0.0399   110.0309     2.4752
  110.5000    16.9515    11.9244   -95.1564     8.2981     0.1154     0.0363   111.6449     2.4632
  111.0000    16.7137    11.9253   -95.0043     8.2984     0.1163     0.0326   111.2152     2.4640
  111.5000    16.3643    11.9261   -94.8526     8.2987     0.1118     0.0303   109.4717     2.4797
  112.0000    15.9125    11.9269   -95.0015     8.2844     0.1106     0.0253   102.4747     2.4737
  112.5000    15.9084    11.9277   -94.9998     8.2847     0.1106     0.0373    97.8114     2.4647
  113.0000    15.7934    11.9285   -94.9984     8.2850     0.1106     0.0464    98.5496     2.4647
  113.5000    15.4643    11.8472   -94.9970     8.2853     0.1109     0.0480    99.7257     2.4692
  114.0000    15.4603    11.7662   -94.9953     8.2856     0.1118     0.0339   102.0739     2.4640
  114.5000    15.4554    11.6053   -94.8439     8.2859     0.1144     0.0482   105.4378     2.4558
  115.0000    15.4514    11.4469   -94.9925     8.2862     0.1199     0.0527   107.1978     2.4490
  115.5000    15.6633    11.4478   -94.9908     8.2864     0.1252     0.0416   106.7681     2.4371
  116.0000    15.7682    11.4486   -95.1401     8.2867     0.1261     0.0266   102.5021     2.4319
  116.5000    15.8739    11.3703   -96.8090     8.2871     0.1177     0.0395    90.7283     2.4476
  117.0000    15.8688    11.2928   -96.9415     8.2873     0.1165     0.0471    93.8023     2.4573
  117.5000    15.8638    11.2145   -96.9398     8.2876     0.1177     0.0404    99.0660     2.4581
  118.0000    15.8597    10.9864   -96.9383     8.2879     0.1179     0.0323   103.2438     2.4528
  118.5000    15.9667    10.9112   -96.9367     8.2882     0.1164     0.0378   108.4277     2.4558
  119.0000    15.8513    10.7623   -96.9353     8.2738     0.1131     0.0437   107.2680     2.4648
  119.5000    15.8462    10.7630   -96.6331     8.2742     0.1122     0.0445   105.9624     2.4656
  120.0000    15.8421    10.7637   -96.6314     8.2745     0.1167     0.0326   104.9392     2.4618
  120.5000    15.7286    10.7646   -96.4796     8.2747     0.1218     0.0394   106.7109     2.4529
  121.0000    15.6149    10.7653   -96.3275     8.2604     0.1230     0.0447   105.9892     2.4469
  121.5000    15.5030    10.6916   -96.3261     8.2608     0.1221     0.0433   103.8077     2.4461
  122.0000    15.3920    10.5456   -95.7232     8.2610     0.1199     0.0344   103.0860     2.4469
  122.5000    14.9660    10.3931   -94.6689     8.2759     0.1190     0.0367   102.9483     2.4477
  123.0000    14.5528    10.0488   -93.9156     8.2762     0.1187     0.0406   103.6886     2.4484
  123.5000    14.2495     9.9113   -93.0120     8.2765     0.1181     0.0324   104.7187     2.4516
  124.0000    14.1465     9.9121   -92.7095     8.2768     0.1181     0.0437   106.1927     2.4567
  124.5000    14.1429     9.9128   -92.2570     8.2771     0.1178     0.0528   103.1315     2.4604
  125.0000    14.0416     9.9824   -92.1052     8.2774     0.1169     0.0521    97.4442     2.4634
  125.5000    13.8437     9.9830   -92.1035     8.2777     0.1154     0.0447    99.7903     2.4657
  126.0000    13.8402     9.9837   -91.8013     8.2633     0.1118     0.0403   106.0759     2.4702
  126.5000    13.8366    10.0535   -91.4992     8.2198     0.1073     0.0539   119.9397     2.4754
  127.0000    13.8322     9.9162   -91.4975     8.1764     0.1037     0.0607   116.2896     2.4769
  127.5000    13.8287     9.9170   -91.0449     8.1168     0.1031     0.0605   111.9128     2.4769
  128.0000    13.8251     9.9177   -90.8932     8.1332     0.1078     0.0474   110.0178     2.4687
  128.5000    13.8207     9.9183   -90.8914     8.1773     0.1202     0.0258   105.9329     2.4560
  129.0000    13.8172     9.9190   -90.8901     8.2943     0.1305     0.0303   104.0243     2.4470
  129.5000    13.8136     9.9196   -90.8887     8.3384     0.1341     0.0356   105.9392     2.4342
  130.0000    13.7138     9.9204   -90.8869     8.2949     0.1344     0.0200   110.7594     2.4283
  130.5000    13.7103     9.8526   -90.8856     8.2806     0.1317     0.0223   109.7403     2.4268
  131.0000    13.7067     9.7855   -90.8842     8.2809     0.1272     0.0307   102.0059     2.4351
  131.5000    13.4203     9.6517   -90.8824     8.2958     0.1239     0.0375   103.7611     2.4448
  132.0000    13.3241     9.5858   -90.5803     8.2961     0.1209     0.0428   107.7055     2.4523
  132.5000    12.9561     9.4550   -90.4285     8.2964     0.1202     0.0354   109.8974     2.4471
  133.0000    12.8626     9.3903   -90.2764     8.2967     0.1209     0.0310   103.0395     2.4441
  133.5000    12.5945     9.2621   -90.2750     8.2970     0.1209     0.0288   102.2910     2.4441
  134.0000    12.5807     9.1988   -90.2736     8.2972     0.1200     0.0311   100.7093     2.4471
  134.5000    12.4139     9.1995   -90.2719     8.2976     0.1190     0.0410   111.0777     2.4508
  135.0000    12.2397     9.2640   -90.2705     8.2832     0.1172     0.0470   111.9557     2.4598
  135.5000    12.2358     9.3937   -90.2691     8.2835     0.1133     0.0493   107.7256     2.4681
  136.0000    12.2327     9.4595   -90.2674     8.2838     0.1112     0.0412   106.1225     2.4748
  136.5000    12.2296     9.5257   -90.2660     8.2841     0.1100     0.0368   113.1333     2.4763
  137.0000    12.2256     9.5655   -90.2646     8.2844     0.1100     0.0444   112.2601     2.4711
  137.5000    12.2225     9.6174   -91.1652     8.2847     0.1106     0.0497   103.0658     2.4643
  138.0000    12.2194     9.6764   -95.9758     8.2850     0.1142     0.0513   102.1927     2.4561
  138.5000    12.2155     9.8112   -98.6812     8.2853     0.1163     0.0521   107.7436     2.4531
  139.0000    12.2124     9.8792   -98.6794     8.3002     0.1171     0.0537   112.8558     2.4584
  139.5000    12.5527     9.9478   -98.6781     8.3005     0.1165     0.0553   115.0484     2.4659
  140.0000    12.7240     9.9478   -98.0752     8.3008     0.1081     0.0471   112.2774     2.4741
  140.5000    12.8992     9.9478   -97.7727     8.3010     0.1114     0.0412   108.2267     2.4614
  141.0000    13.2579     9.9478   -97.4705     8.3013     0.1156     0.0413   105.4223     2.4562
