~VERSION INFORMATION
 VERS.                2.0:   CWLS LOG ASCII STANDARD - VERSION 2.0
 WRAP.                 NO:   ONE LINE PER DEPTH STEP
~WELL INFORMATION
#MNEM.UNIT      DATA TYPE    INFORMATION
#----------   ------------   ------------------------------
 STRT.F           80.0000:   START DEPTH
 STOP.F          679.5000:   STOP DEPTH
 STEP.F            0.5000:   STEP LENGTH
 NULL.          -999.2500:   NO VALUE
 COMP. U S NAVY/INTEX OIL CO:   COMPANY
 WELL.      NPR 3 #23-S-2:   WELL
 FLD .        TEAPOT DOME:   FIELD
 LOC .       S2 T38N R78W:   LOCATION
 CNTY.            NATRONA:   COUNTY
 STAT.            WYOMING:   STATE
 CTRY. UNITED STATES OF AMERICA:   COUNTRY
 SRVC.       Schlumberger:   SERVICE COMPANY
 DATE.        16-JUL-1962:   LOGDATE
 API .       490250645000:   API NUMBER
~CURVE INFORMATION
#MNEM.UNIT       API CODE    CURVE DESCRIPTION
#----------   ------------   ------------------------------
 DEPT.F                  :   
 GR  .GAPI   30 310 01 00:   GAMMA RAY
 SPR .MV     05 010 01 00:   SPONTANEOUS POTENTIAL FROM RES.
 ILD .OHMM   05 120 46 00:   INDUCTION LOG DEEP
 CILD.MMHO   05 110 46 00:   CONDUCTIVITY INDUCTION LOG DEEP
 ASN .OHMM   05 041 16 00:   AMPLIFIED SHORT NORMAL 16"
~PARAMETER INFORMATION
#MNEM.UNIT          VALUE    DESCRIPTION
#----------   ------------   ------------------------------
 PD  .                 GL:   PERMANENT DATUM
 EPD .F              5126:   ELEVATION PERMANENT DATUM
 LMF .                 KB:   LOG MEASURED FROM
 DAPD.F                 5:   FEET ABOVE PERMANENT DATUM
 DMF .                 KB:   DRILLING MEASURED FROM
 EKB .F              5131:   KELLING BUSHING
 EGL .F              5126:   GROUND LEVEL
 DATE.            7-17-62:   RUN DATE
 RUN .                  1:   RUN NUMBER
 DD  .F               680:   DEPTH DRILLER
 DL  .F               680:   DEPTH LOGGER
 BLI .F               679:   BOTTOM LOG INTERVAL
 TLI .F                87:   TOP LOG INTERVAL
 BS  .IN             6.75:   BIT SIZE
 BSD .F               680:   BIT SIZE AT DEPTH
 DFT .       OIL EMULSION:   DRILLING FLUID TYPE
 DFD .                 10:   DRILLING FLUID DENSITY
 DFV .                 41:   DRILLING FLUID VISCOSITY
 DFL .                2.9:   DRILLING FLUID LOSS
 RMS .OHMM           5.86:   RESISTIVITY MUD SAMPLE
 MST .F                73:   MUD SAMPLE TEMPERATURE
 RMF .OHMM           4.19:   RESISTIVITY MUD FILTRATE SAMPLE
 MFST.F                73:   MUD FILTRATE SAMPLE TEMPERATURE
 RMC .OHMM           5.66:   RESISTIVITY MUD CAKE
 MCST.F                73:   MUD CAKE SAMPLE TEMPERATURE
 TCS .HRS               1:   TIME CURCULATED STOPPED
 LUN .               2503:   LOGGING UNIT NUMBER
 LUL .               CSPR:   LOGGING UNIT LOCATION
 ENGI.             DANNER:   RECORDING ENGINEER
 WITN.          JORGENSON:   WITNESSED BY
 CLNT.            A2DTECH:   CLIENT CODE
 ORIG.       2", 5" PRINT:   ORIGIN OF DATA
 UWI .       490250645000:   UNIQUE WELL ID
 DICO. A2D Technologies, Inc.:   DIGITIZING COMPANY
~OTHER INFORMATION
~A   DEPT       GR        SPR          ILD      CILD         ASN 
# ...
  263.0000  -999.2500   -37.7593     9.5015    96.3333     9.8701
  263.5000  -999.2500   -37.5574     9.6542    94.6667    10.3928
  264.0000  -999.2500   -36.6567     9.8070    93.0026    10.4933
  264.5000  -999.2500   -35.5412     9.9600    91.3421    10.6441
  265.0000  -999.2500   -35.4417    10.1130    89.5116    10.8071
  265.5000  -999.2500   -35.8898    10.2491    89.3580    10.8843
  266.0000  -999.2500   -35.9767    10.2512    89.1833    10.9354
  266.5000  -999.2500   -35.0484    10.2494    89.0167    10.9851
  267.0000  -999.2500   -34.2618    10.1539    88.8500    11.0366
  267.5000  -999.2500   -33.7105    10.0466    88.6833    11.0540
  268.0000  -999.2500   -33.4229     9.9392    88.5000    10.8742
  268.5000  -999.2500   -33.9544     9.8320    89.8500    10.6202
  269.0000  -999.2500   -34.6336     9.7258    91.3500    10.4513
  269.5000  -999.2500   -35.1036     9.6464    92.8500    10.4300
  270.0000  -999.2500   -35.0213     9.6046    94.5000    10.4136
  270.5000  -999.2500   -35.0015     9.5625    94.8214    10.3965
  271.0000  -999.2500   -35.7060     9.5208    95.1786    10.3792
  271.5000  -999.2500   -36.3820     9.4791    95.5357    10.3623
  272.0000  -999.2500   -37.0583     9.4381    95.8929    10.3589
  272.5000  -999.2500   -37.4112     9.3958    96.2499    10.3939
  273.0000  -999.2500   -36.8787     9.3541    96.6071    10.4254
  273.5000  -999.2500   -36.1327     9.3125    96.9648    10.4054
  274.0000  -999.2500   -35.2308     9.2708    97.3214    10.2520
  274.5000  -999.2500   -34.0024     9.2291    97.8704    10.2468
  275.0000  -999.2500   -33.2654     9.1876    98.6111    10.0105
  275.5000  -999.2500   -33.4816     9.1492    99.3519     9.9097
  276.0000  -999.2500   -33.7704     9.1239   100.0926     9.8464
  276.5000  -999.2500   -34.0563     9.1000   100.8333     9.7799
  277.0000  -999.2500   -34.3449     9.0762   101.5000     9.7084
  277.5000  -999.2500   -34.5373     9.0524   101.5000     9.6373
  278.0000  -999.2500   -34.4463     9.0286   101.5000     9.5659
  278.5000  -999.2500   -34.0957     9.0048   101.5000     9.5297
  279.0000  -999.2500   -33.7442     8.9810   101.5000     9.5331
  279.5000  -999.2500   -33.4492     8.9571   101.5000     9.6027
  280.0000  -999.2500   -33.7908     8.9333   101.5000     9.6716
  280.5000  -999.2500   -34.1391     8.9095   101.5000     9.6685
  281.0000  -999.2500   -34.1292     8.8857   101.5000     9.5880
  281.5000  -999.2500   -33.9973     8.8619   102.1111     9.5092
  282.0000  -999.2500   -33.8609     8.8345   102.6667     9.4272
  282.5000  -999.2500   -33.7266     8.8037   103.2222     9.3415
  283.0000  -999.2500   -33.6500     8.7709   104.2143     9.2527
  283.5000  -999.2500   -33.7342     8.6958   105.5000     9.2447
  284.0000  -999.2500   -33.8139     8.4899   109.0870     9.2672
  284.5000  -999.2500   -33.8941     8.2898   112.3478     9.1684
  285.0000  -999.2500   -33.9726     8.0901   115.6087     9.0008
  285.5000  -999.2500   -33.9722     7.8900   118.8669     8.7450
  286.0000  -999.2500   -33.6445     7.6897   121.6879     8.4947
  286.5000  -999.2500   -32.9658     7.4893   124.0726     8.2445
  287.0000  -999.2500   -32.4472     7.2913   126.4606     7.9942
  287.5000  -999.2500   -33.0696     7.1760   128.8513     7.7718
  288.0000  -999.2500   -33.6744     7.2922   130.1484     7.7490
  288.5000  -999.2500   -33.7324     7.4017   128.8957     7.7303
  289.0000  -999.2500   -33.6633     7.5108   127.5154     7.8111
  289.5000  -999.2500   -34.3290     7.6203   124.5577     8.0410
  290.0000  -999.2500   -34.9640     7.7300   121.2885     8.3431
  290.5000  -999.2500   -35.2493     7.8464   118.0192     8.6570
  291.0000  -999.2500   -34.5495     8.0307   114.7500     8.7514
  291.5000  -999.2500   -33.8570     8.2322   111.4808     8.8374
  292.0000  -999.2500   -33.7325     8.4409   110.2500     9.0055
  292.5000  -999.2500   -33.6356     8.4239   109.8929     9.1462
  293.0000  -999.2500   -33.8107     8.3911   109.5000     9.0937
  293.5000  -999.2500   -34.0184     8.3594   110.2105     9.1148
  294.0000  -999.2500   -33.9346     8.3282   111.0000     9.0914
  294.5000  -999.2500   -33.8117     8.2968   111.7895     8.8414
  295.0000  -999.2500   -33.3561     8.2654   112.5000     8.7703
  295.5000  -999.2500   -32.9140     8.2079   114.1177     8.8061
  296.0000  -999.2500   -32.4580     8.1242   115.5882     8.7535
  296.5000  -999.2500   -32.2877     8.0524   117.0588     8.8765
  297.0000  -999.2500   -32.1273     8.0949   116.6224     8.9246
  297.5000  -999.2500   -32.0465     8.1350   115.4824     8.9255
  298.0000  -999.2500   -32.3137     8.3125   111.7183     9.0723
  298.5000  -999.2500   -32.8525     8.5425   108.3035     9.1568
  299.0000  -999.2500   -33.4069     8.7491   104.8947     9.2674
  299.5000  -999.2500   -33.2468     8.7690   102.5619     9.4245
  300.0000  -999.2500   -33.0295     8.7848   102.7681     9.4461
  300.5000  -999.2500   -32.8475     8.8013   102.9743     9.3444
  301.0000  -999.2500   -33.0482     8.8180   103.1805     9.3094
  301.5000  -999.2500   -33.2501     8.8355   103.3867     9.4774
  302.0000  -999.2500   -33.4087     8.8450   104.2400     9.5692
  302.5000  -999.2500   -32.8730     8.7042   105.8833     9.3233
  303.0000  -999.2500   -32.4590     8.5622   107.5267     9.1271
  303.5000  -999.2500   -32.6282     8.4209   109.1700     9.0289
  304.0000  -999.2500   -32.7837     8.2784   110.8133     8.9875
  304.5000  -999.2500   -32.9369     8.2408   111.6913     8.9588
  305.0000  -999.2500   -33.0373     8.2282   112.0200     8.9310
  305.5000  -999.2500   -33.0355     8.2164   112.3487     8.9356
  306.0000  -999.2500   -33.0354     8.2045   112.6834     8.9420
  306.5000  -999.2500   -33.0364     8.1925   113.0235     8.9497
  307.0000  -999.2500   -33.0675     8.1804   113.3636     8.8982
  307.5000  -999.2500   -33.1865     8.1684   113.7041     8.8263
  308.0000  -999.2500   -33.3022     8.1564   114.0456     8.7511
  308.5000  -999.2500   -33.4158     8.1444   114.3835     8.7196
  309.0000  -999.2500   -33.3348     8.1323   114.5000     8.6956
  309.5000  -999.2500   -33.2445     8.1203   114.5000     8.6724
  310.0000  -999.2500   -33.6457     8.1083   114.5000     8.6510
  310.5000  -999.2500   -34.5693     8.0963   114.4997     8.6680
  311.0000  -999.2500   -35.4982     8.0843   114.4995     8.6869
  311.5000  -999.2500   -36.4226     8.0723   114.7202     8.6752
  312.0000  -999.2500   -36.9983     8.0603   115.2965     8.6318
  312.5000  -999.2500   -36.2467     8.0441   115.8734     8.5819
  313.0000  -999.2500   -35.4539     8.0071   116.4496     8.5566
  313.5000  -999.2500   -34.6638     7.9696   117.0258     8.5385
  314.0000  -999.2500   -33.8733     7.9323   117.6021     8.4995
  314.5000  -999.2500   -33.0544     7.8949   118.1783     8.4716
  315.0000  -999.2500   -32.9221     7.8576   118.7545     8.4769
  315.5000  -999.2500   -33.0299     7.8202   119.3308     8.4818
  316.0000  -999.2500   -33.1448     7.7829   119.9070     8.4868
  316.5000  -999.2500   -33.1932     7.7455   120.4833     8.4670
  317.0000  -999.2500   -32.9904     7.7082   121.0595     8.4150
  317.5000  -999.2500   -32.7963     7.6708   121.6357     8.3632
  318.0000  -999.2500   -32.6580     7.6335   122.2120     8.3110
  318.5000  -999.2500   -32.7948     7.5961   122.7882     8.2826
  319.0000  -999.2500   -32.9258     7.5571   123.3644     8.2700
  319.5000  -999.2500   -33.0561     7.5791   122.6622     8.2588
  320.0000  -999.2500   -33.1869     7.6166   121.5000     8.2799
  320.5000  -999.2500   -33.3174     7.6626   119.9567     8.3828
  321.0000  -999.2500   -33.4244     7.7610   118.3133     8.4813
  321.5000  -999.2500   -33.3605     7.8598   116.6700     8.5798
  322.0000  -999.2500   -33.2939     7.9585   115.0267     8.6866
  322.5000  -999.2500   -33.2372     8.0571   113.9846     8.8020
  323.0000  -999.2500   -33.3073     8.1501   113.2262     8.9083
  323.5000  -999.2500   -33.3798     8.1936   112.4677     8.9153
