~VERSION INFORMATION
 VERS.                2.0:   CWLS LOG ASCII STANDARD - VERSION 2.0
 WRAP.                 NO:   ONE LINE PER DEPTH STEP
~WELL INFORMATION
#MNEM.UNIT      DATA TYPE    INFORMATION
#----------   ------------   ------------------------------
 STRT.F           30.0000:   START DEPTH
 STOP.F          677.0000:   STOP DEPTH
 STEP.F            0.5000:   STEP LENGTH
 NULL.          -999.2500:   NO VALUE
 COMP. FENIX & SCISSON INC:   COMPANY
 WELL. TEAPOT DOME #27 SX -2:   WELL
 FLD .             TEAPOT:   FIELD
 LOC .       S2 T38N R78W:   LOCATION
 CNTY.            NATRONA:   COUNTY
 STAT.            WYOMING:   STATE
 CTRY. UNITED STATES OF AMERICA:   COUNTRY
 SRVC.            Unknown:   SERVICE COMPANY
 DATE.        28-JAN-1978:   LOGDATE
 API .       490251056500:   API NUMBER
~CURVE INFORMATION
#MNEM.UNIT       API CODE    CURVE DESCRIPTION
#----------   ------------   ------------------------------
 DEPT.F                  :   
 ILD .OHMM   05 120 46 00:   INDUCTION LOG DEEP
 SN  .OHMM   05 040 16 00:   SHORT NORMAL 16"
 SPR .MV     05 010 01 00:   SPONTANEOUS POTENSIAL
 CALD.IN     45 280 60 00:   CALIPER FROM DENSITY LOG
 CORR.G/C3   45 356 01 00:   DENSITY CORRECTION
 DPHI.DEC    45 890 12 00:   DENSITY POROSITY SANDSTONE
 GRD .GAPI   45 310 01 00:   GAMMA RAY FROM DENSITY LOG
 RHOB.G/C3   45 350 01 00:   BULK DENSITY
~PARAMETER INFORMATION
#MNEM.UNIT          VALUE    DESCRIPTION
#----------   ------------   ------------------------------
 PD  .                 GL:   PERMANENT DATUM
 EPD .F              5147:   ELEVATION PERMANENT DATUM
 LMF .                 KB:   LOG MEASURED FROM
 DAPD.F                 4:   FEET ABOVE PERMANENT DATUM
 DMF .                 KB:   DRILLING MEASURED FROM
 EKB .F              5151:   KELLING BUSHING
 EGL .F              5147:   GROUND LEVEL
 DATE.        28-JAN-1978:   RUN DATE
 RUN .                  1:   RUN NUMBER
 DD  .F               675:   DEPTH DRILLER
 DL  .F               678:   DEPTH LOGGER
 BLI .F               677:   BOTTOM LOG INTERVAL
 TLI .F                40:   TOP LOG INTERVAL
 CS  .IN            8.625:   CASING SIZE
 CBD .F                40:   CASING BOTTOM DRILLER
 CBL .F                40:   CASING BOTTOM LOGGER
 BS  .IN            7.875:   BIT SIZE
 BSD .F               675:   BIT SIZE AT DEPTH
 DFT .                KCL:   DRILLING FLUID TYPE
 DFD .                8.6:   DRILLING FLUID DENSITY
 DFV .                .34:   DRILLING FLUID VISCOSITY
 DFPH.                9.5:   DRILLING FLUID PH
 MSS .           FLOWLINE:   MUD SAMPLE SOURCE
 RMS .OHMM           0.38:   RESISTIVITY MUD SAMPLE
 MST .F                60:   MUD SAMPLE TEMPERATURE
 RMF .OHMM           0.36:   RESISTIVITY MUD FILTRATE SAMPLE
 MFST.F                62:   MUD FILTRATE SAMPLE TEMPERATURE
 RMC .OHMM            0.7:   RESISTIVITY MUD CAKE
 MCST.F                63:   MUD CAKE SAMPLE TEMPERATURE
 MFSS.               MEAS:   MUD FILTRATE SAMPLE SOURCE
 MCSS.               MEAS:   MUD CAKE SAMPLE SOURCE
 RMB .OHMM           0.31:   RESISTIVITY MUD AT BHT
 BHT .F                76:   BOTTOM HOLE TEMPERATURE
 TCS .HRS               3:   TIME CURCULATED STOPPED
 MRT .F                76:   MAXIMUM RECORDED TEMPERATURE
 LUN .               2958:   LOGGING UNIT NUMBER
 LUL .             CASPER:   LOGGING UNIT LOCATION
 ENGI.           REYNOLDS:   RECORDING ENGINEER
 WITN.     MR. HARRINGTON:   WITNESSED BY
 CLNT.            A2DTECH:   CLIENT CODE
 ORIG.           5" PRINT:   ORIGIN OF DATA
 UWI .       490251056500:   UNIQUE WELL ID
 DICO. A2D Technologies, Inc.:   DIGITIZING COMPANY
~OTHER INFORMATION
~A   DEPT      ILD         SN        SPR       CALD       CORR       DPHI        GRD       RHOB   
# ...
  556.5000    12.1098    11.0211   -57.7442     8.6179     0.0663     0.1228    86.6800     2.4563
  557.0000    12.1217    11.0299   -57.7250     8.6055     0.0680     0.1407    87.4452     2.4352
  557.5000    12.1313    10.9621   -57.7024     8.5937     0.0727     0.1422    88.0581     2.4233
  558.0000    12.1409    10.9704   -57.6837     8.5961     0.0789     0.1424    87.0438     2.4211
  558.5000    12.1505    10.9800   -57.6667     8.5831     0.0896     0.1403    86.6160     2.4235
  559.0000    12.1601    10.9106   -57.6465     8.5861     0.0988     0.1400    86.6425     2.4243
  559.5000    12.1699    10.9205   -57.6278     8.5737     0.1020     0.1402    87.1208     2.4274
  560.0000    12.1817    10.9285   -57.6046     8.5767     0.1022     0.1401    88.1696     2.4260
  560.5000    12.1900    11.0881   -57.5860     8.5791     0.1024     0.1348    88.6346     2.4276
  561.0000    12.2010    11.0965   -57.5674     8.5815     0.1011     0.1344    89.5434     2.4337
  561.5000    12.2106    11.1061   -57.5488     8.5839     0.1014     0.1350    90.7481     2.4315
  562.0000    12.2202    11.1909   -57.5302     8.5864     0.1031     0.1346    91.9527     2.4339
  562.5000    12.1485    11.1991   -57.5112     8.5893     0.1033     0.1319    93.4586     2.4362
  563.0000    11.9896    11.1301   -57.4883     8.5917     0.1050     0.1316    95.8467     2.4371
  563.5000    11.6734    11.1384   -57.4697     8.5942     0.1067     0.1250    96.7555     2.4379
  564.0000    11.5230    10.9940   -57.4511     8.5966     0.1054     0.1243    97.9601     2.4426
  564.5000    11.3766    11.0040   -57.4325     8.5990     0.1011     0.1240   102.1234     2.4509
  565.0000    11.2303    11.0120   -57.4139     8.6020     0.0968     0.1239   103.4862     2.4524
  565.5000    11.2413    11.0200   -57.5448     8.6044     0.0970     0.1266   103.7984     2.4488
  566.0000    11.2502    10.9523   -57.5215     8.6068     0.0972     0.1269   103.6717     2.4481
  566.5000    11.3368    10.9606   -57.5029     8.6092     0.0942     0.1268   100.1426     2.4490
  567.0000    11.3465    10.8930   -57.6384     8.6116     0.0887     0.1277    95.7260     2.4468
  567.5000    11.4331    10.9029   -57.6151     8.6141     0.0873     0.1321    93.3804     2.4440
  568.0000    11.4425    10.9108   -57.5964     8.6166     0.0876     0.1390    89.7871     2.4388
  568.5000    11.4535    10.9941   -57.5733     8.6191     0.0863     0.1398    88.6944     2.4262
  569.0000    11.5416    11.0782   -57.4052     8.6216     0.0850     0.1386    88.0364     2.4263
  569.5000    11.7916    11.2418   -57.0876     8.6241     0.0822     0.1385    87.2530     2.4264
  570.0000    12.0469    11.5641   -56.7701     8.6271     0.0779     0.1385    86.3948     2.4265
  570.5000    12.4825    11.8955   -56.6020     8.6295     0.0691     0.1428    84.9367     2.4251
  571.0000    13.0170    12.4061   -56.2840     8.6165     0.0603     0.1521    83.4734     2.4170
  571.5000    13.5761    12.9386   -56.1117     8.6195     0.0560     0.1644    82.9029     2.4073
  572.0000    14.3555    13.7016   -55.9436     8.6219     0.0547     0.1760    81.4501     2.3940
  572.5000    15.6030    14.4687   -55.6260     8.6101     0.0460     0.1799    77.8328     2.3634
  573.0000    18.4182    15.2989   -55.3085     8.6125     0.0446     0.1780    75.2849     2.3610
  573.5000    21.5205    16.8589   -54.8414     8.5995     0.0599     0.1758    76.1937     2.3653
  574.0000    25.3183    18.5779   -54.5012     8.5871     0.0901     0.1884    77.5463     2.3480
  574.5000    27.7085    19.3753   -54.0522     8.5753     0.0948     0.1914    77.5675     2.3428
  575.0000    28.1145    19.9343   -53.8841     8.5629     0.0980     0.1952    77.4408     2.3377
  575.5000    26.0863    19.8119   -53.5665     8.5505     0.1072     0.2065    76.4319     2.3273
  576.0000    24.5354    19.8263   -53.6974     8.5380     0.1374     0.2192    74.3768     2.3091
  576.5000    24.3908    19.9777   -53.6786     8.5256     0.1976     0.2274    74.8418     2.2834
  577.0000    24.0813    19.9917   -53.9545     8.5287     0.2143     0.2184    73.6849     2.2880
  577.5000    23.9304    20.0069   -53.9358     8.5162     0.2130     0.2109    74.2979     2.3015
  578.0000    23.9540    20.0248   -53.9172     8.5193     0.2088     0.1992    74.9112     2.3136
  578.5000    23.8086    19.9019   -53.8986     8.5217     0.1850     0.1785    75.0853     2.3310
  579.0000    23.4852    19.7761   -53.8800     8.5241     0.1312     0.1734    75.4024     2.3594
  579.5000    22.2655    19.6547   -53.8610     8.5265     0.1390     0.1928    75.5715     2.3715
  580.0000    21.3822    19.2704   -53.8381     8.5289     0.1616     0.2190    75.5928     2.3462
  580.5000    21.2482    19.1521   -53.8195     8.5319     0.1498     0.2055    75.7619     2.2924
  581.0000    21.4160    18.9074   -53.9504     8.5491     0.1380     0.1888    76.2987     2.3359
  581.5000    21.8798    18.7879   -53.9318     8.5515     0.1149     0.1809    78.0286     2.3547
  582.0000    22.0526    18.5445   -53.9132     8.5539     0.0890     0.1884    78.3457     2.3503
  582.5000    22.3757    18.1819   -53.8939     8.5563     0.0771     0.1955    78.2137     2.3481
  583.0000    22.2399    17.8232   -53.8713     8.5588     0.0729     0.2030    77.3527     2.3295
  583.5000    21.9491    17.4747   -53.8527     8.5766     0.0656     0.2110    77.3832     2.3109
  584.0000    21.8201    17.2483   -53.8341     8.5790     0.0673     0.2125    77.9922     2.3058
  584.5000    21.6751    17.1393   -53.8155     8.5814     0.0855     0.2127    79.9365     2.3051
  585.0000    21.5375    16.9172   -53.7967     8.5838     0.1127     0.2109    80.1057     2.3052
  585.5000    21.1366    16.8160   -53.7773     8.5865     0.1444     0.2052    80.1269     2.3181
  586.0000    21.0042    16.7072   -53.7579     8.6337     0.1641     0.1959    79.5564     2.3264
  586.5000    20.8808    16.4966   -53.7384     8.6361     0.1705     0.1889    78.9660     2.3327
  587.0000    20.4705    16.5116   -53.7178     8.6237     0.1645     0.1687    78.1249     2.3539
  587.5000    19.9346    16.5235   -53.8486     8.5964     0.1648     0.1431    76.6615     2.3805
  588.0000    19.1438    16.5355   -53.8300     8.5840     0.1545     0.1383    76.9839     2.4017
  588.5000    18.1331    16.5475   -54.1104     8.5700     0.1262     0.1236    77.0052     2.4540
  589.0000    17.8959    16.5599   -54.5355     8.5592     0.0844     0.1125    76.4347     2.4833
  589.5000    17.4275    16.4579   -54.9654     8.5468     0.0606     0.1026    76.0121     2.4976
  590.0000    17.3140    16.0254   -55.2504     8.5498     0.0653     0.1366    76.0387     2.4543
  590.5000    17.0985    15.7064   -55.3767     8.5522     0.0760     0.1653    76.6516     2.4073
  591.0000    16.9947    15.5029   -55.2078     8.5552     0.0807     0.1665    77.2646     2.3849
  591.5000    17.0115    15.3048   -55.1852     8.5873     0.0779     0.1670    77.8775     2.3790
  592.0000    16.9049    14.9026   -55.3207     8.5897     0.0726     0.1686    79.1361     2.3799
  592.5000    16.9216    14.5058   -55.1480     8.5921     0.0645     0.1699    80.2922     2.3785
  593.0000    17.0524    14.3178   -55.2789     8.6093     0.0564     0.1735    80.0175     2.3733
  593.5000    17.0664    14.0379   -55.2601     8.5969     0.0533     0.1812    79.7376     2.3682
  594.0000    17.0822    13.8560   -55.2407     8.5994     0.0700     0.1913    79.6154     2.3563
  594.5000    17.0957    13.6764   -55.3725     8.6023     0.0762     0.1922    79.6376     2.3385
  595.0000    16.9919    13.5017   -55.3493     8.6044     0.0839     0.1925    79.6640     2.3386
  595.5000    16.8888    13.4164   -55.3306     8.6072     0.1006     0.1924    79.6852     2.3387
  596.0000    16.5602    13.2449   -55.3120     8.6095     0.1249     0.1905    79.7065     2.3388
  596.5000    16.2316    13.0709   -55.2930     8.6120     0.1281     0.1828    80.6153     2.3509
