~VERSION INFORMATION
 VERS.                2.0:   CWLS LOG ASCII STANDARD - VERSION 2.0
 WRAP.                 NO:   ONE LINE PER DEPTH STEP
~WELL INFORMATION
#MNEM.UNIT      DATA TYPE    INFORMATION
#----------   ------------   ------------------------------
 STRT.F          190.0000:   START DEPTH
 STOP.F         3246.0000:   STOP DEPTH
 STEP.F            0.5000:   STEP LENGTH
 NULL.          -999.2500:   NO VALUE
 COMP. BROWN JOHN E&C INC:   COMPANY
 WELL.      STX-15 #84-15:   WELL
 FLD .             TEAPOT:   FIELD
 LOC .      S15 T38N R78W:   LOCATION
 CNTY.            NATRONA:   COUNTY
 STAT.            WYOMING:   STATE
 CTRY. UNITED STATES OF AMERICA:   COUNTRY
 SRVC.           BIRDWELL:   SERVICE COMPANY
 DATE.        17-MAR-1978:   LOGDATE
 API .       490251111600:   API NUMBER
~CURVE INFORMATION
#MNEM.UNIT       API CODE    CURVE DESCRIPTION
#----------   ------------   ------------------------------
 DEPT.F                  :   
 ILD .OHMM   05 120 46 00:   INDUCTION LOG DEEP
 SN  .OHMM   05 040 16 00:   SHORT NORMAL 16"
 SPR .MV     05 010 01 00:   SPONTANEOUS POTENTIAL FROM RES.
 GRD .GAPI   45 310 01 00:   GAMMA RAY FROM DENSITY LOG
 CALD.IN     45 280 60 00:   CALIPER
 RHOB.G/C3   45 350 01 00:   BULK DENSITY
 CORR.G/C3   45 356 01 00:   DENSITY CORRECTION
 DPHI.DEC    45 890 12 00:   DENSITY POROSITY SANDSTONE
~PARAMETER INFORMATION
#MNEM.UNIT          VALUE    DESCRIPTION
#----------   ------------   ------------------------------
 PD  .                 GL:   PERMANENT DATUM
 EPD .F              5241:   ELEVATION PERMANENT DATUM
 LMF .                 KB:   LOG MEASURED FROM
 DAPD.F                10:   FEET ABOVE PERMANENT DATUM
 DMF .                 KB:   DRILLING MEASURED FROM
 EKB .F              5251:   KELLING BUSHING
 EGL .F              5241:   GROUND LEVEL
 DATE.            3-17-78:   RUN DATE
 RUN .                  1:   RUN NUMBER
 DD  .F              3250:   DEPTH DRILLER
 DL  .F              3250:   DEPTH LOGGER
 BLI .F              3244:   BOTTOM LOG INTERVAL
 TLI .F               224:   TOP LOG INTERVAL
 CS  .IN            8.625:   CASING SIZE
 CBL .F               224:   CASING BOTTOM LOGGER
 BS  .IN            7.875:   BIT SIZE
 BSD .F              3250:   BIT SIZE AT DEPTH
 DFD .                8.9:   DRILLING FLUID DENSITY
 DFV .                 31:   DRILLING FLUID VISCOSITY
 DFPH.               10.5:   DRILLING FLUID PH
 DFL .                  8:   DRILLING FLUID LOSS
 MSS .           FLOWLINE:   MUD SAMPLE SOURCE
 RMS .OHMM            1.3:   RESISTIVITY MUD SAMPLE
 MST .F                70:   MUD SAMPLE TEMPERATURE
 RMF .OHMM            1.1:   RESISTIVITY MUD FILTRATE SAMPLE
 MFST.F                70:   MUD FILTRATE SAMPLE TEMPERATURE
 RMC .OHMM            1.4:   RESISTIVITY MUD CAKE
 MCST.F                70:   MUD CAKE SAMPLE TEMPERATURE
 MFSS.               MEAS:   MUD FILTRATE SAMPLE SOURCE
 MCSS.               MEAS:   MUD CAKE SAMPLE SOURCE
 RMB .OHMM            .77:   RESISTIVITY MUD AT BHT
 BHT .F               118:   BOTTOM HOLE TEMPERATURE
 TCS .HRS               6:   TIME CURCULATED STOPPED
 MRT .F               118:   MAXIMUM RECORDED TEMPERATURE
 LUN .               2958:   LOGGING UNIT NUMBER
 LUL .               CASP:   LOGGING UNIT LOCATION
 ENGI.             MILLER:   RECORDING ENGINEER
 WITN.           MCGINLEY:   WITNESSED BY
 CLNT.            A2DTECH:   CLIENT CODE
 ORIG.     1", 2.5" PRINT:   ORIGIN OF DATA
 UWI .       490251111600:   UNIQUE WELL ID
 DICO. A2D Technologies, Inc.:   DIGITIZING COMPANY
~OTHER INFORMATION
~A   DEPT      ILD         SN        SPR         GRD      CALD       RHOB       CORR       DPHI   
# ...
 2579.5000     5.3873     6.0874   -29.4782   113.1713     9.6950     2.5403     0.0239     0.0730
 2580.0000     5.4971     6.2657   -29.7923   115.6397     9.6722     2.5368     0.0275     0.0688
 2580.5000     5.6093     6.4492   -30.1048   114.4283     9.6508     2.5379     0.0312     0.0645
 2581.0000     5.7239     6.6381   -30.4054   113.1345     9.6298     2.5502     0.0350     0.0622
 2581.5000     5.8410     6.7758   -30.7465   112.7125     9.6082     2.5585     0.0355     0.0613
 2582.0000     5.9363     6.8304   -30.6936   114.7877     9.5869     2.5587     0.0323     0.0650
 2582.5000     6.0357     6.8855   -30.3593   115.9304     9.5656     2.5531     0.0293     0.0692
 2583.0000     6.1197     6.9410   -30.0616   114.8668     9.5441     2.5466     0.0263     0.0735
 2583.5000     6.2461     6.9970   -29.7574   113.9712     9.5229     2.5405     0.0233     0.0736
 2584.0000     6.2160     7.0535   -29.5979   113.1659     9.5017     2.5352     0.0203     0.0717
 2584.5000     6.1587     7.1103   -29.5535   115.1958     9.4792     2.5366     0.0172     0.0742
 2585.0000     6.1568     7.1677   -29.4991   117.1183     9.4682     2.5386     0.0140     0.0778
 2585.5000     6.1587     7.2255   -29.4444   117.8984     9.4693     2.5323     0.0141     0.0805
 2586.0000     6.3096     7.2754   -29.3933   117.9924     9.4691     2.5225     0.0219     0.0723
 2586.5000     6.4641     7.5160   -29.3377   120.3560     9.4690     2.5487     0.0292     0.0621
 2587.0000     6.6223     7.7231   -29.2877   122.5506     9.4690     2.5569     0.0357     0.0654
 2587.5000     6.7838     7.9356   -29.2403   124.7475     9.4691     2.5511     0.0333     0.0636
 2588.0000     6.9499     8.1532   -29.3124   122.7011     9.4691     2.5507     0.0310     0.0553
 2588.5000     7.1201     8.2858   -29.3871   113.7437     9.4783     2.5758     0.0283     0.0431
 2589.0000     7.2945     9.0266   -29.4669   100.3651     9.4936     2.5945     0.0258     0.0478
 2589.5000     7.4731     9.8324   -29.5438    85.4600     9.5101     2.5808     0.0233     0.0574
 2590.0000     7.5458    10.5278   -29.6218    77.8235     9.5694     2.5682     0.0207     0.0643
 2590.5000     7.3193     9.9144   -29.6989    79.4393     9.6355     2.5533     0.0183     0.0686
 2591.0000     7.1357     9.1993   -29.7779    93.5893     9.7023     2.5460     0.0162     0.0729
 2591.5000     6.9567     8.5364   -29.8548   104.5706     9.7687     2.5382     0.0180     0.0749
 2592.0000     6.7822     7.9216   -29.9298   114.7544     9.8350     2.5330     0.0196     0.0739
 2592.5000     6.6120     7.1418   -30.0192   119.0253     9.9012     2.5351     0.0213     0.0728
 2593.0000     6.4462     7.1483   -29.9656   120.0884     9.9689     2.5380     0.0230     0.0717
 2593.5000     6.2845     7.1709   -29.8087   115.8327    10.0322     2.5410     0.0246     0.0706
 2594.0000     6.1581     7.1963   -29.6656   112.2382    10.0987     2.5440     0.0264     0.0701
 2594.5000     6.1581     7.2185   -29.5229   110.9751    10.1010     2.5420     0.0281     0.0724
 2595.0000     6.1586     7.2408   -29.3764   110.6889    10.0995     2.5379     0.0308     0.0744
 2595.5000     6.1588     7.2721   -29.2353   114.6669    10.0952     2.5389     0.0339     0.0765
 2596.0000     6.1589     7.1555   -29.0862   118.7335    10.0928     2.5423     0.0365     0.0740
 2596.5000     6.1022     6.9652   -28.9452   123.0087    10.0898     2.5405     0.0436     0.0714
 2597.0000     5.9628     6.7801   -28.8453   127.2450    10.0867     2.5327     0.0486     0.0687
 2597.5000     5.8265     6.6034   -29.0148   133.1521    10.0838     2.5260     0.0606     0.0661
 2598.0000     5.7196     6.3927   -29.1539   142.8830    10.0808     2.5227     0.0705     0.0635
 2598.5000     5.8358     6.5674   -29.3082   145.7290    10.0779     2.5406     0.0747     0.0658
 2599.0000     5.9847     6.7923   -29.4566   136.2555    10.0750     2.5463     0.0446     0.0734
 2599.5000     6.1373     7.0245   -29.6055   119.6095    10.0721     2.5338     0.0147     0.0708
 2600.0000     6.2937     7.2647   -29.7548   103.3128    10.0691     2.5457     0.0240     0.0657
 2600.5000     6.4541     7.5135   -29.9058   102.4111    10.0662     2.5579     0.0356     0.0606
 2601.0000     6.6185     7.8246   -30.0529   103.0523    10.0636     2.5618     0.0373     0.0624
 2601.5000     6.7871     7.9464   -30.2013   104.3760    10.0621     2.5552     0.0298     0.0643
 2602.0000     6.9600     8.1246   -30.3647   105.9316    10.0606     2.5493     0.0234     0.0662
 2602.5000     7.1375     8.0956   -30.4133   107.6997    10.0591     2.5426     0.0183     0.0681
 2603.0000     7.0951     8.0235   -30.2927   106.6014    10.0576     2.5440     0.0152     0.0699
 2603.5000     7.0516     7.9521   -30.1882   104.4161    10.0561     2.5450     0.0128     0.0717
 2604.0000     7.0083     7.8814   -30.0813   102.0791    10.0547     2.5395     0.0157     0.0717
 2604.5000     6.9652     7.8112   -29.9720   103.3437    10.0532     2.5343     0.0189     0.0717
 2605.0000     6.9225     7.7417   -29.8652   105.7234    10.0517     2.5333     0.0220     0.0717
 2605.5000     6.8800     7.6728   -29.7571   107.5411    10.0502     2.5340     0.0253     0.0737
 2606.0000     6.8377     7.6045   -29.6491   106.5675    10.0487     2.5347     0.0280     0.0759
 2606.5000     6.7957     7.5368   -29.5420   105.5161    10.0472     2.5302     0.0316     0.0781
 2607.0000     6.7541     7.4697   -29.4333   104.5400    10.0457     2.5255     0.0341     0.0805
 2607.5000     6.7127     7.4033   -29.3259   104.1630    10.0443     2.5215     0.0561     0.0747
 2608.0000     6.6716     7.3374   -29.2362   106.3974    10.0428     2.5465     0.1040     0.0684
 2608.5000     6.6306     7.2721   -29.2350   112.8611    10.0413     2.5764     0.0891     0.0630
 2609.0000     6.6306     7.4077   -29.2315   117.5164    10.0398     2.5576     0.0430     0.0649
 2609.5000     6.7187     7.5458   -29.2344   118.3204    10.0383     2.5488     0.0094     0.0667
 2610.0000     6.8303     7.6865   -29.2385   111.7627    10.0368     2.5450     0.0152     0.0685
 2610.5000     6.9438     7.8299   -29.3099   100.4874    10.0353     2.5453     0.0191     0.0641
 2611.0000     7.0593     7.9759   -29.3744    96.8160    10.0338     2.5532     0.0255     0.0595
 2611.5000     7.1767     8.1246   -29.4431    97.6267    10.0324     2.5606     0.0305     0.0558
 2612.0000     7.2721     8.1246   -29.5091    99.6006    10.0308     2.5679     0.0355     0.0582
 2612.5000     7.2599     8.1246   -29.5773   101.2837    10.0294     2.5617     0.0318     0.0602
 2613.0000     7.2497     8.1246   -29.6411   101.6628    10.0279     2.5554     0.0279     0.0622
 2613.5000     7.2396     8.1246   -29.7232   102.0828    10.0263     2.5636     0.0235     0.0653
 2614.0000     7.2295     8.1246   -29.7979   102.4689    10.0251     2.5586     0.0192     0.0685
 2614.5000     7.2193     8.1246   -29.8803   102.9118    10.0241     2.5410     0.0168     0.0695
 2615.0000     7.2092     8.1246   -29.9499   104.4304    10.0416     2.5331     0.0197     0.0635
 2615.5000     7.1992     8.1246   -30.0273   106.0384    10.0668     2.5478     0.0226     0.0595
 2616.0000     7.1891     8.1246   -29.8198   105.0482    10.0921     2.5597     0.0240     0.0619
 2616.5000     7.1790     8.0978   -29.5749   104.4243    10.1165     2.5570     0.0199     0.0642
 2617.0000     7.1690     8.0314   -29.3143   106.2716    10.1414     2.5541     0.0164     0.0666
 2617.5000     7.1590     7.9652   -29.2282   107.6990    10.1683     2.5504     0.0122     0.0689
 2618.0000     7.1490     7.8997   -29.2343   105.6980    10.1843     2.5471     0.0134     0.0701
 2618.5000     7.1385     7.8349   -29.2341   102.8045    10.1825     2.5455     0.0165     0.0674
 2619.0000     7.0613     7.7707   -29.2327    99.8263    10.1829     2.5482     0.0195     0.0637
 2619.5000     6.9851     7.7070   -29.2334    98.1063    10.1829     2.5505     0.0224     0.0676
