~VERSION INFORMATION
 VERS.                2.0:   CWLS LOG ASCII STANDARD - VERSION 2.0
 WRAP.                 NO:   ONE LINE PER DEPTH STEP
~WELL INFORMATION
#MNEM.UNIT      DATA TYPE    INFORMATION
#----------   ------------   ------------------------------
 STRT.F           50.0000:   START DEPTH
 STOP.F         1020.0000:   STOP DEPTH
 STEP.F            0.5000:   STEP LENGTH
 NULL.          -999.2500:   NO VALUE
 COMP. LAWRENCE/ALLISON INC:   COMPANY
 WELL.      28 STX #14-14:   WELL
 FLD .             TEAPOT:   FIELD
 LOC .      S14 T38N R78W:   LOCATION
 CNTY.            NATRONA:   COUNTY
 STAT.            WYOMING:   STATE
 CTRY. UNITED STATES OF AMERICA:   COUNTRY
 SRVC.            Unknown:   SERVICE COMPANY
 DATE.        22-OCT-1984:   LOGDATE
 API .       490251099000:   API NUMBER
~CURVE INFORMATION
#MNEM.UNIT       API CODE    CURVE DESCRIPTION
#----------   ------------   ------------------------------
 DEPT.F                  :   
 SPR .MV     07 010 01 00:   SPONTANEOUS POTENTIAL
 RILD.OHMM   07 120 46 00:   INDUCTION LOG DEEP RESISTIVITY
 RILM.OHMM   07 120 44 00:   INDUCTION LOG MEDIUM RESISTIVITY
 RFOC.OHMM   07 220 04 00:   RESISTIVITY FOCUSED LOG
 GRD .GAPI   45 310 01 00:   GAMMA RAY FROM DENSITY LOG
 CALD.IN     45 280 60 00:   CALIPER
 DEN .G/C3   45 350 01 00:   COMPENSATED BULK DENSTIY
 CORR.G/C3   45 356 01 00:   DENSITY CORRECTION
 PORD.DEC    45 890 12 00:   POROSITY DENSITY SANDSTONE
 CNC .DEC    42 890 03 00:   NEUTRON POROSITY SANDSTONE
 AC  .US/F   60 520 00 00:   ACOUSTIC SONIC
~PARAMETER INFORMATION
#MNEM.UNIT          VALUE    DESCRIPTION
#----------   ------------   ------------------------------
 PD  .                 GL:   PERMANENT DATUM
 EPD .F              5257:   ELEVATION PERMANENT DATUM
 LMF .                 KB:   LOG MEASURED FROM
 DAPD.F                12:   FEET ABOVE PERMANENT DATUM
 DMF .                 KB:   DRILLING MEASURED FROM
 EKB .F              5269:   KELLING BUSHING
 EGL .F              5257:   GROUND LEVEL
 DATE.           10-22-84:   RUN DATE
 RUN .                  1:   RUN NUMBER
 DD  .F              1020:   DEPTH DRILLER
 DL  .F              1019:   DEPTH LOGGER
 BLI .F              1017:   BOTTOM LOG INTERVAL
 TLI .F                52:   TOP LOG INTERVAL
 CS  .IN               16:   CASING SIZE
 CBD .F                40:   CASING BOTTOM DRILLER
 CBL .F                52:   CASING BOTTOM LOGGER
 BS  .IN            12.25:   BIT SIZE
 BSD .F              1020:   BIT SIZE AT DEPTH
 DFT .          GEL/WATER:   DRILLING FLUID TYPE
 DFD .                9.1:   DRILLING FLUID DENSITY
 DFV .                 35:   DRILLING FLUID VISCOSITY
 MSS .           FLOWLINE:   MUD SAMPLE SOURCE
 RMS .OHMM           2.04:   RESISTIVITY MUD SAMPLE
 MST .F                76:   MUD SAMPLE TEMPERATURE
 RMF .OHMM           1.53:   RESISTIVITY MUD FILTRATE SAMPLE
 MFST.F                76:   MUD FILTRATE SAMPLE TEMPERATURE
 RMC .OHMM           2.55:   RESISTIVITY MUD CAKE
 MCST.F                76:   MUD CAKE SAMPLE TEMPERATURE
 MFSS.               CALC:   MUD FILTRATE SAMPLE SOURCE
 MCSS.               CALC:   MUD CAKE SAMPLE SOURCE
 TCS .HRS               3:   TIME CURCULATED STOPPED
 MRT .F               100:   MAXIMUM RECORDED TEMPERATURE
 LUN .            HL 6307:   LOGGING UNIT NUMBER
 LUL .           GILLETTE:   LOGGING UNIT LOCATION
 ENGI.          CROSSBERG:   RECORDING ENGINEER
 WITN.            JOHNSON:   WITNESSED BY
 CLNT.            A2DTECH:   CLIENT CODE
 ORIG.       2", 5" PRINT:   ORIGIN OF DATA
 UWI .       490251099000:   UNIQUE WELL ID
 DICO. A2D Technologies, Inc.:   DIGITIZING COMPANY
~OTHER INFORMATION
~A   DEPT      SPR       RILD       RILM       RFOC        GRD        CALD       DEN       CORR       PORD          CNC       AC   
# ...
  995.5000   -44.0324     8.0301     6.3678     6.1951    99.3277    12.2045     2.4725     0.0211     0.1245     0.2954    96.2215
  996.0000   -43.3090     7.9494     6.3901     6.1951    99.6313    12.1797     2.4752     0.0161     0.1217     0.2865    96.3872
  996.5000   -42.6575     7.8695     6.4125     6.1951    99.9373    12.1640     2.4779     0.0111     0.1177     0.2842    95.8084
  997.0000   -42.7807     7.7903     6.4350     6.1951   100.2473    12.1826     2.4813     0.0154     0.1138     0.2890    95.8134
  997.5000   -42.9142     7.7120     6.4575     6.1951   100.5630    12.2004     2.4847     0.0252     0.1116     0.2930    96.3623
  998.0000   -43.0634     7.6345     6.4801     6.1951   100.2835    12.2183     2.4911     0.0355     0.1101     0.2971    96.1655
  998.5000   -43.6496     7.5577     6.5028     6.1951    99.9253    12.2106     2.5081     0.0297     0.1022     0.2989    95.2229
  999.0000   -44.2205     7.4816     6.5256     6.1868    99.5547    12.1995     2.5247     0.0175     0.0942     0.2988    95.0399
  999.5000   -44.7871     7.4062     6.5464     6.1773    99.1277    12.1884     2.5335     0.0061     0.0912     0.2986    95.5151
 1000.0000   -45.3538     7.3098     6.4902     6.1679    95.9088    12.1817     2.5222     0.0220     0.0967     0.2922    96.2657
 1000.5000   -45.9199     7.3254     6.4279     6.1585    89.7320    12.1873     2.5100     0.0402     0.1045     0.2910    97.0164
 1001.0000   -46.4192     7.3568     6.3661     6.1493    90.0404    12.1925     2.4976     0.0462     0.1124     0.2850    97.8343
 1001.5000   -46.4243     7.3884     6.3100     6.1399    96.3112    12.1976     2.4852     0.0499     0.1201     0.2772    97.8343
 1002.0000   -46.4231     7.4201     6.2993     6.2175    99.1676    12.1929     2.4755     0.0534     0.1223     0.2714    97.3753
 1002.5000   -46.4193     7.4520     6.2837     6.3085    95.2333    12.1772     2.4834     0.0551     0.1194     0.2749    96.8743
 1003.0000   -46.3189     7.4841     6.2680     6.4007    90.5040    12.1617     2.4930     0.0477     0.1133     0.2812    96.3720
 1003.5000   -45.9584     7.5144     6.2524     6.5464    90.1971    12.1458     2.5027     0.0404     0.1072     0.2869    95.8691
 1004.0000   -45.6117     7.5647     6.2369     6.5109    91.6562    12.1498     2.5061     0.0374     0.1048     0.2916    95.3693
 1004.5000   -45.2653     7.6123     6.2213     6.4338    93.0561    12.1627     2.4982     0.0399     0.1104     0.2942    95.1397
 1005.0000   -44.9183     7.6605     6.2059     6.3575    92.9163    12.1761     2.4888     0.0422     0.1144     0.2904    95.3074
 1005.5000   -44.5714     7.7089     6.1904     6.2820    90.8055    12.1776     2.4823     0.0320     0.1184     0.2870    95.5025
 1006.0000   -44.2244     7.7576     6.1750     6.1952    88.7141    12.1732     2.4780     0.0204     0.1220     0.2880    95.6975
 1006.5000   -43.8775     7.7956     6.1500     6.2032    86.7496    12.1687     2.4750     0.0090     0.1232     0.2914    95.8925
 1007.0000   -43.5305     7.5647     6.1512     6.2134  -999.2500    12.1642     2.4753     0.0142     0.1203     0.2824    96.2802
 1007.5000   -43.1813     7.2932     6.0823     6.2238  -999.2500    12.1606     2.4842     0.0304     0.1176     0.2781    96.7388
 1008.0000   -42.9642     7.0314     5.7468     6.2339  -999.2500    12.1607     2.4937     0.0466     0.1148     0.2830    96.6007
 1008.5000   -42.8340     6.7791     5.4334     6.2441  -999.2500    12.1607     2.4951     0.0448     0.1156     0.2891    96.1892
 1009.0000   -42.7032     6.7294     5.1371     6.2523  -999.2500    12.1607     2.4760     0.0332     0.1192     0.2922    95.9279
 1009.5000   -42.5719     6.7815     4.8570     5.9199  -999.2500    12.1607     2.4563     0.0213     0.1291     0.2894    95.9015
 1010.0000   -42.4508     6.8263     4.7021     5.4054  -999.2500    12.1607     2.4362     0.0093     0.1392  -999.2500    95.8751
 1010.5000   -42.2616     6.8712     4.8224     4.9201  -999.2500    12.1607     2.4389     0.0087     0.1453  -999.2500    95.8487
 1011.0000   -42.6457     6.9163     4.9811     4.9202  -999.2500    12.1607     2.4532     0.0161     0.1365  -999.2500    95.8223
 1011.5000   -43.0429     6.9615     5.1449     5.4122  -999.2500    12.1608     2.4684     0.0150     0.1268  -999.2500    95.7958
 1012.0000   -43.4375     7.0071     5.3141     5.9108  -999.2500    12.1547     2.4789     0.0127     0.1218  -999.2500    95.7699
 1012.5000   -43.8319     7.0459     5.4973     6.3833  -999.2500    12.1446     2.4776     0.0188     0.1232  -999.2500    95.7420
 1013.0000   -44.2245     7.0141     5.5019     6.4812  -999.2500    12.1343     2.4715     0.0258     0.1257  -999.2500    95.8383
 1013.5000   -44.6160     6.9868     5.5094     6.5817  -999.2500    12.1242     2.4645     0.0135     0.1283  -999.2500    95.8383
 1014.0000   -44.8294     6.9594     5.5166     6.6820  -999.2500    12.1140     2.4641     0.0005     0.1297  -999.2500    95.8428
 1014.5000   -44.8309     6.9322     5.5236     6.7846  -999.2500    12.1047     2.4670    -0.0124     0.1286  -999.2500    95.8613
 1015.0000   -44.8336     6.9051     5.5305     6.8541  -999.2500    12.0391     2.4678    -0.0221     0.1277  -999.2500    95.8799
 1015.5000   -44.8265     6.8781     5.5378     6.8345  -999.2500    11.9583     2.4624    -0.0198     0.1285  -999.2500    95.8985
 1016.0000   -44.6642     6.8542     5.5470     6.8197  -999.2500    11.8970     2.4679    -0.0075     0.1292  -999.2500    95.9171
 1016.5000   -44.4193     6.8542     5.5441     6.8048  -999.2500    11.8837     2.4770     0.0006     0.1256  -999.2500    95.9356
 1017.0000   -43.8552     6.8858     5.5173     6.8228  -999.2500    11.8828     2.4810     0.0005     0.1218  -999.2500    95.9381
 1017.5000  -999.2500  -999.2500  -999.2500  -999.2500  -999.2500    11.8829     2.4811     0.0005     0.1181  -999.2500    95.9381
 1018.0000  -999.2500  -999.2500  -999.2500  -999.2500  -999.2500    11.8829     2.4811     0.0005     0.1152  -999.2500    95.9381
 1018.5000  -999.2500  -999.2500  -999.2500  -999.2500  -999.2500    11.8829     2.4811     0.0005     0.1164  -999.2500    95.9381
 1019.0000  -999.2500  -999.2500  -999.2500  -999.2500  -999.2500    11.8829     2.4811     0.0005     0.1236  -999.2500    95.9381
 1019.5000  -999.2500  -999.2500  -999.2500  -999.2500  -999.2500    11.8829     2.4811     0.0005     0.1334  -999.2500    95.9381
 1020.0000  -999.2500  -999.2500  -999.2500  -999.2500  -999.2500    11.8829     2.4811     0.0005     0.1364  -999.2500    95.9381
