~VERSION INFORMATION
 VERS.                2.0:   CWLS LOG ASCII STANDARD - VERSION 2.0
 WRAP.                 NO:   ONE LINE PER DEPTH STEP
~WELL INFORMATION
#MNEM.UNIT      DATA TYPE    INFORMATION
#----------   ------------   ------------------------------
 STRT.F           25.0000:   START DEPTH
 STOP.F          867.0000:   STOP DEPTH
 STEP.F            0.5000:   STEP LENGTH
 NULL.          -999.2500:   NO VALUE
 COMP. LAWRENCE/ALLISON INC:   COMPANY
 WELL.    38-11 SX #35-35:   WELL
 FLD .             TEAPOT:   FIELD
 LOC .      S35 T39N R78W:   LOCATION
 CNTY.            NATRONA:   COUNTY
 STAT.            WYOMING:   STATE
 CTRY. UNITED STATES OF AMERICA:   COUNTRY
 SRVC.      Dresser Atlas:   SERVICE COMPANY
 DATE.        07-AUG-1985:   LOGDATE
 API .       490251104100:   API NUMBER
~CURVE INFORMATION
#MNEM.UNIT       API CODE    CURVE DESCRIPTION
#----------   ------------   ------------------------------
 DEPT.F                  :   
 SPR .MV     07 010 01 00:   SPONTANEOUS POTENTIAL
 RILD.OHMM   07 120 46 00:   INDUCTION LOG DEEP RESISTIVITY
 RILM.OHMM   07 120 44 00:   INDUCTION LOG MEDIUM RESISTIVITY
 RFOC.OHMM   07 220 04 00:   RESISTIVITY FOCUSED LOG
 PORD.DEC    45 890 12 00:   POROSITY DENSITY SANDSTONE
 CNC .DEC    42 890 03 00:   NEUTRON POROSITY SANDSTONE
 GRD .GAPI   45 310 01 00:   GAMMA RAY FROM DENSITY LOG
 CALD.IN     45 280 60 00:   CALIPER FROM DENSITY LOG
 CORR.G/C3   45 356 01 00:   DENSITY CORRECTION
 DEN .G/C3   45 350 01 00:   COMPENSATED BULK DENSTIY
~PARAMETER INFORMATION
#MNEM.UNIT          VALUE    DESCRIPTION
#----------   ------------   ------------------------------
 PD  .                 GL:   PERMANENT DATUM
 EPD .F              5110:   ELEVATION PERMANENT DATUM
 LMF .                 GL:   LOG MEASURED FROM
 DMF .                 GL:   DRILLING MEASURED FROM
 EGL .F              5110:   GROUND LEVEL
 DATE.             8-7-85:   RUN DATE
 RUN .                  1:   RUN NUMBER
 DD  .F               900:   DEPTH DRILLER
 DL  .F               869:   DEPTH LOGGER
 BLI .F               867:   BOTTOM LOG INTERVAL
 TLI .F                40:   TOP LOG INTERVAL
 CS  .IN            8.625:   CASING SIZE
 CBD .F                40:   CASING BOTTOM DRILLER
 CBL .F                40:   CASING BOTTOM LOGGER
 BS  .IN            7.875:   BIT SIZE
 BSD .F               900:   BIT SIZE AT DEPTH
 DFT .             4% KCL:   DRILLING FLUID TYPE
 MSS .           FLOWLINE:   MUD SAMPLE SOURCE
 RMS .OHMM           .222:   RESISTIVITY MUD SAMPLE
 MST .F                71:   MUD SAMPLE TEMPERATURE
 TCS .HRS               2:   TIME CURCULATED STOPPED
 MRT .F               100:   MAXIMUM RECORDED TEMPERATURE
 LUN .               6264:   LOGGING UNIT NUMBER
 LUL .               GLTE:   LOGGING UNIT LOCATION
 ENGI.           FAHLSING:   RECORDING ENGINEER
 WITN.              FIVAS:   WITNESSED BY
 CLNT.            A2DTECH:   CLIENT CODE
 ORIG.       2", 5" PRINT:   ORIGIN OF DATA
 UWI .       490251104100:   UNIQUE WELL ID
 DICO. A2D Technologies, Inc.:   DIGITIZING COMPANY
~OTHER INFORMATION
~A   DEPT      SPR       RILD       RILM       RFOC       PORD          CNC      GRD       CALD       CORR        DEN   
# ...
  661.5000   -35.0592     6.3409     6.5985     6.8590     0.0965     0.3494   110.0359     8.1624     0.0834     2.5188
  662.0000   -34.9162     6.3409     6.5526     6.8590     0.1051     0.3498   110.0628     8.1632     0.0520     2.5054
  662.5000   -34.6247     6.3409     6.5522     6.8590     0.1117     0.3176   110.4136     8.1790     0.0460     2.4979
  663.0000   -34.4798     6.2540     6.5516     6.8590     0.1165     0.3101   111.6872     8.1798     0.0401     2.4898
  663.5000   -34.0380     6.2110     6.5966     6.8590     0.1191     0.3123   112.8340     8.1654     0.0371     2.4794
  664.0000   -34.0454     6.1683     6.5961     6.8590     0.1179     0.3269   113.7564     8.1662     0.0731     2.4793
  664.5000   -34.0528     6.1683     6.5957     6.8590     0.1161     0.3429   109.9033     8.1669     0.0911     2.4854
  665.0000   -34.0602     6.1683     6.5952     6.8118     0.1170     0.3513   109.0264     8.1828     0.0882     2.4847
  665.5000   -34.2180     6.1683     6.5948     6.7650     0.1212     0.3543   114.7398     8.1835     0.0538     2.4794
  666.0000   -34.2456     6.1683     6.5943     6.7650     0.1200     0.3552   119.5542     8.1692     0.0314     2.4734
  666.5000   -34.3849     6.2540     6.5485     6.7650     0.1161     0.3471   123.4605     8.1685     0.0393     2.4804
  667.0000   -34.3923     6.2540     6.5481     6.8118     0.1125     0.3300   122.2913     8.1556     0.0589     2.4887
  667.5000   -34.3997     6.1683     6.5026     6.8118     0.1089     0.3270   119.0294     8.1563     0.0779     2.4947
  668.0000   -34.4071     6.0004     6.3252     6.8590     0.1097     0.3489   117.8276     8.1572     0.0600     2.4985
  668.5000   -34.4145     5.8371     6.0228     6.8590     0.1187     0.3743   126.8554     8.1580     0.0481     2.4791
  669.0000   -34.5723     5.6782     5.6495     6.8590     0.1338     0.3800   130.7684     8.1587     0.0571     2.4635
  669.5000   -34.5797     5.3731     5.2854     6.9065     0.1448     0.3668   130.4821     8.1595     0.0901     2.4381
  670.0000   -35.0382     5.1887     5.2487     6.5998     0.1411     0.3608   128.3514     8.1602     0.0961     2.4314
  670.5000   -35.3464     5.0107     5.3213     5.3604     0.1288     0.3557   124.7383     8.1610     0.0722     2.4487
  671.0000   -35.6545     4.9124     5.3949     4.7901     0.1163     0.3470   120.5739     8.1768     0.0588     2.4682
  671.5000   -35.6619     4.9124     5.5074     5.0272     0.1073     0.3371   114.4657     8.1927     0.0663     2.4869
  672.0000   -35.6693     4.9464     5.5451     5.7716     0.1013     0.3413   115.6882     8.1781     0.0828     2.5027
  672.5000   -35.5263     4.9464     5.5446     6.0574     0.0989     0.3548   116.6050     8.1791     0.0948     2.5125
  673.0000   -35.2330     4.9124     5.5443     6.0994     0.0980     0.3760   113.0508     8.1949     0.0952     2.5170
  673.5000   -35.0900     4.8118     5.4303     6.1842     0.1039     0.3894   113.3764     8.1957     0.0800     2.5103
  674.0000   -35.0992     4.5849     5.1740     6.5354     0.1161     0.3948   115.7946     8.1964     0.0801     2.4870
  674.5000   -35.1066     4.3387     4.6329     6.7650     0.1443     0.3982   117.9139     8.1972     0.0938     2.4457
  675.0000   -35.2644     4.1916     4.1772     6.5807     0.1626     0.3993   119.1364     8.1979     0.1010     2.4030
  675.5000   -35.2718     4.1341     4.0632     5.4993     0.1557     0.3810   117.6682     8.1685     0.0996     2.4208
  676.0000   -35.1270     4.1057     4.2098     3.8141     0.1410     0.3657   115.3032     8.1541     0.0922     2.4590
  676.5000   -34.9858     4.0775     4.4438     3.4373     0.1221     0.3489   112.6392     8.1548     0.0832     2.4785
  677.0000   -34.8410     3.9940     4.6313     3.6858     0.1188     0.3432   112.0613     8.1405     0.0743     2.4800
  677.5000   -34.8502     4.0216     4.8267     5.2038     0.1212     0.3438   112.9914     8.1412     0.0788     2.4711
  678.0000   -34.5550     4.1072     5.1002     6.2702     0.1227     0.3480   113.3170     8.1420     0.0849     2.4726
  678.5000   -34.2617     4.4070     5.3892     6.4458     0.1206     0.3381   111.5499     8.1427     0.0909     2.4794
  679.0000   -33.9699     5.0653     5.6947     6.4458     0.1179     0.3339   108.5870     8.1435     0.0969     2.4847
  679.5000   -33.6767     5.5237     5.9760     6.4014     0.1152     0.3306   108.2809     8.1444     0.0910     2.4878
  680.0000   -33.3835     5.9182     6.1855     6.4014     0.1196     0.3213   108.9392     8.1452     0.0566     2.4818
  680.5000   -32.9298     6.0004     6.2710     6.4014     0.1241     0.3173   108.3679     8.1459     0.0385     2.4699
  681.0000   -32.6266     5.8371     6.1845     6.4458     0.1253     0.3257   106.2962     8.1466     0.0432     2.4700
  681.5000   -32.3530     5.4480     5.7718     6.5807     0.1289     0.3440   106.0295     8.1474     0.0447     2.4640
  682.0000   -32.3623     5.1554     5.1665     6.8118     0.1385     0.3584   107.0493     8.1481     0.0525     2.4491
  682.5000   -32.2174     4.9464     4.9175     7.0026     0.1552     0.3595   111.0459     8.1640     0.0697     2.4289
  683.0000   -32.2267     4.8451     4.7570     6.8478     0.1579     0.3502   115.9815     8.1647     0.0943     2.4103
  683.5000   -32.2341     4.7787     4.7239     5.7882     0.1492     0.3370   116.0081     8.1655     0.0809     2.4283
  684.0000   -31.9407     4.7458     4.7563     4.0867     0.1297     0.3262   111.5504     8.1509     0.0540     2.4561
  684.5000   -31.3466     4.7458     4.7889     4.2012     0.1228     0.3157   108.8864     8.1670     0.0390     2.4696
  685.0000   -30.7525     4.7787     4.8887     5.0971     0.1204     0.3061   109.5109     8.1526     0.0511     2.4749
  685.5000   -30.3088     4.8118     5.3470     6.2271     0.1213     0.3034   109.8299     8.1685     0.0631     2.4749
  686.0000   -29.8650     4.9124     5.9296     6.7184     0.1243     0.3082   106.8736     8.1692     0.0751     2.4711
  686.5000   -29.5717     5.3415     6.3527     6.9065     0.1261     0.3115   104.5086     8.1700     0.0602     2.4697
  687.0000   -29.2783     5.8099     6.7592     7.0511     0.1279     0.3097   104.2296     8.1707     0.0512     2.4676
  687.5000   -28.9850     6.2326     7.0444     7.1491     0.1287     0.3055   102.7681     8.1715     0.0588     2.4654
  688.0000   -28.6916     6.7008     7.1913     7.2485     0.1284     0.3024   103.3926     8.1722     0.0591     2.4662
  688.5000   -28.5486     6.9359     7.2907     7.2988     0.1320     0.3011   106.7077     8.1730     0.0304     2.4618
  689.0000   -28.4056     7.1794     7.3406     7.4002     0.1311     0.2999   110.3218     8.1737     0.0035     2.4588
  689.5000   -28.1123     7.2791     7.3910     7.4515     0.1284     0.2967   112.4411     8.1593     0.0110     2.4611
  690.0000   -27.8208     7.3295     7.3903     7.4515     0.1242     0.2946   111.2719     8.1601     0.0262     2.4702
  690.5000   -27.5274     7.3803     7.3898     7.4515     0.1179     0.2934   107.7111     8.1431     0.0353     2.4799
  691.0000   -27.3844     7.3295     7.3385     7.4515     0.1146     0.2934   106.7724     8.1314     0.0321     2.4882
  691.5000   -27.3918     7.2791     7.2375     7.4515     0.1155     0.2931   108.3622     8.1474     0.0187     2.4890
  692.0000   -27.3992     7.1300     7.0887     7.4515     0.1191     0.3005   110.1825     8.1482     0.0098     2.4823
  692.5000   -27.2563     7.0323     6.8953     7.4515     0.1217     0.3054   110.5132     8.1640     0.0173     2.4764
  693.0000   -27.1114     6.9840     6.8475     7.5031     0.1238     0.3068   110.5351     8.1497     0.0263     2.4712
  693.5000   -26.9684     6.9359     6.7999     7.5031     0.1259     0.3063   109.3352     8.1504     0.0309     2.4683
  694.0000   -26.6769     6.9359     6.8939     7.2485     0.1265     0.3020   105.5058     8.1512     0.0309     2.4683
  694.5000   -26.5339     6.9362     6.9412     7.0511     0.1232     0.2873   105.8326     8.1519     0.0324     2.4722
