~VERSION INFORMATION
 VERS.                2.0:   CWLS LOG ASCII STANDARD - VERSION 2.0
 WRAP.                 NO:   ONE LINE PER DEPTH STEP
~WELL INFORMATION
#MNEM.UNIT      DATA TYPE    INFORMATION
#----------   ------------   ------------------------------
 STRT.F           36.5000:   START DEPTH
 STOP.F          476.0000:   STOP DEPTH
 STEP.F            0.5000:   STEP LENGTH
 NULL.          -999.2500:   NO VALUE
 COMP. LAWRENCE/ALLISON INC:   COMPANY
 WELL.    54-36 SXFO #3-3:   WELL
 FLD .            WILDCAT:   FIELD
 LOC .       S3 T38N R78W:   LOCATION
 CNTY.            NATRONA:   COUNTY
 STAT.            WYOMING:   STATE
 CTRY. UNITED STATES OF AMERICA:   COUNTRY
 SRVC.      Dresser Atlas:   SERVICE COMPANY
 DATE.        09-DEC-1983:   LOGDATE
 API .       490251095500:   API NUMBER
~CURVE INFORMATION
#MNEM.UNIT       API CODE    CURVE DESCRIPTION
#----------   ------------   ------------------------------
 DEPT.F                  :   
 GRD .GAPI   45 310 01 00:   GAMMA RAY FROM DENSITY LOG
 PORD.DEC    45 890 12 00:   POROSITY DENSITY SANDSTONE
 DEN .G/C3   45 350 01 00:   COMPENSATED BULK DENSTIY
 CORR.G/C3   45 356 01 00:   DENSITY CORRECTION
 CALD.IN     45 280 60 00:   CALIPER
 RFOC.OHMM   07 220 04 00:   RESISTIVITY FOCUSED LOG
 RILD.OHMM   07 120 46 00:   INDUCTION LOG DEEP RESISTIVITY
 RILM.OHMM   07 120 44 00:   INDUCTION LOG MEDIUM RESISTIVITY
~PARAMETER INFORMATION
#MNEM.UNIT          VALUE    DESCRIPTION
#----------   ------------   ------------------------------
 PD  .                 GL:   PERMANENT DATUM
 EPD .F              5166:   ELEVATION PERMANENT DATUM
 LMF .                 KB:   LOG MEASURED FROM
 DAPD.F                10:   FEET ABOVE PERMANENT DATUM
 DMF .                 KB:   DRILLING MEASURED FROM
 EKB .F              5176:   KELLING BUSHING
 EGL .F              5166:   GROUND LEVEL
 DATE.            12-9-83:   RUN DATE
 RUN .                  1:   RUN NUMBER
 DD  .F               478:   DEPTH DRILLER
 DL  .F               475:   DEPTH LOGGER
 BLI .F               473:   BOTTOM LOG INTERVAL
 TLI .F                44:   TOP LOG INTERVAL
 CBD .F                40:   CASING BOTTOM DRILLER
 CBL .F                44:   CASING BOTTOM LOGGER
 BS  .IN             8.75:   BIT SIZE
 BSD .F               478:   BIT SIZE AT DEPTH
 DFT .           AIR FOAM:   DRILLING FLUID TYPE
 MRT .F               100:   MAXIMUM RECORDED TEMPERATURE
 LUN .               6307:   LOGGING UNIT NUMBER
 LUL .               GLTE:   LOGGING UNIT LOCATION
 ENGI.            DEYOUNG:   RECORDING ENGINEER
 WITN.             GROOMS:   WITNESSED BY
 CLNT.            A2DTECH:   CLIENT CODE
 ORIG.       2", 5" PRINT:   ORIGIN OF DATA
 UWI .       490251095500:   UNIQUE WELL ID
 DICO. A2D Technologies, Inc.:   DIGITIZING COMPANY
~OTHER INFORMATION
~A   DEPT       GRD      PORD        DEN       CORR       CALD       RFOC       RILD       RILM   
# ...
  441.5000    83.2826     0.1786     2.3825     0.0496     9.2251    13.1532    10.3986    10.3871
  442.0000    83.3264     0.1709     2.3912     0.0368     9.2200    12.9722    10.3483    10.2593
  442.5000    83.4792     0.1629     2.4080     0.0241     9.2148    12.7926    10.2982    10.1330
  443.0000    84.2526     0.1549     2.4251     0.0143     9.2097    12.6156    10.2484    10.0083
  443.5000    84.8993     0.1518     2.4282     0.0565     9.2046    12.4410    10.1988     9.8851
  444.0000    83.3181     0.1526     2.4261     0.0545     9.1994    12.2688    10.1632     9.7635
  444.5000    81.6885     0.1584     2.4153     0.0638     9.1943    12.0990    10.1361     9.6433
  445.0000    80.0830     0.1696     2.3951     0.0548     9.1891    11.9315    10.1111     9.5246
  445.5000    80.3073     0.1799     2.3757     0.0501     9.1840    11.8583    10.0862     9.4080
  446.0000    82.9603     0.1884     2.3647     0.0470     9.1789    11.8205    10.0274     9.2640
  446.5000    85.6058     0.1927     2.3533     0.0400     9.1737    11.7828     9.7535     9.1011
  447.0000    85.4733     0.1983     2.3431     0.0398     9.1686    11.7452     9.4871     8.9406
  447.5000    82.4288     0.2073     2.3330     0.0474     9.1634    11.7077     9.2274     8.7830
  448.0000    81.2392     0.2126     2.3242     0.0551     9.1583    11.6703     8.9756     8.6282
  448.5000    82.7709     0.2082     2.3294     0.0469     9.1532    11.6331     8.7329     8.4782
  449.0000    84.2558     0.1994     2.3461     0.0270     9.1480    11.5960     8.4973     8.2110
  449.5000    85.6076     0.1906     2.3621     0.0253     9.1429    11.5619     8.1446     7.9363
  450.0000    86.5397     0.1855     2.3692     0.0328     9.1375    11.4561     7.6771     7.6696
  450.5000    86.9002     0.1810     2.3726     0.0407     9.1363    11.3509     7.2363     7.4120
  451.0000    86.0154     0.1726     2.3868     0.0484     9.1363    10.3689     6.8208     7.1631
  451.5000    85.3224     0.1580     2.4211     0.0565     9.1363     9.3942     6.5917     6.9226
  452.0000    86.5654     0.1445     2.4424     0.0687     9.1363     8.5111     6.4278     6.6901
  452.5000    87.9252     0.1425     2.4309     0.0773     9.1363     7.9989     6.2923     6.5318
  453.0000  -999.2500     0.1530     2.4196     0.0794     9.1375     9.6512     6.2738     6.5318
  453.5000  -999.2500     0.1554     2.4224     0.0774     9.1389    11.0676     6.2544     6.5318
  454.0000  -999.2500     0.1398     2.4363     0.0524     9.1402    11.8858     6.2381     6.6318
  454.5000  -999.2500     0.1262     2.4670     0.0277     9.1415    11.3757     6.4545     6.8783
  455.0000  -999.2500     0.1132     2.4910     0.0155     9.1428    10.8400     6.7421     7.1340
  455.5000  -999.2500     0.1139     2.4898     0.0106     9.1441    10.9914     7.0823     7.3992
  456.0000  -999.2500     0.1163     2.4862     0.0045     9.1454    11.2251     7.4396     7.6742
  456.5000  -999.2500     0.1187     2.4825    -0.0013     9.1467    11.4638     7.8529     7.9595
  457.0000  -999.2500     0.1211     2.4789    -0.0072     9.1480    11.7769     8.0061     8.2553
  457.5000  -999.2500     0.1233     2.4768    -0.0020     9.1494    11.7110     8.1795     8.5622
  458.0000  -999.2500     0.1213     2.4789     0.0096     9.1507    11.6201     8.3567     8.7706
  458.5000  -999.2500     0.1222     2.4798     0.0214     9.1520    11.5299     8.5378     8.9570
  459.0000  -999.2500     0.1234     2.4763     0.0286     9.1533    11.4559     8.6902     9.1582
  459.5000  -999.2500     0.1245     2.4746     0.0199     9.1546    11.6768     8.8095     9.3639
  460.0000  -999.2500     0.1193     2.4867     0.0233     9.1559    11.8683     9.0179     9.5742
  460.5000  -999.2500     0.1138     2.4988     0.0321     9.1572    12.0629     9.2313     9.7893
  461.0000  -999.2500     0.1083     2.5081     0.0352     9.1585    12.2607     9.4497    10.0091
  461.5000  -999.2500     0.1024     2.5093     0.0383     9.1599    12.3319     9.6727    10.2339
  462.0000  -999.2500     0.1017     2.5107     0.0468     9.1612    12.4555     9.8862    10.4479
  462.5000  -999.2500     0.1016     2.5122     0.0487     9.1625    12.7272    10.0780    10.5191
  463.0000  -999.2500     0.1032     2.5093     0.0401     9.1638    13.0326    10.2609    10.6014
  463.5000  -999.2500     0.1056     2.5045     0.0381     9.1651    12.9934    10.3810    10.6844
  464.0000  -999.2500     0.1080     2.5014     0.0504     9.1664    12.9501    10.4337    10.7679
  464.5000  -999.2500     0.1079     2.5013     0.0627     9.1677    12.9131    10.5163    10.8522
  465.0000  -999.2500     0.1071     2.5010     0.0598     9.1690    13.3649    10.6107    10.9371
  465.5000  -999.2500     0.1072     2.5008     0.0505     9.1703    13.7727    10.7055    11.0227
  466.0000  -999.2500     0.1087     2.5006     0.0410     9.1716    14.0291    10.8013    11.1089
  466.5000  -999.2500     0.1113     2.4952     0.0322     9.1730    13.4357    10.8400    11.1958
  467.0000  -999.2500     0.1160     2.4871     0.0288     9.1743    13.0196    10.7943    11.2835
  467.5000  -999.2500     0.1216     2.4788     0.0257     9.1754    12.7971    10.7618    11.3717
  468.0000  -999.2500     0.1272     2.4707     0.0226     9.1672    13.2764    10.7294    11.4559
  468.5000  -999.2500     0.1286     2.4660     0.0230     9.1448    13.8736    10.6970    11.4682
  469.0000  -999.2500     0.1293     2.4653     0.0236     9.1226    14.4925    10.6648    11.4799
  469.5000  -999.2500     0.1299     2.4646     0.0196     9.0999    14.6903    10.6327    11.4915
  470.0000  -999.2500     0.1333     2.4594     0.0169     9.0981    14.2289    10.6007    11.5032
  470.5000  -999.2500     0.1368     2.4516     0.0343     9.1005    13.8751    10.5687    11.5149
  471.0000  -999.2500     0.1348     2.4560     0.0517     9.1029    13.5301    10.5368    11.5266
  471.5000  -999.2500     0.1317     2.4613     0.0589     9.1053    13.1937    10.5051    11.5384
  472.0000  -999.2500     0.1285     2.4666     0.0496     9.1077    12.7947    10.4735    11.5501
  472.5000  -999.2500     0.1253     2.4721     0.0404     9.1101    12.8884    10.4479    11.5616
  473.0000  -999.2500     0.1245     2.4743     0.0340     9.1125    12.9131    10.5446    11.5619
  473.5000  -999.2500     0.1245     2.4744     0.0296     9.1149    12.9131    10.5444    11.5619
  474.0000  -999.2500     0.1245     2.4743     0.0254     9.1162    12.9131    10.5446    11.5619
  474.5000  -999.2500     0.1245     2.4743     0.0242     9.1162    12.9131    10.5446    11.5619
  475.0000  -999.2500     0.1245     2.4743     0.0241     9.1162    12.9131    10.5446    11.5619
  475.5000  -999.2500     0.1245     2.4743     0.0241     9.1162    12.9131    10.5446    11.5619
  476.0000  -999.2500     0.1245     2.4743     0.0241     9.1162    12.9131    10.5446    11.5619
