~VERSION INFORMATION
 VERS.                2.0:   CWLS LOG ASCII STANDARD - VERSION 2.0
 WRAP.                 NO:   ONE LINE PER DEPTH STEP
~WELL INFORMATION
#MNEM.UNIT      DATA TYPE    INFORMATION
#----------   ------------   ------------------------------
 STRT.F           37.5000:   START DEPTH
 STOP.F          525.5000:   STOP DEPTH
 STEP.F            0.5000:   STEP LENGTH
 NULL.          -999.2500:   NO VALUE
 COMP. LAWRENCE/ALLISON INC:   COMPANY
 WELL.    74-11 SX #10-10:   WELL
 FLD .             TEAPOT:   FIELD
 LOC .      S10 T38N R78W:   LOCATION
 CNTY.            NATRONA:   COUNTY
 STAT.            WYOMING:   STATE
 CTRY. UNITED STATES OF AMERICA:   COUNTRY
 SRVC.            Unknown:   SERVICE COMPANY
 DATE.        08-AUG-1984:   LOGDATE
 API .       490251097800:   API NUMBER
~CURVE INFORMATION
#MNEM.UNIT       API CODE    CURVE DESCRIPTION
#----------   ------------   ------------------------------
 DEPT.F                  :   
 CNC .DEC    42 890 03 00:   NEUTRON POROSITY SANDSTONE
 AC  .US/F   60 520 00 00:   ACCOUSTIC
 GRD .GAPI   45 310 01 00:   GAMMA RAY FROM DENSITY LOG
 CALD.IN     45 280 60 00:   CALIPER FROM DENSITY LOG
 CORR.G/C3   45 356 01 00:   DENSITY CORRECTION
 DPHI.DEC    45 890 12 00:   DENSITY POROSITY SANDSTONE
 DEN .G/C3   45 350 01 00:   COMPENSATED BULK DENSTIY
 RILD.OHMM   07 120 46 00:   RESISTIVITY INDUCTION LOG DEEP
 RILM.OHMM   07 120 44 00:   RESISTIVITY INDUCTION LOG MEDIUM
 RFOC.OHMM   07 220 04 00:   RESISTIVITY FOCUSED LOG
 SPR .MV     07 010 01 00:   SPONTANEOUS POTENTIAL FROM RES.
~PARAMETER INFORMATION
#MNEM.UNIT          VALUE    DESCRIPTION
#----------   ------------   ------------------------------
 PD  .                 GL:   PERMANENT DATUM
 EPD .F              5180:   ELEVATION PERMANENT DATUM
 LMF .                 GL:   LOG MEASURED FROM
 DMF .                 GL:   DRILLING MEASURED FROM
 EGL .F              5180:   GROUND LEVEL
 DATE.             8-8-84:   RUN DATE
 RUN .                  1:   RUN NUMBER
 DD  .F               525:   DEPTH DRILLER
 DL  .F               526:   DEPTH LOGGER
 BLI .F               525:   BOTTOM LOG INTERVAL
 TLI .F                42:   TOP LOG INTERVAL
 CS  .IN            9.625:   CASING SIZE
 CBD .F                42:   CASING BOTTOM DRILLER
 CBL .F                42:   CASING BOTTOM LOGGER
 BS  .IN            7.875:   BIT SIZE
 BSD .F               525:   BIT SIZE AT DEPTH
 DFT .          KCL WATER:   DRILLING FLUID TYPE
 MSS .           FLOWLINE:   MUD SAMPLE SOURCE
 RMS .OHMM           .141:   RESISTIVITY MUD SAMPLE
 MST .F                78:   MUD SAMPLE TEMPERATURE
 RMF .OHMM            .12:   RESISTIVITY MUD FILTRATE SAMPLE
 MFST.F                78:   MUD FILTRATE SAMPLE TEMPERATURE
 RMC .OHMM             .2:   RESISTIVITY MUD CAKE
 MCST.F                78:   MUD CAKE SAMPLE TEMPERATURE
 MFSS.               MEAS:   MUD FILTRATE SAMPLE SOURCE
 MCSS.               MEAS:   MUD CAKE SAMPLE SOURCE
 RMB .OHMM            .13:   RESISTIVITY MUD AT BHT
 BHT .F                89:   BOTTOM HOLE TEMPERATURE
 MRT .F                89:   MAXIMUM RECORDED TEMPERATURE
 LUN .               6307:   LOGGING UNIT NUMBER
 LUL .               GLTE:   LOGGING UNIT LOCATION
 ENGI.            JOHNSON:   RECORDING ENGINEER
 WITN.              FIVAS:   WITNESSED BY
 CLNT.            A2DTECH:   CLIENT CODE
 ORIG.           5" PRINT:   ORIGIN OF DATA
 UWI .       490251097800:   UNIQUE WELL ID
 DICO. A2D Technologies, Inc.:   DIGITIZING COMPANY
~OTHER INFORMATION
~A   DEPT      CNC         AC        GRD       CALD       CORR       DPHI        DEN       RILD       RILM       RFOC        SPR   
# ...
  495.0000     0.3352   100.0200   118.5120     7.8230     0.0700     0.1160     2.4820     8.2950     6.0680     9.8580   -57.7460
  495.5000     0.3398   101.0150   123.3360     7.8200     0.0830     0.1210     2.4780     8.0010     5.6890     8.9670   -57.6050
  496.0000     0.3274   101.9370   121.8530     7.8210     0.0950     0.1180     2.4840     7.7810     5.7420     8.2990   -57.4700
  496.5000     0.3261   102.8590   117.5580     7.8240     0.0890     0.1140     2.4900     7.7100     5.9450     8.1480   -57.1870
  497.0000     0.3254   103.6640   112.9410     7.8260     0.0820     0.1100     2.4970     7.8130     6.1380     8.3420   -56.8980
  497.5000     0.3193   103.2770   109.4710     7.8290     0.0750     0.1080     2.5000     7.9260     6.3320     8.7620   -56.6040
  498.0000     0.2885   102.1240   106.9920     7.8320     0.0690     0.1080     2.5020     8.3180     6.5670     9.1820   -56.4490
  498.5000     0.2810   100.9720   106.5180     7.8350     0.0620     0.1070     2.5050     8.6850     6.9130     9.6030   -56.4510
  499.0000     0.2798   100.0200   106.6640     7.8380     0.0730     0.1060     2.5070     9.0520     7.2280    10.0230   -56.4410
  499.5000     0.2813    99.1620   106.9930     7.8410     0.0910     0.1040     2.5070     9.4190     7.2950    10.3110   -55.9100
  500.0000     0.2905    98.4320   107.8440     7.8440     0.1060     0.1030     2.5030     9.7860     7.3630    10.5820   -55.2920
  500.5000     0.2989    97.7010   108.7260     7.8470     0.0970     0.1110     2.4990    10.1530     7.4810    10.8530   -55.2550
  501.0000     0.3040    96.9700   110.0940     7.8500     0.0870     0.1110     2.5000    10.4370     7.5890    11.1440   -55.2050
  501.5000     0.3146    96.2390   111.5890     7.8520     0.0790     0.1050     2.5080    10.7820     7.7760    11.3930   -54.8240
  502.0000     0.3133    95.9110   111.7320     7.8550     0.0830     0.1010     2.5150    11.1440     8.1480    11.6610   -54.5520
  502.5000     0.3040    95.8000   111.7060     7.8580     0.0850     0.0980     2.5150    11.2690     8.1360    11.8860   -54.1850
  503.0000     0.2956    95.8680   112.8950     7.8580     0.0770     0.1000     2.5100    11.4010     8.1150    11.9370   -53.8310
  503.5000     0.2965    95.9360   113.3670     7.8560     0.0670     0.1040     2.5060    11.4780     8.0940    12.0020   -53.4910
  504.0000     0.2993    96.0040   109.9860     7.8550     0.0630     0.1070     2.5070    11.5340     8.0730    12.0680   -53.1770
  504.5000     0.2964    96.0720   107.9280     7.8540     0.0660     0.1050     2.5090    11.5900     7.9980    12.1070   -53.7550
  505.0000     0.2939    96.1400   108.5780     7.8520     0.0730     0.1030     2.5100    11.6460     7.9240    12.1680   -54.3160
  505.5000     0.2913    95.9720   108.9590     7.8510     0.0820     0.1010     2.5110    11.7020     7.8530    12.2430   -54.8720
  506.0000     0.2994    95.6590   107.9870     7.8500     0.0900     0.1030     2.5080    11.7580     7.8720    12.3180   -55.4260
  506.5000     0.3021    95.2210   108.8800     7.8480     0.0780     0.1050     2.5030    11.8510     7.8910    12.3920   -55.9830
  507.0000     0.3053    94.7570   112.1470     7.8470     0.0620     0.1080     2.4990    11.8860     7.9090    12.4460   -56.2110
  507.5000     0.3071    94.7570   114.2530     7.8450     0.0620     0.1110     2.4960    11.7620     7.9230    12.3440   -56.0800
  508.0000     0.3151    95.2700   115.6070     7.8440     0.0740     0.1120     2.4940    11.6480     7.8120    12.1970   -55.9550
  508.5000     0.3256    95.9510   115.8880     7.8430     0.0760     0.1130     2.4910    11.5330     7.7670    12.0490   -55.8050
  509.0000     0.3231    96.6330   115.8580     7.8410     0.0660     0.1130     2.4890    11.4190     7.7220    11.9020   -55.5560
  509.5000     0.3155    97.3140   115.8100     7.8400     0.0570     0.1140     2.4870    11.3050     7.6770    11.7770   -55.3030
  510.0000     0.3045    97.9960   115.7610     7.8390     0.0470     0.1150     2.4850    11.1900     7.6320    11.7770   -55.0510
  510.5000     0.3003    98.1820   115.7120     7.8370     0.0500     0.1150     2.4870    11.0760     7.5860    11.7770   -54.7990
  511.0000     0.2975    98.3680   115.6630     7.8360     0.0690     0.1150     2.4900    10.9620     7.5410    11.6330   -54.5470
  511.5000     0.2972    98.5540   115.6140     7.8350     0.0790     0.1150     2.4940    10.8480     7.4960    11.4430   -54.2950
  512.0000     0.3123    98.7390   115.5650     7.8330     0.0740     0.1130     2.4970    10.7330     7.4510    11.2530   -54.0440
  512.5000     0.3269    98.7670   115.5140     7.8320     0.0690     0.1100     2.5000    10.6190     7.4060    11.1440   -53.8430
  513.0000     0.3312    98.7070   115.5630     7.8300     0.0630     0.1080     2.5040    10.5050     7.3630    11.1660   -53.6710
  513.5000     0.3119    98.6470   115.6290     7.8290     0.0660     0.1050     2.5030    10.3900     7.4150    11.1880   -53.4930
  514.0000     0.2988    98.5870   115.6960     7.8280     0.0750     0.1080     2.5020    10.3520     7.4650    11.2100   -53.3120
  514.5000     0.2849    98.5260   115.7630     7.8260     0.0840     0.1100     2.5010    10.4600     7.5150    11.2320   -53.2940
  515.0000     0.2925    98.4660   115.8310     7.8250     0.0930     0.1110     2.5000    10.6190     7.5650    11.3510   -53.3430
  515.5000     0.3213    98.4010   115.8960     7.8240     0.1040     0.1090     2.5040    10.7770     7.6150    11.3510   -53.3920
  516.0000     0.3263    98.1680   115.6240     7.8220     0.1020     0.1060     2.5080    10.9360     7.7180    11.3730   -53.4430
  516.5000  -999.2500    97.9960   115.3020     7.8210     0.0840     0.1030     2.5120    11.0950     7.8690    11.5540   -53.3260
  517.0000  -999.2500    97.3580   114.7090     7.8190     0.0660     0.1020     2.5160    11.2540     8.0210    11.7350   -52.9900
  517.5000  -999.2500    96.1660   113.2860     7.8170     0.0490     0.1010     2.5200    11.4130     8.2470    11.9410   -52.6540
  518.0000  -999.2500    95.1620   111.9140     7.8150     0.0360     0.0990     2.5200    11.6510     9.1000    12.3940   -52.9610
  518.5000  -999.2500    85.6880   110.6800     7.8130     0.0430     0.0960     2.5190    11.5730     8.8630    13.3810   -53.4410
  519.0000  -999.2500    82.2060   110.6070     7.8110     0.0600     0.0970     2.5150    11.3250     8.4590    14.5560   -53.3150
  519.5000  -999.2500    82.2060   110.5080     7.8090     0.0780     0.1010     2.5110    11.0780     8.1340    13.5690   -53.1940
  520.0000  -999.2500    82.2060   110.4030     7.8070     0.0960     0.1060     2.5070    10.7490     7.9180    12.3500   -53.0670
  520.5000  -999.2500  -999.2500   110.3380     7.8040     0.1050     0.1080     2.5030    10.7810     7.7020    11.4330   -53.5510
  521.0000  -999.2500  -999.2500   110.3390     7.8020     0.0980     0.1100     2.4990    10.8400     7.4990    11.2200   -53.8470
  521.5000  -999.2500  -999.2500   110.3380     7.8000     0.0770     0.1110     2.4950    10.8400     7.6080    11.1620   -54.0100
  522.0000  -999.2500  -999.2500   110.3380     7.7980     0.0560     0.1130     2.4950    10.8400     7.7110    11.1440   -52.7720
  522.5000  -999.2500  -999.2500   110.3380     7.7960     0.0450     0.1120     2.5010    10.8400     7.8130    11.3020   -51.4940
  523.0000  -999.2500  -999.2500   110.3380     7.7930     0.0630     0.1070     2.5060    10.7610     7.9160    11.5310   -50.3480
  523.5000  -999.2500  -999.2500   110.3380     7.7910     0.0850     0.1040     2.5100    10.6900     8.0190    11.7770   -50.7850
  524.0000  -999.2500  -999.2500   110.3380     7.7890     0.1000     0.1030     2.5060    10.6420     8.1210    11.7770   -51.2630
  524.5000  -999.2500  -999.2500   110.3380     7.7870     0.0930     0.1070     2.4970    10.6930     8.1830    11.8980  -999.2500
  525.0000  -999.2500  -999.2500   110.3380     7.7850     0.0860     0.1140     2.4890    10.7320     8.2310    12.0260  -999.2500
