~VERSION INFORMATION
 VERS.                2.0:   CWLS LOG ASCII STANDARD - VERSION 2.0
 WRAP.                 NO:   ONE LINE PER DEPTH STEP
~WELL INFORMATION
#MNEM.UNIT      DATA TYPE    INFORMATION
#----------   ------------   ------------------------------
 STRT.F            0.0000:   START DEPTH
 STOP.F          500.0000:   STOP DEPTH
 STEP.F            0.5000:   STEP LENGTH
 NULL.          -999.2500:   NO VALUE
 COMP. Fluor Daniel (NPOSR) Inc:   COMPANY
 WELL.  NPR ##3 72-4-X-10:   WELL
 FLD .             TEAPOT:   FIELD
 LOC .      S10 T38N R78W:   LOCATION
 CNTY.            NATRONA:   COUNTY
 STAT.            WYOMING:   STATE
 CTRY. UNITED STATES OF AMERICA:   COUNTRY
 SRVC.      Western Atlas:   SERVICE COMPANY
 DATE.        28-APR-1996:   LOGDATE
 API .       490252278000:   API NUMBER
~CURVE INFORMATION
#MNEM.UNIT       API CODE    CURVE DESCRIPTION
#----------   ------------   ------------------------------
 DEPT.F                  :   
 GRR .GAPI   07 310 01 00:   GAMMA RAY FROM RES. LOG.
 RILD.OHMM   07 120 46 00:   INDUCTION LOG DEEP RESISTIVITY
 RILM.OHMM   07 120 44 00:   INDUCTION LOG MEDIUM RESISTIVITY
~PARAMETER INFORMATION
#MNEM.UNIT          VALUE    DESCRIPTION
#----------   ------------   ------------------------------
 PD  .                 GL:   PERMANENT DATUM
 EPD .F            5165.5:   ELEVATION PERMANENT DATUM
 LMF .                 KB:   LOG MEASURED FROM
 DAPD.F                10:   FEET ABOVE PERMANENT DATUM
 DMF .                 KB:   DRILLING MEASURED FROM
 EKB .F            5175.5:   KELLING BUSHING
 EDF .F            5174.5:   DRILLING FLOOR
 EGL .F            5165.5:   GROUND LEVEL
 DATE.        28-APR-1996:   RUN DATE
 RUN .                  1:   RUN NUMBER
 DD  .F               505:   DEPTH DRILLER
 DL  .F               506:   DEPTH LOGGER
 BLI .F               497:   BOTTOM LOG INTERVAL
 CS  .IN            9.625:   CASING SIZE
 CBD .F                95:   CASING BOTTOM DRILLER
 CBL .F                96:   CASING BOTTOM LOGGER
 BS  .IN             8.75:   BIT SIZE
 BSD .F               505:   BIT SIZE AT DEPTH
 DFT .                AIR:   DRILLING FLUID TYPE
 MRT .F                80:   MAXIMUM RECORDED TEMPERATURE
 LUN .            HL-6530:   LOGGING UNIT NUMBER
 LUL .             CASPER:   LOGGING UNIT LOCATION
 ENGI.             RAUTIO:   RECORDING ENGINEER
 WITN.              HARDY:   WITNESSED BY
 CLNT.            A2DTECH:   CLIENT CODE
 ORIG.       2", 5" PRINT:   ORIGIN OF DATA
 UWI .       490252278000:   UNIQUE WELL ID
 DICO. A2D Technologies, Inc.:   DIGITIZING COMPANY
~OTHER INFORMATION
~A    DEPT      GRR      RILD       RILM   
# ...
  182.0000   114.6203     7.8509     7.9797
  182.5000   117.6563     7.9109     8.0158
  183.0000   123.1726     7.9109     8.0520
  183.5000   125.0649     7.9109     8.0884
  184.0000   125.3915     7.7662     8.1330
  184.5000   125.9277     7.7686     8.0225
  185.0000   127.4637     7.6369     7.8832
  185.5000   129.2043     7.5462     7.7451
  186.0000   130.7136     7.4539     7.6094
  186.5000   129.6114     7.3630     7.4760
  187.0000   127.1009     7.2068     7.3450
  187.5000   127.9283     7.0391     7.2163
  188.0000   131.6520     6.8508     6.9321
  188.5000   134.3981     6.4516     6.4821
  189.0000   132.8389     6.0806     6.0613
  189.5000   130.7250     5.7282     5.6679
  190.0000   130.4398     5.3651     5.3000
  190.5000   129.1616     5.3710     5.1268
  191.0000   126.4167     5.3679     5.2853
  191.5000   126.1960     5.3679     5.4100
  192.0000   128.5674     5.3651     5.6290
  192.5000   132.7733     5.3635     5.9409
  193.0000   134.8017     5.7894     6.2702
  193.5000   134.3304     6.1676     6.6199
  194.0000   131.9329     6.5768     6.8932
  194.5000   129.8299     7.0165     7.1515
  195.0000   131.5457     7.2095     7.4196
  195.5000   132.2442     7.4099     7.6948
  196.0000   130.3007     7.6159     7.7859
  196.5000   129.1372     7.7467     7.8771
  197.0000   131.3321     7.8304     7.9694
  197.5000   134.3570     7.9109     8.0627
  198.0000   135.7914     8.0528     8.1572
  198.5000   135.1569     8.1905     8.2528
  199.0000   134.2278     8.2543     8.3494
  199.5000   133.9348     8.3230     8.4472
  200.0000   133.4618     8.3923     8.5462
  200.5000   131.5148     8.4621     8.6118
  201.0000   129.6385     8.5325     8.6643
  201.5000   128.0705     8.5999     8.7172
  202.0000   127.0922     8.6373     8.7704
  202.5000   126.4219     8.6748     8.8239
  203.0000   125.0007     8.7125     8.8778
  203.5000   125.1219     8.7504     8.9319
  204.0000   129.5398     8.7884     9.0020
  204.5000   134.5149     8.8372     8.9833
  205.0000   133.5635     8.8010     8.9574
  205.5000   131.8920     8.7558     8.9316
  206.0000   131.0657     8.7003     8.9058
  206.5000   132.7355     8.6402     8.8801
  207.0000   133.9539     8.5805     8.8544
  207.5000   133.9329     8.5170     8.8207
  208.0000   134.1487     8.5170     8.7697
  208.5000   134.5598     8.4777     8.7191
  209.0000   133.8696     8.3610     8.6689
  209.5000   132.9286     8.2458     8.6189
  210.0000   133.0467     8.1322     8.5170
  210.5000   133.5137     7.9713     8.2888
  211.0000   133.2434     7.7219     8.0527
  211.5000   133.9984     7.4803     7.8233
  212.0000   135.6316     7.2118     7.3562
  212.5000   135.1147     6.7652     6.8407
  213.0000   131.3102     6.3475     6.3613
  213.5000   128.4234     5.8824     5.9155
  214.0000   128.4954     5.3099     5.3242
  214.5000   129.8417     4.6393     4.6683
  215.0000   130.7328     4.0534     4.0931
  215.5000   130.7231     3.5415     3.5888
  216.0000   131.1091     3.0942     3.1466
  216.5000   132.8932     2.7821     2.7589
  217.0000   135.4807     2.6292     2.4502
  217.5000   134.2384     2.5659     2.5276
  218.0000   123.8252     2.6137     2.7231
  218.5000   111.5705     2.7380     2.9337
  219.0000   109.5585     2.9076     3.1606
  219.5000   115.9727     3.1286     3.5461
  220.0000   125.8563     3.5650     4.0989
  220.5000   135.0587     4.1450     4.7379
  221.0000   137.9662     4.6745     5.2909
  221.5000   139.7588     5.2738     5.7442
  222.0000   140.1901     5.8672     6.1774
  222.5000   140.6534     6.3972     6.5208
  223.0000   141.1264     6.4869     6.6778
  223.5000   141.5253     6.5736     6.8449
  224.0000   139.8010     6.6664     7.0165
  224.5000   134.3692     6.7596     6.8446
  225.0000   130.0038     6.6385     6.6763
  225.5000   129.7782     6.3678     6.4519
  226.0000   136.7735     6.0451     6.1490
  226.5000   144.8798     5.7387     5.8603
  227.0000   149.0340     5.4478     5.5852
  227.5000   147.1673     5.1743     5.3229
  228.0000   146.0504     5.0718     5.1417
  228.5000   151.3750     4.9723     5.0630
  229.0000   153.4608     4.8956     4.9868
  229.5000   146.0113     4.9146     4.9868
  230.0000   138.9924     5.0028     5.2652
  230.5000   137.8094     5.0925     5.4540
  231.0000   143.4332     5.3046     5.6498
  231.5000   144.9163     5.6032     5.8508
  232.0000   141.7429     5.9185     6.1506
  232.5000   138.7848     6.2516     6.4914
  233.0000   138.2773     6.6035     6.8580
  233.5000   139.1151     6.9755     7.2460
  234.0000   140.3281     7.3677     7.6561
  234.5000   142.1579     7.7662     7.9988
  235.0000   141.6950     7.8527     8.0607
  235.5000   140.0936     7.9571     8.1231
  236.0000   139.7413     8.0582     8.1859
  236.5000   141.1131     8.0582     8.2084
  237.0000   141.3278     7.9842     8.1330
  237.5000   140.5091     7.7689     7.8860
  238.0000   139.0411     7.6049     7.6574
  238.5000   138.0175     7.4847     7.4109
  239.0000   138.7296     7.2455     7.1682
  239.5000   140.4628     7.0256     6.9335
  240.0000   142.1392     6.8123     6.7065
  240.5000   142.0652     6.6055     6.4900
  241.0000   141.3802     6.1892     6.1297
  241.5000   141.1746     5.7675     5.7734
  242.0000   141.5300     5.3745     5.4362
  242.5000   142.8461     5.0331     5.0786
  243.0000   140.9443     4.9880     5.0948
  243.5000   136.4114     4.9410     5.1191
  244.0000   133.3481     5.0142     5.1743
  244.5000   136.1220     5.0992     5.3196
  245.0000   140.4155     5.2223     5.7026
  245.5000   142.0147     5.5586     6.0652
  246.0000   142.2476     5.9058     6.4509
  246.5000   146.7882     6.2935     6.8611
  247.0000   152.1926     6.7066     7.1537
  247.5000   154.6877     7.0851     7.3041
  248.0000   152.4364     7.3274     7.4576
  248.5000   150.3560     7.5541     7.6144
  249.0000   149.1841     7.6547     7.7109
  249.5000   148.7030     7.7166     7.7435
  250.0000   148.0158     7.7791     7.7763
  250.5000   146.4401     7.8421     7.8092
  251.0000   144.3181     7.9109     7.8422
  251.5000   142.4112     7.8735     7.8756
  252.0000   144.5829     7.8329     7.9107
  252.5000   152.0509     7.7925     7.8790
  253.0000   155.8008     7.7512     7.8445
  253.5000   155.6202     7.7081     7.8104
  254.0000   153.9680     7.6652     7.7764
  254.5000   151.9791     7.6225     7.7425
  255.0000   149.7985     7.5798     7.7089
  255.5000   147.5856     7.5538     7.6885
  256.0000   148.6134     7.5722     7.6782
  256.5000   151.2306     7.5876     7.6677
  257.0000   151.6047     7.6031     7.6572
  257.5000   151.0005     7.6241     7.6468
  258.0000   149.3182     7.6000     7.6366
  258.5000   147.6324     7.5615     7.6276
  259.0000   147.7264     7.4798     7.5398
  259.5000   148.0688     7.3375     7.3302
  260.0000   148.4326     7.0180     6.9971
  260.5000   149.4630     6.7160     6.6789
  261.0000   150.4665     6.4265     6.3750
  261.5000   151.7702     6.2379     6.1651
  262.0000   154.6981     6.1493     6.1652
  262.5000   157.1635     6.0533     6.1661
  263.0000   156.1642     5.8345     6.1661
  263.5000   153.7781     5.6009     5.9657
  264.0000   152.7662     5.3765     5.6948
  264.5000   152.1327     5.1611     5.4357
  265.0000   151.6003     4.9544     5.1890
  265.5000   152.2863     4.7560     4.9529
  266.0000   154.3563     4.6319     4.8956
  266.5000   154.6565     4.7301     4.9410
  267.0000   153.0364     4.8061     4.9410
  267.5000   152.1860     4.8372     5.1696
  268.0000   153.5624     4.8797     5.4157
  268.5000   153.7919     5.0137     5.6736
  269.0000   153.9471     5.4050     5.9426
  269.5000   154.4596     5.8267     6.0550
  270.0000   155.1855     6.0841     6.1974
  270.5000   155.9252     6.2273     6.3433
  271.0000   155.2052     6.3392     6.4573
  271.5000   153.1532     6.1661     6.5171
  272.0000   150.5476     5.7249     5.9935
  272.5000   147.9884     5.3317     5.5468
