~VERSION INFORMATION
 VERS.                2.0:   CWLS LOG ASCII STANDARD - VERSION 2.0
 WRAP.                 NO:   ONE LINE PER DEPTH STEP
~WELL INFORMATION
#MNEM.UNIT      DATA TYPE    INFORMATION
#----------   ------------   ------------------------------
 STRT.F           18.0000:   START DEPTH
 STOP.F          501.0000:   STOP DEPTH
 STEP.F            0.5000:   STEP LENGTH
 NULL.          -999.2500:   NO VALUE
 COMP. FENIX & SCISSON INC:   COMPANY
 WELL.     NPR-3 SX #34-3:   WELL
 FLD .             TEAPOT:   FIELD
 LOC .       S3 T38N R78W:   LOCATION
 CNTY.            NATRONA:   COUNTY
 STAT.            WYOMING:   STATE
 CTRY. UNITED STATES OF AMERICA:   COUNTRY
 SRVC.            Unknown:   SERVICE COMPANY
 DATE.        13-JUL-1978:   LOGDATE
 API .       490251066600:   API NUMBER
~CURVE INFORMATION
#MNEM.UNIT       API CODE    CURVE DESCRIPTION
#----------   ------------   ------------------------------
 DEPT.F                  :   
 SPR .MV     05 010 01 00:   SPONTANEOUS POTENTIAL FROM RES.
 SN  .OHMM   05 040 16 00:   SHORT NORMAL 16"
 ILD .OHMM   05 120 46 00:   INDUCTION LOG DEEP
 CALD.IN     45 280 60 00:   CALIPER FROM DENSITY LOG
 GRD .GAPI   45 310 01 00:   GAMMA RAY FROM DENSITY LOG
 CORR.G/C3   45 356 01 00:   DENSITY CORRECTION
 DEN .G/C3   45 350 01 00:   COMPENSATED BULK DENSTIY
 DPHI.DEC    45 890 12 00:   DENSITY POROSITY SANDSTONE
~PARAMETER INFORMATION
#MNEM.UNIT          VALUE    DESCRIPTION
#----------   ------------   ------------------------------
 PD  .                 GL:   PERMANENT DATUM
 EPD .F              5209:   ELEVATION PERMANENT DATUM
 LMF .                 KB:   LOG MEASURED FROM
 DAPD.F                 4:   FEET ABOVE PERMANENT DATUM
 DMF .                 KB:   DRILLING MEASURED FROM
 EKB .F              5213:   KELLING BUSHING
 EGL .F              5209:   GROUND LEVEL
 DATE.            7-13-78:   RUN DATE
 RUN .                  1:   RUN NUMBER
 DD  .F               500:   DEPTH DRILLER
 DL  .F               507:   DEPTH LOGGER
 BLI .F               500:   BOTTOM LOG INTERVAL
 TLI .F                30:   TOP LOG INTERVAL
 CS  .IN            8.625:   CASING SIZE
 CBL .F                30:   CASING BOTTOM LOGGER
 BS  .IN            7.875:   BIT SIZE
 BSD .F               500:   BIT SIZE AT DEPTH
 DFT .                KCL:   DRILLING FLUID TYPE
 DFD .                8.6:   DRILLING FLUID DENSITY
 DFV .                 32:   DRILLING FLUID VISCOSITY
 DFPH.                  9:   DRILLING FLUID PH
 DFL .               12.2:   DRILLING FLUID LOSS
 MSS .          FLOW LINE:   MUD SAMPLE SOURCE
 RMS .OHMM            .22:   RESISTIVITY MUD SAMPLE
 MST .F                80:   MUD SAMPLE TEMPERATURE
 RMF .OHMM            .19:   RESISTIVITY MUD FILTRATE SAMPLE
 MFST.F                88:   MUD FILTRATE SAMPLE TEMPERATURE
 RMC .OHMM            .38:   RESISTIVITY MUD CAKE
 MCST.F                84:   MUD CAKE SAMPLE TEMPERATURE
 MFSS.               MEAS:   MUD FILTRATE SAMPLE SOURCE
 BHT .F                76:   BOTTOM HOLE TEMPERATURE
 TCS .HRS               1:   TIME CURCULATED STOPPED
 MRT .F                76:   MAXIMUM RECORDED TEMPERATURE
 LUN .               2958:   LOGGING UNIT NUMBER
 LUL .               CASP:   LOGGING UNIT LOCATION
 ENGI.             MILLER:   RECORDING ENGINEER
 WITN.           MCGINLEY:   WITNESSED BY
 CLNT.            A2DTECH:   CLIENT CODE
 ORIG. 2", 2.5", 5" PRINT:   ORIGIN OF DATA
 UWI .       490251066600:   UNIQUE WELL ID
 DICO. A2D Technologies, Inc.:   DIGITIZING COMPANY
~OTHER INFORMATION
~A   DEPT      SPR         SN        ILD       CALD        GRD       CORR        DEN       DPHI   
   18.0000  -999.2500  -999.2500  -999.2500  -999.2500  -999.2500  -999.2500  -999.2500  -999.2500
   18.5000  -999.2500  -999.2500  -999.2500  -999.2500    70.0082  -999.2500  -999.2500  -999.2500
   19.0000  -999.2500  -999.2500  -999.2500  -999.2500    67.1839  -999.2500  -999.2500  -999.2500
   19.5000  -999.2500  -999.2500  -999.2500  -999.2500    66.4475  -999.2500  -999.2500  -999.2500
   20.0000  -999.2500  -999.2500  -999.2500  -999.2500    67.3658  -999.2500  -999.2500  -999.2500
   20.5000  -999.2500  -999.2500  -999.2500  -999.2500    65.7352  -999.2500  -999.2500  -999.2500
   21.0000  -999.2500  -999.2500  -999.2500  -999.2500    68.3323  -999.2500  -999.2500  -999.2500
   21.5000  -999.2500  -999.2500  -999.2500  -999.2500    69.9830  -999.2500  -999.2500  -999.2500
   22.0000  -999.2500  -999.2500  -999.2500  -999.2500    70.2785  -999.2500  -999.2500  -999.2500
   22.5000  -999.2500  -999.2500  -999.2500  -999.2500    70.2945  -999.2500  -999.2500  -999.2500
   23.0000  -999.2500  -999.2500  -999.2500  -999.2500    70.3106  -999.2500  -999.2500  -999.2500
   23.5000  -999.2500  -999.2500  -999.2500  -999.2500    70.1770  -999.2500  -999.2500  -999.2500
   24.0000  -999.2500  -999.2500  -999.2500  -999.2500    68.0973  -999.2500  -999.2500  -999.2500
   24.5000  -999.2500  -999.2500  -999.2500  -999.2500    58.5325  -999.2500  -999.2500  -999.2500
   25.0000  -999.2500  -999.2500  -999.2500  -999.2500    52.8600  -999.2500  -999.2500  -999.2500
   25.5000  -999.2500  -999.2500  -999.2500  -999.2500    51.3790  -999.2500  -999.2500  -999.2500
   26.0000  -999.2500  -999.2500  -999.2500  -999.2500    48.6886  -999.2500  -999.2500  -999.2500
   26.5000  -999.2500  -999.2500  -999.2500  -999.2500    47.9681  -999.2500  -999.2500  -999.2500
   27.0000  -999.2500  -999.2500  -999.2500  -999.2500    49.1858  -999.2500  -999.2500  -999.2500
   27.5000  -999.2500  -999.2500  -999.2500  -999.2500    55.3396  -999.2500  -999.2500  -999.2500
   28.0000  -999.2500  -999.2500  -999.2500  -999.2500    62.5413  -999.2500  -999.2500  -999.2500
   28.5000  -999.2500  -999.2500  -999.2500  -999.2500    61.8089  -999.2500  -999.2500  -999.2500
   29.0000  -999.2500  -999.2500  -999.2500  -999.2500    61.6712  -999.2500  -999.2500  -999.2500
   29.5000  -999.2500  -999.2500  -999.2500  -999.2500    62.1404  -999.2500  -999.2500  -999.2500
   30.0000  -999.2500  -999.2500  -999.2500  -999.2500    62.7553  -999.2500  -999.2500  -999.2500
   30.5000  -999.2500  -999.2500  -999.2500  -999.2500    61.2744  -999.2500  -999.2500  -999.2500
   31.0000  -999.2500  -999.2500  -999.2500  -999.2500    58.2964    -0.3405  -999.2500  -999.2500
   31.5000  -999.2500  -999.2500  -999.2500     7.7338    58.8293     0.0800     2.5352     0.0975
   32.0000  -999.2500  -999.2500  -999.2500     7.6471    64.1709     0.0306     2.5361     0.1022
   32.5000  -999.2500  -999.2500  -999.2500     7.6195    77.0613     0.0653     2.5307     0.1169
   33.0000  -999.2500  -999.2500  -999.2500     7.5777    80.3708     0.1001     2.5170     0.1247
   33.5000  -999.2500  -999.2500  -999.2500     7.5353    81.1353     0.0963     2.5035     0.1246
   34.0000  -999.2500  -999.2500  -999.2500     7.4782    81.7502     0.0553     2.4919     0.1258
   34.5000  -999.2500  -999.2500  -999.2500     7.4062    82.0657     0.0329     2.4942     0.1297
   35.0000  -999.2500  -999.2500  -999.2500     7.3037    82.2315     0.0225     2.4808     0.1281
   35.5000  -999.2500  -999.2500  -999.2500     7.2306    82.3973     0.0227     2.4831     0.1275
   36.0000  -999.2500  -999.2500  -999.2500     7.1170    83.6109     0.0228     2.4787     0.1449
   36.5000  -999.2500    18.4905     7.2423     7.0450    84.5252     0.0214     2.4645     0.1512
   37.0000  -999.2500    18.5064     7.3482     6.9435    83.5749     0.0186     2.4525     0.1541
   37.5000  -999.2500    18.5253     7.3536     6.8568    82.0125     0.0173     2.4436     0.1517
   38.0000  -999.2500    18.5410     7.3591     6.7991    82.6314     0.0159     2.4459     0.1493
   38.5000  -999.2500    18.6851     7.3645     6.7863    84.1735     0.0193     2.4527     0.1495
   39.0000  -999.2500    18.7009     7.3699     6.7736    86.5544     0.0238     2.4535     0.1531
   39.5000  -999.2500    18.7167     7.3755     6.7909    85.9717     0.0224     2.4438     0.1524
   40.0000  -999.2500     7.0328     7.3822     6.7929    85.3889     0.0210     2.4506     0.1518
   40.5000  -999.2500     4.4335     7.3369     6.8098    86.0289     0.0182     2.4491     0.1560
   41.0000  -999.2500    17.5357     7.3423     6.8578    86.1696     0.0138     2.4469     0.1602
   41.5000  -999.2500    18.5227     7.3478     6.9327    84.9921     0.0035     2.4357     0.1655
   42.0000  -999.2500    16.4867     7.3013     7.0086    82.7587    -0.0024     2.4260     0.1631
   42.5000  -999.2500    24.2824     7.3081     7.0846    83.8267    -0.0068     2.4283     0.1637
   43.0000  -999.2500     6.8761     7.2633     7.1606    83.9924    -0.0066     2.4434     0.1540
   43.5000  -999.2500    23.0174     7.2686     7.2218    84.0085    -0.0064     2.4517     0.1456
   44.0000  -999.2500    17.4849     7.2741     7.3274    83.8743    -0.0015     2.4607     0.1375
   44.5000  -999.2500    25.0464     7.4398     7.3738    83.8910     0.0029     2.4699     0.1323
   45.0000  -999.2500    17.8770     7.6461     7.4054    83.7574     0.0045     2.4784     0.1299
   45.5000  -999.2500    19.3069     7.6517     7.4222    83.7740     0.0031     2.4834     0.1326
   46.0000  -999.2500    18.6680     7.5512     7.4243    83.7935     0.0033     2.4842     0.1344
   46.5000  -999.2500    18.3011     7.5581     7.4263    83.9593     0.0020     2.4723     0.1398
   47.0000  -999.2500    17.2138     7.5104     7.4283    84.8736     0.0021     2.4670     0.1355
   47.5000  -999.2500    15.5346     7.5693     7.4156    86.9855     0.0023     2.4694     0.1342
   48.0000  -999.2500    13.6376     7.6800     7.3880    84.7560     0.0009     2.4724     0.1351
   48.5000  -999.2500    11.2727     7.7930     7.3604    83.8699     0.0010     2.4725     0.1384
   49.0000  -999.2500     9.8220     7.9064     7.3334    84.0397     0.0012     2.4680     0.1437
   49.5000  -999.2500     7.6603     7.9682     7.3206    84.5049    -0.0002     2.4606     0.1395
   50.0000  -999.2500     6.8640     8.0351     7.3074    86.4671     0.0000     2.4651     0.1305
   50.5000  -999.2500     6.9668     8.1259     7.2803    89.3278     0.0017     2.4714     0.1280
   51.0000  -999.2500     7.0209     8.2638     7.2527    88.4493     0.0048     2.4827     0.1292
   51.5000  -999.2500     7.0755     8.2688     7.1956    87.1181     0.0065     2.4810     0.1319
   52.0000  -999.2500     7.2796     8.3885     7.1237    84.7390     0.0066     2.4893     0.1249
   52.5000  -999.2500     7.2858     8.5101     7.1257    84.6013     0.0068     2.4946     0.1254
   53.0000  -999.2500     7.2919     8.6333     7.1578    86.4179     0.0069     2.4789     0.1354
   53.5000  -999.2500     7.2981     8.6983     7.2486    91.6735     0.0071     2.4760     0.1341
   54.0000  -999.2500     7.5606     8.7637     7.3394    96.6297     0.0074     2.4715     0.1350
   54.5000  -999.2500     7.6195     8.7087     7.4006    95.1487     0.0104     2.4693     0.1383
   55.0000  -999.2500     7.6261     8.6542     7.4174    90.8235     0.0135     2.4709     0.1307
   55.5000  -999.2500     7.6339     8.7277     7.4342    87.3965     0.0152     2.4799     0.1259
   56.0000  -999.2500     7.6404     8.8470     7.4806    87.8862     0.0168     2.4846     0.1253
   56.5000  -999.2500     7.6998     8.8523     7.5270    85.9356     0.0170     2.4915     0.1213
   57.0000  -999.2500     7.8133     8.8577     7.6178    84.7501     0.0231     2.4996     0.1159
   57.5000  -999.2500     7.8199     8.8630     7.6050    87.0157     0.0323     2.5042     0.1126
   58.0000  -999.2500     7.9353     8.8684     7.5619    92.8701     0.0369     2.5095     0.1104
