~VERSION INFORMATION
 VERS.                2.0:   CWLS LOG ASCII STANDARD - VERSION 2.0
 WRAP.                 NO:   ONE LINE PER DEPTH STEP
~WELL INFORMATION
#MNEM.UNIT      DATA TYPE    INFORMATION
#----------   ------------   ------------------------------
 STRT.F           23.0000:   START DEPTH
 STOP.F         1106.0000:   STOP DEPTH
 STEP.F            0.5000:   STEP LENGTH
 NULL.          -999.2500:   NO VALUE
 COMP. FENIX & SCISSON INC:   COMPANY
 WELL.       NPR-3 #67-11:   WELL
 FLD . TEAPOT DOME NPR #3:   FIELD
 LOC .      S11 T38N R78W:   LOCATION
 CNTY.            NATRONA:   COUNTY
 STAT.            WYOMING:   STATE
 CTRY. UNITED STATES OF AMERICA:   COUNTRY
 SRVC.            Unknown:   SERVICE COMPANY
 DATE.        06-MAR-1978:   LOGDATE
 API .       490251059100:   API NUMBER
~CURVE INFORMATION
#MNEM.UNIT       API CODE    CURVE DESCRIPTION
#----------   ------------   ------------------------------
 DEPT.F                  :   
 ILD .OHMM   05 120 46 00:   INDUCTION LOG DEEP
 SN  .OHMM   05 040 16 00:   SHORT NORMAL 16"
 SPR .MV     05 010 01 00:   SPONTANEOUS POTENTIAL FROM RES.
 CALD.IN     45 280 60 00:   CALIPER
 GRD .GAPI   45 310 01 00:   GAMMA RAY FROM DENSITY LOG
 CORR.G/C3   45 356 01 00:   DENSITY CORRECTION
 DPHI.DEC    45 890 12 00:   DENSITY POROSITY SANDSTONE
 RHOB.G/C3   45 350 01 00:   BULK DENSITY
~PARAMETER INFORMATION
#MNEM.UNIT          VALUE    DESCRIPTION
#----------   ------------   ------------------------------
 PD  .                 GL:   PERMANENT DATUM
 EPD .F              5243:   ELEVATION PERMANENT DATUM
 LMF .                 KB:   LOG MEASURED FROM
 DAPD.F                 4:   FEET ABOVE PERMANENT DATUM
 DMF .                 KB:   DRILLING MEASURED FROM
 EKB .F              5247:   KELLING BUSHING
 EGL .F              5243:   GROUND LEVEL
 DATE.           3-6-1978:   RUN DATE
 RUN .                  1:   RUN NUMBER
 DD  .F              1104:   DEPTH DRILLER
 DL  .F              1108:   DEPTH LOGGER
 BLI .F              1102:   BOTTOM LOG INTERVAL
 TLI .F                40:   TOP LOG INTERVAL
 CS  .IN            8.625:   CASING SIZE
 CBD .F                40:   CASING BOTTOM DRILLER
 CBL .F                40:   CASING BOTTOM LOGGER
 BS  .IN            7.875:   BIT SIZE
 BSD .F              1104:   BIT SIZE AT DEPTH
 DFT .         LIGNO/SULF:   DRILLING FLUID TYPE
 DFD .                8.6:   DRILLING FLUID DENSITY
 DFV .                 31:   DRILLING FLUID VISCOSITY
 DFL .                  8:   DRILLING FLUID LOSS
 MSS .            MUD PIT:   MUD SAMPLE SOURCE
 RMS .OHMM              2:   RESISTIVITY MUD SAMPLE
 MST .F                58:   MUD SAMPLE TEMPERATURE
 RMF .OHMM            1.2:   RESISTIVITY MUD FILTRATE SAMPLE
 MFST.F                64:   MUD FILTRATE SAMPLE TEMPERATURE
 RMC .OHMM              3:   RESISTIVITY MUD CAKE
 MCST.F                64:   MUD CAKE SAMPLE TEMPERATURE
 MFSS.               MEAS:   MUD FILTRATE SAMPLE SOURCE
 RMB .OHMM            1.5:   RESISTIVITY MUD AT BHT
 BHT .F                78:   BOTTOM HOLE TEMPERATURE
 TCS .HRS               4:   TIME CURCULATED STOPPED
 MRT .F                78:   MAXIMUM RECORDED TEMPERATURE
 LUN .               2959:   LOGGING UNIT NUMBER
 LUL .               CASP:   LOGGING UNIT LOCATION
 ENGI.             MILLER:   RECORDING ENGINEER
 WITN.           MCGINLEY:   WITNESSED BY
 CLNT.            A2DTECH:   CLIENT CODE
 ORIG.       2", 5" PRINT:   ORIGIN OF DATA
 UWI .       490251059100:   UNIQUE WELL ID
 DICO. A2D Technologies, Inc.:   DIGITIZING COMPANY
~OTHER INFORMATION
~A   DEPT      ILD         SN        SPR       CALD         GRD      CORR       DPHI       RHOB   
# ...
  509.0000    10.2434    11.6170   -28.7443     7.6669    73.9789     0.0293     0.1561     2.4033
  509.5000    10.3653    11.9226   -28.2814     7.6648    75.7565     0.0284     0.1534     2.4044
  510.0000    10.4888    12.2361   -28.4799     7.6627    77.5246     0.0276     0.1566     2.4087
  510.5000    10.6136    12.3710   -28.6273     7.6606    78.8446     0.0270     0.1608     2.4063
  511.0000    10.7399    12.5100   -28.1755     7.6553    75.7606     0.0293     0.1614     2.3988
  511.5000    10.9182    12.6017   -27.8629     7.6453    73.4192     0.0342     0.1562     2.3952
  512.0000    11.1153    12.6193   -27.6384     7.6354    73.3004     0.0490     0.1709     2.4015
  512.5000    11.3156    12.6425   -27.6866     7.6255    74.0670     0.0594     0.1798     2.3848
  513.0000    11.4897    12.6658   -27.9417     7.6156    72.7142     0.0419     0.1787     2.3672
  513.5000    11.5970    12.6890   -28.4654     7.6057    71.7574     0.0241     0.1775     2.3593
  514.0000    11.7431    12.7128   -29.0453     7.5957    74.0140     0.0247     0.1762     2.3684
  514.5000    11.8126    12.7188   -29.1806     7.5858    77.6289     0.0286     0.1749     2.3709
  515.0000    11.8126    12.7186   -29.1848     7.5759    78.1400     0.0323     0.1737     2.3708
  515.5000    11.8126    12.7191   -29.1765     7.5660    78.5810     0.0358     0.1724     2.3769
  516.0000    12.1041    12.7189   -29.4666     7.5585    79.1121     0.0391     0.1750     2.3781
  516.5000    12.4846    12.7232   -29.8704     7.5552    78.1860     0.0410     0.1768     2.3725
  517.0000    12.5859    12.7119   -30.0819     7.5519    76.5156     0.0410     0.1798     2.3705
  517.5000    12.7316    13.1723   -30.2328     7.5486    74.8513     0.0410     0.1819     2.3630
  518.0000    12.8787    13.5329   -30.3813     7.5453    73.4851     0.0410     0.1815     2.3582
  518.5000    13.0272    13.9034   -30.5328     7.5420    72.7499     0.0411     0.1841     2.3591
  519.0000    13.1775    14.2840   -30.6964     7.5387    73.6565     0.0364     0.1858     2.3576
  519.5000    13.3294    14.6750   -32.1232     7.5354    76.8485     0.0312     0.1742     2.3560
  520.0000    13.5089    15.0768   -33.9126     7.5321    78.8749     0.0314     0.1665     2.3698
  520.5000    13.7654    15.4002   -33.3702     7.5287    72.9701     0.0325     0.1589     2.3841
  521.0000    14.0269    15.6228   -32.7844     7.5254    68.2526     0.0353     0.1513     2.3943
  521.5000    14.2928    15.8485   -32.2104     7.5223    67.9280     0.0389     0.1438     2.4107
  522.0000    14.5638    16.0229   -31.6863     7.5294    71.2517     0.0412     0.1426     2.4389
  522.5000    14.6090    16.1761   -31.3895     7.5604    74.6032     0.0352     0.1417     2.4356
  523.0000    14.6090    16.3253   -31.1295     7.5921    72.8147     0.0303     0.1499     2.4305
  523.5000    14.6090    16.4759   -30.8436     7.6037    70.9163     0.0289     0.1599     2.4270
  524.0000    14.6090    16.6261   -30.5568     7.6097    69.5796     0.0287     0.1698     2.4086
  524.5000    14.3778    16.0566   -30.5554     7.6154    70.5341     0.0285     0.1749     2.3896
  525.0000    14.0790    15.5131   -30.9936     7.6177    71.5882     0.0283     0.1773     2.3732
  525.5000    13.4992    15.2996   -31.4277     7.6110    72.6632     0.0281     0.1795     2.3676
  526.0000    13.1066    15.2996   -31.8631     7.6042    72.1930     0.0279     0.1811     2.3647
  526.5000    12.7186    14.9952   -32.2972     7.5873    71.0744     0.0276     0.1818     2.3623
  527.0000    12.7017    14.7336   -32.5739     7.5356    69.9299     0.0274     0.1808     2.3604
  527.5000    12.6726    14.4756   -32.5698     7.4860    69.4866     0.0272     0.1795     2.3637
  528.0000    12.6434    14.2077   -32.5673     7.4368    69.3845     0.0263     0.1782     2.3678
  528.5000    12.6147    14.2108   -32.3536     7.4725    69.5262     0.0223     0.1788     2.3690
  529.0000    12.6020    14.2099   -31.7277     7.5843    69.6850     0.0183     0.1798     2.3663
  529.5000    12.6811    14.2107   -31.1003     7.6129    70.5194     0.0149     0.1800     2.3636
  530.0000    12.7649    14.2110   -30.4085     7.6047    72.5699     0.0150     0.1791     2.3642
  530.5000    12.8285    13.9265   -30.6481     7.5996    72.4755     0.0150     0.1782     2.3686
  531.0000    12.5062    13.6313   -31.0225     7.5996    72.4001     0.0150     0.1738     2.3703
  531.5000    12.2572    13.3199   -31.3907     7.5996    72.9911     0.0150     0.1650     2.3713
  532.0000    11.1877    12.7186   -31.4151     7.5996    74.8908     0.0150     0.1602     2.4019
  532.5000    10.1324    11.8249   -30.8452     7.5997    79.0015     0.0150     0.1538     2.4119
  533.0000     9.1767    10.9203   -30.0701     7.6077    83.1042     0.0150     0.1487     2.4180
  533.5000     8.3926    10.0850   -29.0893     7.6264    87.1906     0.0150     0.1434     2.4350
  534.0000     7.7904     8.9314   -28.6957     7.6449    91.2869     0.0150     0.1382     2.4548
  534.5000     7.2799     7.9329   -27.6682     7.6589    95.4076     0.0150     0.1329     2.4522
  535.0000     6.8036     7.2395   -26.3580     7.6541    96.4166     0.0170     0.1296     2.4477
  535.5000     6.3585     6.9768   -25.4718     7.6498    95.1289     0.0204     0.1268     2.4508
  536.0000     6.2402     7.1480   -25.0558     7.6455    91.9894     0.0238     0.1230     2.4608
  536.5000     6.2368     7.4106   -25.0325     7.6411    89.6335     0.0273     0.1175     2.4787
  537.0000     6.2226     7.6983   -25.0700     7.6369    84.5049     0.0307     0.1150     2.4885
  537.5000     6.2137     7.5236   -25.1089     7.6328    74.8761     0.0332     0.1200     2.4799
  538.0000     6.2048     7.3067   -25.1469     7.6287    72.4258     0.0335     0.1262     2.4660
  538.5000     6.1959     7.6521   -25.1860     7.6244    79.0566     0.0339     0.1295     2.4519
  539.0000     6.1884     7.5109   -25.2004     7.6203    86.4566     0.0343     0.1275     2.4447
  539.5000     6.0918     7.1958   -25.1901     7.6279    86.5099     0.0347     0.1293     2.4523
  540.0000     5.9776     6.8940   -25.8258     7.6783    89.5264     0.0344     0.1336     2.4607
  540.5000     5.8657     6.7135   -25.9804     7.7286    93.8846     0.0298     0.1382     2.4627
  541.0000     5.7999     6.6663   -25.4283     7.7586    95.0306     0.0252     0.1357     2.4423
  541.5000     5.8383     6.6006   -25.1940     7.7514    95.6933     0.0266     0.1350     2.4334
  542.0000     5.8767     6.6188   -24.9756     7.7446    97.3440     0.0316     0.1343     2.4413
  542.5000     5.9154     6.6493   -24.8875     7.7390   100.8920     0.0367     0.1287     2.4492
  543.0000     5.9543     6.6799   -24.8263     7.7399   104.0807     0.0388     0.1258     2.4573
  543.5000     5.9935     6.7237   -25.5739     7.7407   103.7885     0.0297     0.1318     2.4488
  544.0000     6.0182     6.7076   -25.8249     7.7415   101.7998     0.0198     0.1358     2.4397
  544.5000     5.9884     6.6796   -26.0462     7.7423    96.8310     0.0113     0.1281     2.4487
  545.0000     5.9580     6.6440   -26.1935     7.7431    91.8838     0.0159     0.1252     2.4590
  545.5000     5.9277     6.5340   -25.7297     7.7438    90.2289     0.0203     0.1238     2.4589
  546.0000     5.8985     6.4202   -25.1675     7.7446    89.9078     0.0248     0.1229     2.4581
  546.5000     5.8343     6.4202   -25.1117     7.7454    90.3750     0.0242     0.1255     2.4557
  547.0000     5.7708     6.4202   -25.0437     7.7462    92.5872     0.0225     0.1286     2.4497
  547.5000     5.7081     6.4202   -24.9666     7.7470    92.8126     0.0203     0.1305     2.4446
  548.0000     5.6413     6.4202   -24.8523     7.7477    96.5576     0.0148     0.1311     2.4469
  548.5000     5.6646     6.3933   -24.6525     7.7485    96.2772     0.0091     0.1318     2.4485
  549.0000     5.7097     6.3100   -25.0869     7.7493    95.3367     0.0033     0.1370     2.4448
