~VERSION INFORMATION
 VERS.                2.0:   CWLS LOG ASCII STANDARD - VERSION 2.0
 WRAP.                 NO:   ONE LINE PER DEPTH STEP
~WELL INFORMATION
#MNEM.UNIT      DATA TYPE    INFORMATION
#----------   ------------   ------------------------------
 STRT.F            3.0000:   START DEPTH
 STOP.F          600.0000:   STOP DEPTH
 STEP.F            0.5000:   STEP LENGTH
 NULL.          -999.2500:   NO VALUE
 COMP. FENIX & SCISSON INC:   COMPANY
 WELL.     NPR-3 #83SX4-4:   WELL
 FLD .             TEAPOT:   FIELD
 LOC .       S4 T38N R78W:   LOCATION
 CNTY.            NATRONA:   COUNTY
 STAT.            WYOMING:   STATE
 CTRY. UNITED STATES OF AMERICA:   COUNTRY
 SRVC.           BIRDWELL:   SERVICE COMPANY
 DATE.        02-AUG-1978:   LOGDATE
 API .       490251067700:   API NUMBER
~CURVE INFORMATION
#MNEM.UNIT       API CODE    CURVE DESCRIPTION
#----------   ------------   ------------------------------
 DEPT.F                  :   
 GRD .GAPI   45 310 01 00:   GAMMA RAY FROM DENSITY LOG
 CORR.G/C3   45 356 01 00:   DENSITY CORRECTION
 RHOB.G/C3   45 350 01 00:   BULK DENSITY
 DPHI.DEC    45 890 12 00:   DENSITY POROSITY SANDSTONE
 SPR .MV     05 010 01 00:   SPONTANEOUS POTENTIAL
 ILD .OHMM   05 120 46 00:   INDUCTION LOG DEEP
 SN  .OHMM   05 040 00 00:   SHORT NORMAL
~PARAMETER INFORMATION
#MNEM.UNIT          VALUE    DESCRIPTION
#----------   ------------   ------------------------------
 PD  .                 GL:   PERMANENT DATUM
 EPD .F              5204:   ELEVATION PERMANENT DATUM
 LMF .                 KB:   LOG MEASURED FROM
 DAPD.F                 4:   FEET ABOVE PERMANENT DATUM
 DMF .                 KB:   DRILLING MEASURED FROM
 EKB .F              5204:   KELLING BUSHING
 EGL .F              5200:   GROUND LEVEL
 DATE.        02-AUG-1978:   RUN DATE
 RUN .                  1:   RUN NUMBER
 DD  .F               590:   DEPTH DRILLER
 DL  .F               606:   DEPTH LOGGER
 BLI .F               590:   BOTTOM LOG INTERVAL
 TLI .F                30:   TOP LOG INTERVAL
 CS  .IN            8.625:   CASING SIZE
 CBD .F                40:   CASING BOTTOM DRILLER
 BS  .IN            7.875:   BIT SIZE
 BSD .F               590:   BIT SIZE AT DEPTH
 DFT .                KCL:   DRILLING FLUID TYPE
 DFD .                8.7:   DRILLING FLUID DENSITY
 DFV .                 32:   DRILLING FLUID VISCOSITY
 DFPH.                  9:   DRILLING FLUID PH
 DFL .                 12:   DRILLING FLUID LOSS
 MSS .           FLOWLINE:   MUD SAMPLE SOURCE
 RMS .OHMM             .4:   RESISTIVITY MUD SAMPLE
 MST .F                61:   MUD SAMPLE TEMPERATURE
 RMF .OHMM             .5:   RESISTIVITY MUD FILTRATE SAMPLE
 MFST.F                50:   MUD FILTRATE SAMPLE TEMPERATURE
 RMC .OHMM            .65:   RESISTIVITY MUD CAKE
 MCST.F                66:   MUD CAKE SAMPLE TEMPERATURE
 MFSS.               MEAS:   MUD FILTRATE SAMPLE SOURCE
 BHT .F                78:   BOTTOM HOLE TEMPERATURE
 TCS .HRS            0300:   TIME CURCULATED STOPPED
 MRT .F                78:   MAXIMUM RECORDED TEMPERATURE
 LUN .               3006:   LOGGING UNIT NUMBER
 LUL .               CASP:   LOGGING UNIT LOCATION
 ENGI.             MILLER:   RECORDING ENGINEER
 WITN.              AMEND:   WITNESSED BY
 CLNT.            A2DTECH:   CLIENT CODE
 ORIG.           5" PRINT:   ORIGIN OF DATA
 UWI .       490251067700:   UNIQUE WELL ID
 DICO. A2D Technologies, Inc.:   DIGITIZING COMPANY
~OTHER INFORMATION
~A    DEPT     GRD       CORR       RHOB       DPHI        SPR        ILD         SN   
# ...
  412.5000    74.0627     0.0391     2.5292     0.0939   -18.8060     7.8916     8.9537
  413.0000    74.8066     0.0376     2.5209     0.0945   -18.7939     8.0597     9.0186
  413.5000    71.9402     0.0360     2.5171     0.0981   -18.9314     8.2314     9.0223
  414.0000    62.7996     0.0360     2.5104     0.1029   -18.9196     8.3481     9.0254
  414.5000    61.5944     0.0359     2.5126     0.1048   -19.2063     8.1253     9.0284
  415.0000    62.0384     0.0359     2.5028     0.1075   -19.1940     7.9077     9.0315
  415.5000    63.3820     0.0343     2.4998     0.1102   -19.0305     7.5385     8.9718
  416.0000    63.8541     0.0327     2.4953     0.1141   -17.9740     7.0882     8.9133
  416.5000    60.7766     0.0312     2.4833     0.1204   -17.2159     6.4392     8.6749
  417.0000    58.5656     0.0296     2.4616     0.1290   -16.9056     6.1809     8.3842
  417.5000    58.4099     0.0311     2.4256     0.1526   -16.7445     6.3562     7.7754
  418.0000    59.4536     0.0370     2.3911     0.1800   -16.4087     6.5365     7.1614
  418.5000    66.6442     0.0654     2.3904     0.1794   -16.3988     6.5392     7.2133
  419.0000    69.1886     0.1132     2.4390     0.1462   -16.3870     6.5871     7.3663
  419.5000    64.8336     0.0967     2.5333     0.0968   -16.2284     6.6818     7.5259
  420.0000    64.3780     0.0588     2.5460     0.0839   -16.0698     6.9666     8.2428
  420.5000    66.9195     0.0487     2.5428     0.0836   -16.0600     9.1176    10.1215
  421.0000    67.9632     0.0471     2.5347     0.0859   -16.3503     9.9073    10.6981
  421.5000    67.9574     0.0486     2.5257     0.0959   -16.4893    10.2587    11.0005
  422.0000    67.5019     0.0485     2.5249     0.0950   -16.0306    10.4772    11.1568
  422.5000    62.6985     0.0484     2.5248     0.0947   -14.8303    10.4815    11.3153
  423.0000    58.1390     0.0499     2.5233     0.0947   -14.2253    10.4857    11.3973
  423.5000    30.7520     0.0483     2.5196     0.0953   -13.9179    10.5625    11.5592
  424.0000    28.1975     0.0467     2.5203     0.0963   -14.0593    10.9371    11.8044
  424.5000    27.7419     0.0467     2.5135     0.1007   -13.8983    11.7219    12.2219
  425.0000    27.4363     0.0496     2.4925     0.1157   -13.8885    12.3911    12.7415
  425.5000    27.4303     0.0541     2.4910     0.1169   -13.5811    12.9192    13.5605
  426.0000    27.4233     0.0555     2.4857     0.1274   -13.1248    13.8462    14.2347
  426.5000    27.4175     0.0554     2.4550     0.1367   -12.9662    15.3608    14.8489
  427.0000    27.4117     0.0569     2.4351     0.1511   -12.9563    16.5827    15.6024
  427.5000    27.2560     0.0643     2.4055     0.1677   -12.9464    16.9426    16.4655
  428.0000    27.1003     0.0762     2.4003     0.1691   -12.9166    17.2896    16.8159
  428.5000    26.7836     0.0686     2.3860     0.1766   -12.6290    17.4176    16.9378
  429.0000    25.7380     0.0551     2.3725     0.1948   -12.6172    17.5452    16.9436
  429.5000    21.8342     0.0461     2.3613     0.2011   -12.4586    17.5523    16.9493
  430.0000    24.6770     0.0520     2.3493     0.2015   -12.4488    17.5595    16.9550
  430.5000    25.4208     0.0774     2.3607     0.1945   -12.4390    17.8104    16.9608
  431.0000    25.2651     0.0833     2.3874     0.1775   -12.4292    18.1897    16.9665
  431.5000    22.4108     0.0742     2.3986     0.1718   -12.2706    18.3229    16.9722
  432.0000    12.9375     0.0593     2.4015     0.1721   -12.2608    18.7131    17.4520
  432.5000    13.8521     0.0487     2.4000     0.1721   -12.6974    18.8501    17.9452
  433.0000    18.0442     0.0457     2.3932     0.1790   -14.3245    18.9882    17.9513
  433.5000    26.5841     0.0501     2.3872     0.1794   -14.6148    19.2595    17.9574
  434.0000    30.0266     0.0620     2.4298     0.1653   -14.7538    19.5346    17.9636
  434.5000    29.7210     0.0497     2.4411     0.1452   -14.8928    19.8137    17.9698
  435.0000    27.8761     0.0394     2.4373     0.1473   -14.8805    19.9588    17.8523
  435.5000    24.7605     0.0394     2.4290     0.1539   -14.4243    20.2440    17.6142
  436.0000    23.5553     0.0393     2.4252     0.1560   -14.1169    20.2522    17.3807
  436.5000    23.0998     0.0393     2.4267     0.1545   -13.6607    19.9647    17.0312
  437.0000    23.6937     0.0392     2.4227     0.1537   -12.7530    19.4500    16.6887
  437.5000    25.6369     0.0392     2.3960     0.1786   -12.4504    19.1917    16.4647
  438.0000    28.1799     0.0466     2.3458     0.2052   -12.4405    18.6777    16.1350
  438.5000    28.7738     0.0510     2.3390     0.2076   -11.9295    18.0526    15.8106
  439.0000    25.9180     0.0524     2.3405     0.2073   -10.7819    17.4485    15.2808
  439.5000    23.3635     0.0524     2.3406     0.2061   -10.1768    16.7489    14.8708
  440.0000    21.2588     0.0538     2.3292     0.2196    -9.8694    16.4130    14.4719
  440.5000    20.2035     0.0554     2.3302     0.2135    -9.7108    15.8637    14.2788
  441.0000    19.8979     0.0567     2.3351     0.2100    -9.5522    15.6514    14.1857
  441.5000    21.6223     0.0566     2.3366     0.2067    -9.3936    15.5503    14.0931
  442.0000    28.7305     0.0566     2.3366     0.2100    -9.2350    15.4499    14.0991
  442.5000    29.4743     0.0565     2.3350     0.2124    -9.0764    15.3513    14.1038
  443.0000    30.5180     0.0564     2.3320     0.2163    -9.2154    15.4640    14.1086
  443.5000    32.4613     0.0532     2.3329     0.2124    -9.6520    15.5773    14.1134
  444.0000    31.8558     0.0488     2.3507     0.2027   -10.0886    15.9090    14.1182
  444.5000    27.6521     0.0518     2.3566     0.1996   -10.8229    16.1364    14.1229
  445.0000    27.0465     0.0532     2.3596     0.1945   -11.1111    16.1431    14.2253
  445.5000    25.9900     0.0487     2.3790     0.1802   -11.5473    16.0386    14.4274
  446.0000    24.0352     0.0456     2.3857     0.1862   -11.6865    16.0468    14.5319
  446.5000    24.4792     0.0441     2.3692     0.1886   -11.6765    16.0533    14.5369
  447.0000    26.2725     0.0425     2.3675     0.1909   -11.6667    16.1709    14.6422
  447.5000    30.0148     0.0409     2.3564     0.2030   -11.6567    16.1775    14.7484
  448.0000    33.6393     0.0439     2.3399     0.2104   -11.7960    16.1841    14.7534
  448.5000    35.0993     0.0513     2.3384     0.2110   -12.1106    16.3026    14.7585
  449.0000    35.3948     0.0542     2.3414     0.2057   -12.8156    16.3092    14.8653
  449.5000    37.0368     0.0497     2.3623     0.1946   -13.7422    16.4287    14.7683
  450.0000    40.7515     0.0534     2.3705     0.1874   -14.0318    16.6889    15.0136
  450.5000    43.3036     0.0556     2.3989     0.1720   -14.0140    16.7890    15.5079
  451.0000    44.6596     0.0555     2.4131     0.1626   -13.9731    17.0323    16.1662
  451.5000    41.6398     0.0569     2.4206     0.1614   -14.2832    17.3986    16.2823
  452.0000    38.7783     0.0658     2.4213     0.1577   -14.8656    17.5295    16.3992
  452.5000    37.8718     0.0719     2.4213     0.1578   -15.2987    17.5403    16.2900
  453.0000    38.1693     0.0732     2.4220     0.1566   -15.2647    17.5512    16.1835
  453.5000    38.6150     0.0716     2.4235     0.1551   -15.1165    17.5642    16.1880
  454.0000    40.2638     0.0716     2.4242     0.1572   -15.5496    17.5749    16.1924
  454.5000    41.4625     0.0715     2.4145     0.1629   -15.9864    17.5856    16.0856
  455.0000    41.7600     0.0730     2.4070     0.1728   -15.9681    17.5963    15.9796
  455.5000    42.2058     0.0729     2.3971     0.1746   -15.9534    17.4834    15.9850
  456.0000    43.1037     0.0728     2.3942     0.1749   -15.9388    17.6177    15.9893
  456.5000    43.8717     0.0713     2.3964     0.1751   -15.9241    17.6284    15.9936
  457.0000    44.5978     0.0667     2.4001     0.1734   -16.2080    17.6391    15.8871
  457.5000    44.7449     0.0652     2.4068     0.1671   -16.4925    17.6499    15.8925
