~VERSION INFORMATION
 VERS.                2.0:   CWLS LOG ASCII STANDARD - VERSION 2.0
 WRAP.                 NO:   ONE LINE PER DEPTH STEP
~WELL INFORMATION
#MNEM.UNIT      DATA TYPE    INFORMATION
#----------   ------------   ------------------------------
 STRT.F           99.0000:   START DEPTH
 STOP.F          750.0000:   STOP DEPTH
 STEP.F            0.5000:   STEP LENGTH
 NULL.          -999.2500:   NO VALUE
 COMP. U S NAVY/INTEX OIL CO:   COMPANY
 WELL.    NRP #3 #43-S-11:   WELL
 FLD .             TEAPOT:   FIELD
 LOC .      S11 T38N R78W:   LOCATION
 CNTY.            NATRONA:   COUNTY
 STAT.            WYOMING:   STATE
 CTRY. UNITED STATES OF AMERICA:   COUNTRY
 SRVC.       Schlumberger:   SERVICE COMPANY
 DATE.        12-JUL-1962:   LOGDATE
 API .       490250636100:   API NUMBER
~CURVE INFORMATION
#MNEM.UNIT       API CODE    CURVE DESCRIPTION
#----------   ------------   ------------------------------
 DEPT.F                  :   
 SPR .MV     05 010 01 00:   SPONTANEOUS POTENTIAL FROM RES.
 CILD.MMHO   05 110 46 00:   CONDUCTIVITY INDUCTION LOG DEEP
 ILD .OHMM   05 120 46 00:   INDUCTION LOG DEEP
 ASN .OHMM   05 041 16 00:   AMPLIFIED SHORT NORMAL 16"
 GR  .GAPI   30 310 01 00:   GAMMA RAY
~PARAMETER INFORMATION
#MNEM.UNIT          VALUE    DESCRIPTION
#----------   ------------   ------------------------------
 EPD .F              5177:   ELEVATION PERMANENT DATUM
 LMF .                 KB:   LOG MEASURED FROM
 DAPD.F                 5:   FEET ABOVE PERMANENT DATUM
 DMF .                 KB:   DRILLING MEASURED FROM
 EKB .F              5182:   KELLING BUSHING
 EGL .F              5177:   GROUND LEVEL
 DATE.          7-12-1962:   RUN DATE
 RUN .                  1:   RUN NUMBER
 DD  .F               750:   DEPTH DRILLER
 DL  .F               751:   DEPTH LOGGER
 BLI .F               750:   BOTTOM LOG INTERVAL
 TLI .F               100:   TOP LOG INTERVAL
 CBD .F                10:   CASING BOTTOM DRILLER
 BS  .IN             6.75:   BIT SIZE
 BSD .F               750:   BIT SIZE AT DEPTH
 DFT .           OIL EMUL:   DRILLING FLUID TYPE
 DFD .               10.2:   DRILLING FLUID DENSITY
 DFV .                 40:   DRILLING FLUID VISCOSITY
 DFL .                4.6:   DRILLING FLUID LOSS
 RMS .OHMM            5.2:   RESISTIVITY MUD SAMPLE
 MST .F                82:   MUD SAMPLE TEMPERATURE
 RMF .OHMM            3.7:   RESISTIVITY MUD FILTRATE SAMPLE
 MFST.F                82:   MUD FILTRATE SAMPLE TEMPERATURE
 RMC .OHMM            5.8:   RESISTIVITY MUD CAKE
 MCST.F                80:   MUD CAKE SAMPLE TEMPERATURE
 TCS .HRS              .5:   TIME CURCULATED STOPPED
 LUN .               2523:   LOGGING UNIT NUMBER
 LUL .               CSPR:   LOGGING UNIT LOCATION
 ENGI.           ELLERMAN:   RECORDING ENGINEER
 WITN.          JORGENSON:   WITNESSED BY
 CLNT.            A2DTECH:   CLIENT CODE
 ORIG.       2", 5" PRINT:   ORIGIN OF DATA
 UWI .       490250636100:   UNIQUE WELL ID
 DICO. A2D Technologies, Inc.:   DIGITIZING COMPANY
~OTHER INFORMATION
~A   DEPT      SPR       CILD        ILD          ASN       GR   
# ...
  343.0000   -54.7682   134.2742     6.7926     6.9253  -999.2500
  343.5000   -55.1492   135.7211     6.6893     6.9754  -999.2500
  344.0000   -54.5490   137.1641     6.5855     6.8380  -999.2500
  344.5000   -53.9386   138.6158     6.4818     6.7148  -999.2500
  345.0000   -53.8674   139.9198     6.3782     6.6443  -999.2500
  345.5000   -54.0260   141.6082     6.2746     6.5031  -999.2500
  346.0000   -53.3538   143.2966     6.1706     6.4269  -999.2500
  346.5000   -53.4730   144.9850     6.0655     6.5003  -999.2500
  347.0000   -54.5719   145.9378     5.9770     6.5496  -999.2500
  347.5000   -54.0810   144.5871     6.1559     6.5494  -999.2500
  348.0000   -52.7880   141.5556     6.3402     6.5532  -999.2500
  348.5000   -51.5769   138.5240     6.5233     6.6582  -999.2500
  349.0000   -53.3367   135.4925     6.7059     6.7881  -999.2500
  349.5000   -54.8201   132.4609     6.8887     6.9534  -999.2500
  350.0000   -55.0300   129.4294     7.0714     7.1295  -999.2500
  350.5000   -54.7438   126.3978     7.2541     7.3066  -999.2500
  351.0000   -54.3712   123.3662     7.4368     7.4840  -999.2500
  351.5000   -53.9932   119.8596     7.6197     7.6357  -999.2500
  352.0000   -53.8111   117.8357     7.8017     7.7839  -999.2500
  352.5000   -53.8039   115.8475     7.9854     7.9177  -999.2500
  353.0000   -53.7715   119.1610     7.9541     7.8550  -999.2500
  353.5000   -53.7393   122.4060     7.7239     7.7105  -999.2500
  354.0000   -53.7069   125.6925     7.4922     7.5529  -999.2500
  354.5000   -53.6747   128.2212     7.2599     7.3907  -999.2500
  355.0000   -53.6425   131.3607     7.0280     7.2285  -999.2500
  355.5000   -53.6074   134.4715     6.7961     7.0663  -999.2500
  356.0000   -53.4759   137.5823     6.5649     6.9037  -999.2500
  356.5000   -53.0498   140.9228     6.3269     6.7337  -999.2500
  357.0000   -52.6066   141.9258     6.2165     6.6749  -999.2500
  357.5000   -53.6321   140.0563     6.2077     6.6670  -999.2500
  358.0000   -54.4622   137.4903     6.3843     6.7344  -999.2500
  358.5000   -53.7827   134.9243     6.5694     6.9120  -999.2500
  359.0000   -53.1127   132.3584     6.7537     7.1445  -999.2500
  359.5000   -53.3542   129.7924     6.9375     7.3751  -999.2500
  360.0000   -54.3362   127.2264     7.1215     7.5592  -999.2500
  360.5000   -54.8515   124.6604     7.3050     7.4166  -999.2500
  361.0000   -54.3301   122.0944     7.4897     7.3447  -999.2500
  361.5000   -53.9242   119.5284     7.5655     7.5887  -999.2500
  362.0000   -53.7193   117.8536     7.5250     7.6964  -999.2500
  362.5000   -53.5027   118.7198     7.4830     7.5113  -999.2500
  363.0000   -53.4132   119.6335     7.4408     7.4542  -999.2500
  363.5000   -53.4451   120.5471     7.3994     7.5042  -999.2500
  364.0000   -53.4786   121.4607     7.3809     7.6551  -999.2500
  364.5000   -53.5123   121.0519     7.4441     7.7398  -999.2500
  365.0000   -53.5461   118.7760     7.5060     7.6345  -999.2500
  365.5000   -53.5782   116.8246     7.5954     7.5975  -999.2500
  366.0000   -53.6179   117.8084     7.6464     7.7596  -999.2500
  366.5000   -53.1620   119.0647     7.6072     7.8636  -999.2500
  367.0000   -52.5268   120.3210     7.5641     7.7882  -999.2500
  367.5000   -51.8889   121.5772     7.5213     7.7179  -999.2500
  368.0000   -52.6231   122.8335     7.4787     7.6257  -999.2500
  368.5000   -53.6855   124.0898     7.4361     7.4984  -999.2500
  369.0000   -53.0473   125.3460     7.3935     7.3718  -999.2500
  369.5000   -52.4108   126.6023     7.3509     7.2639  -999.2500
  370.0000   -52.2849   127.8837     7.3084     7.2542  -999.2500
  370.5000   -54.0829   127.5568     7.2657     7.3315  -999.2500
  371.0000   -54.8007   127.1381     7.2228     7.4151  -999.2500
  371.5000   -54.6674   126.8806     7.1775     7.4550  -999.2500
  372.0000   -54.4811   125.2999     7.2547     7.4654  -999.2500
  372.5000   -54.4249   123.2899     7.3601     7.4854  -999.2500
  373.0000   -54.9503   121.2798     7.4662     7.5968  -999.2500
  373.5000   -55.5101   119.2698     7.5721     7.7389  -999.2500
  374.0000   -55.5074   117.2598     7.6779     7.9124  -999.2500
  374.5000   -54.9071   115.2497     7.7835     8.2271  -999.2500
  375.0000   -54.3161   113.2397     7.8894     8.4410  -999.2500
  375.5000   -53.7029   112.4720     8.0041     8.2759  -999.2500
  376.0000   -54.5137   111.5583     8.1594     8.0809  -999.2500
  376.5000   -55.3084   110.8325     8.3155     8.2041  -999.2500
  377.0000   -55.0254   110.6219     8.3686     8.3551  -999.2500
  377.5000   -54.8282   110.4125     8.3606     8.1777  -999.2500
  378.0000   -53.8825   110.2031     8.3514     8.0590  -999.2500
  378.5000   -53.1730   109.9937     8.3422     8.2361  -999.2500
  379.0000   -54.5356   110.0702     8.3330     8.4145  -999.2500
  379.5000   -54.4748   111.1869     8.3239     8.4527  -999.2500
  380.0000   -53.6649   112.3036     8.3148     8.3818  -999.2500
  380.5000   -52.8680   113.4203     8.3056     8.3096  -999.2500
  381.0000   -52.6838   113.8415     8.2965     8.2395  -999.2500
  381.5000   -55.2668   114.3510     8.2874     8.1653  -999.2500
  382.0000   -56.7555   114.9636     8.2775     8.0960  -999.2500
  382.5000   -56.5836   115.5792     8.2385     8.0929  -999.2500
  383.0000   -55.5698   116.1947     8.1521     8.0684  -999.2500
  383.5000   -55.3360   116.8100     8.0665     8.0550  -999.2500
  384.0000   -55.9242   117.4253     7.9806     8.0136  -999.2500
  384.5000   -56.0020   118.0406     7.8948     7.9701  -999.2500
  385.0000   -55.7520   118.6560     7.8090     7.9254  -999.2500
  385.5000   -55.4999   119.2713     7.7229     7.8806  -999.2500
  386.0000   -55.6272   119.8690     7.6367     7.8355  -999.2500
  386.5000   -56.6428   119.2968     7.5758     7.7951  -999.2500
  387.0000   -56.7363   118.0485     7.6897     7.7719  -999.2500
  387.5000   -56.3693   116.7888     7.8034     7.7985  -999.2500
  388.0000   -56.0013   115.5315     7.9163     7.9180  -999.2500
  388.5000   -55.4493   114.2728     8.0291     8.0364  -999.2500
  389.0000   -54.7779   113.0267     8.1419     8.1286  -999.2500
  389.5000   -54.3416   111.6911     8.2547     8.2513  -999.2500
  390.0000   -55.3065   110.3511     8.3674     8.3724  -999.2500
  390.5000   -56.8491   109.0110     8.4800     8.4938  -999.2500
  391.0000   -56.0826   107.6710     8.5961     8.6166  -999.2500
  391.5000   -54.8156   106.3310     8.7522     8.6584  -999.2500
  392.0000   -55.8686   104.9910     8.7543     8.6722  -999.2500
  392.5000   -57.4129   104.8144     8.7298     8.6846  -999.2500
  393.0000   -57.5102   105.3555     8.7061     8.6944  -999.2500
  393.5000   -57.0342   106.5041     8.6845     8.6167  -999.2500
  394.0000   -56.6344   107.6527     8.6019     8.4487  -999.2500
  394.5000   -56.9683   108.8013     8.4949     8.4023  -999.2500
  395.0000   -57.3114   109.9499     8.3866     8.5204  -999.2500
  395.5000   -57.4137   111.1021     8.2783     8.4610  -999.2500
  396.0000   -57.4154   112.2151     8.1701     8.3015  -999.2500
  396.5000   -57.4150   113.8734     8.0618     8.2424  -999.2500
  397.0000   -57.4154   115.2076     7.9536     8.1649  -999.2500
  397.5000   -57.4182   116.7558     7.8453     8.0562  -999.2500
  398.0000   -57.4124   118.3016     7.7371     7.9449  -999.2500
  398.5000   -57.1414   119.8503     7.6289     7.8323  -999.2500
  399.0000   -56.0038   121.3965     7.5206     7.7392  -999.2500
  399.5000   -54.9341   123.4293     7.4123     7.6419  -999.2500
  400.0000   -55.3641   125.3143     7.2992     7.5443  -999.2500
  400.5000   -56.5362   125.8776     7.3060     7.4660  -999.2500
  401.0000   -56.8015   124.7212     7.3731     7.4572  -999.2500
  401.5000   -56.2007   123.4424     7.4409     7.4943  -999.2500
  402.0000   -54.0528   122.1636     7.5087     7.6811  -999.2500
  402.5000   -53.5348   120.8849     7.5763     7.8141  -999.2500
  403.0000   -55.2338   119.6061     7.6439     7.8299  -999.2500
  403.5000   -56.7836   118.3274     7.7116     7.8445  -999.2500
