~VERSION INFORMATION
 VERS.                2.0:   CWLS LOG ASCII STANDARD - VERSION 2.0
 WRAP.                 NO:   ONE LINE PER DEPTH STEP
~WELL INFORMATION
#MNEM.UNIT      DATA TYPE    INFORMATION
#----------   ------------   ------------------------------
 STRT.F            1.0000:   START DEPTH
 STOP.F          483.0000:   STOP DEPTH
 STEP.F            0.5000:   STEP LENGTH
 NULL.          -999.2500:   NO VALUE
 COMP. LAWRENCE/ALLISON INC:   COMPANY
 WELL.   47-66-1 SX #47-3:   WELL
 FLD .             TEAPOT:   FIELD
 LOC .       S3 T38N R78W:   LOCATION
 CNTY.            NATRONA:   COUNTY
 STAT.            WYOMING:   STATE
 CTRY. UNITED STATES OF AMERICA:   COUNTRY
 SRVC.           Gearhart:   SERVICE COMPANY
 DATE.        07-JUN-1988:   LOGDATE
 API .       490251121500:   API NUMBER
~CURVE INFORMATION
#MNEM.UNIT       API CODE    CURVE DESCRIPTION
#----------   ------------   ------------------------------
 DEPT.F                  :   
 GRR .GAPI   07 310 01 00:   GAMMA RAY
 RILD.OHMM   07 120 46 00:   INDUCTION LOG DEEP RESISTIVITY
 RILM.OHMM   07 120 44 00:   INDUCTION LOG MEDIUM RESISTIVITY
~PARAMETER INFORMATION
#MNEM.UNIT          VALUE    DESCRIPTION
#----------   ------------   ------------------------------
 PD  .                 GL:   PERMANENT DATUM
 EPD .F              5183:   ELEVATION PERMANENT DATUM
 LMF .                 KB:   LOG MEASURED FROM
 DAPD.F                 5:   FEET ABOVE PERMANENT DATUM
 DMF .                 KB:   DRILLING MEASURED FROM
 EKB .F              5188:   KELLING BUSHING
 EGL .F              5183:   GROUND LEVEL
 DATE.        07-JUN-1988:   RUN DATE
 RUN .                  1:   RUN NUMBER
 DD  .F               490:   DEPTH DRILLER
 DL  .F               483:   DEPTH LOGGER
 BLI .F               483:   BOTTOM LOG INTERVAL
 CS  .IN            8.625:   CASING SIZE
 CBD .F                40:   CASING BOTTOM DRILLER
 CBL .F                40:   CASING BOTTOM LOGGER
 BS  .IN            7.875:   BIT SIZE
 BSD .F               490:   BIT SIZE AT DEPTH
 DFT .                AIR:   DRILLING FLUID TYPE
 TLAB.HRS            0400:   TIME LOGGER AT BOTTOM
 MRT .F                70:   MAXIMUM RECORDED TEMPERATURE
 LUN .               7597:   LOGGING UNIT NUMBER
 LUL .           GILLETTE:   LOGGING UNIT LOCATION
 ENGI.          HUCKFELDT:   RECORDING ENGINEER
 WITN.             STRONG:   WITNESSED BY
 CLNT.            A2DTECH:   CLIENT CODE
 ORIG.           5" PRINT:   ORIGIN OF DATA
 UWI .       490251121500:   UNIQUE WELL ID
 DICO. A2D Technologies, Inc.:   DIGITIZING COMPANY
~OTHER INFORMATION
~A    DEPT      GRR      RILD       RILM   
# ...
  365.0000    79.8777    25.4862    24.7055
  365.5000    81.0973    25.6592    24.6971
  366.0000    83.2244    25.6504    24.6903
  366.5000    84.4425    25.2886    24.6836
  367.0000    84.1272    24.9319    24.5054
  367.5000    82.8940    24.4096    24.3285
  368.0000    79.9163    24.0653    23.8184
  368.5000    79.0116    23.7257    23.6326
  369.0000    79.0190    23.3693    23.1503
  369.5000    79.6310    22.8996    22.8222
  370.0000    81.4551    22.5766    22.5001
  370.5000    83.8853    22.2581    22.1824
  371.0000    84.4958    21.7918    21.8693
  371.5000    82.6850    21.4844    21.4107
  372.0000    81.1757    21.0343    20.9618
  372.5000    81.5000    20.5936    20.5223
  373.0000    83.6545    20.3032    19.9524
  373.5000    86.0436    19.8778    19.3984
  374.0000    87.2616    19.5790    18.8597
  374.5000    86.9645    19.0523    18.4641
  375.0000    85.1523    18.5237    18.2034
  375.5000    84.2491    18.2624    17.9454
  376.0000    84.2550    18.0048    17.6920
  376.5000    85.7761    17.7508    17.3211
  377.0000    86.3881    17.5005    17.1960
  377.5000    85.4849    17.3742    17.0719
  378.0000    84.2544    17.2489    16.9487
  378.5000    82.4665    17.0056    16.7094
  379.0000    82.7769    16.8828    16.4735
  379.5000    83.3889    16.7600    16.3546
  380.0000    83.6979    16.5236    16.2365
  380.5000    83.7038    16.4045    16.0072
  381.0000    83.4067    16.2861    15.8731
  381.5000    81.8975    16.0564    15.6663
  382.0000    79.7822    15.8299    15.4452
  382.5000    79.7881    15.8256    15.3336
  383.0000    81.0061    15.7115    15.2230
  383.5000    82.8486    15.5982    15.1131
  384.0000    85.3335    15.5794    15.0039
  384.5000    87.3890    15.3729    14.9999
  385.0000    87.3950    15.3687    14.8916
  385.5000    86.1888    15.1520    14.8875
  386.0000    84.3765    15.1478    14.8834
  386.5000    83.7749    15.1437    14.8793
  387.0000    84.0854    15.0345    14.8751
  387.5000    85.3034    15.0304    14.8702
  388.0000    86.8245    14.9220    14.8662
  388.5000    86.2243    14.9179    14.8621
  389.0000    84.7092    15.0181    14.9630
  389.5000    83.8120    15.2247    14.9579
  390.0000    85.9406    15.2196    14.9538
  390.5000    88.6738    15.2154    14.9497
  391.0000    90.1949    15.2113    14.9457
  391.5000    90.5023    15.1016    14.8378
  392.0000    89.9037    14.9927    14.7306
  392.5000    90.2126    14.6786    14.6242
  393.0000    90.5216    14.5727    14.5185
  393.5000    89.0124    14.5653    14.3128
  394.0000    87.5032    14.3631    14.2094
  394.5000    87.8180    14.2587    14.2056
  395.0000    90.9090    14.1558    14.1030
  395.5000    92.9770    14.1520    14.0992
  396.0000    92.9829    13.9523    13.9001
  396.5000    92.6843    13.7555    13.7998
  397.0000    94.2069    13.6563    13.6050
  397.5000    96.3340    13.5578    13.5067
  398.0000    97.2490    13.6490    13.4092
  398.5000    96.6489    13.6452    13.3123
  399.0000    95.7457    13.7369    13.3087
  399.5000    94.8426    13.7322    13.3973
  400.0000    94.5455    13.6970    13.4081
  400.5000    95.4579    13.5359    13.4862
  401.0000    96.0669    13.5332    13.3903
  401.5000    96.3728    13.4366    13.3885
  402.0000    95.3939    13.4339    13.2937
  402.5000    93.6520    13.4305    13.2919
  403.0000    93.6549    13.3346    13.2901
  403.5000    93.3540    13.2394    13.2879
  404.0000    92.4485    13.1449    13.1939
  404.5000    92.4515    13.0510    13.1921
  405.0000    93.6672    12.9458    13.0987
  405.5000    94.8822    12.7753    12.9156
  406.0000    94.8851    12.6841    12.8237
  406.5000    95.1910    12.5935    12.6444
  407.0000    94.8908    12.5035    12.5549
  407.5000    94.8945    12.3281    12.3794
  408.0000    94.8973    12.2394    12.2064
  408.5000    94.9002    12.1520    12.1195
  409.0000    96.1152    12.0652    11.9501
  409.5000    98.2820    11.8959    11.8655
  410.0000   100.3642    11.7289    11.6183
  410.5000   100.6701    11.5552    11.5361
  411.0000   100.3692    11.2437    11.2874
  411.5000    99.7668    11.0089    11.0601
  412.0000    98.8446    10.6299    10.8297
  412.5000    97.9544    10.2639    10.3847
  413.0000    99.1701     9.8400     9.9579
  413.5000   100.6881     9.2413     9.5433
  414.0000   101.6001     8.7386     8.8422
  414.5000   102.2203     7.9803     8.0188
  415.0000   104.0309     7.2372     7.1714
  415.5000   107.3671     6.7488     6.5036
  416.0000   111.3094     5.9938     5.8980
  416.5000   115.8577     6.6063     5.3311
  417.0000   121.9519     6.9839     5.0226
  417.5000   127.9854     6.9336     5.2001
  418.0000   129.1997     6.8841     5.5749
  418.5000   122.2336     6.8828     6.1457
  419.0000   110.7214     7.1748     6.9802
  419.5000   103.4465     7.9636     8.0076
  420.0000    97.3945     9.0888     8.9514
  420.5000    96.1846     9.8794     9.5965
  421.0000    97.0973    10.2991    10.0052
  421.5000   100.1305    10.5199    10.2172
  422.0000   103.7697    10.6599    10.3574
  422.5000   105.5915    10.8823    10.5745
  423.0000   105.8974    11.0334    10.7966
  423.5000   107.1124    11.2636    10.9471
  424.0000   109.2365    11.4992    11.2549
  424.5000   109.2485    11.5895    11.4230
  425.0000   107.1218    11.9014    11.7325
  425.5000   105.3065    12.1510    11.9785
  426.0000   103.4912    12.4912    12.2301
  426.5000   102.2820    12.5762    12.4869
  427.0000   101.3758    12.8391    12.7492
  427.5000   101.6818    12.9263    12.9265
  428.0000   101.9883    13.1050    13.1975
  428.5000   101.3852    13.2863    13.3811
  429.0000   100.7820    13.5635    13.5671
  429.5000   100.4818    13.7511    13.7558
  430.0000   100.1817    13.9412    13.8502
  430.5000   100.4884    14.0359    13.9453
  431.0000   100.7936    14.1312    14.0410
  431.5000    99.5850    14.2271    14.1373
  432.0000    98.6787    14.4231    14.2339
  432.5000    98.9849    14.6260    14.2319
  433.0000   100.2005    14.7219    14.3296
  433.5000   100.5064    14.8218    14.3273
  434.0000    99.6002    14.7153    14.3253
  434.5000    98.3910    14.6102    14.3234
  435.0000    98.0908    14.5058    14.3215
  435.5000    98.7005    14.4022    14.2197
  436.0000    99.6125    14.2987    14.0209
  436.5000   100.2214    14.0980    14.0190
  437.0000   100.8304    13.9973    14.0171
  437.5000   100.8334    13.9945    14.0153
  438.0000   100.8369    13.9917    14.0129
  438.5000    99.9307    13.9882    14.0111
  439.0000    99.6298    13.8883    13.9119
  439.5000   100.5425    13.7892    13.8134
  440.0000   101.1719    13.5956    13.6203
  440.5000   102.6702    13.4048    13.5125
  441.0000   104.1883    13.2166    13.2417
  441.5000   105.1003    12.9401    13.0566
  442.0000   105.1031    12.7585    12.8741
  442.5000   104.8030    12.4921    12.6941
  443.0000   106.0187    12.4029    12.4297
  443.5000   108.7489    12.2288    12.1704
  444.0000   111.1760    12.0566    12.0002
  444.5000   111.7850    11.8874    11.7503
  445.0000   110.2626    11.7205    11.5860
  445.5000   108.1551    11.4758    11.4241
  446.0000   105.7337    11.3147    11.2640
  446.5000   103.6154    11.0785    11.1065
  447.0000   103.6183    10.9988    11.0279
  447.5000   104.8384    10.9203    11.0264
  448.0000   107.2612    10.8423    11.0249
  448.5000   109.3853    10.8401    10.9469
  449.0000   109.9935    10.8380    10.9451
  449.5000   108.4820    10.8357    10.9436
  450.0000   108.1818    10.9089    10.8995
  450.5000   108.1818    10.8295    10.7893
  451.0000   108.4848    10.6761    10.6387
  451.5000   109.3939    10.5180    10.4902
  452.0000   110.3030    10.3748    10.4161
  452.5000   111.8182    10.2278    10.2707
  453.0000   112.1212    10.1534    10.1958
  453.5000   112.1212    10.0095     9.9860
  454.0000   111.5152     9.8677     9.8463
  454.5000   110.3030     9.7279     9.7089
  455.0000   111.2121     9.5899     9.6403
  455.5000   112.4242     9.3877     9.5058
