~VERSION INFORMATION
 VERS.                2.0:   CWLS LOG ASCII STANDARD - VERSION 2.0
 WRAP.                 NO:   ONE LINE PER DEPTH STEP
~WELL INFORMATION
#MNEM.UNIT      DATA TYPE    INFORMATION
#----------   ------------   ------------------------------
 STRT.F           38.0000:   START DEPTH
 STOP.F          818.0000:   STOP DEPTH
 STEP.F            0.5000:   STEP LENGTH
 NULL.          -999.2500:   NO VALUE
 COMP. FENIX & SCISSON INC:   COMPANY
 WELL. NAVAL PETROLEUM RESERVE 3 SX-1 #32-14:   WELL
 FLD .             TEAPOT:   FIELD
 LOC .      S14 T38N R78W:   LOCATION
 CNTY.            NATRONA:   COUNTY
 STAT.            WYOMING:   STATE
 CTRY. UNITED STATES OF AMERICA:   COUNTRY
 SRVC.            Unknown:   SERVICE COMPANY
 DATE.        03-MAY-1978:   LOGDATE
 API .       490251061900:   API NUMBER
~CURVE INFORMATION
#MNEM.UNIT       API CODE    CURVE DESCRIPTION
#----------   ------------   ------------------------------
 DEPT.F                  :   
 SPR .MV     05 010 01 00:   SPONTANEOUS POTENTIAL FROM RES.
 ILD .OHMM   05 120 46 00:   INDUCTION LOG DEEP
 SN  .OHMM   05 040 16 00:   SHORT NORMAL 16"
 CALD.IN     45 280 60 00:   CALIPER
 GRD .GAPI   45 310 01 00:   GAMMA RAY FROM DENSITY LOG
 RHOB.G/C3   45 350 01 00:   BULK DENSITY
 DPHI.DEC    45 890 12 00:   DENSITY POROSITY SANDSTONE
 CORR.G/C3   45 356 01 00:   DENSITY CORRECTION
~PARAMETER INFORMATION
#MNEM.UNIT          VALUE    DESCRIPTION
#----------   ------------   ------------------------------
 PD  .                 GL:   PERMANENT DATUM
 EPD .F              5209:   ELEVATION PERMANENT DATUM
 LMF .                 KB:   LOG MEASURED FROM
 DAPD.F                 4:   FEET ABOVE PERMANENT DATUM
 DMF .                 KB:   DRILLING MEASURED FROM
 EKB .F              5213:   KELLING BUSHING
 EGL .F              5209:   GROUND LEVEL
 DATE.           5-3-1978:   RUN DATE
 RUN .                  1:   RUN NUMBER
 DD  .F               806:   DEPTH DRILLER
 DL  .F               824:   DEPTH LOGGER
 BLI .F               818:   BOTTOM LOG INTERVAL
 TLI .F                50:   TOP LOG INTERVAL
 CS  .IN            8.625:   CASING SIZE
 CBD .F                40:   CASING BOTTOM DRILLER
 BS  .IN            7.875:   BIT SIZE
 BSD .F               806:   BIT SIZE AT DEPTH
 DFT .                KCL:   DRILLING FLUID TYPE
 DFD .                8.6:   DRILLING FLUID DENSITY
 DFV .                 34:   DRILLING FLUID VISCOSITY
 DFPH.                  9:   DRILLING FLUID PH
 DFL .               16.4:   DRILLING FLUID LOSS
 MSS .           FLOWLINE:   MUD SAMPLE SOURCE
 RMS .OHMM            .75:   RESISTIVITY MUD SAMPLE
 MST .F                52:   MUD SAMPLE TEMPERATURE
 RMF .OHMM            .65:   RESISTIVITY MUD FILTRATE SAMPLE
 MFST.F                60:   MUD FILTRATE SAMPLE TEMPERATURE
 RMC .OHMM            1.2:   RESISTIVITY MUD CAKE
 MCST.F                62:   MUD CAKE SAMPLE TEMPERATURE
 MFSS.               MEAS:   MUD FILTRATE SAMPLE SOURCE
 RMB .OHMM            .54:   RESISTIVITY MUD AT BHT
 BHT .F                72:   BOTTOM HOLE TEMPERATURE
 TCS .HRS               1:   TIME CURCULATED STOPPED
 MRT .F                72:   MAXIMUM RECORDED TEMPERATURE
 LUN .               2958:   LOGGING UNIT NUMBER
 LUL .               CASP:   LOGGING UNIT LOCATION
 ENGI.             MILLER:   RECORDING ENGINEER
 WITN.           MCGINLEY:   WITNESSED BY
 CLNT.            A2DTECH:   CLIENT CODE
 ORIG.           5" PRINT:   ORIGIN OF DATA
 UWI .       490251061900:   UNIQUE WELL ID
 DICO. A2D Technologies, Inc.:   DIGITIZING COMPANY
~OTHER INFORMATION
~A   DEPT      SPR        ILD         SN         CALD      GRD       RHOB       DPHI       CORR   
# ...
  240.5000   -35.5820     7.9256     7.5666     8.3919    79.1570     2.4748     0.1403     0.0182
  241.0000   -35.6596     7.9256     7.5601     8.3941    81.0036     2.4683     0.1406     0.0164
  241.5000   -35.7309     7.9256     7.5537     8.3965    82.8022     2.4632     0.1402     0.0168
  242.0000   -36.2434     7.9256     7.5473     8.3981    83.5156     2.4649     0.1399     0.0170
  242.5000   -36.7654     7.9256     7.5408     8.3851    83.3779     2.4702     0.1410     0.0173
  243.0000   -36.7537     7.9217     7.5344     8.3504    83.2133     2.4650     0.1432     0.0176
  243.5000   -36.7573     7.9046     7.5280     8.3182    81.8886     2.4590     0.1440     0.0179
  244.0000   -36.4552     7.8877     7.5216     8.2858    78.3535     2.4591     0.1391     0.0182
  244.5000   -36.0090     7.8710     7.5152     8.2535    75.9827     2.4673     0.1426     0.0184
  245.0000   -35.9097     7.8542     7.5088     8.2213    78.0385     2.4641     0.1442     0.0182
  245.5000   -35.8174     7.8375     7.5024     8.1966    81.1313     2.4604     0.1463     0.0179
  246.0000   -35.7268     7.8208     7.4962     8.1712    81.7903     2.4567     0.1463     0.0176
  246.5000   -35.6383     7.8042     7.4902     8.1457    81.6650     2.4563     0.1445     0.0173
  247.0000   -35.5353     7.7875     7.4843     8.1344    79.7137     2.4595     0.1423     0.0170
  247.5000   -34.7865     7.7566     7.4783     8.1256    77.4628     2.4632     0.1403     0.0167
  248.0000   -34.1428     7.7164     7.4724     8.0150    75.7251     2.4662     0.1428     0.0164
  248.5000   -34.3661     7.6763     7.4665     7.9409    75.9288     2.4621     0.1483     0.0161
  249.0000   -34.5870     7.6389     7.4605     8.0370    76.1008     2.4558     0.1495     0.0159
  249.5000   -35.0970     7.6474     7.4546     8.1614    76.2694     2.4556     0.1403     0.0156
  250.0000   -35.6020     7.6554     7.4486     8.1172    76.3413     2.4657     0.1391     0.0153
  250.5000   -35.9719     7.6634     7.4427     8.0661    76.2369     2.4671     0.1398     0.0150
  251.0000   -36.0462     7.6714     7.4367     8.0132    76.4360     2.4651     0.1413     0.0147
  251.5000   -36.1291     7.6794     7.4311     8.0135    77.3553     2.4631     0.1423     0.0150
  252.0000   -36.2104     7.6874     7.4396     8.0289    77.2631     2.4611     0.1401     0.0193
  252.5000   -36.2917     7.6955     7.4488     8.0422    76.4134     2.4685     0.1314     0.0236
  253.0000   -36.3561     7.7035     7.4581     8.0419    75.5843     2.4827     0.1263     0.0244
  253.5000   -36.3549     7.7143     7.4673     8.0418    75.5639     2.4908     0.1399     0.0244
  254.0000   -36.3547     7.7348     7.4766     8.0418    75.5986     2.4740     0.1391     0.0264
  254.5000   -36.3549     7.7551     7.4858     8.0418    75.6293     2.4674     0.1299     0.0360
  255.0000   -36.2242     7.7757     7.4950     8.0419    75.6591     2.4813     0.1263     0.0456
  255.5000   -35.9631     7.7982     7.5042     8.0415    75.6879     2.4932     0.1239     0.0485
  256.0000   -35.7417     7.8222     7.5130     8.0599    75.7167     2.4959     0.1267     0.0460
  256.5000   -35.5527     7.8463     7.5218     8.0857    75.7252     2.4878     0.1301     0.0255
  257.0000   -35.5574     7.8704     7.5307     8.1118    77.2144     2.4800     0.1339     0.0182
  257.5000   -35.5579     7.8946     7.5395     8.1380    79.1422     2.4778     0.1387     0.0184
  258.0000   -35.5565     7.9189     7.5484     8.1640    78.7861     2.4652     0.1435     0.0182
  258.5000   -35.4836     7.9432     7.5573     8.1903    78.3261     2.4560     0.1420     0.0293
  259.0000   -35.3222     7.9676     7.5664     8.2050    79.3403     2.4592     0.1384     0.0443
  259.5000   -35.1616     7.9989     7.5689     8.2288    80.3591     2.4695     0.1333     0.0593
  260.0000   -34.9942     7.9687     7.5689     8.2523    78.9588     2.4799     0.1267     0.0744
  260.5000   -35.0209     7.9271     7.5689     8.2675    74.7239     2.4923     0.1223     0.0778
  261.0000   -35.1016     7.8858     7.5690     8.2780    74.7501     2.4971     0.1236     0.0604
  261.5000   -35.1836     7.8446     7.5689     8.2885    74.8246     2.4817     0.1398     0.0263
  262.0000   -35.2642     7.8037     7.5569     8.2989    74.9147     2.4618     0.1436     0.0131
  262.5000   -35.3374     7.7541     7.5038     8.3095    75.6357     2.4632     0.1400     0.0125
  263.0000   -35.6938     7.6935     7.4510     8.3202    78.4713     2.4651     0.1377     0.0130
  263.5000   -36.0858     7.6334     7.3986     8.3208    79.4214     2.4671     0.1359     0.0134
  264.0000   -36.5733     7.5689     7.3626     8.3207    77.4726     2.4693     0.1342     0.0139
  264.5000   -36.5298     7.5907     7.3757     8.3207    75.0115     2.4770     0.1299     0.0143
  265.0000   -36.4911     7.6145     7.3857     8.3207    73.7715     2.4832     0.1294     0.0147
  265.5000   -36.4548     7.6385     7.3957     8.3207    74.7191     2.4810     0.1323     0.0151
  266.0000   -36.4189     7.6625     7.4058     8.3207    79.0159     2.4779     0.1343     0.0155
  266.5000   -36.3848     7.6865     7.4158     8.3204    79.9567     2.4747     0.1366     0.0159
  267.0000   -36.3386     7.7093     7.4259     8.3226    80.0190     2.4716     0.1387     0.0164
  267.5000   -35.9581     7.7095     7.4360     8.3691    80.1073     2.4690     0.1375     0.0168
  268.0000   -35.7570     7.7096     7.4461     8.4160    80.7723     2.4723     0.1345     0.0172
  268.5000   -35.7579     7.7096     7.4562     8.4382    81.5183     2.4767     0.1314     0.0176
  269.0000   -35.7537     7.7096     7.4664     8.4337    81.7309     2.4813     0.1307     0.0180
  269.5000   -35.5543     7.7096     7.4765     8.4293    81.6732     2.4800     0.1339     0.0186
  270.0000   -34.9816     7.7096     7.4866     8.4249    81.6055     2.4771     0.1299     0.0240
  270.5000   -35.0555     7.7096     7.4968     8.4204    81.5147     2.4872     0.1220     0.0296
  271.0000   -35.1599     7.7095     7.5070     8.4177    78.5780     2.4985     0.1207     0.0273
  271.5000   -35.2584     7.7135     7.5172     8.4149    75.3411     2.4996     0.1312     0.0226
  272.0000   -35.3914     7.7196     7.5274     8.4121    75.6175     2.4876     0.1359     0.0178
  272.5000   -36.1673     7.7258     7.5377     8.4094    77.0878     2.4765     0.1310     0.0164
  273.0000   -36.5537     7.7319     7.5479     8.4066    78.7619     2.4781     0.1305     0.0162
  273.5000   -36.5542     7.7381     7.5581     8.4038    79.3354     2.4809     0.1292     0.0160
  274.0000   -36.5544     7.7443     7.5685     8.4010    79.3462     2.4837     0.1283     0.0158
  274.5000   -36.5538     7.7505     7.5689     8.3983    79.3475     2.4860     0.1279     0.0155
  275.0000   -36.5537     7.7566     7.5689     8.3955    79.3345     2.4850     0.1315     0.0153
  275.5000   -36.5529     7.7628     7.5689     8.3927    78.4396     2.4842     0.1284     0.0151
  276.0000   -36.5848     7.7688     7.5693     8.3899    77.7820     2.4868     0.1245     0.0149
  276.5000   -36.6225     7.7772     7.5713     8.3872    78.7020     2.4932     0.1236     0.0147
  277.0000   -36.6604     7.7850     7.5689     8.3844    80.3587     2.4951     0.1271     0.0144
  277.5000   -36.6979     7.5026     7.2326     8.3816    82.0030     2.4931     0.1273     0.0121
  278.0000   -36.7363     7.1595     7.0312     8.3832    83.3850     2.4904     0.1309     0.0098
  278.5000   -36.6735     7.1632     7.0351     8.3878    82.1281     2.4800     0.1379     0.0075
  279.0000   -36.5285     7.1622     7.0392     8.3924    80.5743     2.4672     0.1383     0.0053
  279.5000   -36.3803     7.1618     7.0434     8.3970    80.5431     2.4701     0.1393     0.0029
  280.0000   -36.3623     7.1619     7.0475     8.4016    80.9208     2.4707     0.1407     0.0030
  280.5000   -36.3720     7.1619     7.0517     8.4062    81.3007     2.4681     0.1403     0.0059
