~VERSION INFORMATION
 VERS.                2.0:   CWLS LOG ASCII STANDARD - VERSION 2.0
 WRAP.                 NO:   ONE LINE PER DEPTH STEP
~WELL INFORMATION
#MNEM.UNIT      DATA TYPE    INFORMATION
#----------   ------------   ------------------------------
 STRT.F            2.0000:   START DEPTH
 STOP.F          497.5000:   STOP DEPTH
 STEP.F            0.5000:   STEP LENGTH
 NULL.          -999.2500:   NO VALUE
 COMP. Fluor Daniel (NPOSR) Inc:   COMPANY
 WELL.  NPR ##3 72-5-X-10:   WELL
 FLD .             TEAPOT:   FIELD
 LOC .      S10 T38N R78W:   LOCATION
 CNTY.            NATRONA:   COUNTY
 STAT.            WYOMING:   STATE
 CTRY. UNITED STATES OF AMERICA:   COUNTRY
 SRVC.      Western Atlas:   SERVICE COMPANY
 DATE.        27-APR-1996:   LOGDATE
 API .       490252278100:   API NUMBER
~CURVE INFORMATION
#MNEM.UNIT       API CODE    CURVE DESCRIPTION
#----------   ------------   ------------------------------
 DEPT.F                  :   
 GRR .GAPI   07 310 01 00:   GAMMA RAY FROM RES. LOG.
 RILD.OHMM   07 120 46 00:   INDUCTION LOG DEEP RESISTIVITY
 RILM.OHMM   07 120 44 00:   INDUCTION LOG MEDIUM RESISTIVITY
~PARAMETER INFORMATION
#MNEM.UNIT          VALUE    DESCRIPTION
#----------   ------------   ------------------------------
 PD  .                 GL:   PERMANENT DATUM
 EPD .F              5171:   ELEVATION PERMANENT DATUM
 LMF .                 KB:   LOG MEASURED FROM
 DAPD.F                10:   FEET ABOVE PERMANENT DATUM
 DMF .                 KB:   DRILLING MEASURED FROM
 EKB .F              5181:   KELLING BUSHING
 EDF .F              5180:   DRILLING FLOOR
 EGL .F              5171:   GROUND LEVEL
 DATE.            4-27-96:   RUN DATE
 RUN .                  1:   RUN NUMBER
 DD  .F               505:   DEPTH DRILLER
 DL  .F               505:   DEPTH LOGGER
 BLI .F               498:   BOTTOM LOG INTERVAL
 CS  .IN            9.625:   CASING SIZE
 CBD .F                95:   CASING BOTTOM DRILLER
 CBL .F                95:   CASING BOTTOM LOGGER
 BS  .IN             8.75:   BIT SIZE
 BSD .F               505:   BIT SIZE AT DEPTH
 DFT .                AIR:   DRILLING FLUID TYPE
 MRT .F                88:   MAXIMUM RECORDED TEMPERATURE
 LUN .            HL-6530:   LOGGING UNIT NUMBER
 LUL .             CASPER:   LOGGING UNIT LOCATION
 ENGI.             RAUTIO:   RECORDING ENGINEER
 WITN.              HARDY:   WITNESSED BY
 CLNT.            A2DTECH:   CLIENT CODE
 ORIG.       2", 5" PRINT:   ORIGIN OF DATA
 UWI .       490252278100:   UNIQUE WELL ID
 DICO. A2D Technologies, Inc.:   DIGITIZING COMPANY
~OTHER INFORMATION
~A    DEPT      GRR      RILD       RILM   
# ...
   93.0000    81.9518  -999.2500  -999.2500
   93.5000    82.6473  -999.2500  -999.2500
   94.0000    82.5038  -999.2500  -999.2500
   94.5000    82.6771  -999.2500  -999.2500
   95.0000    81.2767     8.7231     8.8854
   95.5000    82.5794    11.0517    12.3202
   96.0000    93.7956   106.0940    10.7426
   96.5000   108.7166  1954.4294     5.5206
   97.0000   118.5717    20.4349     2.5984
   97.5000   122.2414     3.4061     2.2082
   98.0000   124.9967     3.7506     2.9291
   98.5000   127.9463     7.1645     4.9467
   99.0000   127.8943    13.6856     7.9202
   99.5000   126.8862    43.5986    10.2977
  100.0000   129.5511   264.6986    14.2507
  100.5000   133.9790   926.1805    17.2227
  101.0000   135.3177    15.6738    17.4108
  101.5000   136.1421    10.1388    12.5646
  102.0000   138.4846     8.0537     9.1354
  102.5000   138.8533     7.7378     8.8854
  103.0000   135.9377     7.5256     9.3754
  103.5000   134.0820     7.2542    10.3931
  104.0000   135.3508     8.2058     9.6036
  104.5000   134.7564     9.3908     8.9677
  105.0000   132.0307     8.7588     8.8995
  105.5000   128.4924     8.2313     8.8039
  106.0000   128.3963     8.1127     8.8039
  106.5000   130.4190     7.9957     9.0019
  107.0000   130.6700     7.8818     9.1469
  107.5000   130.2115     8.3045     9.2942
  108.0000   130.2274     8.7445     9.4438
  108.5000   128.6892     9.2079     9.5958
  109.0000   125.6801     9.5775     9.7436
  109.5000   124.4618     9.8080     9.9455
  110.0000   125.6613    10.0439    10.1430
  110.5000   124.3915    10.2856    10.3443
  111.0000   121.1217    10.5330    10.5505
  111.5000   118.0305    10.7864    10.7563
  112.0000   120.6254    11.0459    11.0680
  112.5000   124.4494    11.3132    11.3947
  113.0000   124.6098    11.6060    11.7334
  113.5000   121.5272    11.8300    12.0816
  114.0000   115.5104    12.0769    12.6133
  114.5000   112.1113    12.1763    12.5824
  115.0000   114.0704    12.2766    12.5241
  115.5000   116.2234    12.3824    12.4705
  116.0000   115.8339    12.2930    12.4210
  116.5000   115.2872    12.1976    12.3716
  117.0000   117.0410    12.1033    12.3224
  117.5000   118.9191    12.0342    12.2734
  118.0000   117.3896    12.0053    12.2247
  118.5000   116.1494    11.9764    12.1761
  119.0000   117.8879    11.9477    12.1330
  119.5000   118.5239    11.9190    12.0938
  120.0000   118.7023    11.8904    12.0546
  120.5000   117.4936    11.8619    12.0156
  121.0000   117.5781    11.8334    11.9767
  121.5000   116.0909    11.8050    11.9380
  122.0000   117.6403    11.7767    11.8994
  122.5000   120.4969    11.7484    11.8606
  123.0000   123.1551    11.7202    11.8250
  123.5000   120.6993    11.6399    11.7091
  124.0000   117.3895    11.5266    11.5772
  124.5000   117.7605    11.4144    11.4467
  125.0000   119.6776    11.2923    11.3177
  125.5000   119.2328    11.1013    11.1902
  126.0000   117.3393    10.9782    11.0641
  126.5000   117.2024    10.8565    10.9394
  127.0000   117.2555    10.7361    10.7836
  127.5000   114.8932    10.5853    10.8480
  128.0000   112.9479    10.6703    10.9355
  128.5000   115.5167    10.8263    11.0245
  129.0000   119.5482    10.9849    11.1137
  129.5000   119.6762    11.0860    11.1895
  130.0000   118.0012    10.9923    11.1895
  130.5000   118.1604    10.9244    11.1898
  131.0000   118.8075    10.8066    11.1382
  131.5000   117.8828    10.6144    10.8824
  132.0000   114.8552    10.4250    10.6325
  132.5000   114.1215    10.2391    10.3883
  133.0000   115.7925    10.0566    10.1497
  133.5000   118.3487     9.8773     9.9167
  134.0000   121.6185     9.7436     9.7436
  134.5000   124.9652     9.7847     9.8981
  135.0000   122.9809     9.8244    10.0168
  135.5000   119.5007     9.8643    10.0168
  136.0000   117.3655     9.9048    10.0168
  136.5000   118.7393     9.9262    10.0168
  137.0000   117.2649     9.8120     9.9905
  137.5000   114.2943     9.7089     9.9004
  138.0000   112.8109     9.6069     9.8110
  138.5000   113.8374     9.5060     9.7225
  139.0000   114.9956     9.4061     9.6347
  139.5000   115.5154     9.3074     9.5478
  140.0000   112.7575     9.2096     9.4616
  140.5000   109.7241     9.1128     9.3762
  141.0000   112.0769     8.9441     9.2404
  141.5000   116.7240     8.6490     8.8364
  142.0000   121.1352     8.3635     8.4496
  142.5000   121.0486     8.0875     8.0793
  143.0000   117.9755     7.8840     7.7261
  143.5000   114.8647     7.7029     7.3880
  144.0000   116.3939     7.5925     7.3214
  144.5000   118.7151     7.5729     7.4299
  145.0000   119.6180     7.5534     7.4706
  145.5000   119.2400     7.5267     7.5115
  146.0000   120.6562     7.5850     7.6155
  146.5000   121.5873     7.6783     7.7584
  147.0000   120.4230     7.7730     7.9039
  147.5000   120.3766     7.8681     8.0522
  148.0000   121.5670     7.9454     8.1899
  148.5000   123.6878     8.0192     8.2512
  149.0000   124.6012     8.0939     8.3082
  149.5000   125.1808     8.1694     8.3662
  150.0000   124.8158     8.2456     8.4343
  150.5000   124.4610     8.3301     8.5257
  151.0000   125.0369     8.3947     8.6181
  151.5000   125.3101     8.4875     8.7115
  152.0000   122.2202     8.5814     8.8060
  152.5000   117.2612     8.7231     8.9014
  153.0000   116.3404     8.7116     8.9677
  153.5000   119.3301     8.6893     8.8521
  154.0000   119.6640     8.6671     8.7649
  154.5000   119.2430     8.6430     8.7231
  155.0000   120.1741     8.5700     8.6590
  155.5000   121.5243     8.4912     8.5897
  156.0000   123.1296     8.4131     8.5209
  156.5000   125.1019     8.3358     8.4521
  157.0000   127.1931     8.2541     8.4072
  157.5000   127.2421     8.2804     8.4453
  158.0000   127.0658     8.3103     8.4864
  158.5000   127.7731     8.3400     8.5276
  159.0000   127.3011     8.3696     8.5641
  159.5000   125.3220     8.3994     8.5764
  160.0000   121.3912     8.4392     8.5901
  160.5000   119.5079     8.4826     8.6039
  161.0000   121.6248     8.5262     8.6176
  161.5000   123.9434     8.5637     8.6313
  162.0000   123.4938     8.4288     8.6430
  162.5000   123.3171     8.3219     8.5481
  163.0000   127.0559     8.2671     8.4662
  163.5000   129.7216     8.2128     8.3851
  164.0000   129.1994     8.1587     8.3048
  164.5000   128.1818     8.1028     8.2241
  165.0000   129.7328     8.1028     8.1419
  165.5000   130.7351     8.0764     8.0606
  166.0000   129.6701     7.9148     7.9800
  166.5000   125.7947     7.7565     7.9003
  167.0000   122.2257     7.5964     7.8048
  167.5000   120.4734     7.5267     7.6668
  168.0000   121.6838     7.3189     7.4300
  168.5000   123.9464     7.0935     7.1937
  169.0000   123.7182     6.8473     6.9648
  169.5000   123.4986     6.6097     6.7432
  170.0000   122.9594     6.3758     6.5287
  170.5000   121.9625     6.1449     6.3173
  171.0000   120.8483     6.2282     6.3571
  171.5000   122.4159     6.2846     6.4003
  172.0000   123.9714     6.3173     6.4672
  172.5000   122.7538     6.3944     6.6482
  173.0000   120.0981     6.5438     6.8333
  173.5000   119.4175     6.7325     7.0236
  174.0000   120.8158     6.9266     7.2192
  174.5000   122.8231     7.1263     7.4202
  175.0000   124.2287     7.3318     7.6268
  175.5000   125.6010     7.5171     7.9548
  176.0000   126.9911     7.6668     7.9327
  176.5000   127.2369     7.6965     7.8961
  177.0000   126.4309     7.7262     7.8597
  177.5000   124.9809     7.7380     7.8235
  178.0000   123.4836     7.7376     7.7875
  178.5000   123.3055     7.7385     7.7516
  179.0000   125.0900     7.6221     7.7159
  179.5000   126.9697     7.5413     7.6803
  180.0000   126.7011     7.3965     7.5735
  180.5000   123.6882     7.2405     7.4250
  181.0000   121.7605     7.1112     7.2795
  181.5000   123.8923     7.0644     7.1209
  182.0000   127.6040     6.7748     6.8175
  182.5000   131.1540     6.4491     6.5258
  183.0000   129.6799     6.1391     6.2470
  183.5000   125.9310     5.9497     6.0671
