~VERSION INFORMATION
 VERS.                2.0:   CWLS LOG ASCII STANDARD - VERSION 2.0
 WRAP.                 NO:   ONE LINE PER DEPTH STEP
~WELL INFORMATION
#MNEM.UNIT      DATA TYPE    INFORMATION
#----------   ------------   ------------------------------
 STRT.F           86.0000:   START DEPTH
 STOP.F          708.0000:   STOP DEPTH
 STEP.F            0.5000:   STEP LENGTH
 NULL.          -999.2500:   NO VALUE
 COMP. U S NAVY/INTEX OIL CO:   COMPANY
 WELL.      33 S-11 #3-11:   WELL
 FLD .             TEAPOT:   FIELD
 LOC .      S11 T38N R78W:   LOCATION
 CNTY.            NATRONA:   COUNTY
 STAT.            WYOMING:   STATE
 CTRY. UNITED STATES OF AMERICA:   COUNTRY
 SRVC.       Schlumberger:   SERVICE COMPANY
 DATE.        11-JUL-1962:   LOGDATE
 API .       490250636000:   API NUMBER
~CURVE INFORMATION
#MNEM.UNIT       API CODE    CURVE DESCRIPTION
#----------   ------------   ------------------------------
 DEPT.F                  :   
 SPR .MV     05 010 01 00:   SPONTANEOUS POTENTIAL FROM RES.
 CILD.MMHO   05 110 46 00:   CONDUCTIVITY INDUCTION LOG DEEP
 ILD .OHMM   05 120 46 00:   INDUCTION LOG DEEP
 ASN .OHMM   05 041 16 00:   AMPLIFIED SHORT NORMAL 16"
 GR  .GAPI   30 310 01 00:   GAMMA RAY
~PARAMETER INFORMATION
#MNEM.UNIT          VALUE    DESCRIPTION
#----------   ------------   ------------------------------
 PD  .                 GL:   PERMANENT DATUM
 EPD .F              5171:   ELEVATION PERMANENT DATUM
 LMF .                 KB:   LOG MEASURED FROM
 DAPD.F                 5:   FEET ABOVE PERMANENT DATUM
 DMF .                 KB:   DRILLING MEASURED FROM
 EKB .F              5176:   KELLING BUSHING
 EGL .F              5171:   GROUND LEVEL
 DATE.            7-11-62:   RUN DATE
 RUN .                  1:   RUN NUMBER
 DD  .F               710:   DEPTH DRILLER
 DL  .F               709:   DEPTH LOGGER
 BLI .F               708:   BOTTOM LOG INTERVAL
 TLI .F                86:   TOP LOG INTERVAL
 BS  .IN             6.75:   BIT SIZE
 BSD .F               710:   BIT SIZE AT DEPTH
 DFT .            GEL/OIL:   DRILLING FLUID TYPE
 DFD .               10.3:   DRILLING FLUID DENSITY
 DFV .                 50:   DRILLING FLUID VISCOSITY
 DFL .                3.7:   DRILLING FLUID LOSS
 RMS .OHMM           5.66:   RESISTIVITY MUD SAMPLE
 MST .F                77:   MUD SAMPLE TEMPERATURE
 RMF .OHMM           4.44:   RESISTIVITY MUD FILTRATE SAMPLE
 MFST.F                77:   MUD FILTRATE SAMPLE TEMPERATURE
 RMC .OHMM            5.9:   RESISTIVITY MUD CAKE
 MCST.F                77:   MUD CAKE SAMPLE TEMPERATURE
 TCS .HRS               1:   TIME CURCULATED STOPPED
 LUN .               2503:   LOGGING UNIT NUMBER
 LUL .               CSPR:   LOGGING UNIT LOCATION
 ENGI.             DANNER:   RECORDING ENGINEER
 WITN.          JORGENSEN:   WITNESSED BY
 CLNT.            A2DTECH:   CLIENT CODE
 ORIG.       2", 5" PRINT:   ORIGIN OF DATA
 UWI .       490250636000:   UNIQUE WELL ID
 DICO. A2D Technologies, Inc.:   DIGITIZING COMPANY
~OTHER INFORMATION
~A   DEPT      SPR        CILD         ILD        ASN       GR   
# ...
  513.0000   -55.8338   220.7071     4.4622     4.9660   119.4442
  513.5000   -56.0628   204.8687     4.4784     5.4463   123.8879
  514.0000   -56.0933   189.9706     5.0419     5.9914   116.3292
  514.5000   -56.0526   175.0725     5.6638     6.2475   124.4929
  515.0000   -56.0107   160.1745     6.2291     6.3889   123.1655
  515.5000   -55.9691   152.9714     6.2816     6.4729   138.0451
  516.0000   -55.9264   150.3951     6.3526     6.5568   144.8405
  516.5000   -55.8974   149.2570     6.4258     6.6415   143.5639
  517.0000   -56.1948   148.1182     6.4990     6.7263   132.4874
  517.5000   -56.5188   146.9809     6.5723     6.8111   130.7227
  518.0000   -56.8580   145.8422     6.6458     6.8964   135.5520
  518.5000   -57.1672   144.7048     6.7150     6.9843   133.1276
  519.0000   -57.8704   143.5668     6.7047     7.0718   125.1204
  519.5000   -58.5343   143.3177     6.6914     7.1216   123.4498
  520.0000   -58.5137   144.2006     6.6785     7.1213   126.0185
  520.5000   -58.2736   145.0836     6.6657     7.1216   121.7554
  521.0000   -58.1611   145.9666     6.6529     7.1190   124.6035
  521.5000   -58.5143   146.8495     6.6401     7.0744   120.5772
  522.0000   -58.2322   147.7325     6.6273     7.0306   122.4992
  522.5000   -57.7624   148.1554     6.6145     6.9871   115.8544
  523.0000   -57.8414   148.3992     6.6017     6.9436   110.2577
  523.5000   -57.9509   148.6431     6.5889     6.9003   114.9783
  524.0000   -57.5516   148.8870     6.5761     6.8555   108.6032
  524.5000   -57.1177   149.1244     6.5633     6.8251   103.4790
  525.0000   -57.1881   149.3556     6.5506     6.8784   103.2276
  525.5000   -57.5411   149.5804     6.5385     6.9371   107.1390
  526.0000   -57.8882   149.8190     6.5248     6.9063   106.8356
  526.5000   -58.2364   150.9800     6.4517     6.8254   119.2868
  527.0000   -58.2751   157.2503     6.1397     6.7427   118.7125
  527.5000   -57.9435   170.4958     5.8358     6.6516   124.3019
  528.0000   -57.6211   183.5997     5.5321     6.4542   132.0901
  528.5000   -57.2993   195.4545     5.2260     6.2891   126.6810
  529.0000   -56.9793   206.5657     4.9142     5.8745   114.6639
  529.5000   -56.6490   205.2294     4.9096     5.4616   117.2745
  530.0000   -56.3702   205.5114     4.9261     5.4065   116.4456
  530.5000   -56.2046   208.3920     4.9410     5.5426   109.6807
  531.0000   -55.9383   211.2727     4.9554     5.0746   110.5904
  531.5000   -55.4810   213.6364     4.9699     5.3271   108.5877
  532.0000   -55.1029   207.9773     4.9843     5.6789   100.7568
  532.5000   -55.3921   206.0245     4.9987     5.8086   105.1145
  533.0000   -56.0611   209.5960     5.0132     5.7452   117.3693
  533.5000   -56.6791   207.2660     5.0276     5.5470   118.3660
  534.0000   -56.6923   204.9899     5.0420     5.3472   117.6341
  534.5000   -56.5782   202.7138     5.0564     5.2511   127.5283
  535.0000   -56.4666   200.4377     5.0705     5.4747   125.1149
  535.5000   -56.3580   198.1168     5.0833     5.5273   127.7538
  536.0000   -56.4202   192.6606     5.1031     5.3595   118.1924
  536.5000   -57.0282   184.7316     5.5012     5.5258   117.5638
  537.0000   -57.0366   171.2121     5.7420     5.8760   124.0197
  537.5000   -56.5644   163.7971     5.9331     6.1367   125.2036
  538.0000   -56.0999   155.8825     6.1237     6.1998   121.0373
  538.5000   -55.6369   155.0278     6.2997     6.2667   120.7537
  539.0000   -55.6461   162.7798     6.0194     6.3365   121.9803
  539.5000   -56.2449   170.6558     5.7134     6.3381   120.6728
  540.0000   -56.3166   182.4563     5.4093     6.3127   124.0316
  540.5000   -55.7056   195.0700     5.1051     6.2824   120.4147
  541.0000   -55.1026   207.7024     4.7961     6.1244   126.3896
  541.5000   -55.5951   212.3947     4.5881     5.7333   114.8399
  542.0000   -56.1369   215.6869     4.5444     5.3286   106.9016
  542.5000   -55.4775   218.6869     4.4997     5.2918   110.1404
  543.0000   -54.7034   221.4020     4.5139     5.1695   114.6482
  543.5000   -54.3197   217.9717     4.6122     5.0716   111.4102
  544.0000   -54.4912   210.7778     4.9294     5.4051   114.2833
  544.5000   -54.1171   196.5780     5.2556     5.9066   106.3424
  545.0000   -53.9274   182.3781     5.5798     6.0697   111.2921
  545.5000   -54.0968   168.1833     5.9042     6.3809   108.5594
  546.0000   -54.2690   153.8892     6.2286     6.7018   111.6883
  546.5000   -54.4443   148.7148     6.5525     6.9143   109.9299
  547.0000   -54.5815   145.7544     6.8530     6.9862   110.4312
  547.5000   -54.7112   142.8370     7.0995     7.0610   109.1821
  548.0000   -54.8405   139.9109     7.1687     7.1705   102.8413
  548.5000   -54.9706   136.9914     7.2123     7.3321   106.1918
  549.0000   -55.0932   135.2442     7.2562     7.3810   108.2973
  549.5000   -55.2800   136.8465     7.3004     7.3720   103.8598
  550.0000   -55.6817   138.4219     7.3059     7.3640   107.5841
  550.5000   -56.0896   138.0716     7.2705     7.4186   104.1137
  551.0000   -56.1133   136.9100     7.2354     7.4802   109.4629
  551.5000   -56.1102   135.7484     7.2001     7.5417   121.0591
  552.0000   -56.1075   134.5868     7.1647     7.6021   117.9659
  552.5000   -56.1173   134.2020     7.1286     7.6230   113.0580
  553.0000   -56.5356   135.2242     7.1207     7.6132   116.9789
  553.5000   -56.9881   136.2465     7.1736     7.5919   115.1684
  554.0000   -57.4480   136.1590     7.2634     7.5358   111.1725
  554.5000   -57.4707   134.3454     7.3536     7.4731   113.2545
  555.0000   -57.2976   132.5318     7.4439     7.4224   112.3599
  555.5000   -57.1330   130.7182     7.5341     7.4449   111.3662
  556.0000   -57.1578   128.8972     7.6254     7.5868   102.4045
  556.5000   -57.3217   127.0915     7.7193     7.8770   105.8298
  557.0000   -57.4868   126.7554     7.7034     8.0553    93.4094
  557.5000   -57.5022   130.9097     7.1628     8.1084    88.3443
  558.0000   -56.7124   146.5875     6.6248     8.0876    90.4434
  558.5000   -55.9200   161.4606     6.0925     7.9165   100.6720
  559.0000   -55.4725   177.2727     5.5572     7.2821   107.8499
  559.5000   -54.9486   183.9259     5.3318     6.6441   104.5427
  560.0000   -54.4295   185.0617     5.3733     6.1214   119.9340
  560.5000   -53.9133   186.1097     5.4189     6.1873   108.0732
  561.0000   -53.3784   185.3535     5.4661     6.3405    93.1343
  561.5000   -53.3580   183.1140     5.5649     6.1528    95.3182
  562.0000   -54.1414   173.8722     5.9377     6.6717    98.5424
  562.5000   -54.9321   154.5681     6.3247     7.5231    90.0793
  563.0000   -55.7488   135.1980     7.0925     8.3854    89.9128
  563.5000   -56.0597   120.9017     7.8771     8.7418    89.3836
  564.0000   -56.1164   109.7502     8.6604     8.9911    92.9105
  564.5000   -56.1114   104.1199     9.0865     9.2008    96.4253
  565.0000   -56.1098   106.4850     9.0523     9.2071    92.2133
  565.5000   -56.1113   108.9144     8.8519     9.2262    93.4011
  566.0000   -56.0036   111.5779     8.6528     9.2450    95.1409
  566.5000   -55.8331   111.6492     8.4550     9.2636    92.5900
  567.0000   -55.6587   110.8636     8.6022     9.3023    94.7012
  567.5000   -55.5148   107.8992     8.9971     9.4086    74.9052
  568.0000   -55.3101   102.1686     9.5100     9.6446    75.6637
  568.5000   -55.4569    96.4317    10.0319    10.0316    61.4801
  569.0000   -55.5851    90.6947    10.4822    10.3710    49.0066
  569.5000   -55.7199    84.9577    10.9242    10.3239    51.8968
  570.0000   -56.7215    79.2208    11.3556    12.3884    55.3846
  570.5000   -58.7950    73.4838    12.4255    13.9318    50.6640
  571.0000   -60.9294    67.7469    13.6557    15.3120    44.4160
  571.5000   -61.7657    62.0056    14.5486    15.8130    45.4092
  572.0000   -61.1070    56.2648    15.3668    16.3269    44.1378
  572.5000   -60.8199    51.9479    16.1702    16.8428    48.9691
  573.0000   -62.4846    49.4696    17.1044    17.7089    45.9169
  573.5000   -64.0386    46.9948    18.0443    18.7929    48.3255
