~VERSION INFORMATION
 VERS.                2.0:   CWLS LOG ASCII STANDARD - VERSION 2.0
 WRAP.                 NO:   ONE LINE PER DEPTH STEP
~WELL INFORMATION
#MNEM.UNIT      DATA TYPE    INFORMATION
#----------   ------------   ------------------------------
 STRT.F            7.5000:   START DEPTH
 STOP.F         2886.0000:   STOP DEPTH
 STEP.F            0.5000:   STEP LENGTH
 NULL.          -999.2500:   NO VALUE
 COMP. LAWRENCE/ALLISON INC:   COMPANY
 WELL.     16-1 AX #21-21:   WELL
 FLD .             TEAPOT:   FIELD
 LOC .      S21 T39N R78W:   LOCATION
 CNTY.            NATRONA:   COUNTY
 STAT.            WYOMING:   STATE
 CTRY. UNITED STATES OF AMERICA:   COUNTRY
 SRVC.      Dresser Atlas:   SERVICE COMPANY
 DATE.        05-DEC-1986:   LOGDATE
 API .       490251111900:   API NUMBER
~CURVE INFORMATION
#MNEM.UNIT       API CODE    CURVE DESCRIPTION
#----------   ------------   ------------------------------
 DEPT.F                  :   
 GRR .GAPI   07 310 01 00:   GAMMA RAY FROM RES. LOG.
 SPR .MV     07 010 01 00:   SPONTANEOUS POTENTIAL
 RFOC.OHMM   07 220 04 00:   RESISTIVITY FOCUSED LOG
 RILM.OHMM   07 120 44 00:   INDUCTION LOG MEDIUM RESISTIVITY
 RILD.OHMM   07 120 46 00:   INDUCTION LOG DEEP RESISTIVITY
 CALD.IN     45 280 60 00:   CALIPER
 DEN .G/C3   45 350 01 00:   BULK DENSITY
 CORR.G/C3   45 356 01 00:   DENSITY CORRECTION
 CNC .DEC    42 890 03 00:   NEUTRON POROSITY SANDSTONE
 PORD.DEC    45 890 12 00:   DENSITY POROSITY SANDSTONE
~PARAMETER INFORMATION
#MNEM.UNIT          VALUE    DESCRIPTION
#----------   ------------   ------------------------------
 PD  .                 GL:   PERMANENT DATUM
 EPD .F              4992:   ELEVATION PERMANENT DATUM
 LMF .                 KB:   LOG MEASURED FROM
 DAPD.F                12:   FEET ABOVE PERMANENT DATUM
 DMF .                 KB:   DRILLING MEASURED FROM
 EKB .F              5004:   KELLING BUSHING
 EGL .F              4992:   GROUND LEVEL
 DATE.            12-5-86:   RUN DATE
 RUN .                  1:   RUN NUMBER
 DD  .F              2905:   DEPTH DRILLER
 DL  .F              2890:   DEPTH LOGGER
 BLI .F              2884:   BOTTOM LOG INTERVAL
 TLI .F              2200:   TOP LOG INTERVAL
 CS  .IN            8.625:   CASING SIZE
 CBD .F               300:   CASING BOTTOM DRILLER
 CBL .F               300:   CASING BOTTOM LOGGER
 BS  .IN            7.875:   BIT SIZE
 BSD .F              2905:   BIT SIZE AT DEPTH
 DFT .        KCL POLYMER:   DRILLING FLUID TYPE
 DFD .                  9:   DRILLING FLUID DENSITY
 DFV .                 36:   DRILLING FLUID VISCOSITY
 DFPH.                9.5:   DRILLING FLUID PH
 DFL .               11.8:   DRILLING FLUID LOSS
 MSS .            MUDTANK:   MUD SAMPLE SOURCE
 RMS .OHMM            .43:   RESISTIVITY MUD SAMPLE
 MST .F                63:   MUD SAMPLE TEMPERATURE
 RMF .OHMM           .348:   RESISTIVITY MUD FILTRATE SAMPLE
 MFST.F                63:   MUD FILTRATE SAMPLE TEMPERATURE
 RMC .OHMM           .538:   RESISTIVITY MUD CAKE
 MCST.F                63:   MUD CAKE SAMPLE TEMPERATURE
 MFSS.               MEAS:   MUD FILTRATE SAMPLE SOURCE
 MCSS.               CALC:   MUD CAKE SAMPLE SOURCE
 RMB .OHMM           .233:   RESISTIVITY MUD AT BHT
 BHT .F               116:   BOTTOM HOLE TEMPERATURE
 TCS .HRS             3.5:   TIME CURCULATED STOPPED
 MRT .F               116:   MAXIMUM RECORDED TEMPERATURE
 LUN .            HL-6274:   LOGGING UNIT NUMBER
 LUL .           GILLETTE:   LOGGING UNIT LOCATION
 ENGI.             RAUTIO:   RECORDING ENGINEER
 WITN.             STRONG:   WITNESSED BY
 CLNT.            A2DTECH:   CLIENT CODE
 ORIG.       2", 5" PRINT:   ORIGIN OF DATA
 UWI .       490251111900:   UNIQUE WELL ID
 DICO. A2D Technologies, Inc.:   DIGITIZING COMPANY
~OTHER INFORMATION
~A    DEPT     GRR        SPR       RFOC       RILM       RILD       CALD        DEN       CORR        CNC       PORD   
# ...
 1381.0000    86.0107   -56.0753     9.4058     8.0440     7.9265  -999.2500  -999.2500  -999.2500  -999.2500  -999.2500
 1381.5000    87.5780   -56.2982     9.2482     8.0440     7.8731  -999.2500  -999.2500  -999.2500  -999.2500  -999.2500
 1382.0000    89.8481   -56.5225     8.9337     8.0441     7.8228  -999.2500  -999.2500  -999.2500  -999.2500  -999.2500
 1382.5000    91.9517   -56.7159     8.4407     8.0439     7.6794  -999.2500  -999.2500  -999.2500  -999.2500  -999.2500
 1383.0000    92.5678   -56.5310     8.1949     8.0445     7.8164  -999.2500  -999.2500  -999.2500  -999.2500  -999.2500
 1383.5000    93.2237   -56.3428     8.4867     8.0058     7.9103  -999.2500  -999.2500  -999.2500  -999.2500  -999.2500
 1384.0000    93.2253   -56.1564     8.6912     7.9761     7.9390  -999.2500  -999.2500  -999.2500  -999.2500  -999.2500
 1384.5000    92.0054   -55.9655     8.8454     7.9466     7.9696  -999.2500  -999.2500  -999.2500  -999.2500  -999.2500
 1385.0000    90.6801   -55.8787     9.0105     7.9172     7.8657  -999.2500  -999.2500  -999.2500  -999.2500  -999.2500
 1385.5000    88.9589   -55.8179     9.1943     7.8878     7.7570  -999.2500  -999.2500  -999.2500  -999.2500  -999.2500
 1386.0000    87.2279   -55.7602     9.4208     7.8586     7.6498  -999.2500  -999.2500  -999.2500  -999.2500  -999.2500
 1386.5000    86.7783   -55.8114     9.2473     7.8295     7.6077  -999.2500  -999.2500  -999.2500  -999.2500  -999.2500
 1387.0000    91.2079   -56.0357     8.7791     7.8005     7.6077  -999.2500  -999.2500  -999.2500  -999.2500  -999.2500
 1387.5000    95.8170   -56.2576     8.3406     7.7716     7.5793  -999.2500  -999.2500  -999.2500  -999.2500  -999.2500
 1388.0000    94.0841   -56.4815     8.1949     7.7366     7.5343  -999.2500  -999.2500  -999.2500  -999.2500  -999.2500
 1388.5000    88.4583   -56.7067     8.4318     7.6845     7.4899  -999.2500  -999.2500  -999.2500  -999.2500  -999.2500
 1389.0000    84.5272   -56.5680     8.7126     7.6328     7.4457  -999.2500  -999.2500  -999.2500  -999.2500  -999.2500
 1389.5000    85.4372   -56.3877     8.9098     7.6077     7.3985  -999.2500  -999.2500  -999.2500  -999.2500  -999.2500
 1390.0000    87.3246   -56.2053     8.5267     7.6316     7.4091  -999.2500  -999.2500  -999.2500  -999.2500  -999.2500
 1390.5000    90.7586   -56.1453     8.2466     7.6787     7.4237  -999.2500  -999.2500  -999.2500  -999.2500  -999.2500
 1391.0000    94.3519   -56.1789     7.9696     7.7175     7.4384  -999.2500  -999.2500  -999.2500  -999.2500  -999.2500
 1391.5000    96.5854   -56.2141     7.9696     7.7597     7.4530  -999.2500  -999.2500  -999.2500  -999.2500  -999.2500
 1392.0000    91.9231   -56.2495     8.0385     7.8089     7.4676  -999.2500  -999.2500  -999.2500  -999.2500  -999.2500
 1392.5000    85.5716   -56.2845     8.3783     7.8583     7.5394  -999.2500  -999.2500  -999.2500  -999.2500  -999.2500
 1393.0000    82.8779   -56.3170     8.7324     7.8962     7.6111  -999.2500  -999.2500  -999.2500  -999.2500  -999.2500
 1393.5000    87.1895   -56.4436     9.0770     7.8958     7.6787  -999.2500  -999.2500  -999.2500  -999.2500  -999.2500
 1394.0000    91.3886   -56.5831     8.9071     7.8669     7.6159  -999.2500  -999.2500  -999.2500  -999.2500  -999.2500
 1394.5000    89.0633   -56.7223     8.7505     7.7642     7.5373  -999.2500  -999.2500  -999.2500  -999.2500  -999.2500
 1395.0000    87.8608   -56.8626     8.5847     7.6631     7.3884  -999.2500  -999.2500  -999.2500  -999.2500  -999.2500
 1395.5000    89.7130   -56.8527     8.3674     7.5621     7.2271  -999.2500  -999.2500  -999.2500  -999.2500  -999.2500
 1396.0000    92.7253   -56.7148     8.1377     7.4935     7.0626  -999.2500  -999.2500  -999.2500  -999.2500  -999.2500
 1396.5000    94.3002   -56.5751     7.8228     7.4345     7.0472  -999.2500  -999.2500  -999.2500  -999.2500  -999.2500
 1397.0000    93.8482   -56.4358     7.9584     7.3761     7.0057  -999.2500  -999.2500  -999.2500  -999.2500  -999.2500
 1397.5000    89.6976   -56.3277     8.1973     7.3300     6.9972  -999.2500  -999.2500  -999.2500  -999.2500  -999.2500
 1398.0000    85.4352   -56.3591     8.4452     7.5115     7.2573  -999.2500  -999.2500  -999.2500  -999.2500  -999.2500
 1398.5000    86.2488   -56.3878     8.5836     7.6654     7.4486  -999.2500  -999.2500  -999.2500  -999.2500  -999.2500
 1399.0000    90.2093   -56.4162     8.3763     7.8224     7.6450  -999.2500  -999.2500  -999.2500  -999.2500  -999.2500
 1399.5000    94.2304   -56.4445     8.2714     7.9699     7.7591  -999.2500  -999.2500  -999.2500  -999.2500  -999.2500
 1400.0000    94.2664   -56.4725     8.7439     7.9901     7.7774  -999.2500  -999.2500  -999.2500  -999.2500  -999.2500
 1400.5000    91.0129   -56.5006     9.5976     8.0089     7.7957  -999.2500  -999.2500  -999.2500  -999.2500  -999.2500
 1401.0000    87.8037   -56.5555     9.4482     8.0275     7.8224  -999.2500  -999.2500  -999.2500  -999.2500  -999.2500
 1401.5000    87.8550   -56.7885     9.0634     8.0436     7.8121  -999.2500  -999.2500  -999.2500  -999.2500  -999.2500
 1402.0000    88.5013   -57.0233     8.5222     8.0202     7.7916  -999.2500  -999.2500  -999.2500  -999.2500  -999.2500
 1402.5000    88.6949   -57.0328     8.1166     7.9991     7.7713  -999.2500  -999.2500  -999.2500  -999.2500  -999.2500
 1403.0000    87.8910   -56.7608     8.3599     7.9784     7.7504  -999.2500  -999.2500  -999.2500  -999.2500  -999.2500
 1403.5000    88.0468   -56.4935     8.9075     7.8703     7.5910  -999.2500  -999.2500  -999.2500  -999.2500  -999.2500
 1404.0000    89.5541   -56.3956     8.8263     7.7014     7.4304  -999.2500  -999.2500  -999.2500  -999.2500  -999.2500
 1404.5000    90.9633   -56.5825     8.6616     7.5373     7.3433  -999.2500  -999.2500  -999.2500  -999.2500  -999.2500
 1405.0000    90.9067   -56.6646     8.2637     7.5029     7.2742  -999.2500  -999.2500  -999.2500  -999.2500  -999.2500
 1405.5000    89.6789   -56.3183     7.8958     7.4607     7.2062  -999.2500  -999.2500  -999.2500  -999.2500  -999.2500
 1406.0000    88.6023   -56.2145     8.0226     7.4187     7.1388  -999.2500  -999.2500  -999.2500  -999.2500  -999.2500
 1406.5000    88.3944   -56.4274     8.1510     7.3770     7.1240  -999.2500  -999.2500  -999.2500  -999.2500  -999.2500
 1407.0000    90.8085   -56.6368     8.2805     7.3354     7.1187  -999.2500  -999.2500  -999.2500  -999.2500  -999.2500
 1407.5000    92.5188   -56.8474     8.4109     7.3300     7.1133  -999.2500  -999.2500  -999.2500  -999.2500  -999.2500
 1408.0000    90.7456   -57.0578     8.5053     7.3300     7.1081  -999.2500  -999.2500  -999.2500  -999.2500  -999.2500
 1408.5000    88.6725   -57.2783     8.2514     7.3300     7.1027  -999.2500  -999.2500  -999.2500  -999.2500  -999.2500
 1409.0000    90.2011   -57.2634     8.0440     7.3300     7.0974  -999.2500  -999.2500  -999.2500  -999.2500  -999.2500
 1409.5000    94.3912   -57.1726     8.0983     7.3300     7.0922  -999.2500  -999.2500  -999.2500  -999.2500  -999.2500
 1410.0000    95.1779   -57.0796     8.1581     7.3300     7.0869  -999.2500  -999.2500  -999.2500  -999.2500  -999.2500
 1410.5000    93.0741   -56.9864     8.2182     7.3301     7.0816  -999.2500  -999.2500  -999.2500  -999.2500  -999.2500
 1411.0000    90.3152   -56.8316     8.2788     7.3301     7.0763  -999.2500  -999.2500  -999.2500  -999.2500  -999.2500
 1411.5000    88.2533   -56.5587     8.3399     7.3262     7.0710  -999.2500  -999.2500  -999.2500  -999.2500  -999.2500
 1412.0000    88.1514   -56.2918     8.4282     7.3017     7.0657  -999.2500  -999.2500  -999.2500  -999.2500  -999.2500
 1412.5000    88.5539   -56.2408     8.3260     7.2776     7.0492  -999.2500  -999.2500  -999.2500  -999.2500  -999.2500
 1413.0000    88.5210   -56.5502     8.0781     7.2537     7.0163  -999.2500  -999.2500  -999.2500  -999.2500  -999.2500
 1413.5000    89.7360   -56.8543     7.7504     7.2298     6.9834  -999.2500  -999.2500  -999.2500  -999.2500  -999.2500
 1414.0000    90.9957   -57.1617     7.8787     7.2059     6.9507  -999.2500  -999.2500  -999.2500  -999.2500  -999.2500
