~VERSION INFORMATION
 VERS.                2.0:   CWLS LOG ASCII STANDARD - VERSION 2.0
 WRAP.                 NO:   ONE LINE PER DEPTH STEP
~WELL INFORMATION
#MNEM.UNIT      DATA TYPE    INFORMATION
#----------   ------------   ------------------------------
 STRT.F         1500.0000:   START DEPTH
 STOP.F         3480.0000:   STOP DEPTH
 STEP.F            0.5000:   STEP LENGTH
 NULL.          -999.2500:   NO VALUE
 COMP. FLUOR DANIEL (NOPSR). INC.:   COMPANY
 WELL.   22-STX-26 #22-26:   WELL
 FLD .             NPR #3:   FIELD
 LOC .      S26 T38N R78W:   LOCATION
 CNTY.            NATRONA:   COUNTY
 STAT.            WYOMING:   STATE
 CTRY. UNITED STATES OF AMERICA:   COUNTRY
 SRVC.            Unknown:   SERVICE COMPANY
 DATE.        14-JUN-1995:   LOGDATE
 API .       490252272400:   API NUMBER
~CURVE INFORMATION
#MNEM.UNIT       API CODE    CURVE DESCRIPTION
#----------   ------------   ------------------------------
 DEPT.F                  :   
 ROP .MIN/FT 91 810 01 00:   RATE OF DRILLING PENETRATION
 TGAS.UNITS  91 830 01 00:   TOTAL GAS FROM HOTWIRE
~PARAMETER INFORMATION
#MNEM.UNIT          VALUE    DESCRIPTION
#----------   ------------   ------------------------------
 EKB .F              5348:   KELLING BUSHING
 EGL .F              5338:   GROUND LEVEL
 DATE.            6-14-95:   RUN DATE
 DD  .F              3480:   DEPTH DRILLER
 BLI .F              3480:   BOTTOM LOG INTERVAL
 TLI .F              1500:   TOP LOG INTERVAL
 CS  .IN            9.625:   CASING SIZE
 CBD .F                87:   CASING BOTTOM DRILLER
 ENGI.               HUSK:   RECORDING ENGINEER
 WITN.              TOWER:   WITNESSED BY
 CLNT.            A2DTECH:   CLIENT CODE
 ORIG.           5" PRINT:   ORIGIN OF DATA
 UWI .       490252272400:   UNIQUE WELL ID
 DICO. A2D Technologies, Inc.:   DIGITIZING COMPANY
~OTHER INFORMATION
~A  DEPT         ROP       TGAS 
# ...
 2715.0000     0.7419    14.3353
 2715.5000     0.7424    14.3310
 2716.0000     0.7428    14.3266
 2716.5000     0.7433    14.3222
 2717.0000     0.7437    14.3179
 2717.5000     0.7442    14.3135
 2718.0000     0.7446    14.3091
 2718.5000     0.7451    14.3048
 2719.0000     0.7455    14.3004
 2719.5000     0.7460    14.2961
 2720.0000     0.7464    14.2917
 2720.5000     0.8726    14.2873
 2721.0000     0.8731    14.2830
 2721.5000     0.8735    14.2786
 2722.0000     0.8740    14.2742
 2722.5000     0.8744    14.2699
 2723.0000     0.8749    14.2655
 2723.5000     0.8753    14.2612
 2724.0000     0.8757    14.2568
 2724.5000     1.0334    14.2524
 2725.0000     1.0339    14.2481
 2725.5000     1.0343    14.2437
 2726.0000     1.0348    14.2393
 2726.5000     1.0352    14.2350
 2727.0000     0.8783    14.2306
 2727.5000     0.8789    14.2262
 2728.0000     0.8793    14.2219
 2728.5000     0.8798    14.2175
 2729.0000     0.8802    14.2132
 2729.5000     0.8806    14.2088
 2730.0000     0.8810    14.2044
 2730.5000     0.8815    14.2001
 2731.0000     0.8819    14.1957
 2731.5000     0.8824    14.1913
 2732.0000     0.8828    14.1870
 2732.5000     0.8308    14.1826
 2733.0000     0.8314    14.1782
 2733.5000     0.8212    14.1739
 2734.0000     0.8218    14.1695
 2734.5000     0.8222    14.1652
 2735.0000     0.8226    14.1608
 2735.5000     0.8231    14.1564
 2736.0000     0.8235    14.1521
 2736.5000     0.8240    14.1477
 2737.0000     0.8244    14.1433
 2737.5000     0.8248    14.1390
 2738.0000     0.8253    14.1346
 2738.5000     0.8258    14.1303
 2739.0000     0.8262    14.1259
 2739.5000     0.8267    14.1215
 2740.0000     0.8271    14.1172
 2740.5000     0.8275    14.1128
 2741.0000     0.8280    14.1084
 2741.5000     0.8284    14.1041
 2742.0000     0.8289    14.0997
 2742.5000     0.8293    14.0953
 2743.0000     0.8298    14.0910
 2743.5000     0.8302    14.0866
 2744.0000     0.8307    14.0823
 2744.5000     0.8311    14.0779
 2745.0000     0.8316    14.0735
 2745.5000     0.8320    14.0692
 2746.0000     0.8325    14.0648
 2746.5000     0.7594    14.0604
 2747.0000     0.7600    14.0561
 2747.5000     0.7604    14.0517
 2748.0000     0.7608    14.0474
 2748.5000     0.7613    14.0430
 2749.0000     0.7618    14.0386
 2749.5000     0.7622    14.0343
 2750.0000     0.7626    14.0299
 2750.5000     0.7630    14.0255
 2751.0000     0.7635    14.0212
 2751.5000     0.7640    14.0168
 2752.0000     0.7644    14.0124
 2752.5000     0.7649    14.0081
 2753.0000     0.7653    14.0037
 2753.5000     0.7658    13.9994
 2754.0000     0.7662    13.9950
 2754.5000     0.7666    13.9906
 2755.0000     0.7671    13.9863
 2755.5000     0.7675    13.9819
 2756.0000     0.7680    13.9775
 2756.5000     0.7685    13.9732
 2757.0000     0.7689    13.9688
 2757.5000     0.7693    13.9644
 2758.0000     0.7697    13.9601
 2758.5000     0.7702    13.9557
 2759.0000     0.7707    13.9514
 2759.5000     0.7711    13.9470
 2760.0000     0.7715    13.9426
 2760.5000     0.7720    13.9383
 2761.0000     0.7724    13.9339
 2761.5000     0.7728    13.9295
 2762.0000     0.7733    13.9252
 2762.5000     0.7738    13.9208
 2763.0000     0.7742    13.9165
 2763.5000     0.7746    13.9121
 2764.0000     0.7751    13.9077
 2764.5000     0.7756    13.9034
 2765.0000     0.7760    13.8990
 2765.5000     0.7764    13.8946
 2766.0000     0.7769    13.8903
 2766.5000     0.7774    13.8859
 2767.0000     0.7778    13.8815
 2767.5000     0.7782    13.8772
 2768.0000     0.7787    13.8728
 2768.5000     0.7791    13.8685
 2769.0000     0.7795    13.8641
 2769.5000     0.7800    13.8597
 2770.0000     0.7804    13.8554
 2770.5000     0.7808    13.8510
 2771.0000     0.7813    13.8466
 2771.5000     0.7818    13.8423
 2772.0000     0.7822    13.8379
 2772.5000     0.7827    13.8336
 2773.0000     0.7831    13.8292
 2773.5000     0.7836    13.8248
 2774.0000     0.7840    13.8205
 2774.5000     0.7845    13.8161
 2775.0000     0.7849    13.8117
 2775.5000     0.7854    13.8074
 2776.0000     0.7858    13.8030
 2776.5000     0.7863    13.7986
 2777.0000     0.7867    13.8012
 2777.5000     0.7872    14.0196
 2778.0000     0.6723    14.0286
 2778.5000     0.6728    14.0385
 2779.0000     0.6732    14.0476
 2779.5000     0.6736    13.8451
 2780.0000     0.6741    13.0192
 2780.5000     0.6745    12.1926
 2781.0000     0.6750    11.5715
 2781.5000     0.6754    11.1627
 2782.0000     0.6758    10.7525
 2782.5000     0.6763    10.5522
 2783.0000     0.6767    10.5651
 2783.5000     0.6772    10.5708
 2784.0000     0.6776    10.5759
 2784.5000     0.6781    10.5811
 2785.0000     0.6785    10.5863
 2785.5000     0.6790    10.5915
 2786.0000     0.6794    10.5966
 2786.5000     0.6799    10.6018
 2787.0000     0.6803    10.6070
 2787.5000     0.6807    10.6122
 2788.0000     0.6812    10.6173
 2788.5000     0.6817    10.6225
 2789.0000     0.6821    10.6277
 2789.5000     0.6825    10.6329
 2790.0000     0.6830    10.6380
 2790.5000     0.6834    10.6432
 2791.0000     0.6839    10.6484
 2791.5000     0.6843    10.6536
 2792.0000     0.6847    10.6588
 2792.5000     0.6852    10.6639
 2793.0000     0.6856    10.6691
 2793.5000     0.6861    10.6743
 2794.0000     0.6865    10.6795
 2794.5000     0.6870    10.6846
 2795.0000     0.6874    10.6898
 2795.5000     0.6879    10.6950
 2796.0000     0.6883    10.7002
 2796.5000     0.6887    10.7053
 2797.0000     0.6892    10.7105
 2797.5000     0.6896    10.7157
 2798.0000     0.6901    10.7209
 2798.5000     0.6905    10.7260
 2799.0000     0.6910    10.7312
 2799.5000     0.6915    10.7364
 2800.0000     0.6919    10.7416
 2800.5000     0.6923    10.7467
 2801.0000     0.6928    10.7519
 2801.5000     0.6932    10.7571
 2802.0000     0.6937    10.7623
 2802.5000     0.6941    10.7675
 2803.0000     0.6945    10.7726
 2803.5000     0.6949    10.7778
 2804.0000     0.6954    10.7830
 2804.5000     0.6958    10.7882
 2805.0000     0.6963    10.7933
 2805.5000     0.6967    10.7985
 2806.0000     0.6972    10.8037
 2806.5000     0.6977    10.8089
 2807.0000     0.6981    10.8140
 2807.5000     0.6986    10.8192
 2808.0000     0.5526    10.8235
 2808.5000     0.5531    10.8225
 2809.0000     0.5536    10.8217
 2809.5000     0.5540    10.8209
 2810.0000     0.5545    10.8201
 2810.5000     0.5550    10.8193
 2811.0000     0.5555    10.8184
 2811.5000     0.5559    10.8176
 2812.0000     0.5564    10.8168
 2812.5000     0.5569    10.8160
 2813.0000     0.5573    10.8152
 2813.5000     0.5578    10.8143
 2814.0000     0.5583    10.8135
 2814.5000     0.5588    10.8127
 2815.0000     0.5592    10.8119
 2815.5000     0.5597    10.8111
 2816.0000     0.5602    10.8102
 2816.5000     0.5606    10.8094
 2817.0000     0.5611    10.8086
 2817.5000     0.5616    10.8078
 2818.0000     0.5621    10.8069
 2818.5000     0.5625    10.8061
 2819.0000     0.5630    10.8053
 2819.5000     0.5635    10.8045
 2820.0000     0.5639    10.8037
 2820.5000     0.5644    10.8028
 2821.0000     0.5649    10.8020
 2821.5000     0.5654    10.8012
 2822.0000     0.5658    10.8004
 2822.5000     0.5663    10.7996
 2823.0000     0.5668    10.7987
 2823.5000     0.5672    10.7979
 2824.0000     0.5677    10.7971
 2824.5000     0.5682    10.7963
 2825.0000     0.5687    10.7955
 2825.5000     0.5691    10.7946
 2826.0000     0.5696    10.7938
 2826.5000     0.5701    10.7930
 2827.0000     0.5705    10.7922
 2827.5000     0.5710    10.7913
 2828.0000     0.5715    10.7905
 2828.5000     0.5720    10.7897
 2829.0000     0.5724    10.7889
 2829.5000     0.5729    10.7881
 2830.0000     0.5734    10.7872
 2830.5000     0.5738    10.7864
 2831.0000     0.5743    10.7856
 2831.5000     0.5748    10.7848
 2832.0000     0.5753    10.7840
 2832.5000     0.5757    10.7831
 2833.0000     0.5762    10.7823
 2833.5000     0.5767    10.7815
 2834.0000     0.5771    10.7807
 2834.5000     0.5776    10.7798
 2835.0000     0.5781    10.7790
 2835.5000     0.5786    10.7782
 2836.0000     0.5790    10.7774
