~VERSION INFORMATION
 VERS.                2.0:   CWLS LOG ASCII STANDARD - VERSION 2.0
 WRAP.                 NO:   ONE LINE PER DEPTH STEP
~WELL INFORMATION
#MNEM.UNIT      DATA TYPE    INFORMATION
#----------   ------------   ------------------------------
 STRT.F           30.0000:   START DEPTH
 STOP.F          750.0000:   STOP DEPTH
 STEP.F            0.5000:   STEP LENGTH
 NULL.          -999.2500:   NO VALUE
 COMP. FENIX & SCISSON INC:   COMPANY
 WELL. TEAPOT DOME SX #38-11:   WELL
 FLD .             TEAPOT:   FIELD
 LOC .      S11 T38N R78W:   LOCATION
 CNTY.            NATRONA:   COUNTY
 STAT.            WYOMING:   STATE
 CTRY. UNITED STATES OF AMERICA:   COUNTRY
 SRVC.            Unknown:   SERVICE COMPANY
 DATE.        23-FEB-1978:   LOGDATE
 API .       490251058200:   API NUMBER
~CURVE INFORMATION
#MNEM.UNIT       API CODE    CURVE DESCRIPTION
#----------   ------------   ------------------------------
 DEPT.F                  :   
 CALD.IN     45 280 60 00:   CALIPER FROM DENSITY LOG
 GRD .GAPI   45 310 01 00:   GAMMA RAY FROM DENSITY LOG
 RHOB.G/C3   45 350 01 00:   BULK DENSITY
 DPHI.DEC    45 890 12 00:   DENSITY POROSITY SANDSTONE
 CORR.G/C3   45 356 01 00:   DENSITY CORRECTION
 SPR .MV     07 010 01 00:   SPONTANEOUS POTENTIAL FROM RES. LOG
 SN  .OHMM   07 040 16 00:   SHORT NORMAL 16'
 ILD .OHMM   07 120 46 00:   INDUCTION LOG DEEP
~PARAMETER INFORMATION
#MNEM.UNIT          VALUE    DESCRIPTION
#----------   ------------   ------------------------------
 PD  .                 GL:   PERMANENT DATUM
 EPD .F              5204:   ELEVATION PERMANENT DATUM
 LMF .                 KB:   LOG MEASURED FROM
 DAPD.F                 4:   FEET ABOVE PERMANENT DATUM
 DMF .                 KB:   DRILLING MEASURED FROM
 EKB .F              5208:   KELLING BUSHING
 EGL .F              5204:   GROUND LEVEL
 DATE.            2-23-78:   RUN DATE
 RUN .                  1:   RUN NUMBER
 DD  .F               755:   DEPTH DRILLER
 DL  .F               751:   DEPTH LOGGER
 BLI .F               745:   BOTTOM LOG INTERVAL
 TLI .F                45:   TOP LOG INTERVAL
 CS  .IN            8.625:   CASING SIZE
 CBD .F                40:   CASING BOTTOM DRILLER
 CBL .F                40:   CASING BOTTOM LOGGER
 BS  .IN            7.875:   BIT SIZE
 BSD .F               755:   BIT SIZE AT DEPTH
 DFT .         LIGNO SULF:   DRILLING FLUID TYPE
 DFD .                8.7:   DRILLING FLUID DENSITY
 DFV .                 33:   DRILLING FLUID VISCOSITY
 DFPH.                 10:   DRILLING FLUID PH
 DFL .                  4:   DRILLING FLUID LOSS
 MSS .          FLOW LINE:   MUD SAMPLE SOURCE
 RMS .OHMM              2:   RESISTIVITY MUD SAMPLE
 MST .F                60:   MUD SAMPLE TEMPERATURE
 RMF .OHMM            1.9:   RESISTIVITY MUD FILTRATE SAMPLE
 MFST.F                62:   MUD FILTRATE SAMPLE TEMPERATURE
 RMC .OHMM            3.5:   RESISTIVITY MUD CAKE
 MCST.F                60:   MUD CAKE SAMPLE TEMPERATURE
 MFSS.               MEAS:   MUD FILTRATE SAMPLE SOURCE
 MCSS.               MEAS:   MUD CAKE SAMPLE SOURCE
 RMB .OHMM           1.69:   RESISTIVITY MUD AT BHT
 BHT .F                71:   BOTTOM HOLE TEMPERATURE
 TCS .HRS               3:   TIME CURCULATED STOPPED
 MRT .F                71:   MAXIMUM RECORDED TEMPERATURE
 LUN .               2958:   LOGGING UNIT NUMBER
 LUL .               CASP:   LOGGING UNIT LOCATION
 ENGI.            POINTER:   RECORDING ENGINEER
 WITN.           MCGINLEY:   WITNESSED BY
 CLNT.            A2DTECH:   CLIENT CODE
 ORIG.       2", 5" PRINT:   ORIGIN OF DATA
 UWI .       490251058200:   UNIQUE WELL ID
 DICO. A2D Technologies, Inc.:   DIGITIZING COMPANY
~OTHER INFORMATION
~A   DEPT     CALD         GRD      RHOB       DPHI       CORR        SPR         SN        ILD   
# ...
   70.5000     8.3390    96.9875     2.3995     0.1823     0.0303   -28.4342     3.2036     2.7530
   71.0000     8.3500    98.5693     2.3779     0.1827     0.0205   -28.8648     3.1168     2.7882
   71.5000     8.2768   100.7732     2.3467     0.1847     0.0235   -29.1406     3.0577     2.9746
   72.0000     8.2521   103.0968     2.3428     0.1752     0.0287   -30.1822     3.5452     3.2799
   72.5000     8.2574   104.9879     2.3536     0.1627     0.0330   -30.5302     3.7665     3.6736
   73.0000     8.2626   105.1588     2.3663     0.1571     0.0320   -30.3196     3.8738     3.7669
   73.5000     8.2678   107.7413     2.3790     0.1516     0.0297   -30.0989     3.9841     3.8625
   74.0000     8.2193   110.7458     2.3907     0.1524     0.0239   -29.9299     4.0975     3.9606
   74.5000     8.0940   111.0530     2.3957     0.1532     0.0182   -30.1493     4.2141     4.0611
   75.0000     7.9794   110.7962     2.3969     0.1574     0.0124   -30.3893     4.3341     4.1854
   75.5000     8.0100   111.4017     2.3923     0.1637     0.0087   -30.6295     4.3824     4.1853
   76.0000     8.1187   112.5749     2.3763     0.1679     0.0110   -30.7443     4.3824     4.1510
   76.5000     8.2241   112.6961     2.3739     0.1691     0.0110   -30.3038     4.3824     4.1234
   77.0000     8.3130   111.9348     2.3679     0.1757     0.0110   -29.8209     4.3824     4.0959
   77.5000     8.3103   111.0364     2.3601     0.1839     0.0158   -30.1088     4.3433     4.0705
   78.0000     8.3101   109.4008     2.3457     0.1822     0.0239   -30.3812     4.1994     3.9658
   78.5000     8.3256   105.9757     2.3501     0.1792     0.0311   -30.6574     4.0603     3.8680
   79.0000     8.3522   101.5406     2.3543     0.1812     0.0282   -30.9322     3.9258     3.7727
   79.5000     8.3791   100.9774     2.3559     0.1875     0.0253   -31.1456     3.7957     3.6568
   80.0000     8.4070   102.4025     2.3496     0.2020     0.0227   -30.8636     3.6774     3.5357
   80.5000     8.4456   102.4035     2.3276     0.2149     0.0317   -31.1057     3.5771     3.4185
   81.0000     8.4502   102.0813     2.3065     0.2073     0.0435   -31.7413     3.4796     3.3053
   81.5000     8.4486   101.9489     2.2969     0.1991     0.0561   -31.5850     3.3847     3.1958
   82.0000     8.4155   100.8217     2.3183     0.1916     0.0425   -31.4450     3.2920     3.1402
   82.5000     8.2920    99.4365     2.3393     0.1922     0.0206   -31.3773     3.2476     3.0994
   83.0000     8.1727   100.8343     2.3224     0.2361     0.0063   -31.9833     3.1928     3.0590
   83.5000     8.0536   102.6229     2.2888     0.2456     0.0130   -32.5794     3.1389     3.0191
   84.0000     7.9346   104.4213     2.2549     0.2560     0.0193   -33.1628     3.0860     2.9810
   84.5000     7.8158   105.9019     2.2299     0.2597     0.0206   -33.5531     2.9980     2.8649
   85.0000     7.7399   105.8271     2.2297     0.2625     0.0148   -33.4686     2.8722     2.7429
   85.5000     7.7106   105.5914     2.2277     0.2651     0.0092   -33.3930     2.7516     2.6257
   86.0000     7.6810   102.6016     2.2122     0.2867     0.0071   -33.2462     2.6361     2.4890
   86.5000     7.6544   102.1004     2.1910     0.2946     0.0166   -33.2595     2.5254     2.3567
   87.0000     7.6869   103.5501     2.1700     0.2702     0.0257   -33.1334     2.4277     2.2754
   87.5000     7.7252   104.9182     2.1691     0.2508     0.0558   -32.9979     2.4744     2.2983
   88.0000     7.7635   104.7620     2.2029     0.2314     0.0962   -32.8657     2.5626     2.3657
   88.5000     7.8018   100.2540     2.2751     0.2030     0.1015   -32.8165     2.6548     2.4348
   89.0000     7.8400    95.7052     2.3475     0.1746     0.0523   -33.1172     2.7136     2.5060
   89.5000     7.8786    94.8495     2.3738     0.1576     0.0138   -33.4103     2.7272     2.5792
   90.0000     7.8922    98.8311     2.3526     0.1632     0.0125   -33.7038     2.7372     2.6944
   90.5000     7.9167   102.6609     2.3387     0.1700     0.0120   -33.9597     3.3392     2.9702
   91.0000     7.9552   102.7953     2.3374     0.1769     0.0115   -33.7736     3.4771     3.2743
   91.5000     7.9939   103.8056     2.3365     0.1837     0.0109   -33.5775     3.5117     3.3226
   92.0000     8.0328   107.3296     2.3371     0.1905     0.0095   -33.9318     3.4746     3.2960
   92.5000     8.0704   110.7985     2.3347     0.1973     0.0081   -34.3406     3.4399     3.2779
   93.0000     8.0713   113.9880     2.3282     0.2042     0.0061   -34.8093     3.3812     3.2618
   93.5000     8.0744   114.0442     2.3218     0.2114     0.0014   -34.9608     3.2745     3.1729
   94.0000     8.1215   112.9249     2.3100     0.2206    -0.0033   -34.9151     3.1845     3.0775
   94.5000     8.1616   112.7145     2.2943     0.2299    -0.0079   -34.8638     3.0964     2.9851
   95.0000     8.2013   113.6079     2.2786     0.2391    -0.0107   -34.8136     3.0163     2.8953
   95.5000     8.2415   114.4257     2.2626     0.2483    -0.0088   -34.7639     2.9026     2.7956
   96.0000     8.2501   114.3522     2.2447     0.2576    -0.0070   -34.7140     2.7931     2.6776
   96.5000     8.2512   119.3915     2.2190     0.2668    -0.0050   -34.6635     2.6878     2.5648
   97.0000     8.2880   124.8460     2.1939     0.2757     0.0047   -34.6147     2.5865     2.4567
   97.5000     8.3285   129.5554     2.1800     0.2851     0.0285   -34.6322     2.4716     2.3532
   98.0000     8.3223   129.5141     2.1719     0.2256     0.0898   -34.9127     2.4715     2.2758
   98.5000     8.2979   124.6098     2.2094     0.1358     0.1578   -35.1849     2.5854     2.3913
   99.0000     8.3233   112.3114     2.3422     0.1054     0.1360   -35.4215     2.6985     2.5048
   99.5000     8.3492   102.4651     2.4711     0.1271     0.0583   -35.5682     2.7758     2.5385
  100.0000     8.3345   100.3859     2.4436     0.1436     0.0195   -35.7142     2.9536     2.7348
  100.5000     8.3128   100.8341     2.4037     0.1520     0.0202   -35.7850     3.3897     2.9692
  101.0000     8.3129   102.7540     2.3997     0.1472     0.0224   -35.7863     3.8856     3.2236
  101.5000     8.3169   104.7437     2.4000     0.1464     0.0248   -35.7865     4.3369     4.1463
  102.0000     8.3210   102.1922     2.4062     0.1455     0.0272   -35.7865     4.5772     4.2822
  102.5000     8.3252    99.3924     2.4096     0.1419     0.0296   -35.7885     4.8308     4.4343
  103.0000     8.3294   100.3816     2.4098     0.1382     0.0320   -35.6878     4.9800     4.5917
  103.5000     8.3293   101.1556     2.4180     0.1346     0.0325   -35.5556     5.0982     4.6319
  104.0000     8.2989   103.6298     2.4261     0.1309     0.0303   -35.4219     5.2174     4.6945
  104.5000     8.2670   106.4138     2.4340     0.1297     0.0282   -35.2898     5.3422     4.8174
  105.0000     8.2352   106.7194     2.4420     0.1297     0.0261   -35.2232     5.5247     4.9435
  105.5000     8.2035   108.3001     2.4437     0.1305     0.0240   -35.5027     5.8110     5.0729
  106.0000     8.1719   109.8714     2.4385     0.1319     0.0219   -35.7773     6.1106     5.2553
  106.5000     8.1404   110.7543     2.4317     0.1333     0.0209   -36.0517     6.4260     5.4800
  107.0000     8.1077   108.0284     2.4267     0.1348     0.0209   -36.3278     6.7557     5.7149
  107.5000     8.0748   106.3419     2.4273     0.1362     0.0209   -36.5785     6.8905     5.9562
  108.0000     8.0142   109.7508     2.4276     0.1376     0.0209   -36.3655     6.8895     6.1134
  108.5000     7.8598   115.7585     2.4220     0.1382     0.0209   -36.1371     6.8883     6.1079
  109.0000     7.7073   112.9602     2.4191     0.1386     0.0209   -35.9118     6.8882     6.1014
  109.5000     7.5752   108.4604     2.4199     0.1390     0.0209   -35.8255     6.8882     6.0950
  110.0000     7.5804   104.4396     2.4172     0.1399     0.0207   -35.9267     6.8882     6.0886
  110.5000     7.8349   104.9230     2.4143     0.1427     0.0195   -36.1406     6.8882     6.0821
