~VERSION INFORMATION
 VERS.                2.0:   CWLS LOG ASCII STANDARD - VERSION 2.0
 WRAP.                 NO:   ONE LINE PER DEPTH STEP
~WELL INFORMATION
#MNEM.UNIT      DATA TYPE    INFORMATION
#----------   ------------   ------------------------------
 STRT.F            0.0000:   START DEPTH
 STOP.F          618.0000:   STOP DEPTH
 STEP.F            0.5000:   STEP LENGTH
 NULL.          -999.2500:   NO VALUE
 COMP.   FLUOR DANIEL INC:   COMPANY
 WELL. NAVAL PETROLEUM RESERVE 3 SX-3 #2-33:   WELL
 FLD .             TEAPOT:   FIELD
 LOC .      S33 T39N R78W:   LOCATION
 CNTY.            NATRONA:   COUNTY
 STAT.            WYOMING:   STATE
 CTRY. UNITED STATES OF AMERICA:   COUNTRY
 SRVC.      Western Atlas:   SERVICE COMPANY
 DATE.        07-JAN-1995:   LOGDATE
 API .       490252267200:   API NUMBER
~CURVE INFORMATION
#MNEM.UNIT       API CODE    CURVE DESCRIPTION
#----------   ------------   ------------------------------
 DEPT.F                  :   
 GRR .GAPI   07 310 01 00:   GAMMA RAY FROM RES. LOG.
 RILD.OHMM   07 120 46 00:   INDUCTION LOG DEEP RESISTIVITY
 RILM.OHMM   07 120 44 00:   INDUCTION LOG MEDIUM RESISTIVITY
~PARAMETER INFORMATION
#MNEM.UNIT          VALUE    DESCRIPTION
#----------   ------------   ------------------------------
 PD  .                 GL:   PERMANENT DATUM
 EPD .F              5158:   ELEVATION PERMANENT DATUM
 LMF .                 KB:   LOG MEASURED FROM
 DAPD.F                10:   FEET ABOVE PERMANENT DATUM
 DMF .                 KB:   DRILLING MEASURED FROM
 EKB .F              5168:   KELLING BUSHING
 EDF .F              5167:   DRILLING FLOOR
 EGL .F              5158:   GROUND LEVEL
 DATE.         7-JAN-1995:   RUN DATE
 RUN .                  1:   RUN NUMBER
 DD  .F               625:   DEPTH DRILLER
 DL  .F               626:   DEPTH LOGGER
 BLI .F               618:   BOTTOM LOG INTERVAL
 CS  .IN            9.625:   CASING SIZE
 CBD .F                53:   CASING BOTTOM DRILLER
 CBL .F                54:   CASING BOTTOM LOGGER
 BS  .IN             8.75:   BIT SIZE
 BSD .F               625:   BIT SIZE AT DEPTH
 DFT .                AIR:   DRILLING FLUID TYPE
 MRT .F                89:   MAXIMUM RECORDED TEMPERATURE
 LUN .            HL 6530:   LOGGING UNIT NUMBER
 LUL .             CASPER:   LOGGING UNIT LOCATION
 ENGI.        VERN RAUTIO:   RECORDING ENGINEER
 WITN.        GARY STRONG:   WITNESSED BY
 CLNT.            A2DTECH:   CLIENT CODE
 ORIG.           5" PRINT:   ORIGIN OF DATA
 UWI .       490252267200:   UNIQUE WELL ID
 DICO. A2D Technologies, Inc.:   DIGITIZING COMPANY
~OTHER INFORMATION
~A    DEPT      GRR      RILD       RILM   
# ...
   91.0000   119.6501     6.4279     6.5186
   91.5000   117.2109     6.5954     6.6569
   92.0000   114.7670     6.7351     6.7977
   92.5000   113.7717     6.8779     6.9419
   93.0000   115.0564     7.0237     7.0890
   93.5000   117.8497     7.1726     7.2393
   94.0000   120.5881     7.3245     7.3927
   94.5000   120.9127     7.4440     7.5132
   95.0000   121.0208     7.5411     7.6113
   95.5000   119.4621     7.5946     7.6653
   96.0000   118.6992     7.4446     7.5139
   96.5000   120.7432     7.3183     7.3864
   97.0000   122.6981     7.1796     7.2464
   97.5000   124.7040     7.0318     7.0973
   98.0000   125.1228     6.8871     6.9512
   98.5000   124.0844     6.7454     6.8081
   99.0000   123.2317     6.6063     6.6678
   99.5000   124.0726     6.4703     6.5305
  100.0000   123.4446     6.4273     6.4871
  100.5000   122.2190     6.4546     6.5227
  101.0000   119.6438     6.5396     6.6341
  101.5000   117.0772     6.6258     6.7475
  102.0000   118.1545     6.7131     6.8628
  102.5000   120.0758     6.8015     6.9801
  103.0000   122.0416     6.8911     7.0993
  103.5000   120.0924     6.9612     7.1356
  104.0000   117.4312     7.0212     7.1568
  104.5000   117.4208     7.0814     7.1781
  105.0000   119.0183     7.1423     7.2267
  105.5000   120.6357     7.2036     7.2868
  106.0000   123.3829     7.2655     7.3471
  106.5000   126.3085     7.3279     7.4080
  107.0000   129.0285     7.3909     7.4694
  107.5000   130.5439     7.4544     7.5313
  108.0000   130.1299     7.5184     7.5937
  108.5000   126.7728     7.5830     7.6566
  109.0000   122.5087     7.6482     7.7200
  109.5000   119.9490     7.6653     7.7367
  110.0000   120.9640     7.5438     7.6140
  110.5000   122.0793     7.4552     7.5246
  111.0000   120.4446     7.2483     7.3158
  111.5000   117.9938     7.0479     7.1135
  112.0000   119.1486     6.8531     6.9169
  112.5000   122.6160     6.6636     6.7257
  113.0000   123.3761     6.6091     6.6707
  113.5000   123.3309     6.6158     6.6774
  114.0000   124.4531     6.6620     6.7240
  114.5000   126.6597     6.7086     6.7710
  115.0000   126.2263     6.7555     6.8183
  115.5000   125.8914     6.8027     6.8660
  116.0000   127.1425     6.8502     6.9140
  116.5000   129.4491     6.8981     6.9623
  117.0000   129.8893     6.9463     7.0110
  117.5000   128.6308     6.9948     7.0599
  118.0000   127.2908     7.0437     7.1093
  118.5000   125.9601     7.0929     7.1590
  119.0000   124.6315     7.1425     7.2090
  119.5000   123.3025     7.1924     7.2594
  120.0000   121.9720     7.2427     7.3101
  120.5000   120.5782     7.2933     7.3612
  121.0000   120.9199     7.3443     7.4126
  121.5000   122.1903     7.3956     7.4644
  122.0000   124.2550     7.4473     7.5166
  122.5000   126.3045     7.4993     7.5691
  123.0000   128.3555     7.5517     7.6220
  123.5000   130.4012     7.6045     7.6753
  124.0000   132.5009     7.6576     7.7289
  124.5000   132.2125     7.7380     7.8101
  125.0000   129.8401     7.8239     7.8967
  125.5000   127.4930     7.9107     7.9843
  126.0000   125.1525     7.9984     8.0729
  126.5000   122.7518     8.0872     8.1624
  127.0000   123.1285     8.1769     8.2530
  127.5000   127.6488     8.2677     8.3447
  128.0000   133.3418     8.3596     8.4375
  128.5000   137.2897     8.4095     8.4878
  129.0000   139.9878     8.4095     8.4880
  129.5000   139.7405     8.4095     8.4879
  130.0000   139.3353     8.4095     8.4878
  130.5000   137.1519     8.4093     8.4876
  131.0000   134.9750     8.4083     8.4866
  131.5000   133.5125     8.4095     8.4889
  132.0000   134.3801     8.5851     8.6750
  132.5000   135.5555     8.7623     8.8642
  133.0000   134.6276     8.9431     9.0574
  133.5000   132.3583     9.1277     9.2548
  134.0000   130.6445     9.3160     9.4567
  134.5000   130.6018     9.5083     9.6627
  135.0000   131.0429     9.7045     9.8616
  135.5000   129.8912     9.9048    10.0554
  136.0000   128.1599    10.1092    10.2530
  136.5000   126.4142    10.3178    10.4545
  137.0000   124.6542    10.5307    10.6600
  137.5000   123.2212    10.7480    10.8695
  138.0000   121.8772    10.9698    11.0845
  138.5000   121.7323    11.2078    11.3150
  139.0000   123.6393    11.2078    11.3111
  139.5000   125.6338    11.0434    11.1462
  140.0000   125.9285    10.9046    11.0061
  140.5000   124.9406    10.7675    10.8677
  141.0000   125.8337    10.6321    10.7311
  141.5000   126.6588    10.4985    10.5962
  142.0000   125.9953    10.3665    10.4630
  142.5000   125.1868    10.2362    10.3315
  143.0000   126.9268    10.1075    10.2016
  143.5000   129.1208    10.0275    10.1217
  144.0000   130.6216    10.0286    10.1217
  144.5000   132.0719    10.0283    10.1217
  145.0000   133.5430    10.0284    10.1217
  145.5000   133.7265    10.0284    10.1217
  146.0000   131.6316    10.0284    10.1217
  146.5000   129.8575    10.0284    10.1217
  147.0000   131.3292    10.0284    10.1217
  147.5000   134.1578    10.0284    10.1217
  148.0000   136.1275    10.0284    10.1217
  148.5000   134.6570    10.0284    10.1217
  149.0000   130.8889    10.0284    10.1217
  149.5000   126.7497    10.0285    10.1218
  150.0000   124.6061    10.0284    10.1217
  150.5000   123.7319    10.0284    10.1217
  151.0000   126.0243     9.9724    10.0652
  151.5000   127.5294     9.8680     9.9599
  152.0000   127.4131     9.7647     9.8556
  152.5000   126.8605     9.6625     9.7525
  153.0000   126.2940     9.5614     9.6504
  153.5000   125.5737     9.4613     9.5494
  154.0000   128.3745     9.3623     9.4494
  154.5000   131.7667     9.2643     9.3505
  155.0000   132.9568     9.1673     9.2526
  155.5000   134.0317     9.1110     9.1959
  156.0000   135.1246     9.0701     9.1545
  156.5000   136.4100     9.0292     9.1138
  157.0000   139.3687     8.9886     9.0717
  157.5000   142.3346     8.8326     8.9161
  158.0000   142.3184     8.6094     8.6897
  158.5000   140.4041     8.3919     8.4700
  159.0000   139.9548     8.1798     8.2560
  159.5000   140.2396     7.9731     8.0473
  160.0000   141.6338     7.7716     7.8440
  160.5000   143.3011     7.5753     7.6458
  161.0000   144.9999     7.4552     7.5246
  161.5000   145.1991     7.4552     7.5246
  162.0000   144.3605     7.5275     7.5996
  162.5000   142.4773     7.7024     7.7816
  163.0000   139.0527     7.8822     7.9548
  163.5000   134.9464     8.0660     8.1507
  164.0000   130.8487     8.2540     8.3380
  164.5000   127.5020     8.4466     8.5297
  165.0000   125.7582     8.6439     8.7258
  165.5000   125.2368     8.8112     8.9731
  166.0000   123.1026     8.8877     8.9460
  166.5000   120.7398     8.8181     8.9003
  167.0000   118.7550     8.7732     8.8549
  167.5000   120.9995     8.7284     8.8097
  168.0000   126.2019     8.6838     8.7647
  168.5000   131.4440     8.6395     8.7199
  169.0000   133.9666     8.5954     8.6754
  169.5000   132.6182     8.5668     8.6466
  170.0000   130.9986     8.6432     8.7244
  170.5000   129.3726     8.7813     8.8630
  171.0000   127.4228     8.9211     9.0041
  171.5000   123.3676     9.0630     9.1473
  172.0000   119.0899     9.2072     9.2923
  172.5000   119.8068     9.3537     9.4448
  173.0000   123.6941     9.4861     9.5791
  173.5000   127.4822     9.4507     9.5398
  174.0000   128.9646     9.3834     9.4711
  174.5000   130.4576     9.3166     9.4033
  175.0000   131.2263     9.2502     9.3364
  175.5000   129.8179     9.1844     9.2699
  176.0000   129.5260     9.1189     9.2038
  176.5000   129.5185     9.0540     9.1383
  177.0000   129.0617     8.9895     9.0732
  177.5000   126.3896     8.9255     9.0086
  178.0000   123.9619     8.8619     8.9445
  178.5000   124.2593     8.8046     8.8866
  179.0000   123.9796     8.7801     8.8619
  179.5000   123.7044     8.7557     8.8372
  180.0000   124.3676     8.7314     8.8126
  180.5000   127.1632     8.7071     8.7881
  181.0000   128.3367     8.6829     8.7637
  181.5000   126.5128     8.6587     8.7393
