~VERSION INFORMATION
 VERS.                2.0:   CWLS LOG ASCII STANDARD - VERSION 2.0
 WRAP.                 NO:   ONE LINE PER DEPTH STEP
~WELL INFORMATION
#MNEM.UNIT      DATA TYPE    INFORMATION
#----------   ------------   ------------------------------
 STRT.F            0.0000:   START DEPTH
 STOP.F          652.0000:   STOP DEPTH
 STEP.F            0.5000:   STEP LENGTH
 NULL.          -999.2500:   NO VALUE
 COMP. US DEPTMNT OF ENRGY:   COMPANY
 WELL. NPR ##3 14-14-SX-11:   WELL
 FLD .   TEAPOT NAVAL RES:   FIELD
 LOC .      S11 T38N R78W:   LOCATION
 CNTY.            NATRONA:   COUNTY
 STAT.            WYOMING:   STATE
 CTRY. UNITED STATES OF AMERICA:   COUNTRY
 SRVC.            Unknown:   SERVICE COMPANY
 DATE.        03-JAN-1985:   LOGDATE
 API .       490251102400:   API NUMBER
~CURVE INFORMATION
#MNEM.UNIT       API CODE    CURVE DESCRIPTION
#----------   ------------   ------------------------------
 DEPT.F                  :   
 CALD.IN     45 280 60 00:   CALIPER
 CORR.G/C3   45 356 01 00:   DENSITY CORRECTION
 PORD.DEC    45 890 12 00:   DENSITY POROSITY SANDSTONE
 CNC .DEC    42 890 03 00:   NEUTRON POROSITY SANDSTONE
 SPR .MV     11 010 01 00:   SPONTANEOUS POTENTIAL FROM RES.
 GRR .GAPI   11 310 01 00:   GAMMA RAY FROM RES.
 RS  .OHMM   11 220 09 00:   RESISTIVITY SHALLOW
 RD  .OHMM   11 220 10 00:   RESISTIVITY DEEP
 DEN .G/C3   45 350 01 00:   COMPENSATED BULK DENSTIY
~PARAMETER INFORMATION
#MNEM.UNIT          VALUE    DESCRIPTION
#----------   ------------   ------------------------------
 PD  .                 GL:   PERMANENT DATUM
 EPD .F            5197.3:   ELEVATION PERMANENT DATUM
 LMF .                 KB:   LOG MEASURED FROM
 DMF .                 KB:   DRILLING MEASURED FROM
 EKB .F            5197.3:   KELLING BUSHING
 EGL .F            5197.3:   GROUND LEVEL
 DATE.         3-JAN-1985:   RUN DATE
 RUN .                  1:   RUN NUMBER
 DD  .F               650:   DEPTH DRILLER
 DL  .F               653:   DEPTH LOGGER
 BLI .F               651:   BOTTOM LOG INTERVAL
 CS  .IN            8.625:   CASING SIZE
 CBD .F                20:   CASING BOTTOM DRILLER
 CBL .F                20:   CASING BOTTOM LOGGER
 BS  .IN             6.25:   BIT SIZE
 BSD .F               650:   BIT SIZE AT DEPTH
 DFT .                KCL:   DRILLING FLUID TYPE
 RMS .OHMM            .12:   RESISTIVITY MUD SAMPLE
 MST .F                70:   MUD SAMPLE TEMPERATURE
 RMF .OHMM            .09:   RESISTIVITY MUD FILTRATE SAMPLE
 MFST.F                70:   MUD FILTRATE SAMPLE TEMPERATURE
 RMC .OHMM            .15:   RESISTIVITY MUD CAKE
 MCST.F                70:   MUD CAKE SAMPLE TEMPERATURE
 MFSS.               CALC:   MUD FILTRATE SAMPLE SOURCE
 MCSS.               CALC:   MUD CAKE SAMPLE SOURCE
 RMB .OHMM             .1:   RESISTIVITY MUD AT BHT
 BHT .F                80:   BOTTOM HOLE TEMPERATURE
 TCS .HRS               3:   TIME CURCULATED STOPPED
 MRT .F                80:   MAXIMUM RECORDED TEMPERATURE
 LUN .               6274:   LOGGING UNIT NUMBER
 LUL .               GLTE:   LOGGING UNIT LOCATION
 ENGI.               MACK:   RECORDING ENGINEER
 WITN.               PAGE:   WITNESSED BY
 CLNT.            A2DTECH:   CLIENT CODE
 ORIG.       2", 5" PRINT:   ORIGIN OF DATA
 UWI .       490251102400:   UNIQUE WELL ID
 DICO. A2D Technologies, Inc.:   DIGITIZING COMPANY
~OTHER INFORMATION
~A    DEPT    CALD       CORR       PORD        CNC        SPR         GRR        RS         RD        DEN   
# ...
  620.5000     6.2979     0.0564     0.0892     0.2746   -55.6236   111.5587     8.6430    10.2115     2.5265
  621.0000     6.2969     0.0405     0.0971     0.2648   -55.6236   111.1564     8.6430    10.2279     2.5144
  621.5000     6.2959     0.0588     0.0994     0.2612   -55.6236   110.9310     8.6592    10.2444     2.5070
  622.0000     6.2950     0.0543     0.1005     0.2649   -55.6236   111.8148     8.7861    10.2608     2.5068
  622.5000     6.2940     0.0478     0.1017     0.2700   -55.6236   113.7273     8.9149    10.2773     2.5047
  623.0000     6.2930     0.0413     0.1029     0.2707   -55.6236   115.8909     9.0508    10.2943     2.5026
  623.5000     6.2920     0.0351     0.1041     0.2680   -55.6236   118.8103     9.0208    10.3122     2.5003
  624.0000     6.2910     0.0419     0.1052     0.2655   -55.6236   121.2562     8.9898    10.3372     2.4994
  624.5000     6.2901     0.0680     0.1014     0.2695   -55.6236   118.3191     8.9588    10.3626     2.5066
  625.0000     6.2891     0.0837     0.0979     0.2767   -55.6236   114.8638     8.9280    10.3881     2.5145
  625.5000     6.2881     0.0825     0.0940     0.2842   -55.6236   113.7818     8.8854    10.4136     2.5173
  626.0000     6.2871     0.0785     0.0964     0.2873   -55.6236   112.4662     8.9172    10.4393     2.5141
  626.5000     6.2862     0.0615     0.0990     0.2934   -55.6236   110.2349     8.9693    10.4656     2.5080
  627.0000     6.2852     0.0502     0.1023     0.3001   -55.6236   109.2212     9.0216    10.4886     2.5017
  627.5000     6.2842     0.0388     0.1095     0.3074   -55.6236   111.1043     9.1346    10.3158     2.4899
  628.0000     6.2832     0.0287     0.1161     0.3002   -55.6236   114.3461     8.8325    10.1515     2.4780
  628.5000     6.2823     0.0346     0.1192     0.2909   -55.6236   118.0107     8.5976     9.9898     2.4745
  629.0000     6.2813     0.0408     0.1182     0.2815   -55.6236   119.7714     8.3690     9.8302     2.4795
  629.5000     6.2803     0.0454     0.1160     0.2779   -55.6236   119.6175     8.2536     9.6746     2.4847
  630.0000     6.2793     0.0296     0.1148     0.2810   -55.6236   118.4196     8.5338     9.5667     2.4837
  630.5000     6.2784     0.0141     0.1170     0.2851   -55.6236   117.2803     8.7278     9.8294     2.4805
  631.0000     6.2774    -0.0019     0.1192     0.2842   -55.6236   118.6064     8.9262    10.0373     2.4770
  631.5000     6.2764    -0.0052     0.1195     0.2822   -55.6236   118.2286     9.1291    10.2485     2.4769
  632.0000     6.2755     0.0124     0.1175     0.2808   -55.6236   116.3956     9.3908    10.4894     2.4823
  632.5000     6.2745     0.0316     0.1141     0.2795   -55.6236   114.3521     9.2735    10.3799     2.4879
  633.0000     6.2732     0.0434     0.1128     0.2771   -55.6236   113.5909     9.1178    10.1818     2.4905
  633.5000     6.2719     0.0403     0.1107     0.2748   -55.6236   114.7273     8.9647     9.9876     2.4922
  634.0000     6.2706     0.0374     0.1063     0.2725   -55.6236   115.9825     8.8142     9.7970     2.4989
  634.5000     6.2693     0.0389     0.1016     0.2703   -55.6236   116.0324     8.7231     9.6101     2.5087
  635.0000     6.2680     0.0432     0.0986     0.1181   -55.6236   116.4555     8.7231     9.4267     2.5117
  635.5000     6.2667     0.0475     0.0983    -0.0023   -55.6236   118.5302     8.7231     9.3099     2.5097
  636.0000     6.2654     0.0480     0.1012     0.0647   -55.6236   121.0576     8.7231     9.1775     2.5040
  636.5000     6.2641     0.0369     0.1085     0.1604   -55.6236   123.6197     8.5973     9.0508     2.4962
  637.0000     6.2628     0.0421     0.1159     0.6978   -55.6236   126.1493     8.2587     8.8104     2.4882
  637.5000     6.2615     0.0677     0.1203     0.2942   -55.6236   126.7872     7.8818     8.5676     2.4803
  638.0000     6.2603     0.0660     0.1179     0.2851   -55.6236   125.4127     6.9600     7.6668     2.4825
  638.5000     6.2590     0.0647     0.1081     0.2759   -55.6236   123.4017     6.1821     6.4307     2.4981
  639.0000     6.2577     0.0680     0.0983     0.2711   -55.6236   121.3807     6.0885     6.4292     2.5129
  639.5000     6.2564     0.0715     0.0920     0.2711   -55.6236   119.8115     6.5095     7.0874     2.5237
  640.0000     6.2551     0.0672     0.0912     0.2710   -55.6236   117.9455     7.0190     7.6446     2.5252
  640.5000     6.2570     0.0469     0.0929     0.2710   -55.6236   114.6803     7.5722     8.2477     2.5222
  641.0000     6.2643     0.0402     0.0962     0.2709   -55.6236   112.5552     8.1666     8.8896     2.5170
  641.5000     6.2718     0.0480     0.0996     0.2709   -55.6236   112.3105     8.7231     9.2161     2.5094
  642.0000     6.2649     0.0566     0.1015     0.2708   -55.6236   112.7557     8.6660     9.1808     2.5094
  642.5000     6.2493     0.0652     0.0973     0.2707   -55.6236   111.6514     8.6430     9.1557     2.5157
  643.0000     6.2350     0.0737     0.0928     0.2707   -55.6236   111.9635  -999.2500  -999.2500     2.5221
  643.5000     6.2420     0.0738     0.0914     0.2706   -55.6236   111.3225  -999.2500  -999.2500     2.5227
  644.0000     6.2494     0.0601     0.1012     0.2705   -55.6236   110.1829  -999.2500  -999.2500     2.5095
  644.5000     6.2567     0.0546     0.1107     0.2705   -55.6236   108.8194  -999.2500  -999.2500     2.4898
  645.0000     6.2641     0.0550     0.0320     0.2704   -55.6236   111.3245  -999.2500  -999.2500     2.6295
  645.5000     6.2712     0.0556    -0.1006     0.2704   -55.6236   113.8828  -999.2500  -999.2500  -999.2500
  646.0000     6.2752     0.0562    -0.1006     0.2711   -55.6236   116.0884  -999.2500  -999.2500  -999.2500
  646.5000     6.1809     0.0568    -0.1006     0.2735   -55.6236   117.8436  -999.2500  -999.2500  -999.2500
  647.0000     6.0160     0.0574    -0.1006     0.2759   -55.6236   118.7150  -999.2500  -999.2500  -999.2500
  647.5000     5.8580     0.0579    -0.1006     0.2767   -55.6236   118.2993  -999.2500  -999.2500  -999.2500
  648.0000     5.8482     0.0605    -0.1006     0.2767   -55.6236   116.3550  -999.2500  -999.2500  -999.2500
  648.5000     5.8446     0.0634    -0.1006     0.2767   -55.6236   114.4077  -999.2500  -999.2500  -999.2500
  649.0000     5.8404     0.0657    -0.1006     0.2767   -55.6238   113.5553  -999.2500  -999.2500  -999.2500
  649.5000     5.8359     0.0602    -0.1006     0.2767   -55.6244   115.3521  -999.2500  -999.2500  -999.2500
  650.0000     5.8337     0.0589    -0.1006     0.2767   -55.6067   117.7797  -999.2500  -999.2500  -999.2500
  650.5000     5.8337     0.0542    -0.1006     0.2767   -55.8869   119.1769  -999.2500  -999.2500     2.9965
  651.0000     5.8337     0.0657    -0.1006     0.2767   -56.0167   116.9723  -999.2500  -999.2500     2.9965
  651.5000     5.8337     0.0663    -0.1006     0.2767   -56.0255   115.5938  -999.2500  -999.2500     2.9965
  652.0000     5.8337  -999.2500    -0.1006     0.2767   -56.0248   115.6151  -999.2500  -999.2500     2.9965
