~VERSION INFORMATION
 VERS.                2.0:   CWLS LOG ASCII STANDARD - VERSION 2.0
 WRAP.                 NO:   ONE LINE PER DEPTH STEP
~WELL INFORMATION
#MNEM.UNIT      DATA TYPE    INFORMATION
#----------   ------------   ------------------------------
 STRT.F          588.0000:   START DEPTH
 STOP.F         1583.5000:   STOP DEPTH
 STEP.F            0.5000:   STEP LENGTH
 NULL.          -999.2500:   NO VALUE
 COMP.   FENIX & SCISSONS:   COMPANY
 WELL.   NPR 3 #23STX1-11:   WELL
 FLD .             TEAPOT:   FIELD
 LOC .      S11 T38N R78W:   LOCATION
 CNTY.            NATRONA:   COUNTY
 STAT.            WYOMING:   STATE
 CTRY. UNITED STATES OF AMERICA:   COUNTRY
 SRVC.            Unknown:   SERVICE COMPANY
 DATE.        15-JUN-1979:   LOGDATE
 API .       490251078300:   API NUMBER
~CURVE INFORMATION
#MNEM.UNIT       API CODE    CURVE DESCRIPTION
#----------   ------------   ------------------------------
 DEPT.F                  :   
 RHOB.G/C3   45 350 01 00:   BULK DENSITY
 DPHI.DEC    45 890 10 00:   DENSITY POROSITY LIMESTONE
 CORR.G/C3   45 356 01 00:   DENSITY CORRECTION
 GRD .GAPI   45 310 01 00:   GAMMA RAY FROM DENSITY LOG
 CALD.IN     45 280 60 00:   CALIPER FROM DENSITY LOG
~PARAMETER INFORMATION
#MNEM.UNIT          VALUE    DESCRIPTION
#----------   ------------   ------------------------------
 PD  .                 GL:   PERMANENT DATUM
 EPD .F              5168:   ELEVATION PERMANENT DATUM
 LMF .                 KB:   LOG MEASURED FROM
 DAPD.F                10:   FEET ABOVE PERMANENT DATUM
 DMF .                 KB:   DRILLING MEASURED FROM
 EKB .F              5178:   KELLING BUSHING
 EGL .F              5168:   GROUND LEVEL
 DATE.            6-15-79:   RUN DATE
 RUN .                  1:   RUN NUMBER
 DD  .F              1580:   DEPTH DRILLER
 DL  .F              1580:   DEPTH LOGGER
 BLI .F              1578:   BOTTOM LOG INTERVAL
 TLI .F               680:   TOP LOG INTERVAL
 CS  .IN            9.625:   CASING SIZE
 CBD .F               660:   CASING BOTTOM DRILLER
 CBL .F               670:   CASING BOTTOM LOGGER
 BS  .IN             8.75:   BIT SIZE
 BSD .F              1580:   BIT SIZE AT DEPTH
 DFT .                OIL:   DRILLING FLUID TYPE
 TCS .HRS               4:   TIME CURCULATED STOPPED
 MRT .F                80:   MAXIMUM RECORDED TEMPERATURE
 LUN .               3029:   LOGGING UNIT NUMBER
 LUL .             CASPER:   LOGGING UNIT LOCATION
 ENGI.            MULLINS:   RECORDING ENGINEER
 CLNT.            A2DTECH:   CLIENT CODE
 ORIG.     1", 2.5" PRINT:   ORIGIN OF DATA
 UWI .       490251078300:   UNIQUE WELL ID
 DICO. A2D Technologies, Inc.:   DIGITIZING COMPANY
~OTHER INFORMATION
~A   DEPT     RHOB       DPHI       CORR         GRD      CALD   
# ...
 1015.0000     2.5164     0.0227     0.0121    91.2896     9.3567
 1015.5000     2.5081     0.0291     0.0077    91.2763     9.3574
 1016.0000     2.5013     0.0275     0.0055    90.4186     9.3579
 1016.5000     2.5169     0.0187     0.0219    91.1794     9.3585
 1017.0000     2.5341     0.0140     0.0282    91.8782     9.3591
 1017.5000     2.5188     0.0233     0.0142    91.5577     9.3597
 1018.0000     2.5064     0.0316    -0.0025    89.5559     9.3603
 1018.5000     2.5128     0.0275     0.0022    86.7720     9.3609
 1019.0000     2.5221     0.0227     0.0090    85.5908     9.3615
 1019.5000     2.5265     0.0178     0.0160    85.3588     9.3621
 1020.0000     2.5281     0.0172     0.0142    86.0199     9.3626
 1020.5000     2.5217     0.0208     0.0130    87.3964     9.3632
 1021.0000     2.5147     0.0244     0.0093    94.9597     9.3638
 1021.5000     2.5076     0.0275     0.0042    96.6009     9.3644
 1022.0000     2.4979     0.0364     0.0000    97.4493     9.3650
 1022.5000     2.5025     0.0307    -0.0034    97.0185     9.3656
 1023.0000     2.5149     0.0229     0.0038    94.6602     9.3662
 1023.5000     2.5266     0.0183     0.0104    89.5863     9.3668
 1024.0000     2.5255     0.0170     0.0115    87.4302     9.3673
 1024.5000     2.5204     0.0206     0.0090    91.1077     9.3679
 1025.0000     2.5151     0.0242     0.0068    94.2631     9.3685
 1025.5000     2.5098     0.0278     0.0043    92.9261     9.3691
 1026.0000     2.5078     0.0293     0.0061    92.1341     9.3697
 1026.5000     2.5109     0.0278     0.0086    90.6904     9.3703
 1027.0000     2.5124     0.0262     0.0113    91.8348     9.3709
 1027.5000     2.5134     0.0240     0.0130    95.6908     9.3715
 1028.0000     2.5231     0.0200     0.0143    94.3597     9.3721
 1028.5000     2.5331     0.0121     0.0157    89.9172     9.3726
 1029.0000     2.5339     0.0145     0.0150    87.2333     9.3732
 1029.5000     2.5294     0.0171     0.0121    89.9564     9.3738
 1030.0000     2.5233     0.0194     0.0093    92.4406     9.3744
 1030.5000     2.5166     0.0248     0.0067    94.4805     9.3750
 1031.0000     2.5101     0.0296     0.0040    95.1146     9.3756
 1031.5000     2.5031     0.0298     0.0008    95.9696     9.3762
 1032.0000     2.5065     0.0270     0.0033    94.8167     9.3767
 1032.5000     2.5138     0.0241     0.0108    93.5511     9.3773
 1033.0000     2.5199     0.0219     0.0173    89.5974     9.3779
 1033.5000     2.5294     0.0124     0.0243    88.8010     9.3785
 1034.0000     2.5312     0.0166     0.0201    88.8710     9.3791
 1034.5000     2.5112     0.0244     0.0106    89.0354     9.3797
 1035.0000     2.5082     0.0295     0.0113    89.9608     9.3803
 1035.5000     2.5151     0.0272     0.0273    93.0958     9.3809
 1036.0000     2.5173     0.0248     0.0399    96.8308     9.3814
 1036.5000     2.5120     0.0266     0.0230    94.0506     9.3820
 1037.0000     2.5058     0.0293     0.0053    89.2875     9.3826
 1037.5000     2.5036     0.0297    -0.0007    88.3587     9.3832
 1038.0000     2.5074     0.0300    -0.0047    87.5501     9.3838
 1038.5000     2.5151     0.0243    -0.0039    86.5143     9.3844
 1039.0000     2.5136     0.0267    -0.0041    89.4185     9.3850
 1039.5000     2.5085     0.0294    -0.0043    93.9931     9.3856
 1040.0000     2.5027     0.0324    -0.0026    97.0272     9.3862
 1040.5000     2.5041     0.0317     0.0019    96.2042     9.3867
 1041.0000     2.5111     0.0276     0.0063    95.6036     9.3873
 1041.5000     2.5176     0.0235     0.0108    93.2531     9.3879
 1042.0000     2.5236     0.0203     0.0150    91.7834     9.3885
 1042.5000     2.5310     0.0173     0.0199    91.5851     9.3891
 1043.0000     2.5333     0.0144     0.0202    90.1134     9.3897
 1043.5000     2.5364     0.0125     0.0203    88.7452     9.3903
 1044.0000     2.5367     0.0138     0.0203    88.8244     9.3909
 1044.5000     2.5329     0.0152     0.0202    89.3320     9.3914
 1045.0000     2.5291     0.0165     0.0199    89.6840     9.3920
 1045.5000     2.5220     0.0196     0.0146    93.8117     9.3926
 1046.0000     2.5130     0.0261     0.0096    93.7215     9.3932
 1046.5000     2.5029     0.0331     0.0044    92.7870     9.3938
 1047.0000     2.5000     0.0331     0.0002    89.5128     9.3943
 1047.5000     2.5027     0.0319     0.0019    91.0035     9.3943
 1048.0000     2.5052     0.0302     0.0037    93.9958     9.3943
 1048.5000     2.4996     0.0340     0.0016    98.9875     9.3943
 1049.0000     2.5031     0.0319     0.0003    98.7864     9.3943
 1049.5000     2.5069     0.0282     0.0024    98.4909     9.3943
 1050.0000     2.5110     0.0267     0.0044    96.1016     9.3943
 1050.5000     2.5156     0.0267     0.0068    93.0395     9.3943
 1051.0000     2.5094     0.0301     0.0062    94.2009     9.3943
 1051.5000     2.4980     0.0355    -0.0004    96.7657     9.3943
 1052.0000     2.4965     0.0367    -0.0072    95.8170     9.3943
 1052.5000     2.5028     0.0318    -0.0007    94.1163     9.3943
 1053.0000     2.5086     0.0267     0.0072    96.0553     9.3943
 1053.5000     2.5067     0.0293     0.0042    98.5148     9.3944
 1054.0000     2.4989     0.0348     0.0005    98.9827     9.3944
 1054.5000     2.4856     0.0421     0.0031    96.5235     9.3932
 1055.0000     2.4825     0.0447     0.0059    94.2986     9.3883
 1055.5000     2.4811     0.0461     0.0097    91.0722     9.3834
 1056.0000     2.4854     0.0415     0.0124    92.2748     9.3784
 1056.5000     2.5021     0.0308     0.0236    96.2179     9.3734
 1057.0000     2.5025     0.0308     0.0184    99.3359     9.3685
 1057.5000     2.5073     0.0282     0.0123   100.6464     9.3635
 1058.0000     2.5270     0.0210     0.0180    98.5706     9.3586
 1058.5000     2.5388     0.0137     0.0245    94.5300     9.3539
 1059.0000     2.5443     0.0073     0.0174    95.1607     9.3537
 1059.5000     2.5392     0.0098     0.0101    96.4849     9.3536
 1060.0000     2.5340     0.0162     0.0102    97.3400     9.3537
 1060.5000     2.5347     0.0147     0.0194   101.2658     9.3536
 1061.0000     2.5353     0.0129     0.0232   103.1683     9.3536
 1061.5000     2.5333     0.0146     0.0172   103.9942     9.3537
 1062.0000     2.5310     0.0164     0.0122   103.1045     9.3537
 1062.5000     2.5286     0.0178     0.0083   101.6217     9.3537
 1063.0000     2.5271     0.0178     0.0093   100.2320     9.3537
 1063.5000     2.5302     0.0161     0.0102    98.5966     9.3537
 1064.0000     2.5349     0.0146     0.0110    99.9777     9.3537
 1064.5000     2.5280     0.0178     0.0120   102.1747     9.3537
 1065.0000     2.5216     0.0232     0.0091   103.9980     9.3536
 1065.5000     2.5135     0.0276     0.0054   101.6737     9.3537
 1066.0000     2.5117     0.0261     0.0057    98.9337     9.3536
 1066.5000     2.5159     0.0238     0.0094    97.1765     9.3536
 1067.0000     2.5228     0.0204     0.0130    93.7225     9.3545
 1067.5000     2.5289     0.0170     0.0165    90.6204     9.3582
 1068.0000     2.5310     0.0162     0.0194    90.4787     9.3618
 1068.5000     2.5178     0.0224     0.0156    90.1788     9.3656
 1069.0000     2.5136     0.0259     0.0121    82.9338     9.3693
 1069.5000     2.5107     0.0289     0.0085    77.2032     9.3730
 1070.0000     2.5044     0.0322     0.0048    76.7920     9.3767
 1070.5000     2.4982     0.0355     0.0012    80.2378     9.3805
 1071.0000     2.4916     0.0388    -0.0025    85.8758     9.3842
 1071.5000     2.4860     0.0429    -0.0062    91.0170     9.3879
 1072.0000     2.4829     0.0436    -0.0088    93.9576     9.3917
 1072.5000     2.4808     0.0445    -0.0096    90.2652     9.3943
 1073.0000     2.4790     0.0454    -0.0105    88.1484     9.3943
 1073.5000     2.4772     0.0462    -0.0121    86.6237     9.3943
 1074.0000     2.4751     0.0470    -0.0082    84.3135     9.3943
 1074.5000     2.4815     0.0408     0.0009    85.3908     9.3943
 1075.0000     2.4960     0.0364     0.0043    88.6569     9.3943
 1075.5000     2.5019     0.0324     0.0040    91.1644     9.3943
