~VERSION INFORMATION
 VERS.                2.0:   CWLS LOG ASCII STANDARD - VERSION 2.0
 WRAP.                 NO:   ONE LINE PER DEPTH STEP
~WELL INFORMATION
#MNEM.UNIT      DATA TYPE    INFORMATION
#----------   ------------   ------------------------------
 STRT.F            0.0000:   START DEPTH
 STOP.F         1027.0000:   STOP DEPTH
 STEP.F            0.1000:   STEP LENGTH
 NULL.          -999.2500:   NO VALUE
 COMP.       F D SERV INC:   COMPANY
 WELL.   77-1 X 27 #77-27:   WELL
 FLD .             TEAPOT:   FIELD
 LOC .      S27 T39N R78W:   LOCATION
 CNTY.            NATRONA:   COUNTY
 STAT.            WYOMING:   STATE
 CTRY. UNITED STATES OF AMERICA:   COUNTRY
 SRVC.      Western Atlas:   SERVICE COMPANY
 DATE.        04-NOV-1991:   LOGDATE
 API .       490252248600:   API NUMBER
~CURVE INFORMATION
#MNEM.UNIT       API CODE    CURVE DESCRIPTION
#----------   ------------   ------------------------------
 DEPT.F                  :   
 GRR .GAPI   07 310 01 00:   GAMMA RAY
 RILD.OHMM   07 120 46 00:   INDUCTION LOG DEEP RESISTIVITY
 RFOC.OHMM   07 220 04 00:   RESISTIVITY FOCUSED LOG
 RILM.OHMM   07 120 44 00:   INDUCTION LOG MEDIUM RESISTIVITY
 SPR .MV     07 010 01 00:   SPONTANEOUS POTENTIAL
~PARAMETER INFORMATION
#MNEM.UNIT          VALUE    DESCRIPTION
#----------   ------------   ------------------------------
 PD  .                 GL:   PERMANENT DATUM
 EPD .F              5077:   ELEVATION PERMANENT DATUM
 LMF .                 KB:   LOG MEASURED FROM
 DAPD.F                10:   FEET ABOVE PERMANENT DATUM
 DMF .                 KB:   DRILLING MEASURED FROM
 EKB .F              5087:   KELLING BUSHING
 EDF .F              5086:   DRILLING FLOOR
 EGL .F              5077:   GROUND LEVEL
 DATE.        04-NOV-1991:   RUN DATE
 RUN .                  1:   RUN NUMBER
 DD  .F              1030:   DEPTH DRILLER
 DL  .F              1030:   DEPTH LOGGER
 BLI .F              1027:   BOTTOM LOG INTERVAL
 CS  .IN            9.625:   CASING SIZE
 CBD .F                50:   CASING BOTTOM DRILLER
 CBL .F                52:   CASING BOTTOM LOGGER
 BS  .IN             8.75:   BIT SIZE
 BSD .F              1030:   BIT SIZE AT DEPTH
 DFT .          KCL WATER:   DRILLING FLUID TYPE
 MSS .           FLOWLINE:   MUD SAMPLE SOURCE
 RMS .OHMM            .24:   RESISTIVITY MUD SAMPLE
 MST .F                72:   MUD SAMPLE TEMPERATURE
 RMB .OHMM            .19:   RESISTIVITY MUD AT BHT
 BHT .F                90:   BOTTOM HOLE TEMPERATURE
 TCS .HRS               2:   TIME CURCULATED STOPPED
 MRT .F                90:   MAXIMUM RECORDED TEMPERATURE
 LUN .            HL-6274:   LOGGING UNIT NUMBER
 LUL .             CASPER:   LOGGING UNIT LOCATION
 ENGI.             RAUTIO:   RECORDING ENGINEER
 WITN.             STRONG:   WITNESSED BY
 CLNT.            A2DTECH:   CLIENT CODE
 ORIG.           5" PRINT:   ORIGIN OF DATA
 UWI .       490252248600:   UNIQUE WELL ID
 DICO. A2D Technologies, Inc.:   DIGITIZING COMPANY
~OTHER INFORMATION
~A    DEPT      GRR      RILD       RFOC       RILM        SPR   
# ...
  244.0000   105.2335     5.2781     5.7229     5.1263   -22.7904
  244.1000   105.2350     5.2731     5.7555     5.1248   -22.8327
  244.2000   105.0713     5.2680     5.7882     5.1227   -22.9390
  244.3000   104.8883     5.2629     5.8241     5.1206   -22.9383
  244.4000   104.7898     5.2578     5.8240     5.1185   -22.9377
  244.5000   104.7912     5.2528     5.8469     5.1164   -23.0220
  244.6000   104.7886     5.2477     5.8802     5.1143   -23.0862
  244.7000   104.5696     5.2426     5.9051     5.1121   -23.0856
  244.8000   104.5707     5.2375     5.9050     5.1100   -23.0850
  244.9000   104.4644     5.2325     5.9049     5.1079   -23.0843
  245.0000   104.3488     5.2274     5.9049     5.1058   -23.1836
  245.1000   104.3772     5.2223     5.9048     5.1037   -23.2329
  245.2000   104.5761     5.2187     5.9047     5.1016   -23.2782
  245.3000   104.5774     5.2185     5.9046     5.0995   -23.3815
  245.4000   104.7096     5.2182     5.9045     5.0974   -23.2311
  245.5000   104.8046     5.2437     5.9045     5.0953   -23.1158
  245.6000   104.9569     5.2541     5.9044     5.0931   -23.0802
  245.7000   105.5110     5.2539     5.9043     5.0910   -23.1405
  245.8000   106.1562     5.2537     5.8950     5.0889   -23.2287
  245.9000   106.9275     5.2535     5.8633     5.0868   -23.2351
  246.0000   107.6227     5.2532     5.8632     5.0866   -23.3772
  246.1000   108.1034     5.2530     5.8632     5.0864   -23.3766
  246.2000   108.4401     5.2528     5.8426     5.0862   -23.3760
  246.3000   108.6328     5.2526     5.8121     5.0958   -23.3754
  246.4000   108.9886     5.2524     5.7859     5.1212   -23.3748
  246.5000   109.2215     5.2521     5.7597     5.1209   -23.3742
  246.6000   109.3105     5.2519     5.7335     5.1207   -23.4914
  246.7000   109.3118     5.2517     5.7073     5.1205   -23.6136
  246.8000   109.3132     5.2515     5.6811     5.1203   -23.6719
  246.9000   109.3147     5.2513     5.6531     5.1201   -23.6713
  247.0000   109.1557     5.2511     5.6209     5.1199   -23.6707
  247.1000   108.9728     5.2508     5.5845     5.1196   -23.6700
  247.2000   108.7102     5.2751     5.5845     5.1194   -23.6695
  247.3000   108.3823     5.2869     5.5641     5.1192   -23.6689
  247.4000   108.1985     5.2867     5.5324     5.1190   -23.6683
  247.5000   107.6497     5.2865     5.5073     5.1188   -23.6677
  247.6000   107.2413     5.2863     5.5072     5.1186   -23.6671
  247.7000   106.7713     5.2861     5.5072     5.1184   -23.6665
  247.8000   106.2824     5.2858     5.5311     5.1182   -23.6659
  247.9000   105.9374     5.2856     5.5626     5.1180   -23.5984
  248.0000   105.7367     5.2854     5.5838     5.1177   -23.4751
  248.1000   105.5716     5.2852     5.5905     5.1175   -23.3647
  248.2000   105.5147     5.2849     5.6617     5.1173   -23.3640
  248.3000   105.5160     5.3106     5.6902     5.1171   -23.3635
  248.4000   105.5174     5.3213     5.7226     5.1169   -23.3629
  248.5000   105.5239     5.3211     5.7552     5.1167   -23.3623
  248.6000   105.7449     5.3209     5.7879     5.1165   -23.3617
  248.7000   105.7460     5.3206     5.8208     5.1162   -23.3611
  248.8000   105.8563     5.3204     5.8540     5.1160   -23.3605
  248.9000   106.0419     5.3202     5.8873     5.1158   -23.3599
  249.0000   106.1991     5.3200     5.9016     5.1156   -23.3593
  249.1000   106.2005     5.3198     5.9015     5.1154   -23.3587
  249.2000   106.2018     5.3195     5.9058     5.1152   -23.3581
  249.3000   106.3354     5.3193     5.9424     5.1149   -23.3574
  249.4000   106.5210     5.3464     5.9423     5.1148   -23.2451
  249.5000   106.6549     5.3559     5.9657     5.1145   -23.1218
  249.6000   106.6563     5.3557     5.9835     5.1143   -23.0563
  249.7000   106.6578     5.3554     5.9834     5.1141   -23.0248
  249.8000   106.6590     5.3552     5.9834     5.1131   -22.9054
  249.9000   106.6603     5.3550     5.9833     5.0783   -22.9047
  250.0000   106.5010     5.3548     5.9909     5.0781   -23.0040
  250.1000   106.1067     5.3546     6.0003     5.0832   -22.9944
  250.2000   105.7125     5.3545     6.0097     5.0919   -22.8945
  250.3000   105.4388     5.3543     6.0191     5.1006   -22.7946
  250.4000   105.3216     5.3542     6.0252     5.1093   -22.6947
  250.5000   105.2709     5.3586     6.0253     5.0969   -22.5948
  250.6000   104.8762     5.3911     6.0253     5.0777   -22.4949
  250.7000   104.7064     5.3910     6.0254     5.0737   -22.5160
  250.8000   104.5234     5.3908     6.0255     5.0424   -22.6387
  250.9000   104.2482     5.3750     6.0256     5.0158   -22.7465
  251.0000   103.9326     5.3533     6.0257     4.9871   -22.7454
  251.1000   103.7496     5.3505     6.0228     4.9585   -22.8573
  251.2000   103.5398     5.3160     5.9842     4.9301   -22.9800
  251.3000   103.2255     5.2894     5.9843     4.8979   -23.0422
  251.4000   102.9757     5.2591     5.9618     4.8170   -23.0068
  251.5000   102.7141     5.2423     5.9431     4.7360   -22.8907
  251.6000   102.3850     5.2281     5.9272     4.6551   -22.8897
  251.7000   102.2012     5.1691     5.8606     4.5742   -22.8889
  251.8000   102.0189     5.1339     5.8210     4.5118   -22.8880
  251.9000   101.8358     5.1101     5.7674     4.5113   -22.8331
  252.0000   101.7575     5.0808     5.7019     4.4805   -22.7365
  252.1000   101.7593     5.0517     5.6371     4.4598   -22.7375
  252.2000   101.8120     5.0227     5.5676     4.4343   -22.8843
  252.3000   102.2121     4.9928     5.4691     4.4089   -22.8835
  252.4000   102.3844     4.9653     5.4095     4.3836   -22.8826
  252.5000   102.5711     4.9580     5.3254     4.3575   -22.8817
  252.6000   102.7578     4.9427     5.2508     4.3336   -22.9022
  252.7000   102.9445     4.9144     5.1911     4.3088   -23.0296
  252.8000   103.1431     4.8862     5.1353     4.2841   -23.0287
  252.9000   103.5703     4.8554     5.1031     4.2675   -23.1207
  253.0000   104.3577     4.8304     5.0770     4.2646   -23.1766
  253.1000   104.8139     4.8027     5.0482     4.2378   -23.2166
  253.2000   104.8449     4.7624     5.0330     4.2160   -23.3247
  253.3000   104.5855     4.7150     5.0330     4.2084   -23.3236
  253.4000   104.0282     4.6880     5.0331     4.1968   -23.3228
  253.5000   103.1131     4.6567     5.0332     4.1728   -23.4082
  253.6000   102.1905     4.6344     5.0333     4.1502   -23.4707
  253.7000   101.3719     4.5916     5.0333     4.1501   -23.5040
  253.8000   100.6340     4.5604     5.0334     4.1501   -23.6186
  253.9000    99.8716     4.5552     5.0335     4.1500   -23.6175
  254.0000    98.8744     4.5287     5.0335     4.1500   -23.6168
  254.1000    98.5362     4.5031     5.0336     4.1450   -23.6956
  254.2000    98.4287     4.4773     5.0337     4.1212   -23.8184
  254.3000    98.7928     4.4659     5.0337     4.1211   -23.9135
  254.4000    99.4832     4.4658     5.0338     4.1210   -23.9126
  254.5000   100.0734     4.4657     5.0339     4.1210   -24.0612
  254.6000   101.3554     4.4655     5.0340     4.1295   -24.0605
  254.7000   102.4521     4.4654     5.0340     4.1496   -24.1327
  254.8000   103.2809     4.4653     5.0341     4.1495   -24.2084
  254.9000   103.9144     4.4652     5.0342     4.1495   -24.2075
  255.0000   104.6932     4.4650     5.0342     4.1494   -24.2066
  255.1000   105.6306     4.4667     5.0343     4.1493   -24.3243
  255.2000   107.2761     4.4958     5.0344     4.1493   -24.3545
  255.3000   107.9410     4.4957     5.0344     4.1492   -24.4202
  255.4000   108.1060     4.4956     5.0345     4.1492   -24.5024
  255.5000   107.9805     4.4955     5.0346     4.1701   -24.5015
  255.6000   107.5646     4.4954     5.0347     4.1780   -24.5005
  255.7000   106.7642     4.4952     5.0349     4.1779   -24.4997
  255.8000   106.4275     4.4951     5.0639     4.1837   -24.4988
  255.9000   106.0596     4.4950     5.0699     4.2069   -24.4979
  256.0000   105.7814     4.4949     5.0700     4.2068   -24.4970
  256.1000   105.5984     4.5043     5.0700     4.2068   -24.4961
