~VERSION INFORMATION
 VERS.                2.0:   CWLS LOG ASCII STANDARD - VERSION 2.0
 WRAP.                 NO:   ONE LINE PER DEPTH STEP
~WELL INFORMATION
#MNEM.UNIT      DATA TYPE    INFORMATION
#----------   ------------   ------------------------------
 STRT.F           40.0000:   START DEPTH
 STOP.F          512.0000:   STOP DEPTH
 STEP.F            0.5000:   STEP LENGTH
 NULL.          -999.2500:   NO VALUE
 COMP. LAWRENCE/ALLISON INC:   COMPANY
 WELL.   65-21 SX F1 #3-3:   WELL
 FLD .             TEAPOT:   FIELD
 LOC .       S3 T38N R78W:   LOCATION
 CNTY.            NATRONA:   COUNTY
 STAT.            WYOMING:   STATE
 CTRY. UNITED STATES OF AMERICA:   COUNTRY
 SRVC.       Schlumberger:   SERVICE COMPANY
 DATE.        14-JUL-1982:   LOGDATE
 API .       490251089600:   API NUMBER
~CURVE INFORMATION
#MNEM.UNIT       API CODE    CURVE DESCRIPTION
#----------   ------------   ------------------------------
 DEPT.F                  :   
 CALD.IN     45 280 60 00:   CALIPER FROM DENSITY LOG
 CORR.G/C3   45 356 01 00:   DENSITY CORRECTION
 DPHI.DEC    45 890 12 00:   DENSITY POROSITY SANDSTONE
 GRD .GAPI   45 310 01 00:   GAMMA RAY FROM DENSITY LOG
 RHOB.G/C3   45 350 01 00:   BULK DENSITY
~PARAMETER INFORMATION
#MNEM.UNIT          VALUE    DESCRIPTION
#----------   ------------   ------------------------------
 PD  .                 GL:   PERMANENT DATUM
 EPD .F              5155:   ELEVATION PERMANENT DATUM
 LMF .                 KB:   LOG MEASURED FROM
 DAPD.F                 9:   FEET ABOVE PERMANENT DATUM
 DMF .                 KB:   DRILLING MEASURED FROM
 EKB .F              5164:   KELLING BUSHING
 EDF .F            5162.5:   DRILLING FLOOR
 EGL .F              5155:   GROUND LEVEL
 DATE.        14-JUL-1982:   RUN DATE
 RUN .                  1:   RUN NUMBER
 DD  .F               500:   DEPTH DRILLER
 DL  .F               515:   DEPTH LOGGER
 BLI .F               512:   BOTTOM LOG INTERVAL
 TLI .F                50:   TOP LOG INTERVAL
 CS  .IN           13.375:   CASING SIZE
 CBD .F                50:   CASING BOTTOM DRILLER
 CBL .F                50:   CASING BOTTOM LOGGER
 BS  .IN            12.25:   BIT SIZE
 BSD .F               500:   BIT SIZE AT DEPTH
 DFT .                KCL:   DRILLING FLUID TYPE
 TCS .HRS            0600:   TIME CURCULATED STOPPED
 TLAB.HRS            1000:   TIME LOGGER AT BOTTOM
 LUN .               8035:   LOGGING UNIT NUMBER
 LUL .             CASPER:   LOGGING UNIT LOCATION
 ENGI.            PERARIS:   RECORDING ENGINEER
 WITN.             TAYLOR:   WITNESSED BY
 CLNT.            A2DTECH:   CLIENT CODE
 ORIG.         2.5" PRINT:   ORIGIN OF DATA
 UWI .       490251089600:   UNIQUE WELL ID
 DICO. A2D Technologies, Inc.:   DIGITIZING COMPANY
~OTHER INFORMATION
~A   DEPT     CALD       CORR       DPHI         GRD      RHOB   
# ...
  101.0000    11.9708     0.0199     0.1500    95.3874     2.4285
  101.5000    12.0606     0.0167     0.1469    92.2596     2.4300
  102.0000    12.1803     0.0159     0.1438    95.4005     2.4360
  102.5000    12.2702     0.0182     0.1426    97.1981     2.4406
  103.0000    12.3302     0.0189     0.1417    98.1002     2.4421
  103.5000    12.3304     0.0174     0.1408    98.5546     2.4436
  104.0000    12.3307     0.0143     0.1378    97.6477     2.4481
  104.5000    12.3310     0.0158     0.1324    94.5379     2.4572
  105.0000    12.3368     0.0204     0.1293    94.5448     2.4633
  105.5000    12.3615     0.0234     0.1263    94.4231     2.4678
  106.0000    12.3618     0.0219     0.1269    91.5373     2.4550
  106.5000    12.3621     0.0173     0.1355    89.6388     2.4428
  107.0000    12.3624     0.0127     0.1385    90.7866     2.4353
  107.5000    12.3759     0.0097     0.1422    92.0336     2.4293
  108.0000    12.3928     0.0081     0.1501    92.9552     2.4266
  108.5000    12.3931     0.0096     0.1507    91.7171     2.4300
  109.0000    12.3935     0.0111     0.1482    89.2254     2.4330
  109.5000    12.3938     0.0128     0.1458    91.2336     2.4361
  110.0000    12.3941     0.0144     0.1446    93.5075     2.4386
  110.5000    12.3944     0.0156     0.1434    96.0993     2.4401
  111.0000    12.3947     0.0171     0.1429    97.7609     2.4407
  111.5000    12.3949     0.0176     0.1429    95.0810     2.4372
  112.0000    12.3952     0.0186     0.1476    91.9532     2.4271
  112.5000    12.3955     0.0144     0.1511    91.0634     2.4296
  113.0000    12.3958     0.0138     0.1456    91.0708     2.4434
  113.5000    12.3961     0.0215     0.1352    90.1819     2.4536
  114.0000    12.3666     0.0247     0.1326    88.3974     2.4566
  114.5000    12.3669     0.0198     0.1347    85.7174     2.4444
  115.0000    12.3672     0.0107     0.1422    83.9329     2.4353
  115.5000    12.3675     0.0048     0.1436    83.0440     2.4428
  116.0000    12.3582     0.0048     0.1400    86.2089     2.4474
  116.5000    12.3382     0.0048     0.1376    87.5784     2.4504
  117.0000    12.2960     0.0033     0.1358    87.9895     2.4503
  117.5000    12.2351     0.0017     0.1370    87.3022     2.4457
  118.0000    12.1584     0.0002     0.1437    84.1164     2.4336
  118.5000    12.0707     0.0017     0.1440    82.5157     2.4334
  119.0000    12.1308     0.0047     0.1413    82.0552     2.4381
  119.5000    12.1609     0.0062     0.1389    81.1470     2.4427
  120.0000    12.2209     0.0123     0.1383    80.4166     2.4456
  120.5000    12.2212     0.0185     0.1426    80.4246     2.4361
  121.0000    12.1618     0.0280     0.1450    80.6493     2.4319
  121.5000    12.1621     0.0434     0.1438    80.6485     2.4366
  122.0000    12.1922     0.0505     0.1432    79.4836     2.4382
  122.5000    12.1925     0.0533     0.1438    78.2127     2.4378
  123.0000    12.1617     0.0521     0.1454    81.3549     2.4355
  123.5000    12.1334     0.0430     0.1504    84.4958     2.4252
  124.0000    12.1680     0.0233     0.1581    86.2934     2.4134
  124.5000    12.2295     0.0126     0.1615    87.1955     2.4083
  125.0000    12.2910     0.0079     0.1593    86.3065     2.4083
  125.5000    12.3436     0.0090     0.1544    84.0743     2.4206
  126.0000    12.3737     0.0167     0.1479    82.7376     2.4330
  126.5000    12.3740     0.0229     0.1426    83.1919     2.4422
  127.0000    12.3743     0.0251     0.1394    84.5418     2.4475
  127.5000    12.3746     0.0273     0.1373    85.0187     2.4497
  128.0000    12.3451     0.0318     0.1410    85.4507     2.4436
  128.5000    12.2857     0.0394     0.1398    84.5007     2.4420
  129.0000    12.2263     0.0485     0.1392    83.0642     2.4435
  129.5000    12.1371     0.0546     0.1416    81.1411     2.4329
  130.0000    12.0478     0.0485     0.1526    78.4029     2.4207
  130.5000    11.9884     0.0393     0.1514    76.0803     2.4298
  131.0000    11.8991     0.0333     0.1435    78.5119     2.4404
  131.5000    11.8696     0.0302     0.1386    81.7306     2.4464
  132.0000    11.8699     0.0256     0.1374    84.8060     2.4464
  132.5000    11.8403     0.0226     0.1414    84.8470     2.4296
  133.0000    11.8704     0.0289     0.1523    83.0433     2.4190
  133.5000    11.8707     0.0353     0.1545    81.6873     2.4220
  134.0000    11.8710     0.0410     0.1519    80.6072     2.4266
  134.5000    11.8783     0.0453     0.1494    79.7183     2.4281
  135.0000    11.9015     0.0377     0.1471    79.2761     2.4310
  135.5000    11.9118     0.0253     0.1461    80.1792     2.4325
  136.0000    11.9435     0.0139     0.1493    81.0813     2.4281
  136.5000    11.9752     0.0000     0.1589    81.9834     2.4010
  137.0000    12.0221    -0.0043     0.1669    82.4377     2.3959
  137.5000    12.0684     0.0010     0.1675    82.8921     2.4009
  138.0000    12.1720     0.0049     0.1659    82.4509     2.4035
  138.5000    12.2320     0.0072     0.1669    81.5604     2.4012
  139.0000    12.2920     0.0032     0.1689    81.1207     2.3922
  139.5000    12.3221    -0.0004     0.1656    80.6796     2.3938
  140.0000    12.3523     0.0056     0.1620    79.6716     2.4024
  140.5000    12.3526     0.0086     0.1590    77.3216     2.4117
  141.0000    12.3528     0.0102     0.1560    75.7739     2.4170
  141.5000    12.3531     0.0056     0.1572    79.1515     2.4145
  142.0000    12.3534     0.0010     0.1602    80.8507     2.4093
  142.5000    12.3537     0.0008     0.1609    81.1668     2.4077
  143.0000    12.3540     0.0055     0.1597    78.5835     2.4108
  143.5000    12.3543     0.0116     0.1572    78.2425     2.4138
  144.0000    12.3483     0.0161     0.1560    78.9492     2.4153
  144.5000    12.3250     0.0192     0.1567    79.4037     2.4137
  145.0000    12.2861     0.0207     0.1591    79.4104     2.4122
  145.5000    12.2141     0.0207     0.1592    78.9694     2.4121
  146.0000    12.1343     0.0204     0.1623    78.0817     2.4060
  146.5000    12.1314     0.0173     0.1703    78.5361     2.3908
  147.0000    12.1773     0.0138     0.1744    79.8859     2.3953
  147.5000    12.2246     0.0110     0.1697    83.0268     2.4074
  148.0000    12.2078     0.0155     0.1612    84.8245     2.4151
  148.5000    12.1782     0.0227     0.1567    85.2788     2.4196
  149.0000    12.1785     0.0238     0.1550    84.8376     2.4171
  149.5000    12.2385     0.0140     0.1682    80.8143     2.3898
  150.0000    12.2985     0.0015     0.1775    75.0000     2.3799
  150.5000    12.3287     0.0009     0.1707    77.3426     2.3906
  151.0000    12.3588     0.0079     0.1639    81.8463     2.4053
  151.5000    12.3591     0.0159     0.1545    84.0336     2.4126
  152.0000    12.3594     0.0174     0.1508    85.0328     2.4183
  152.5000    12.3597     0.0178     0.1490    85.3314     2.4208
  153.0000    12.3557     0.0128     0.1618    83.7627     2.4071
  153.5000    12.3006     0.0158     0.1630    82.9709     2.4068
  154.0000    12.2710     0.0219     0.1576    83.2687     2.4160
  154.5000    12.2713     0.0265     0.1521    84.6381     2.4222
  155.0000    12.3015     0.0234     0.1497    85.1119     2.4260
  155.5000    12.3316     0.0173     0.1485    85.5858     2.4284
  156.0000    12.3455     0.0112     0.1479    85.1463     2.4297
  156.5000    12.3621     0.0128     0.1473    83.5381     2.4312
  157.0000    12.3624     0.0159     0.1466    81.8117     2.4327
  157.5000    12.3627     0.0205     0.1427    80.9228     2.4372
  158.0000    12.3630     0.0236     0.1372    83.6159     2.4448
  158.5000    12.3633     0.0282     0.1339    85.4136     2.4493
  159.0000    12.3935     0.0294     0.1333    86.7634     2.4478
  159.5000    12.3938     0.0259     0.1440    87.2177     2.4356
  160.0000    12.3940     0.0227     0.1494    86.3288     2.4295
  160.5000    12.3943     0.0175     0.1499    87.6786     2.4264
  161.0000    12.4245     0.0122     0.1482    88.5807     2.4264
  161.5000    12.4248     0.0066     0.1466    89.4828     2.4294
