~VERSION INFORMATION
 VERS.                2.0:   CWLS LOG ASCII STANDARD - VERSION 2.0
 WRAP.                 NO:   ONE LINE PER DEPTH STEP
~WELL INFORMATION
#MNEM.UNIT      DATA TYPE    INFORMATION
#----------   ------------   ------------------------------
 STRT.F           30.0000:   START DEPTH
 STOP.F          570.0000:   STOP DEPTH
 STEP.F            0.5000:   STEP LENGTH
 NULL.          -999.2500:   NO VALUE
 COMP.    FENIX & SCISSON:   COMPANY
 WELL.  NPR #3 #13SX11-11:   WELL
 FLD .             TEAPOT:   FIELD
 LOC .      S11 T38N R78W:   LOCATION
 CNTY.            NATRONA:   COUNTY
 STAT.            WYOMING:   STATE
 CTRY. UNITED STATES OF AMERICA:   COUNTRY
 SRVC.       Schlumberger:   SERVICE COMPANY
 DATE.        27-FEB-1977:   LOGDATE
 API .       490251029400:   API NUMBER
~CURVE INFORMATION
#MNEM.UNIT       API CODE    CURVE DESCRIPTION
#----------   ------------   ------------------------------
 DEPT.F                  :   
 GRD .GAPI   45 310 01 00:   GAMMA RAY FROM DENSITY LOG
 CALD.IN     45 280 60 00:   CALIPER FROM DENSITY LOG
 CORR.G/C3   45 356 01 00:   DENSITY CORRECTION
 DPHI.DEC    45 890 12 00:   DENSITY POROSITY STANDSTONE
 RHOB.G/C3   45 350 01 00:   BULK DENSITY
 SPR .MV     07 010 01 00:   SPONTANEOUS POTENTIAL
 ILD .OHMM   07 120 46 00:   INDUCTION LOG DEEP
 ILM .OHMM   07 120 44 00:   INDUCTION LOG MEDIUM
 LL8 .OHMM   07 220 08 00:   LATEROLOG-8 RES.
~PARAMETER INFORMATION
#MNEM.UNIT          VALUE    DESCRIPTION
#----------   ------------   ------------------------------
 PD  .                 GL:   PERMANENT DATUM
 EPD .F              5180:   ELEVATION PERMANENT DATUM
 LMF .                 GL:   LOG MEASURED FROM
 DAPD.F                 0:   FEET ABOVE PERMANENT DATUM
 DMF .                 GL:   DRILLING MEASURED FROM
 EKB .F              5183:   KELLING BUSHING
 EGL .F              5180:   GROUND LEVEL
 DATE.        27-FEB-1977:   RUN DATE
 RUN .                  1:   RUN NUMBER
 DD  .F               585:   DEPTH DRILLER
 DL  .F               571:   DEPTH LOGGER
 BLI .F               570:   BOTTOM LOG INTERVAL
 TLI .F                44:   TOP LOG INTERVAL
 CS  .IN            8.625:   CASING SIZE
 CBD .F                40:   CASING BOTTOM DRILLER
 CBL .F                44:   CASING BOTTOM LOGGER
 BS  .IN            7.875:   BIT SIZE
 BSD .F               585:   BIT SIZE AT DEPTH
 DFT .                KCL:   DRILLING FLUID TYPE
 DFD .                8.7:   DRILLING FLUID DENSITY
 DFV .                 42:   DRILLING FLUID VISCOSITY
 DFPH.                  8:   DRILLING FLUID PH
 DFL .                9.2:   DRILLING FLUID LOSS
 MSS .                PIT:   MUD SAMPLE SOURCE
 RMS .OHMM           .806:   RESISTIVITY MUD SAMPLE
 MST .F                70:   MUD SAMPLE TEMPERATURE
 RMF .OHMM           .720:   RESISTIVITY MUD FILTRATE SAMPLE
 MFST.F                70:   MUD FILTRATE SAMPLE TEMPERATURE
 MFSS.               MEAS:   MUD FILTRATE SAMPLE SOURCE
 RMB .OHMM           .973:   RESISTIVITY MUD AT BHT
 BHT .F                58:   BOTTOM HOLE TEMPERATURE
 TCS .HRS            0230:   TIME CURCULATED STOPPED
 MRT .F                58:   MAXIMUM RECORDED TEMPERATURE
 LUN .               5642:   LOGGING UNIT NUMBER
 LUL .             CASPER:   LOGGING UNIT LOCATION
 ENGI.         JIM MARTIN:   RECORDING ENGINEER
 WITN.         STUEBINGER:   WITNESSED BY
 CLNT.            A2DTECH:   CLIENT CODE
 ORIG.           5" PRINT:   ORIGIN OF DATA
 UWI .       490251029400:   UNIQUE WELL ID
 DICO. A2D Technologies, Inc.:   DIGITIZING COMPANY
~OTHER INFORMATION
~A   DEPT      GRD       CALD       CORR       DPHI       RHOB        SPR        ILD        ILM        LL8   
# ...
  358.5000   132.4720     8.1315     0.0366     0.1561     2.4055   -26.4609     6.7653     6.7854     8.0242
  359.0000   132.7534     8.1309     0.0073     0.1601     2.3871   -27.0666     6.9534     7.0713     8.3050
  359.5000   129.1790     8.1303    -0.0077     0.1486     2.4320   -27.0681     7.1468     7.3692     8.5957
  360.0000   126.0968     8.1146    -0.0010     0.1243     2.4785   -27.2203     7.4995     7.8957     8.9007
  360.5000   122.6172     8.1140     0.0267     0.1065     2.4972   -26.9200     7.9280     8.2857     9.2255
  361.0000   120.3480     8.1134     0.0327     0.1014     2.5039   -26.7705     8.2088     8.4577     9.5960
  361.5000   119.2890     8.1128     0.0214     0.0984     2.5091   -26.4698     8.4293     8.5137     9.7951
  362.0000   121.5582     8.1122     0.0169     0.0915     2.5173   -25.8671     8.5440     8.5101     9.9299
  362.5000   120.6505     8.0965     0.0341     0.0819     2.5240   -25.5665     8.5419     8.5072     9.9963
  363.0000   118.8351     8.0959     0.0311     0.0792     2.5029   -25.7291     8.5397     8.5043     9.9238
  363.5000   117.7761     8.0953     0.0161     0.0844     2.4804   -26.0428     8.5375     8.5014     9.7844
  364.0000   115.9607     8.0947     0.0183     0.0983     2.5141   -26.1755     8.5353     8.4985     9.7141
  364.5000   113.8427     8.0941     0.0172     0.1085     2.4975   -26.1770     8.5331     8.4956     9.8471
  365.0000   113.0862     8.0934     0.0032     0.1079     2.4749   -26.1785     8.5310     8.4926    10.1918
  365.5000   117.4735     8.0777     0.0114     0.1027     2.4929   -26.0286     8.5288     8.4897    10.6959
  366.0000   121.1044     8.0771     0.0099     0.1011     2.5071   -26.0304     8.5266     8.4862    10.6930
  366.5000   122.9198     8.0765     0.0031     0.1047     2.4898   -25.7298     8.4657     8.4833    10.1131
  367.0000   123.5250     8.0759    -0.0006     0.1099     2.4724   -25.5802     8.4635     8.4804     9.2999
  367.5000   121.2557     8.0753     0.0098     0.1090     2.4678   -25.5817     8.4613     8.4775     9.1575
  368.0000   118.9864     8.0747     0.0165     0.1036     2.4874   -25.5832     8.4591     8.4161     8.7955
  368.5000   116.8684     8.0741     0.0188     0.0988     2.5101   -26.6421     8.5235     8.5307     8.7931
  369.0000   114.7504     8.0735     0.0127     0.0964     2.5195   -26.7946     8.6916     8.6476     9.2922
  369.5000   114.9087     8.0729     0.0090     0.0970     2.5210   -26.4940     8.8716     8.7654     9.7518
  370.0000   116.1120     8.0723     0.0292     0.1037     2.5246   -26.0423     8.8694     8.8848    10.1634
  370.5000   116.7171     8.0717     0.0156     0.1112     2.4975   -27.1113     8.8671     8.9430    10.5191
  371.0000   114.6808     8.0561     0.0021     0.1140     2.4734   -27.8580     8.6827     8.7557    10.9631
  371.5000   112.4811     8.0555     0.0111     0.1104     2.4696   -27.8598     8.3275     8.3948    12.0777
  372.0000   110.6657     8.0701     0.0135     0.1038     2.4996   -27.2571     7.4014     7.9821    16.8440
  372.5000   109.3041     8.0694     0.0095     0.0987     2.5018   -26.6540     6.5783     6.8534    20.0278
  373.0000   109.1528     8.0664     0.0194     0.0984     2.5047   -25.7495     5.9694     5.6481    18.5514
  373.5000   110.2118     8.0682     0.0200     0.0960     2.5099   -25.2978     5.5688     5.6072     6.2861
  374.0000   110.5144     8.0525     0.0154     0.0933     2.5136   -24.9968     5.5624     5.6836     3.6841
  374.5000   109.0015     8.0519     0.0034     0.1063     2.4775   -25.1497     5.6436     5.8415     4.6505
  375.0000   108.2451     8.0664     0.0026     0.1175     2.4504   -25.9065     5.8005     6.0876     7.0188
  375.5000   113.5401     8.0658     0.0026     0.1254     2.4256   -26.5122     6.0982     6.6137     8.7590
  376.0000   122.7685     8.0652     0.0142     0.1478     2.3963   -26.8158     6.7825     7.5951     9.9900
  376.5000   125.9455     8.0646     0.0279     0.1728     2.3632   -26.8173     8.5388     8.4836    10.6305
  377.0000   125.0378     8.0640     0.0377     0.1841     2.3511   -26.6677     9.6023     9.6083    11.0026
  377.5000   116.1120     8.0632     0.0092     0.1662     2.3541   -26.0650    10.1463    10.1531    11.3877
  378.0000   109.1528     8.0626    -0.0065     0.1267     2.4629   -25.7543    10.2148    10.2914    11.7049
  378.5000   107.0348     8.0620     0.0092     0.1047     2.5161   -25.7860    10.1411    10.2167    11.9477
  379.0000   106.4296     8.0767     0.0144     0.0957     2.5251   -27.1272    10.0686    10.0029    12.1121
  379.5000   107.0348     8.0759     0.0083     0.1008     2.5281   -27.5818     9.9966     9.9994    11.8587
  380.0000   106.4296     8.0753     0.0128     0.0981     2.5185   -27.5833     9.9941    10.1349    11.2936
  380.5000   107.0348     8.0747     0.0165     0.0960     2.5194   -27.1316    10.2720    10.5619    10.6073
  381.0000   108.4054     8.0741     0.0180     0.0982     2.5263   -26.8310    10.6309    11.2384    10.3143
  381.5000   109.9380     8.0735     0.0180     0.1009     2.5270   -26.6811    11.0787    11.7934    10.6129
  382.0000   111.3031     8.0729     0.0163     0.1034     2.5127   -26.6829    12.2026    12.8126    11.2495
  382.5000   111.5734     8.0723     0.0112     0.1016     2.5141   -26.0802    14.4035    14.6123    14.2765
  383.0000   109.6067     8.0717     0.0089     0.1010     2.4930   -25.7796    16.9318    16.2088    17.0929
  383.5000   106.8835     8.0864     0.0059     0.1019     2.5012   -25.3279    18.9990    19.6762    22.3959
  384.0000   104.0091     8.0705    -0.0002     0.1068     2.4899   -24.8761    23.0391    22.7533    26.8159
  384.5000    96.7474     8.0699    -0.0114     0.1185     2.4568   -24.7266    24.6835    25.0649    24.8394
  385.0000    91.9062     8.0543    -0.0070     0.1255     2.4361   -24.2749    26.0818    26.8558    27.9382
  385.5000    81.3162     8.0235     0.0020     0.1477     2.3979   -24.2764    27.1806    27.4112    30.7786
  386.0000    71.9365     7.9927     0.0102     0.1955     2.3320   -24.5801    27.3641    27.0242    29.5160
  386.5000    66.6414     7.9620     0.0147     0.2207     2.2696   -24.5819    26.2429    25.8745    26.4087
  387.0000    66.1876     7.9463     0.0311     0.2400     2.2486   -24.2809    25.1692    24.6159    26.2190
  387.5000    68.0030     7.9306     0.0364     0.2455     2.2507   -24.4338    24.1394    23.0142    31.1744
  388.0000    69.2133     7.9149     0.0311     0.2232     2.2837   -24.8884    23.1518    21.9161    30.3132
  388.5000    68.0030     7.8830     0.0310     0.2193     2.2867   -25.1920    22.5140    21.1619    28.2305
  389.0000    66.7927     7.8516     0.0355     0.2245     2.2798   -25.6467    21.8937    21.1547    24.8626
  389.5000    66.9440     7.8075     0.0438     0.2177     2.2956   -26.1014    21.8882    21.2947    22.9491
  390.0000    68.9107     7.8219     0.0549     0.2064     2.3098   -26.2539    21.8826    21.5866    22.6268
  390.5000    71.3313     7.8515     0.0399     0.2105     2.3014   -26.2554    22.3462    22.1844    21.8496
  391.0000    73.7519     7.8812     0.0129     0.2218     2.2879   -26.1054    22.9780    22.8007    21.0992
  391.5000    74.8109     7.9408     0.0024     0.2125     2.2916   -25.9562    23.7575    23.4341    20.5163
  392.0000    74.9662     7.9854     0.0128     0.2026     2.3133   -25.8066    24.4181    23.9186    21.2344
  392.5000    74.5058     8.0001     0.0181     0.2011     2.3148   -25.9592    25.0970    24.5831    22.7532
  393.0000    74.3570     8.0145     0.0188     0.2051     2.3094   -26.1118    25.7948    25.2695    24.7212
  393.5000    75.1448     8.0290     0.0150     0.2006     2.3177   -26.2644    26.5120    25.9840    25.9439
  394.0000    76.5194     8.0283     0.0090     0.1988     2.3253   -26.2662    27.0612    26.5340    27.0389
  394.5000    78.3767     8.0429     0.0037     0.1880     2.3353   -26.1166    27.4313    27.0529    26.8447
