~VERSION INFORMATION
 VERS.                2.0:   CWLS LOG ASCII STANDARD - VERSION 2.0
 WRAP.                 NO:   ONE LINE PER DEPTH STEP
~WELL INFORMATION
#MNEM.UNIT      DATA TYPE    INFORMATION
#----------   ------------   ------------------------------
 STRT.F           71.5000:   START DEPTH
 STOP.F          820.0000:   STOP DEPTH
 STEP.F            0.5000:   STEP LENGTH
 NULL.          -999.2500:   NO VALUE
 COMP. U S NAVY/INTEX OIL CO:   COMPANY
 WELL. RES 3 TEAPOT DOME #72-S-34:   WELL
 FLD .             TEAPOT:   FIELD
 LOC .      S34 T39N R78W:   LOCATION
 CNTY.            NATRONA:   COUNTY
 STAT.            WYOMING:   STATE
 CTRY. UNITED STATES OF AMERICA:   COUNTRY
 SRVC.       Schlumberger:   SERVICE COMPANY
 DATE.        20-FEB-1961:   LOGDATE
 API .       490250655700:   API NUMBER
~CURVE INFORMATION
#MNEM.UNIT       API CODE    CURVE DESCRIPTION
#----------   ------------   ------------------------------
 DEPT.F                  :   
 GR  .GAPI   30 310 01 00:   GAMMA RAY
 SPR .MV     05 010 01 00:   SPONTANEOUS POTENTIAL FROM RES.
 ILD .OHMM   05 120 46 00:   INDUCTION LOG DEEP
 ASN .OHMM   05 041 16 00:   AMPLIFIED SHORT NORMAL 16"
 CILD.MMHO   05 110 46 00:   CONDUCTIVITY INDUCTION LOG DEEP
~PARAMETER INFORMATION
#MNEM.UNIT          VALUE    DESCRIPTION
#----------   ------------   ------------------------------
 LMF .                 KB:   LOG MEASURED FROM
 DMF .                 KB:   DRILLING MEASURED FROM
 EKB .F              5071:   KELLING BUSHING
 EGL .F              5057:   GROUND LEVEL
 DATE.          2-20-1961:   RUN DATE
 RUN .                  1:   RUN NUMBER
 DD  .F               820:   DEPTH DRILLER
 DL  .F               820:   DEPTH LOGGER
 BLI .F               819:   BOTTOM LOG INTERVAL
 TLI .F                80:   TOP LOG INTERVAL
 CBD .F                12:   CASING BOTTOM DRILLER
 BS  .IN            7.875:   BIT SIZE
 BSD .F               820:   BIT SIZE AT DEPTH
 DFT .       GEL-OIL EMUL:   DRILLING FLUID TYPE
 DFD .                9.3:   DRILLING FLUID DENSITY
 DFV .                 48:   DRILLING FLUID VISCOSITY
 DFPH.                8.5:   DRILLING FLUID PH
 DFL .                 16:   DRILLING FLUID LOSS
 MSS .           FLOWLINE:   MUD SAMPLE SOURCE
 RMS .OHMM            .82:   RESISTIVITY MUD SAMPLE
 MST .F                70:   MUD SAMPLE TEMPERATURE
 RMF .OHMM            .45:   RESISTIVITY MUD FILTRATE SAMPLE
 MFST.F                72:   MUD FILTRATE SAMPLE TEMPERATURE
 RMC .OHMM            1.4:   RESISTIVITY MUD CAKE
 MCST.F                78:   MUD CAKE SAMPLE TEMPERATURE
 RMB .OHMM            .73:   RESISTIVITY MUD AT BHT
 BHT .F                78:   BOTTOM HOLE TEMPERATURE
 TCS .HRS               1:   TIME CURCULATED STOPPED
 MRT .F                78:   MAXIMUM RECORDED TEMPERATURE
 LUN .               2523:   LOGGING UNIT NUMBER
 LUL .              CSPR.:   LOGGING UNIT LOCATION
 ENGI.             KNOBEL:   RECORDING ENGINEER
 WITN.          JORGENSEN:   WITNESSED BY
 CLNT.            A2DTECH:   CLIENT CODE
 ORIG.      2" & 5" PRINT:   ORIGIN OF DATA
 UWI .       490250655700:   UNIQUE WELL ID
 DICO. A2D Technologies, Inc.:   DIGITIZING COMPANY
~OTHER INFORMATION
~A   DEPT       GR        SPR          ILD      ASN       CILD   
# ...
  498.5000  -999.2500   -21.9503     9.6450    11.1472   113.8520
  499.0000  -999.2500   -21.9844     9.5142    11.0499   114.9806
  499.5000  -999.2500   -22.0185     9.3833    10.9527   116.1092
  500.0000  -999.2500   -21.9964     9.2524    10.8554   117.2379
  500.5000  -999.2500   -21.9176     9.1847    10.7072   118.2380
  501.0000  -999.2500   -21.9046     9.1787    10.7008   118.1744
  501.5000  -999.2500   -21.8389     9.1444    10.6511   118.9383
  502.0000  -999.2500   -21.7601     9.1034    10.6008   119.6386
  502.5000  -999.2500   -21.6814     9.0630    10.5498   120.3390
  503.0000  -999.2500   -21.6404     9.0221    10.4987   121.0393
  503.5000  -999.2500   -21.6403     8.9816    10.4483   121.7396
  504.0000  -999.2500   -21.6404     8.9408    10.3967   122.4399
  504.5000  -999.2500   -21.6403     8.9002    10.3469   123.1403
  505.0000  -999.2500   -21.6404     8.8595    10.2948   123.8406
  505.5000  -999.2500   -21.6404     8.8146    10.2454   124.5409
  506.0000  -999.2500   -21.6404     8.8297    10.2083   125.2412
  506.5000  -999.2500   -21.6404     8.8460     9.9311   125.9416
  507.0000  -999.2500   -21.6404     8.8630     9.9158   126.6419
  507.5000  -999.2500   -21.6404     8.8791     9.9019   126.8853
  508.0000  -999.2500   -21.6404     8.8962     9.9122   126.5296
  508.5000  -999.2500   -21.6404     8.9138     9.9375   126.1739
  509.0000  -999.2500   -21.6404     8.7752     9.9099   126.9920
  509.5000  -999.2500   -21.6404     8.6195     9.8842   129.5726
  510.0000  -999.2500   -21.6403     8.4656     9.7168   132.4399
  510.5000  -999.2500   -21.6403     8.3097     9.4103   135.3073
  511.0000  -999.2500   -21.6403     8.1560     9.1338   138.1746
  511.5000  -999.2500   -21.6403     8.0000     8.9546   141.0419
  512.0000  -999.2500   -21.6403     7.8463     8.7756   143.9092
  512.5000  -999.2500   -21.6403     7.6904     8.6958   145.9163
  513.0000  -999.2500   -21.6403     7.5212     8.6961   146.9124
  513.5000  -999.2500   -21.6403     7.5812     8.7497   146.1396
  514.0000  -999.2500   -21.6403     7.6501     8.8580   145.2809
  514.5000  -999.2500   -21.6403     7.7171     8.9545   144.4223
  515.0000  -999.2500   -21.6403     7.7858     9.0097   143.5637
  515.5000  -999.2500   -21.6403     7.8416     9.0285   142.7050
  516.0000  -999.2500   -21.6403     7.8875     9.0181   141.4343
  516.5000  -999.2500   -21.6404     7.9322     9.0559   140.3740
  517.0000  -999.2500   -21.6403     7.9778     9.1164   139.5708
  517.5000  -999.2500   -21.6404     8.0226     9.1752   138.7675
  518.0000  -999.2500   -21.6403     8.0681     9.1623   137.9643
  518.5000  -999.2500   -21.6404     8.1176     9.1159   137.1610
  519.0000  -999.2500   -21.6403     8.2120     9.1192   136.3578
  519.5000  -999.2500   -21.6404     8.3166     9.1869   134.9985
  520.0000  -999.2500   -21.6493     8.4215     9.3019   133.0831
  520.5000  -999.2500   -21.6572     8.5260     9.4144   131.1676
  521.0000  -999.2500   -21.6651     8.6309     9.6032   129.2522
  521.5000  -999.2500   -21.6730     8.7356     9.8894   127.3368
  522.0000  -999.2500   -21.6808     8.8406     9.8548   125.9960
  522.5000  -999.2500   -21.6887     8.8957     9.8138   126.2948
  523.0000  -999.2500   -21.6966     8.8355     9.7711   127.2908
  523.5000  -999.2500   -21.7045     8.7750     9.8059   127.9881
  524.0000  -999.2500   -21.7123     8.7149     9.8506   129.7164
  524.5000  -999.2500   -21.7202     8.6544     9.8085   131.1812
  525.0000  -999.2500   -21.7281     8.5942     9.7261   132.6459
  525.5000  -999.2500   -21.7359     8.5338     9.6510   133.9641
  526.0000  -999.2500   -21.7438     8.5065     9.6513   133.8326
  526.5000  -999.2500   -21.7517     8.4931     9.5615   133.6447
  527.0000  -999.2500   -21.7595     8.4799     9.4819   133.4567
  527.5000  -999.2500   -21.7674     8.4667     9.5516   133.2688
  528.0000  -999.2500   -21.7752     8.4534     9.6112   133.0809
  528.5000  -999.2500   -21.7831     8.4402     9.5790   132.8930
  529.0000  -999.2500   -21.7910     8.4269     9.5493   132.7050
  529.5000  -999.2500   -21.7989     8.4136     9.5201   132.5171
  530.0000  -999.2500   -21.8067     8.4002     9.4903   132.3292
  530.5000  -999.2500   -21.8146     8.3869     9.4609   132.1413
  531.0000  -999.2500   -21.8224     8.3735     9.3921   131.9721
  531.5000  -999.2500   -21.8304     8.3601     9.3569   132.9597
  532.0000  -999.2500   -21.8378     8.3468     9.4382   134.0570
  532.5000  -999.2500   -21.8238     8.3335     9.5114   135.1543
  533.0000  -999.2500   -21.8103     8.3203     9.5113   136.2516
  533.5000  -999.2500   -21.7969     8.2764     9.4122   137.3489
  534.0000  -999.2500   -21.7833     8.2196     9.3223   138.4462
  534.5000  -999.2500   -21.7699     8.1627     9.2321   139.5435
  535.0000  -999.2500   -21.7564     8.1060     9.1333   140.6408
  535.5000  -999.2500   -21.7430     8.0490     9.0883   141.7381
  536.0000  -999.2500   -21.7295     7.9923     9.0389   142.8354
  536.5000  -999.2500   -21.7160     7.9353     8.9938   143.9327
  537.0000  -999.2500   -21.7025     7.7386     8.8602   144.9203
  537.5000  -999.2500   -21.6891     7.4816     8.7134   151.2100
  538.0000  -999.2500   -21.6756     7.2249     8.5089   156.9278
  538.5000  -999.2500   -21.6621     6.9678     8.3041   162.6457
  539.0000  -999.2500   -21.6486     6.7110     8.0996   168.3636
  539.5000  -999.2500   -21.6404     6.4540     7.8422   174.0815
  540.0000  -999.2500   -21.6404     6.3505     7.5621   176.7926
  540.5000  -999.2500   -21.6404     6.4002     7.2822   179.6072
  541.0000  -999.2500   -21.6404     6.4499     7.1220   180.7762
  541.5000  -999.2500   -21.6404     6.4997     7.1775   180.7702
  542.0000  -999.2500   -21.6404     6.6192     7.4939   176.9795
  542.5000  -999.2500   -21.6404     6.8088     7.7792   171.3734
  543.0000  -999.2500   -21.6403     6.9981     7.8883   165.7763
  543.5000  -999.2500   -21.6404     7.1878     7.9795   160.1716
  544.0000  -999.2500   -21.6403     7.3389     8.0574   154.5731
  544.5000  -999.2500   -21.6403     7.4013     8.0017   151.3971
  545.0000  -999.2500   -21.6403     7.4631     7.9390   150.6101
  545.5000  -999.2500   -21.6403     7.5256     7.8770   150.1949
  546.0000  -999.2500   -21.6403     7.5873     7.8481   149.9043
  546.5000  -999.2500   -21.6403     7.5675     7.8335   149.9054
  547.0000  -999.2500   -21.6403     7.4640     7.8167   150.6812
  547.5000  -999.2500   -21.6403     7.3616     7.7987   152.2397
  548.0000  -999.2500   -21.6403     7.2581     7.6977   153.7919
  548.5000  -999.2500   -21.6403     7.1560     7.5859   156.0469
  549.0000  -999.2500   -21.6403     7.0522     7.4737   159.9143
  549.5000  -999.2500   -21.6403     6.7803     7.3359   165.8355
  550.0000  -999.2500   -21.6403     6.4335     7.1868   175.7723
  550.5000  -999.2500   -21.6403     6.0889     7.0377   185.7234
  551.0000  -999.2500   -21.6403     5.7420     6.9029   195.6588
  551.5000  -999.2500   -21.6403     5.4301     6.5606   205.6111
  552.0000  -999.2500   -21.6403     5.2735     6.2484   214.6288
  552.5000  -999.2500   -21.6403     5.2312     5.9362   216.6299
  553.0000  -999.2500   -21.6404     5.2297     5.5889   214.5120
  553.5000  -999.2500   -21.6403     5.2314     5.5870   211.4631
  554.0000  -999.2500   -21.6404     5.4567     5.8079   208.6530
  554.5000  -999.2500   -21.6404     5.7895     6.3348   198.6559
  555.0000  -999.2500   -21.6404     6.1190     6.8344   189.4185
  555.5000  -999.2500   -21.6404     6.4518     7.0866   180.1978
  556.0000  -999.2500   -21.6404     6.8225     7.3387   170.9676
  556.5000  -999.2500   -21.6480     6.9821     7.5019   161.7373
  557.0000  -999.2500   -21.6590     7.1614     7.6221   155.8765
  557.5000  -999.2500   -21.6700     7.2825     7.7425   153.7450
  558.0000  -999.2500   -21.6810     7.3717     7.8785   151.7570
  558.5000  -999.2500   -21.6920     7.4628     7.9591   149.7689
  559.0000  -999.2500   -21.7031     7.5522     8.0517   147.7809
