~VERSION INFORMATION
 VERS.                2.0:   CWLS LOG ASCII STANDARD - VERSION 2.0
 WRAP.                 NO:   ONE LINE PER DEPTH STEP
~WELL INFORMATION
#MNEM.UNIT      DATA TYPE    INFORMATION
#----------   ------------   ------------------------------
 STRT.F           32.0000:   START DEPTH
 STOP.F          707.0000:   STOP DEPTH
 STEP.F            0.5000:   STEP LENGTH
 NULL.          -999.2500:   NO VALUE
 COMP. FENIX & SCISSON INC:   COMPANY
 WELL.     NPR 3 #28SX-11:   WELL
 FLD .             TEAPOT:   FIELD
 LOC .      S11 T38N R78W:   LOCATION
 CNTY.            NATRONA:   COUNTY
 STAT.            WYOMING:   STATE
 CTRY. UNITED STATES OF AMERICA:   COUNTRY
 SRVC.              Welex:   SERVICE COMPANY
 DATE.        26-APR-1977:   LOGDATE
 API .       490251034400:   API NUMBER
~CURVE INFORMATION
#MNEM.UNIT       API CODE    CURVE DESCRIPTION
#----------   ------------   ------------------------------
 DEPT.F                  :   
 CALD.IN     45 280 60 00:   CALIPER FROM DENSITY LOG
 GRD .GAPI   45 310 01 00:   GAMMA RAY FROM DENSITY LOG
 CORR.G/C3   45 356 01 00:   DENSITY CORRECTION
 DPHI.DEC    45 890 12 00:   DENSITY POROSITY SANDSTONE
 RHOB.G/C3   45 350 01 00:   BULK DENSITY
~PARAMETER INFORMATION
#MNEM.UNIT          VALUE    DESCRIPTION
#----------   ------------   ------------------------------
 PD  .                 GL:   PERMANENT DATUM
 EPD .F              5203:   ELEVATION PERMANENT DATUM
 LMF .                 GL:   LOG MEASURED FROM
 DMF .                 GL:   DRILLING MEASURED FROM
 EGL .F              5203:   GROUND LEVEL
 DATE.        26-APR-1977:   RUN DATE
 RUN .                  1:   RUN NUMBER
 DD  .F               714:   DEPTH DRILLER
 DL  .F               709:   DEPTH LOGGER
 BLI .F               707:   BOTTOM LOG INTERVAL
 TLI .F                32:   TOP LOG INTERVAL
 CS  .IN            8.625:   CASING SIZE
 BS  .IN               12:   BIT SIZE
 BSD .F               714:   BIT SIZE AT DEPTH
 DFT .            KCL MUD:   DRILLING FLUID TYPE
 DFD .                8.7:   DRILLING FLUID DENSITY
 TCS .HRS            0100:   TIME CURCULATED STOPPED
 MRT .F                74:   MAXIMUM RECORDED TEMPERATURE
 ENGI.            C. DOAK:   RECORDING ENGINEER
 WITN.           ROB LYON:   WITNESSED BY
 CLNT.            A2DTECH:   CLIENT CODE
 ORIG.           5" PRINT:   ORIGIN OF DATA
 UWI .       490251034400:   UNIQUE WELL ID
 DICO. A2D Technologies, Inc.:   DIGITIZING COMPANY
~OTHER INFORMATION
~A   DEPT       CALD      GRD        CORR      DPHI       RHOB   
# ...
  459.0000     7.8422   133.5505     0.0349     0.1107     2.4984
  459.5000     7.8419   131.0505     0.0336     0.1148     2.4922
  460.0000     7.8416   131.2133     0.0307     0.1190     2.4827
  460.5000     7.8413   134.0387     0.0294     0.1130     2.4754
  461.0000     7.8411   136.4204     0.0281     0.1085     2.4853
  461.5000     7.8408   138.3583     0.0283     0.1078     2.4988
  462.0000     7.8405   140.1482     0.0284     0.1129     2.4987
  462.5000     7.8402   141.9382     0.0301     0.1179     2.4855
  463.0000     7.8692   142.3968     0.0303     0.1209     2.4729
  463.5000     7.8689   140.9323     0.0305     0.1193     2.4730
  464.0000     7.8686   139.1720     0.0307     0.1181     2.4798
  464.5000     7.8683   138.2992     0.0309     0.1172     2.4843
  465.0000     7.8680   138.4619     0.0295     0.1168     2.4792
  465.5000     7.8677   139.5122     0.0297     0.1210     2.4688
  466.0000     7.8674   141.8939     0.0284     0.1260     2.4592
  466.5000     7.8672   143.2401     0.0286     0.1281     2.4601
  467.0000     7.8669   145.0300     0.0272     0.1250     2.4684
  467.5000     7.8666   146.2282     0.0274     0.1223     2.4737
  468.0000     7.8663   143.7283     0.0260     0.1208     2.4760
  468.5000     7.8660   141.9679     0.0263     0.1223     2.4746
  469.0000     7.8657   138.7283     0.0250     0.1267     2.4687
  469.5000     7.8654   137.2638     0.0251     0.1341     2.4591
  470.0000     7.8651   138.6100     0.0253     0.1418     2.4436
  470.5000     7.8648   142.4709     0.0255     0.1412     2.4391
  471.0000     7.8645   145.2964     0.0272     0.1346     2.4452
  471.5000     7.8935   143.8319     0.0289     0.1289     2.4558
  472.0000     7.9226   138.5213     0.0306     0.1220     2.4723
  472.5000     7.9223   139.2757     0.0337     0.1166     2.4910
  473.0000     7.9220   140.7698     0.0354     0.1139     2.4784
  473.5000     7.9510   141.9680     0.0371     0.1165     2.4889
  474.0000     7.9507   143.3142     0.0388     0.1177     2.4957
  474.5000     7.9504   144.8083     0.0374     0.1164     2.4906
  475.0000     7.9501   146.3024     0.0346     0.1155     2.4847
  475.5000     7.9499   147.3527     0.0303     0.1218     2.4602
  476.0000     7.9789   147.8113     0.0275     0.1354     2.4424
  476.5000     7.9786   144.7196     0.0261     0.1414     2.4440
  477.0000     7.9783   140.5924     0.0233     0.1387     2.4463
  477.5000     7.9780   137.6486     0.0205     0.1425     2.4427
  478.0000     8.0070   139.2906     0.0176     0.1502     2.4316
  478.5000     8.0067   143.0037     0.0148     0.1520     2.4242
  479.0000     8.0065   143.6102     0.0135     0.1484     2.4258
  479.5000     8.0355   140.6664     0.0137     0.1391     2.4400
  480.0000     8.0352   136.5392     0.0154     0.1289     2.4640
  480.5000     8.0349   133.4475     0.0186     0.1190     2.4753
  481.0000     8.0346   131.2434     0.0218     0.1196     2.4828
  481.5000     8.0343   128.1517     0.0250     0.1171     2.4896
  482.0000     8.0340   125.9475     0.0297     0.1093     2.4949
  482.5000     8.0337   123.8913     0.0313     0.1048     2.4995
  483.0000     8.0334   120.3558     0.0330     0.1039     2.5003
  483.5000     8.0331   119.3314     0.0317     0.1069     2.4996
  484.0000     8.0328   119.3500     0.0274     0.1110     2.4908
  484.5000     8.0326   121.7316     0.0230     0.1148     2.4760
  485.0000     8.0323   124.2612     0.0172     0.1196     2.4641
  485.5000     8.0320   125.9032     0.0143     0.1264     2.4568
  486.0000     8.0317   127.1015     0.0130     0.1276     2.4621
  486.5000     8.0314   125.3411     0.0132     0.1183     2.4771
  487.0000     8.0311   120.1784     0.0149     0.1138     2.4876
  487.5000     8.0015   119.0061     0.0166     0.1093     2.4982
  488.0000     8.0012   120.0601     0.0198     0.1134     2.4945
  488.5000     8.0009   121.2583     0.0215     0.1220     2.4752
  489.0000     7.9713   125.4152     0.0217     0.1229     2.4686
  489.5000     7.9710   129.1282     0.0218     0.1178     2.4806
  490.0000     7.9707   130.6223     0.0235     0.1130     2.4949
  490.5000     7.9704   127.2347     0.0237     0.1111     2.4935
  491.0000     7.9994   122.8117     0.0269     0.1132     2.4831
  491.5000     7.9991   121.0513     0.0286     0.1161     2.4728
  492.0000     7.9988   119.7348     0.0318     0.1200     2.4706
  492.5000     7.9985   118.5661     0.0335     0.1184     2.4801
  493.0000     8.0276   117.2496     0.0336     0.1115     2.4930
  493.5000     8.0272   115.3413     0.0338     0.1082     2.4985
  494.0000     8.0270   112.3975     0.0250     0.1213     2.4696
  494.5000     8.0267   113.5958     0.0176     0.1258     2.4584
  495.0000     8.0264   115.6816     0.0147     0.1186     2.4761
  495.5000     8.0261   117.0277     0.0270     0.1161     2.4910
  496.0000     8.0258   117.7822     0.0408     0.1152     2.4944
  496.5000     8.0255   114.6905     0.0454     0.1235     2.4714
  497.0000     8.0252   111.8947     0.0471     0.1366     2.4501
  497.5000     8.0249   109.5389     0.0277     0.1703     2.4034
  498.0000     8.0246   114.8828    -0.0007     0.1769     2.3747
  498.5000     8.0243   116.9687    -0.0051     0.1604     2.3966
  499.0000     8.0240   115.8000    -0.0003     0.1293     2.4251
  499.5000     8.0238   113.4480     0.0194     0.1096     2.4646
  500.0000     8.0235   111.1048     0.0304     0.0960     2.4995
  500.5000     8.0199   109.4066     0.0342     0.0904     2.5303
  501.0000     8.0164   107.4285     0.0380     0.0898     2.5229
  501.5000     8.0128   106.7036     0.0322     0.0984     2.5095
  502.0000     8.0093   105.8308     0.0307     0.1038     2.4977
  502.5000     8.0057   104.9580     0.0265     0.1050     2.4873
  503.0000     8.0022   103.1977     0.0267     0.1019     2.4911
  503.5000     7.9986   100.1059     0.0284     0.0995     2.4986
  504.0000     7.9950    97.3101     0.0301     0.0974     2.5106
  504.5000     7.9915    94.9580     0.0332     0.0956     2.5196
  505.0000     7.9879    94.3810     0.0366     0.0938     2.5279
  505.5000     7.9844    93.2124     0.0428     0.0923     2.5339
  506.0000     7.9817    89.9727     0.0488     0.0919     2.5400
  506.5000     7.9807    87.4727     0.0523     0.0964     2.5356
  507.0000     7.9797    82.6058     0.0585     0.1026     2.5162
  507.5000     7.9786    79.6620     0.0615     0.1170     2.4902
  508.0000     7.9776    76.8662     0.0556     0.1283     2.4716
  508.5000     7.9766    72.5910     0.0438     0.1378     2.4560
  509.0000     7.9756    69.7951     0.0349     0.1467     2.4330
  509.5000     7.9746    66.4076     0.0320     0.1598     2.4181
  510.0000     8.0029    63.9038     0.0518     0.1330     2.4488
  510.5000     8.0018    65.5495     0.0656     0.1132     2.4697
  511.0000     8.0008    68.3750     0.0718     0.1192     2.4661
  511.5000     7.9998    71.0525     0.0704     0.1463     2.4139
  512.0000     7.9988    73.4341     0.0586     0.1579     2.4110
  512.5000     7.9978    75.2241     0.0452     0.1633     2.4200
  513.0000     7.9967    76.8660     0.0318     0.1719     2.4074
  513.5000     7.9957    78.0643     0.0230     0.1823     2.3754
  514.0000     7.9947    79.2625     0.0201     0.1904     2.3606
  514.5000     7.9937    80.6086     0.0339     0.1853     2.3644
  515.0000     7.9927    81.9548     0.0461     0.1772     2.3779
  515.5000     7.9916    83.1530     0.0568     0.1691     2.3958
  516.0000     7.9906    84.1996     0.0660     0.1577     2.4093
  516.5000     7.9896    79.3364     0.0723     0.1514     2.4228
  517.0000     7.9884    76.9843     0.0709     0.1598     2.4132
  517.5000     7.9875    78.7742     0.0591     0.1654     2.3991
  518.0000     7.9865    80.7121     0.0487     0.1564     2.4081
  518.5000     7.9853    82.3541     0.0428     0.1469     2.4313
  519.0000     8.0138    83.9961     0.0355     0.1534     2.4246
  519.5000     8.0128    85.7860     0.0341     0.1522     2.4180
