~VERSION INFORMATION
 VERS.                2.0:   CWLS LOG ASCII STANDARD - VERSION 2.0
 WRAP.                 NO:   ONE LINE PER DEPTH STEP
~WELL INFORMATION
#MNEM.UNIT      DATA TYPE    INFORMATION
#----------   ------------   ------------------------------
 STRT.F          250.0000:   START DEPTH
 STOP.F         1798.0000:   STOP DEPTH
 STEP.F            0.5000:   STEP LENGTH
 NULL.          -999.2500:   NO VALUE
 COMP. BROWN JOHN E&C INC:   COMPANY
 WELL. NPR 3 STX-10 #57-10:   WELL
 FLD .  TEAPOT DOME NPR 3:   FIELD
 LOC .      S10 T38N R78W:   LOCATION
 CNTY.            NATRONA:   COUNTY
 STAT.            WYOMING:   STATE
 CTRY. UNITED STATES OF AMERICA:   COUNTRY
 SRVC.           BIRDWELL:   SERVICE COMPANY
 DATE.        24-FEB-1979:   LOGDATE
 API .       490251096900:   API NUMBER
~CURVE INFORMATION
#MNEM.UNIT       API CODE    CURVE DESCRIPTION
#----------   ------------   ------------------------------
 DEPT.F                  :   
 GRD .GAPI   45 310 01 00:   GAMMA RAY FROM DENSITY LOG
 CALD.IN     45 280 60 00:   CALIPER
 RHOB.G/C3   45 350 01 00:   BULK DENSITY
 DPHI.DEC    45 890 12 00:   DENSITY POROSITY SANDSTONE
 CORR.G/C3   45 356 01 00:   DENSITY CORRECTION
~PARAMETER INFORMATION
#MNEM.UNIT          VALUE    DESCRIPTION
#----------   ------------   ------------------------------
 PD  .                 GL:   PERMANENT DATUM
 EPD .F              5201:   ELEVATION PERMANENT DATUM
 LMF .                 KB:   LOG MEASURED FROM
 DAPD.F                10:   FEET ABOVE PERMANENT DATUM
 DMF .                 KB:   DRILLING MEASURED FROM
 EKB .F              5211:   KELLING BUSHING
 EGL .F              5201:   GROUND LEVEL
 RUN .                  1:   RUN NUMBER
 DD  .F              1802:   DEPTH DRILLER
 DL  .F              1793:   DEPTH LOGGER
 BLI .F              1793:   BOTTOM LOG INTERVAL
 TLI .F               250:   TOP LOG INTERVAL
 CS  .IN            9.625:   CASING SIZE
 CBD .F               500:   CASING BOTTOM DRILLER
 CBL .F               490:   CASING BOTTOM LOGGER
 BS  .IN             8.75:   BIT SIZE
 BSD .F              1802:   BIT SIZE AT DEPTH
 DFT .                OIL:   DRILLING FLUID TYPE
 BHT .F                90:   BOTTOM HOLE TEMPERATURE
 TCS .HRS               4:   TIME CURCULATED STOPPED
 MRT .F                90:   MAXIMUM RECORDED TEMPERATURE
 LUN .               3029:   LOGGING UNIT NUMBER
 LUL .             CASPER:   LOGGING UNIT LOCATION
 ENGI.            ROLLINS:   RECORDING ENGINEER
 WITN.              AMEND:   WITNESSED BY
 CLNT.            A2DTECH:   CLIENT CODE
 ORIG.       2", 5" PRINT:   ORIGIN OF DATA
 UWI .       490251096900:   UNIQUE WELL ID
 DICO. A2D Technologies, Inc.:   DIGITIZING COMPANY
~OTHER INFORMATION
~A   DEPT       GRD        CALD       RHOB       DPHI      CORR  
# ...
 1714.0000   137.0307     8.8343     2.5076     0.0272     0.0672
 1714.5000   140.9350     8.8153     2.5135     0.0248     0.0758
 1715.0000   145.4123     8.8242     2.5075     0.0294     0.0745
 1715.5000   142.7404     8.8375     2.4963     0.0341     0.0698
 1716.0000   140.3468     8.8510     2.4905     0.0389     0.0741
 1716.5000   149.2339     8.8520     2.4950     0.0358     0.0795
 1717.0000   143.0077     8.8508     2.4996     0.0321     0.0848
 1717.5000   137.0563     8.8495     2.5005     0.0358     0.0856
 1718.0000   138.8242     8.8482     2.4814     0.0422     0.0665
 1718.5000   141.0839     8.8469     2.4679     0.0493     0.0640
 1719.0000   143.4714     8.8456     2.4860     0.0309     0.0738
 1719.5000   142.1496     8.8443     2.4999     0.0351     0.0728
 1720.0000   139.5960     8.8430     2.4931     0.0401     0.0644
 1720.5000   137.0210     8.8418     2.4845     0.0368     0.0562
 1721.0000   134.4529     8.8405     2.4910     0.0325     0.0565
 1721.5000   131.8831     8.8392     2.5002     0.0282     0.0767
 1722.0000   130.6740     8.8379     2.5094     0.0265     0.0980
 1722.5000   132.8143     8.8366     2.5016     0.0329     0.0994
 1723.0000   136.1921     8.8352     2.4916     0.0381     0.0843
 1723.5000   138.6499     8.8341     2.4922     0.0347     0.0751
 1724.0000   136.6262     8.8421     2.4968     0.0313     0.0776
 1724.5000   134.7022     8.8905     2.5008     0.0328     0.0831
 1725.0000   132.7850     8.9385     2.4951     0.0353     0.0887
 1725.5000   130.8266     8.9866     2.4884     0.0378     0.0944
 1726.0000   131.0806     9.0328     2.4817     0.0404     0.1000
 1726.5000   131.8099     9.0287     2.4873     0.0424     0.1057
 1727.0000   132.5591     9.0225     2.5159     0.0331     0.1113
 1727.5000   133.2988     9.0165     2.5154     0.0257     0.1168
 1728.0000   133.9725     9.0106     2.4997     0.0287     0.1177
 1728.5000   134.2249     9.0047     2.4870     0.0412     0.1045
 1729.0000   134.4941     8.9988     2.4743     0.0477     0.0915
 1729.5000   134.7628     8.9938     2.4684     0.0459     0.0785
 1730.0000   135.0217     8.9927     2.4783     0.0442     0.0655
 1730.5000   135.3581     8.9912     2.4904     0.0424     0.0526
 1731.0000   137.7824     8.9897     2.4881     0.0409     0.0397
 1731.5000   140.3317     8.9881     2.4859     0.0391     0.0316
 1732.0000   142.8740     8.9866     2.4911     0.0360     0.0303
 1732.5000   145.4182     8.9850     2.5069     0.0284     0.0290
 1733.0000   147.9706     8.9835     2.5138     0.0260     0.0272
 1733.5000   150.4843     8.9819     2.4939     0.0380     0.0233
 1734.0000   152.2815     8.9804     2.4767     0.0413     0.0194
 1734.5000   149.6098     8.9789     2.4695     0.0441     0.0156
 1735.0000   147.1290     8.9773     2.4846     0.0422     0.0117
 1735.5000   150.0794     8.9758     2.4920     0.0405     0.0078
 1736.0000   153.2400     8.9742     2.4763     0.0388     0.0040
 1736.5000   149.9895     8.9739     2.4616     0.0435     0.0002
 1737.0000   146.3262     8.9738     2.4592     0.0549     0.0034
 1737.5000   142.6795     8.9738     2.4619     0.0517     0.0156
 1738.0000   138.9829     8.9738     2.4819     0.0470     0.0277
 1738.5000   137.3999     8.9738     2.5043     0.0378     0.0402
 1739.0000   136.3548     8.9738     2.4956     0.0329     0.0458
 1739.5000   135.0743     8.9738     2.4763     0.0497     0.0415
 1740.0000   148.2013     8.9738     2.4562     0.0579     0.0370
 1740.5000   146.7364     8.9738     2.4493     0.0629     0.0326
 1741.0000   144.7377     8.9738     2.4508     0.0600     0.0282
 1741.5000   142.6059     8.9738     2.4718     0.0475     0.0237
 1742.0000   140.4636     8.9738     2.4944     0.0383     0.0230
 1742.5000   138.3720     8.9738     2.5080     0.0309     0.0249
 1743.0000   137.0239     8.9738     2.5018     0.0285     0.0268
 1743.5000   139.3063     8.9738     2.4939     0.0312     0.0288
 1744.0000   140.4465     8.9738     2.4907     0.0297     0.0307
 1744.5000   138.1009     8.9738     2.5018     0.0281     0.0320
 1745.0000   136.2621     8.9738     2.5063     0.0285     0.0292
 1745.5000   134.4248     8.9738     2.5057     0.0297     0.0265
 1746.0000   132.5821     8.9738     2.5013     0.0309     0.0242
 1746.5000   130.7302     8.9738     2.4844     0.0383     0.0322
 1747.0000   128.8774     8.9738     2.4680     0.0452     0.0489
 1747.5000   127.3387     8.9738     2.4514     0.0545     0.0655
 1748.0000   128.1775     8.9738     2.4343     0.0693     0.0691
 1748.5000   137.8783     8.9753     2.4291     0.0537     0.0591
 1749.0000   144.9110     8.9773     2.4906     0.0377     0.0491
 1749.5000   143.4477     8.9794     2.4837     0.0426     0.0389
 1750.0000   141.9822     8.9814     2.4774     0.0461     0.0304
 1750.5000   140.5122     8.9834     2.4782     0.0358     0.0635
 1751.0000   139.0379     8.9855     2.5117     0.0248     0.0738
 1751.5000   137.6562     8.9875     2.5118     0.0311     0.0572
 1752.0000   136.8404     8.9896     2.5035     0.0357     0.0510
 1752.5000   143.6386     8.9916     2.4973     0.0328     0.0630
 1753.0000   140.5913     8.9937     2.5049     0.0289     0.0748
 1753.5000   136.7509     8.9944     2.5144     0.0251     0.0867
 1754.0000   139.2499     8.9963     2.5098     0.0216     0.0977
 1754.5000   147.5173     8.9981     2.5036     0.0246     0.0913
 1755.0000   143.7479     9.0000     2.5108     0.0265     0.0844
 1755.5000   140.2452     9.0019     2.5177     0.0215     0.0775
 1756.0000   136.7721     9.0037     2.5193     0.0184     0.0706
 1756.5000   133.4111     9.0056     2.5118     0.0241     0.0636
 1757.0000   133.2640     9.0074     2.5107     0.0317     0.0663
 1757.5000   137.5756     9.0093     2.5143     0.0216     0.0936
 1758.0000   144.0737     9.0112     2.5164     0.0249     0.0990
 1758.5000   152.1182     9.0130     2.5080     0.0291     0.0680
 1759.0000   151.4161     9.0149     2.5011     0.0333     0.0427
 1759.5000   150.4651     9.0167     2.5060     0.0292     0.0405
 1760.0000   150.6206     9.0186     2.5112     0.0235     0.0426
 1760.5000   159.9016     9.0204     2.4997     0.0329     0.0442
 1761.0000   158.3152     9.0223     2.4825     0.0442     0.0407
 1761.5000   155.7782     9.0242     2.4646     0.0509     0.0356
 1762.0000   153.8345     9.0260     2.4600     0.0513     0.0349
 1762.5000   157.2741     9.0279     2.4735     0.0421     0.0686
 1763.0000   160.3044     9.0297     2.4888     0.0389     0.0892
 1763.5000   157.2713     9.0316     2.4782     0.0393     0.0740
 1764.0000   153.7139     9.0335     2.4648     0.0476     0.0551
 1764.5000   157.5596     9.0353     2.4513     0.0558     0.0358
 1765.0000   160.9617     9.0372     2.4378     0.0640     0.0258
 1765.5000   157.4814     9.0390     2.4294     0.0670     0.0286
 1766.0000   154.8160     9.0409     2.4390     0.0663     0.0320
 1766.5000   152.4369     9.0428     2.4463     0.0641     0.0353
 1767.0000   153.2675     9.0446     2.4378     0.0717     0.0380
 1767.5000   154.9868     9.0465     2.4294     0.0722     0.0326
 1768.0000   156.6966     9.0483     2.4283     0.0726     0.0267
 1768.5000   158.3907     9.0502     2.4312     0.0731     0.0210
 1769.0000   159.1712     9.0520     2.4342     0.0720     0.0197
 1769.5000   156.5668     9.0541     2.4371     0.0695     0.0263
 1770.0000   154.5788     9.0475     2.4400     0.0670     0.0331
 1770.5000   156.6683     9.0389     2.4364     0.0682     0.0379
 1771.0000   160.4750     9.0301     2.4318     0.0713     0.0365
 1771.5000   162.8508     9.0214     2.4272     0.0743     0.0352
 1772.0000   156.9599     9.0127     2.4226     0.0774     0.0339
 1772.5000   153.2872     9.0039     2.4180     0.0804     0.0386
 1773.0000   155.2995     8.9952     2.4156     0.0824     0.0439
 1773.5000   157.3654     8.9865     2.4163     0.0847     0.0493
 1774.0000   159.7843     8.9777     2.4140     0.0848     0.0547
 1774.5000   151.2696     8.9690     2.4119     0.0742     0.0599
