~VERSION INFORMATION
 VERS.                2.0:   CWLS LOG ASCII STANDARD - VERSION 2.0
 WRAP.                 NO:   ONE LINE PER DEPTH STEP
~WELL INFORMATION
#MNEM.UNIT      DATA TYPE    INFORMATION
#----------   ------------   ------------------------------
 STRT.F           35.0000:   START DEPTH
 STOP.F          484.0000:   STOP DEPTH
 STEP.F            0.5000:   STEP LENGTH
 NULL.          -999.2500:   NO VALUE
 COMP. LAWRENCE/ALLISON INC:   COMPANY
 WELL.     73-1 STX #1-10:   WELL
 FLD .              NPR-3:   FIELD
 LOC .      S10 T38N R78W:   LOCATION
 CNTY.            NATRONA:   COUNTY
 STAT.            WYOMING:   STATE
 CTRY. UNITED STATES OF AMERICA:   COUNTRY
 SRVC.              Welex:   SERVICE COMPANY
 DATE.        04-APR-1977:   LOGDATE
 API .       490251032400:   API NUMBER
~CURVE INFORMATION
#MNEM.UNIT       API CODE    CURVE DESCRIPTION
#----------   ------------   ------------------------------
 DEPT.F                  :   
 CALD.IN     45 280 60 00:   CALIPER
 GRD .GAPI   45 310 01 00:   GAMMA RAY FROM DENSITY LOG
 RHOB.G/C3   45 350 01 00:   BULK DENSITY
 DPHI.DEC    45 890 12 00:   DENSITY POROSITY SANDSTONE
 CORR.G/C3   45 356 01 00:   DENSITY CORRECTION
 SPR .MV     07 010 01 00:   SPONTANEOUS POTENTIAL
 SGRD.OHMM   07 220 05 00:   SHALLOW RESISTIVITY
 ILD .OHMM   07 120 46 00:   INDUCTION LOG DEEP
 ILM .OHMM   07 120 44 00:   INDUCTION LOG MEDIUM
~PARAMETER INFORMATION
#MNEM.UNIT          VALUE    DESCRIPTION
#----------   ------------   ------------------------------
 PD  .                 GL:   PERMANENT DATUM
 EPD .F              5170:   ELEVATION PERMANENT DATUM
 LMF .                 GL:   LOG MEASURED FROM
 DMF .                 GL:   DRILLING MEASURED FROM
 EGL .F              5170:   GROUND LEVEL
 DATE.             4-4-77:   RUN DATE
 RUN .                  1:   RUN NUMBER
 DD  .F               490:   DEPTH DRILLER
 DL  .F               487:   DEPTH LOGGER
 BLI .F               485:   BOTTOM LOG INTERVAL
 TLI .F                35:   TOP LOG INTERVAL
 CS  .IN            8.625:   CASING SIZE
 CBD .F                42:   CASING BOTTOM DRILLER
 CBL .F                42:   CASING BOTTOM LOGGER
 BS  .IN            7.875:   BIT SIZE
 BSD .F               490:   BIT SIZE AT DEPTH
 DFT .            KCL MUD:   DRILLING FLUID TYPE
 DFD .                8.4:   DRILLING FLUID DENSITY
 DFV .                 32:   DRILLING FLUID VISCOSITY
 DFPH.                8.5:   DRILLING FLUID PH
 DFL .                 17:   DRILLING FLUID LOSS
 RMS .OHMM            .48:   RESISTIVITY MUD SAMPLE
 MST .F                48:   MUD SAMPLE TEMPERATURE
 RMF .OHMM            .44:   RESISTIVITY MUD FILTRATE SAMPLE
 MFST.F                48:   MUD FILTRATE SAMPLE TEMPERATURE
 RMC .OHMM            .62:   RESISTIVITY MUD CAKE
 MCST.F                48:   MUD CAKE SAMPLE TEMPERATURE
 MFSS.          FANN TEST:   MUD FILTRATE SAMPLE SOURCE
 MCSS.          FANN TEST:   MUD CAKE SAMPLE SOURCE
 BHT .F                58:   BOTTOM HOLE TEMPERATURE
 TCS .HRS               2:   TIME CURCULATED STOPPED
 MRT .F                58:   MAXIMUM RECORDED TEMPERATURE
 LUN .               8611:   LOGGING UNIT NUMBER
 LUL .           GILLETTE:   LOGGING UNIT LOCATION
 ENGI.               DOAK:   RECORDING ENGINEER
 WITN.      B. HARRINGTON:   WITNESSED BY
 CLNT.            A2DTECH:   CLIENT CODE
 ORIG.        2" 5" PRINT:   ORIGIN OF DATA
 UWI .       490251032400:   UNIQUE WELL ID
 DICO. A2D Technologies, Inc.:   DIGITIZING COMPANY
~OTHER INFORMATION
~A   DEPT     CALD        GRD       RHOB       DPHI       CORR        SPR       SGRD        ILD        ILM   
# ...
  363.5000     8.0100    68.6666     2.4730     0.1028     0.0187   -42.8170    84.8013    21.0048    47.0607
  364.0000     8.0106    70.5801     2.4674     0.1016     0.0233   -42.8122    62.4102    21.1479    42.3296
  364.5000     8.0113    72.5087     2.4592     0.1128     0.0279   -42.7158    44.5658    21.2919    35.3755
  365.0000     8.0120    73.3352     2.4527     0.1150     0.0325   -42.6149    39.4701    21.5105    30.5384
  365.5000     8.0126    72.5201     2.4471     0.1172     0.0330   -42.5144    35.4393    21.3974    42.7095
  366.0000     8.0133    70.4872     2.4301     0.1294     0.0324   -42.4140    35.6505    21.0543    54.0255
  366.5000     8.0140    68.4406     2.4109     0.1419     0.0318   -42.3135    33.8039    20.7170    32.4265
  367.0000     8.0146    66.3520     2.4135     0.1397     0.0307   -42.2132    37.4786    20.3728    22.2295
  367.5000     8.0153    66.6428     2.4160     0.1376     0.0283   -42.1127    43.6941    20.2679    20.3795
  368.0000     8.0160    67.9081     2.4067     0.1445     0.0211   -42.0123    41.8923    20.1610    18.0631
  368.5000     8.0166    69.1942     2.3976     0.1499     0.0137   -41.9119    38.8561    20.0547    19.3241
  369.0000     8.0173    70.4772     2.3976     0.1521     0.0106   -41.8115    35.3820    19.9490    23.3783
  369.5000     8.0238    71.7890     2.3833     0.1580     0.0074   -41.7111    36.3260    19.8448    28.6335
  370.0000     8.0655    70.9327     2.3648     0.1715    -0.0036   -41.6107    37.6292    19.6042    27.5537
  370.5000     8.1073    68.8239     2.3525     0.1771    -0.0156   -41.5103    38.7920    19.3198    26.6015
  371.0000     8.1490    68.7941     2.3527     0.1791    -0.0184   -41.4099    38.7920    19.0396    26.6015
  371.5000     8.1907    70.7087     2.3632     0.1697    -0.0187   -41.3095    37.5826    18.7636    26.6015
  372.0000     8.2324    72.8912     2.3768     0.1614    -0.0129   -41.2091    36.5462    18.5807    26.6015
  372.5000     8.2740    75.1450     2.3907     0.1531    -0.0053   -41.1086    35.0626    18.6217    26.6015
  373.0000     8.3156    75.9630     2.4049     0.1430     0.0014   -41.0080    35.3833    18.6595    27.3402
  373.5000     8.3355    76.4997     2.4060     0.1463    -0.0016   -40.9075    36.0081    18.6967    28.8246
  374.0000     8.3346    77.0155     2.3826     0.1581    -0.0075   -40.8234    36.7168    18.7340    30.5384
  374.5000     8.3337    77.5352     2.3635     0.1710    -0.0135   -40.8630    36.7177    18.7714    22.7496
  375.0000     8.3327    78.0571     2.3563     0.1734    -0.0177   -40.9044    36.7187    18.8088    24.2225
  375.5000     8.3317    78.5792     2.3493     0.1784    -0.0202   -40.9453    34.1441    18.8463    27.4468
  376.0000     8.3307    79.1001     2.3447     0.1835    -0.0197   -40.9862    32.2773    18.8839    29.9816
  376.5000     8.3297    79.6190     2.3577     0.1771    -0.0188   -41.0270    33.4673    18.9211    25.4733
  377.0000     8.3287    80.1356     2.3671     0.1713    -0.0149   -41.0679    31.7897    18.9556    24.2631
  377.5000     8.3277    80.3070     2.3702     0.1654    -0.0097   -41.1087    30.5170    18.9991    25.6579
  378.0000     8.3267    80.2453     2.3748     0.1595    -0.0044   -41.1496    31.6536    19.0427    27.0153
  378.5000     8.3257    78.7839     2.3892     0.1537     0.0008   -41.1904    32.5559    19.0863    28.6335
  379.0000     8.3247    77.3465     2.4024     0.1478     0.0046   -41.2313    30.0158    19.2091    25.7917
  379.5000     8.3237    75.9207     2.4092     0.1400     0.0082   -41.2722    28.6335    19.3719    21.4723
  380.0000     8.3227    74.5027     2.4125     0.1421     0.0118   -41.3131    31.6833    19.5362    18.0748
  380.5000     8.3217    73.0849     2.4044     0.1484     0.0154   -41.3537    30.9443    19.7018    22.1661
  381.0000     8.3207    72.2831     2.3995     0.1390     0.0190   -41.3940    29.2299    19.8688    26.6015
  381.5000     8.3197    72.3982     2.4465     0.1248     0.0271   -41.3757    29.7122    20.0372    28.2162
  382.0000     8.3187    75.1698     2.4574     0.1129     0.0352   -41.2835    30.3676    20.2071    29.4349
  382.5000     8.3177    77.9558     2.4631     0.1086     0.0318   -41.1918    31.0375    20.3715    29.7891
  383.0000     8.3167    80.7162     2.4675     0.1044     0.0284   -41.0997    31.7222    20.6816    30.1353
  383.5000     8.3161    83.4971     2.4611     0.1138     0.0191   -41.0076    32.2635    21.0573    30.4813
  384.0000     8.3161    84.1370     2.4464     0.1240     0.0092   -40.9156    32.7216    21.4398    30.8339
  384.5000     8.3161    81.2760     2.4344     0.1324     0.0061   -40.8235    33.1761    21.8292    31.1035
  385.0000     8.3162    79.0292     2.4415     0.1252     0.0083   -40.7314    32.9570    22.2257    30.7990
  385.5000     8.3165    76.7474     2.4519     0.1140     0.0127   -40.6393    32.6940    22.5413    30.5510
  386.0000     8.3147    76.3357     2.4443     0.1166     0.0142   -40.5476    32.4338    22.7757    30.3049
  386.5000     8.2644    77.0173     2.4344     0.1230     0.0111   -40.4534    31.9877    23.0088    30.1651
  387.0000     8.2126    77.6823     2.4271     0.1278     0.0080   -40.5298    30.6175    23.3863    29.9816
  387.5000     8.1609    77.6998     2.4212     0.1316     0.0025   -40.7094    29.3132    23.2319    30.2587
  388.0000     8.1090    77.5371     2.3974     0.1446    -0.0133   -40.8899    28.0646    22.8518    29.5729
  388.5000     8.0591    77.3387     2.3752     0.1599    -0.0289   -41.0707    27.0956    22.4780    28.8996
  389.0000     8.0691    76.5159     2.3792     0.1613    -0.0389   -41.2533    28.3712    22.1102    29.2927
  389.5000     8.1359    72.6777     2.3826     0.1564    -0.0397   -41.4392    28.0680    21.7485    29.7054
  390.0000     8.2017    57.9289     2.3844     0.1608    -0.0403   -41.5764    27.5582    21.5354    29.4585
  390.5000     8.2683    51.3596     2.3760     0.1667    -0.0330   -41.3545    27.0577    21.6080    29.2459
  391.0000     8.2764  -999.2500     2.3906     0.1451    -0.0253   -41.2520    26.5663    21.6663    29.0373
  391.5000     8.2850  -999.2500     2.4102     0.1336    -0.0177   -41.1596    26.0838    21.7267    28.8301
  392.0000     8.2919  -999.2500     2.4298     0.1254    -0.0100   -41.0677    25.3961    21.4452    28.6244
  392.5000     8.2981  -999.2500     2.4467     0.1172    -0.0022   -40.9753    24.7397    21.1581    28.3712
  393.0000     8.3046  -999.2500     2.4441     0.1212     0.0016   -40.8828    23.8207    20.7498    28.5512
  393.5000     8.3110  -999.2500     2.4427     0.1197     0.0043   -40.7902    24.1015    20.8820    28.7901
  394.0000     8.3175  -999.2500     2.4448     0.1168     0.0038   -40.6978    24.6166    21.1225    29.0309
  394.5000     8.3240  -999.2500     2.4390     0.1274    -0.0019   -40.6138    25.1727    21.3659    29.2738
  395.0000     8.3308  -999.2500     2.4137     0.1416    -0.0074   -40.5800    23.7966    21.5277    30.6353
  395.5000     8.3350  -999.2500     2.3888     0.1576    -0.0128   -40.5465    22.3348    21.2772    36.3723
  396.0000     8.2669  -999.2500     2.3875     0.1476    -0.0154   -40.5128    22.3561    21.0923    32.9802
  396.5000     8.1924  -999.2500     2.4130     0.1339    -0.0112   -40.4791    22.3789    20.9090    27.4119
  397.0000     8.1148  -999.2500     2.4387     0.1192    -0.0072   -40.4454    22.4017    20.7000    21.7560
  397.5000     8.1440  -999.2500     2.4496     0.1116    -0.0032   -40.4117    22.4245    20.3045    23.3872
  398.0000     8.2074  -999.2500     2.4659     0.1033     0.0008   -40.3780    22.4473    19.9165    27.3460
  398.5000     8.2736  -999.2500     2.4868     0.0951     0.0048   -40.3443    22.4701    19.5359    27.1322
  399.0000     8.2779  -999.2500     2.5027     0.0869     0.0087   -40.3107    22.4931    19.1864    26.7209
  399.5000     8.2786  -999.2500     2.5014     0.0832     0.0102   -40.2773    22.5161    18.8715    25.9465
