~VERSION INFORMATION
 VERS.                2.0:   CWLS LOG ASCII STANDARD - VERSION 2.0
 WRAP.                 NO:   ONE LINE PER DEPTH STEP
~WELL INFORMATION
#MNEM.UNIT      DATA TYPE    INFORMATION
#----------   ------------   ------------------------------
 STRT.F           25.0000:   START DEPTH
 STOP.F          439.0000:   STOP DEPTH
 STEP.F            0.5000:   STEP LENGTH
 NULL.          -999.2500:   NO VALUE
 COMP. LAWRENCE/ALLISON INC:   COMPANY
 WELL.    63-31 SX #10-10:   WELL
 FLD .             TEAPOT:   FIELD
 LOC .      S10 T38N R78W:   LOCATION
 CNTY.            NATRONA:   COUNTY
 STAT.            WYOMING:   STATE
 CTRY. UNITED STATES OF AMERICA:   COUNTRY
 SRVC.           Gearhart:   SERVICE COMPANY
 DATE.        29-SEP-1988:   LOGDATE
 API .       490251125000:   API NUMBER
~CURVE INFORMATION
#MNEM.UNIT       API CODE    CURVE DESCRIPTION
#----------   ------------   ------------------------------
 DEPT.F                  :   
 GRR .GAPI   07 310 01 00:   GAMMA RAY
 RILD.OHMM   07 120 46 00:   INDUCTION LOG DEEP RESISTIVITY
 RILM.OHMM   07 120 44 00:   INDUCTION LOG MEDIUM RESISTIVITY
~PARAMETER INFORMATION
#MNEM.UNIT          VALUE    DESCRIPTION
#----------   ------------   ------------------------------
 PD  .                 GL:   PERMANENT DATUM
 EPD .F              5165:   ELEVATION PERMANENT DATUM
 LMF .                 KB:   LOG MEASURED FROM
 DAPD.F                10:   FEET ABOVE PERMANENT DATUM
 DMF .                 KB:   DRILLING MEASURED FROM
 EKB .F              5175:   KELLING BUSHING
 EGL .F              5165:   GROUND LEVEL
 DATE.        29-SEP-1988:   RUN DATE
 RUN .                  1:   RUN NUMBER
 DD  .F               440:   DEPTH DRILLER
 DL  .F               440:   DEPTH LOGGER
 BLI .F               439:   BOTTOM LOG INTERVAL
 TLI .F                40:   TOP LOG INTERVAL
 CS  .IN            9.625:   CASING SIZE
 CBD .F                45:   CASING BOTTOM DRILLER
 CBL .F                46:   CASING BOTTOM LOGGER
 BS  .IN             8.75:   BIT SIZE
 BSD .F               440:   BIT SIZE AT DEPTH
 TLAB.HRS            2126:   TIME LOGGER AT BOTTOM
 MRT .F                70:   MAXIMUM RECORDED TEMPERATURE
 LUN .               7597:   LOGGING UNIT NUMBER
 LUL .           GILLETTE:   LOGGING UNIT LOCATION
 ENGI.         WEATHERMON:   RECORDING ENGINEER
 WITN.             STRONG:   WITNESSED BY
 CLNT.            A2DTECH:   CLIENT CODE
 ORIG.        2" 5" PRINT:   ORIGIN OF DATA
 UWI .       490251125000:   UNIQUE WELL ID
 DICO. A2D Technologies, Inc.:   DIGITIZING COMPANY
~OTHER INFORMATION
~A   DEPT       GRR      RILD       RILM   
# ...
  298.0000    90.7798    17.4589    17.4735
  298.5000    86.1460    17.4576    17.3470
  299.0000    84.7837    17.4562    17.3413
  299.5000    86.3147    17.4550    17.3365
  300.0000    87.2336    17.4438    17.3004
  300.5000    86.3254    17.2091    16.9719
  301.0000    85.1119    16.8500    16.6189
  301.5000    84.2038    16.4984    16.3873
  302.0000    83.9029    16.3814    16.0465
  302.5000    84.8177    16.2651    15.9337
  303.0000    86.0365    16.0373    15.7117
  303.5000    90.9028    15.9235    15.6012
  304.0000    93.6413    15.5913    15.4916
  304.5000    94.8602    15.4806    15.2757
  305.0000    92.9784    15.2638    15.0628
  305.5000    91.2188    15.0500    14.9570
  306.0000    91.8743    15.0479    14.7485
  306.5000    93.6565    14.9412    14.7475
  307.0000    96.0918    14.9391    14.7465
  307.5000    98.2224    14.9370    14.8488
  308.0000    99.4413    14.8310    14.9518
  308.5000    99.7482    15.0376    15.0555
  309.0000    98.5354    15.3537    15.1599
  309.5000    97.3226    15.4592    15.2836
  310.0000    93.6782    15.8948    15.4787
  310.5000    90.6417    16.1162    15.6950
  311.0000    88.2131    16.3405    16.0262
  311.5000    89.1280    16.3383    16.1376
  312.0000    92.1705    16.2163    16.0240
  312.5000    94.6051    15.9951    15.6907
  313.0000    97.0397    15.8691    15.4720
  313.5000    97.9546    15.5501    15.1502
  314.0000    97.3497    15.3139    14.9391
  314.5000    96.7448    15.0120    14.7309
  315.0000    96.1398    14.8018    14.6273
  315.5000    96.1429    14.6967    14.3231
  316.0000    96.1459    14.5924    13.7345
  316.5000    95.5410    14.2879    13.4488
  317.0000    94.6241    14.4869    13.2614
  317.5000    93.7234    14.6886    13.2605
  318.0000    95.0397    15.1025    13.3527
  318.5000    98.7267    15.7465    13.4453
  319.0000   102.1096    16.4180    13.8250
  319.5000   104.6784    17.6030    14.6182
  320.0000   102.2498    19.0057    15.7842
  320.5000    96.4777    20.6641    17.0432
  321.0000    86.4503    22.9427    19.3245
  321.5000    82.8059    26.3777    23.4958
  322.0000    80.0734    29.4916    27.9754
  322.5000    77.3408    32.9731    31.7199
  323.0000    77.0391    35.8501    34.7317
  323.5000    77.9548    37.6408    36.4690
  324.0000    78.8696    38.4336    37.7622
  324.5000    78.5679    38.4269    38.0241
  325.0000    78.2670    38.4216    38.0215
  325.5000    78.8786    38.1490    38.0189
  326.0000    78.2738    37.8783    37.7517
  326.5000    78.5807    37.6095    37.4656
  327.0000    78.2797    37.0827    36.9365
  327.5000    77.9787    36.5634    36.4148
  328.0000    77.6779    36.0478    35.6906
  328.5000    77.6809    35.5356    34.9029
  329.0000    78.5958    34.8046    33.9828
  329.5000    85.6139    34.5328    33.9804
  330.0000    86.2006    33.8364    33.7416
  330.5000    85.2593    33.8317    33.5045
  331.0000    84.0345    33.5916    33.0376
  331.5000    82.4488    32.8898    32.8054
  332.0000    80.7422    32.4291    33.0336
  332.5000    80.1366    31.7525    32.8009
  333.0000    80.4443    30.6587    32.5704
  333.5000    81.3592    30.0190    31.8929
  334.0000    81.6661    29.3926    31.2296
  334.5000    81.9731    28.5790    30.5801
  335.0000    82.2800    27.7880    30.3652
  335.5000    82.8910    27.7841    30.1518
  336.0000    82.8940    27.9759    30.1497
  336.5000    82.2891    28.5642    30.3594
  337.0000    81.6842    29.3682    30.7837
  337.5000    81.3825    30.1958    30.9978
  338.0000    79.5625    31.4835    30.9951
  338.5000    75.6142    31.9229    30.9930
  339.0000    74.7053    31.9174    30.9908
  339.5000    77.7478    31.6909    30.7730
  340.0000    84.4378    31.4660    30.3442
  340.5000    85.3527    30.8094    29.3008
  341.0000    86.2675    30.1666    27.7069
  341.5000    87.1824    29.7441    26.9419
  342.0000    88.1053    28.9208    26.3815
  342.5000    89.0122    28.3173    26.3797
  343.0000    89.6231    28.3134    26.3779
  343.5000    89.9300    28.3094    26.1925
  344.0000    87.3881    28.1086    26.0084
  344.5000    85.3775    27.7143    25.6459
  345.0000    84.4686    27.1302    25.4657
  345.5000    84.4716    26.5586    25.1108
  346.0000    85.3865    25.8013    24.7608
  346.5000    86.6053    24.9235    24.2458
  347.0000    86.3044    24.0599    23.9079
  347.5000    86.3074    23.3891    23.4107
  348.0000    86.6144    22.7700    22.9238
  348.5000    87.8332    22.6085    22.4470
  349.0000    91.4836    22.1367    22.1342
  349.5000    92.7024    21.6748    21.5230
  350.0000    93.4350    21.3052    20.9287
  350.5000    94.1771    20.4988    20.2662
  351.0000    95.1433    19.7798    19.6311
  351.5000    95.7542    19.5001    19.2343
  352.0000    94.8453    19.2244    18.8309
  352.5000    90.5930    19.2191    18.6960
  353.0000    86.3407    19.0801    18.6921
  353.5000    82.6963    18.8103    18.5582
  354.0000    79.9637    18.6743    18.5544
  354.5000    80.2707    18.5392    18.4215
  355.0000    82.7053    18.2771    18.2895
  355.5000    85.1399    18.1449    18.1585
  356.0000    89.7021    18.0121    17.9030
  356.5000    91.2249    17.6353    17.6510
  357.0000    88.1397    17.4922    17.2815
  357.5000    86.6313    17.1400    17.1577
  358.0000    85.0983    16.8966    16.9163
  358.5000    83.9421    16.6577    16.6782
  359.0000    83.9458    16.4222    16.5588
  359.5000    84.5567    16.1900    16.4401
  360.0000    86.3834    16.1855    16.3148
  360.5000    87.2983    16.0685    16.0792
  361.0000    87.9092    15.7310    15.8661
  361.5000    88.5201    15.6172    15.7517
  362.0000    88.5231    15.3964    15.4220
  362.5000    88.5261    15.2851    15.3115
  363.0000    88.5291    15.2809    15.2018
  363.5000    89.7479    15.1703    14.9879
  364.0000    91.5746    15.0606    14.9848
  364.5000    92.7934    14.9517    14.8775
  365.0000    92.7964    14.8436    14.7709
  365.5000    92.4955    14.8301    14.7678
  366.0000    92.8145    14.7321    14.7648
  366.5000    93.7174    14.7271    14.7617
  367.0000    94.6322    14.7231    14.7587
  367.5000    96.1556    14.7190    14.7556
  368.0000    98.5902    14.7150    14.6499
  368.5000    98.2893    14.7109    14.6469
  369.0000    97.3797    14.6045    14.5420
  369.5000    97.0787    14.6005    14.4377
  370.0000    97.9943    14.4949    14.4213
  370.5000    98.9092    14.3901    14.3126
  371.0000    98.3043    14.2860    14.2280
  371.5000    96.4836    14.2821    14.1261
  372.0000    93.1431    14.2781    14.1231
  372.5000    91.0184    14.1749    14.1202
  373.0000    90.7167    14.1710    14.1173
  373.5000    92.2402    14.1671    13.9186
  374.0000    93.4590    14.0645    13.8189
  374.5000    93.4621    13.9628    13.7199
  375.0000    93.4650    13.9428    13.7171
  375.5000    94.1085    13.7607    13.6188
  376.0000    97.5527    13.6612    13.6160
  376.5000   100.8176    13.5624    13.5185
  377.0000   102.2924    13.3706    13.3282
  377.5000   102.9033    13.2739    13.2328
  378.0000   102.6023    13.1779    13.1380
  378.5000   101.9974    13.1743    13.0402
  379.0000    99.8728    13.1707    12.9503
  379.5000    98.0521    13.1671    12.9476
  380.0000    97.4472    13.1634    12.9444
  380.5000    97.4502    13.0682    12.9417
  381.0000    97.7571    13.0646    12.9390
  381.5000    98.0641    12.9702    12.8463
  382.0000    98.0671    12.7868    12.8437
  382.5000    97.4614    12.7832    12.7517
  383.0000    97.1611    12.7796    12.6603
  383.5000    96.2522    12.6872    12.5696
  384.0000    95.9514    12.5790    12.4796
  384.5000    95.9583    12.4166    12.3902
  385.0000    96.9097    12.2410    12.2158
  385.5000   100.0212    12.0679    12.1283
  386.0000   103.3637    11.9806    11.9576
  386.5000   105.6936    11.8112    11.8720
  387.0000   106.9124    11.6442    11.7049
  387.5000   107.2193    11.4796    11.5402
  388.0000   105.3986    11.3173    11.2944
  388.5000   103.5772    11.0796    11.0456
