~VERSION INFORMATION
 VERS.                2.0:   CWLS LOG ASCII STANDARD - VERSION 2.0
 WRAP.                 NO:   ONE LINE PER DEPTH STEP
~WELL INFORMATION
#MNEM.UNIT      DATA TYPE    INFORMATION
#----------   ------------   ------------------------------
 STRT.F            2.0000:   START DEPTH
 STOP.F          595.0000:   STOP DEPTH
 STEP.F            0.5000:   STEP LENGTH
 NULL.          -999.2500:   NO VALUE
 COMP.       F D SERV INC:   COMPANY
 WELL.    73-5 SX-3 #73-3:   WELL
 FLD .             TEAPOT:   FIELD
 LOC .       S3 T38N R78W:   LOCATION
 CNTY.            NATRONA:   COUNTY
 STAT.            WYOMING:   STATE
 CTRY. UNITED STATES OF AMERICA:   COUNTRY
 SRVC.     Atlas Wireline:   SERVICE COMPANY
 DATE.        01-MAY-1992:   LOGDATE
 API .       490252252200:   API NUMBER
~CURVE INFORMATION
#MNEM.UNIT       API CODE    CURVE DESCRIPTION
#----------   ------------   ------------------------------
 DEPT.F                  :   
 CALD.IN     45 280 60 00:   CALIPER FROM DENSITY
 CORR.G/C3   45 356 01 00:   DENSITY CORRECTION
 DEN .G/C3   45 350 01 00:   COMPENSATED BULK DENSTIY
 GRD .GAPI   45 310 01 00:   GAMMA RAY FROM DENSITY LOG
 RILD.OHMM   07 120 46 00:   INDUCTION LOG DEEP RESISTIVITY
 RILM.OHMM   07 120 44 00:   INDUCTION LOG MEDIUM RESISTIVITY
 PORD.DEC    45 890 12 00:   POROSITY DENSITY SANDSTONE
~PARAMETER INFORMATION
#MNEM.UNIT          VALUE    DESCRIPTION
#----------   ------------   ------------------------------
 PD  .                 GL:   PERMANENT DATUM
 EPD .F              5147:   ELEVATION PERMANENT DATUM
 LMF .                 KB:   LOG MEASURED FROM
 DAPD.F                 5:   FEET ABOVE PERMANENT DATUM
 DMF .                 KB:   DRILLING MEASURED FROM
 EKB .F              5152:   KELLING BUSHING
 EGL .F              5147:   GROUND LEVEL
 DATE.        01-MAY-1992:   RUN DATE
 RUN .                  1:   RUN NUMBER
 DD  .F               600:   DEPTH DRILLER
 DL  .F               603:   DEPTH LOGGER
 BLI .F               601:   BOTTOM LOG INTERVAL
 TLI .F                 2:   TOP LOG INTERVAL
 CS  .IN            8.625:   CASING SIZE
 CBD .F                46:   CASING BOTTOM DRILLER
 CBL .F                53:   CASING BOTTOM LOGGER
 BS  .IN            7.875:   BIT SIZE
 BSD .F               600:   BIT SIZE AT DEPTH
 DFT .                AIR:   DRILLING FLUID TYPE
 TCS .HRS               1:   TIME CURCULATED STOPPED
 LUN .            HL-6274:   LOGGING UNIT NUMBER
 LUL .             CASPER:   LOGGING UNIT LOCATION
 ENGI.             ZIEGER:   RECORDING ENGINEER
 WITN.             STRONG:   WITNESSED BY
 CLNT.            A2DTECH:   CLIENT CODE
 ORIG.           5" PRINT:   ORIGIN OF DATA
 UWI .       490252252200:   UNIQUE WELL ID
 DICO. A2D Technologies, Inc.:   DIGITIZING COMPANY
~OTHER INFORMATION
~A    DEPT    CALD       CORR        DEN         GRD      RILD       RILM       PORD   
# ...
  275.0000     8.0482    -0.0174     2.5098   160.4519     8.9649     8.8407     0.0877
  275.5000     8.0482    -0.0206     2.5188   155.0472     8.9634     8.9026     0.0802
  276.0000     8.0482    -0.0208     2.5158   154.4523     8.9622     8.9026     0.0830
  276.5000     8.0482    -0.0149     2.5051   154.8040     8.8986     8.9649     0.0902
  277.0000     8.0482    -0.0091     2.4734   152.3671     8.6525     8.8407     0.1035
  277.5000     8.0482    -0.0002     2.4613   147.8647     8.4721     8.6575     0.1123
  278.0000     8.0482     0.0148     2.4642   145.7683     8.1236     8.4192     0.1153
  278.5000     8.0482     0.0299     2.4596   148.0831     7.6281     8.0740     0.1175
  279.0000     8.0633     0.0356     2.4518   151.5025     7.2130     7.6357     0.1208
  279.5000     8.0783     0.0172     2.4369   151.5114     6.8682     7.2211     0.1302
  280.0000     8.0934    -0.0011     2.4233   152.4225     6.4493     6.7345     0.1402
  280.5000     8.1084    -0.0164     2.4217   153.6344     6.0138     6.0965     0.1405
  281.0000     8.1235    -0.0226     2.4322   150.6358     5.5677     5.3154     0.1348
  281.5000     8.1386    -0.0168     2.4337   145.8326     4.9373     4.4308     0.1381
  282.0000     8.1536    -0.0108     2.4125   141.6310     4.1528     3.9628     0.1532
  282.5000     8.1687    -0.0080     2.3807   142.5421     3.2300     3.1920     0.1735
  283.0000     8.1687    -0.0112     2.3339   145.5585     2.7700     2.6072     0.2054
  283.5000     8.1687    -0.0114     2.2613   147.0711     2.5294     2.4315     0.2436
  284.0000     8.1687    -0.0055     2.2008   144.6740     2.4085     2.3646     0.2757
  284.5000     8.1687     0.0034     2.1827   133.5550     2.3583     2.3482     0.2856
  285.0000     8.1687     0.0027     2.2133   126.0451     2.3417     2.3978     0.2748
  285.5000     8.1687    -0.0091     2.2717   126.1345     2.3908     2.5532     0.2555
  286.0000     8.1687    -0.0184     2.3547   135.1857     2.5101     2.7569     0.2065
  286.5000     8.1687    -0.0216     2.4196   145.0213     2.7099     3.1259     0.1634
  287.0000     8.1687    -0.0127     2.4513   148.9400     3.0085     3.4951     0.1299
  287.5000     8.1687    -0.0098     2.4845   151.9564     3.6065     3.8269     0.1069
  288.0000     8.1837    -0.0070     2.4996   154.9728     4.2932     4.6774     0.0903
  288.5000     8.1837    -0.0041     2.5116   156.1846     5.1465     5.7176     0.0858
  289.0000     8.1839    -0.0134     2.5191   155.5898     5.8753     6.4583     0.0824
  289.5000     8.1988    -0.0257     2.5236   154.3979     6.4773     6.7345     0.0800
  290.0000     8.1988    -0.0349     2.5251   154.1038     6.8006     6.8769     0.0786
  290.5000     8.2139    -0.0319     2.5250   155.3179     6.9437     6.9251     0.0774
  291.0000     8.2139    -0.0232     2.5235   156.5298     6.9911     6.9251     0.0774
  291.5000     8.2289    -0.0143     2.5249   157.1401     6.9415     6.9251     0.0771
  292.0000     8.2289    -0.0085     2.5249   156.8483     6.8442     6.8291     0.0768
  292.5000     8.2289    -0.0026     2.5279   155.9549     6.7957     6.7345     0.0765
  293.0000     8.2139     0.0003     2.5293   155.3424     6.6540     6.6411     0.0765
  293.5000     8.2139    -0.0151     2.5293   154.7298     6.5152     6.5036     0.0762
  294.0000     8.1988    -0.0273     2.5247   157.4875     6.2038     6.2369     0.0784
  294.5000     8.1837    -0.0215     2.5111   162.0076     5.9073     5.8166     0.0902
  295.0000     8.1687    -0.0065     2.4657   167.4301     5.6249     5.4625     0.0995
  295.5000     8.1687    -0.0006     2.4385   169.5420     5.3188     5.1997     0.1222
  296.0000     8.1536     0.0022     2.4294   167.1470     5.1000     5.0238     0.1328
  296.5000     8.1536    -0.0043     2.4522   165.3514     4.9245     4.9197     0.1213
  297.0000     8.1536    -0.0138     2.4627   162.9543     4.7883     4.9197     0.1147
  297.5000     8.1532    -0.0135     2.4700   160.5549     4.7213     4.9197     0.1135
  298.0000     8.1386    -0.0046     2.4745   163.8743     4.7537     4.9888     0.1099
  298.5000     8.1386    -0.0017     2.4820   165.6877     4.8578     5.0589     0.1050
  299.0000     8.1235    -0.0019     2.4925   166.5988     5.0602     5.2021     0.0994
  299.5000     8.1235    -0.0051     2.5031   167.2092     5.2392     5.3494     0.0903
  300.0000     8.1247    -0.0121     2.5111   167.2314     5.4818     5.5723     0.0867
  300.5000     8.1397    -0.0174     2.5139   166.0719     5.7336     6.0081     0.0824
  301.0000     8.1546    -0.0238     2.5225   164.5175     6.1031     6.4088     0.0777
  301.5000     8.1678    -0.0301     2.5299   163.3174     6.4064     6.7273     0.0747
  302.0000     8.1674    -0.0242     2.5283   165.1249     6.8193     7.0125     0.0750
  302.5000     8.1521    -0.0153     2.5237   167.2332     7.1084     7.3098     0.0768
  303.0000     8.1518    -0.0094     2.5221   169.0406     7.4097     7.5667     0.0778
  303.5000     8.1364    -0.0096     2.5266   171.1587     7.6168     7.7241     0.0784
  304.0000     8.1211    -0.0189     2.5250   173.2571     7.7759     7.7755     0.0793
  304.5000     8.1359    -0.0194     2.5173   169.5108     7.7185     7.7728     0.0824
  305.0000     8.1507    -0.0101     2.5097   164.0400     7.7159     7.7161     0.0869
  305.5000     8.1653    -0.0043     2.5050   159.7329     7.7132     7.6597     0.0900
  306.0000     8.1650    -0.0046     2.5051   160.9389     7.6037     7.5509     0.0879
  306.5000     8.1648    -0.0107     2.5094   163.6486     7.4957     7.3823     0.0846
  307.0000     8.1645    -0.0169     2.5138   162.1478     7.3893     7.2358     0.0837
  307.5000     8.1491    -0.0141     2.5168   161.2478     7.2844     7.0835     0.0831
  308.0000     8.1484    -0.0082     2.5182   163.3568     7.1297     6.9343     0.0831
  308.5000     8.1334    -0.0084     2.5136   163.6598     6.8741     6.6943     0.0837
  309.0000     8.1181    -0.0146     2.5074   161.5582     6.4029     6.2846     0.0856
  309.5000     8.1178    -0.0239     2.4998   162.1627     6.0121     5.8183     0.0886
  310.0000     8.1174    -0.0271     2.4906   166.6769     5.4622     5.4243     0.0962
  310.5000     8.1171    -0.0061     2.4497   169.0859     4.8835     5.1280     0.1119
  311.0000     8.1168     0.0058     2.4059   168.7881     4.7807     4.9852     0.1346
  311.5000     8.1165     0.0147     2.4103   167.2874     4.7790     4.9488     0.1452
  312.0000     8.1162     0.0176     2.4359   163.6813     4.8784     4.9127     0.1286
  312.5000     8.1159    -0.0008     2.4690   160.6768     5.0499     5.1568     0.1108
  313.0000     8.1006    -0.0161     2.5097   162.4842     5.1910     5.5276     0.0933
  313.5000     8.1003    -0.0163     2.5323   163.3895     5.4490     5.8429     0.0782
  314.0000     8.1000    -0.0134     2.5352   161.8487     5.7598     6.2194     0.0725
  314.5000     8.1148    -0.0104     2.5320   159.0797     6.3045     6.5285     0.0731
  315.0000     8.1295    -0.0077     2.5275   156.6816     6.6641     6.8529     0.0744
  315.5000     8.1443    -0.0049     2.5274   156.1833     7.0443     7.1934     0.0756
  316.0000     8.1591    -0.0081     2.5273   159.1945     7.3943     7.3945     0.0762
  316.5000     8.1739    -0.0113     2.5287   163.7088     7.6010     7.6011     0.0753
  317.0000     8.1735    -0.0115     2.5302   165.8170     7.5984     7.7053     0.0741
  317.5000     8.1581    -0.0117     2.5316   167.0230     7.6490     7.7026     0.0745
  318.0000     8.1578    -0.0119     2.5345   167.3267     7.6998     7.6999     0.0742
  318.5000     8.1575    -0.0120     2.5359   165.5252     7.6972     7.7512     0.0730
  319.0000     8.1422    -0.0122     2.5374   163.1221     7.7484     7.8028     0.0697
  319.5000     8.1419    -0.0124     2.5388   161.3206     7.7457     7.7994     0.0685
  320.0000     8.1416    -0.0156     2.5417   161.0221     7.7973     7.7967     0.0688
