~VERSION INFORMATION
 VERS.                2.0:   CWLS LOG ASCII STANDARD - VERSION 2.0
 WRAP.                 NO:   ONE LINE PER DEPTH STEP
~WELL INFORMATION
#MNEM.UNIT      DATA TYPE    INFORMATION
#----------   ------------   ------------------------------
 STRT.F            0.0000:   START DEPTH
 STOP.F         3139.0000:   STOP DEPTH
 STEP.F            0.5000:   STEP LENGTH
 NULL.          -999.2500:   NO VALUE
 COMP. BROWN JOHN E&C INC:   COMPANY
 WELL.       TX-10 #63-10:   WELL
 FLD .             TEAPOT:   FIELD
 LOC .      S10 T38N R78W:   LOCATION
 CNTY.            NATRONA:   COUNTY
 STAT.            WYOMING:   STATE
 CTRY. UNITED STATES OF AMERICA:   COUNTRY
 SRVC.       Schlumberger:   SERVICE COMPANY
 DATE.        05-OCT-1982:   LOGDATE
 API .       490251090100:   API NUMBER
~CURVE INFORMATION
#MNEM.UNIT       API CODE    CURVE DESCRIPTION
#----------   ------------   ------------------------------
 DEPT.F                  :   
 DPHI.DEC    45 890 12 00:   DENSITY POROSITY  SANDSTONE
 GRD .GAPI   45 310 01 00:   GAMMA RAY FROM DENSITY LOG
 NPHI.DEC    42 890 03 00:   NEUTRON POROSITY SANDSTONE
 CALD.IN     45 280 60 00:   CALIPER FROM DENSITY LOG
 CORR.G/C3   45 356 01 00:   DENSITY CORRECTION
 RHOB.G/C3   45 350 01 00:   BULK DENSITY
 ILD .OHMM   07 120 46 00:   INDUCTION LOG DEEP
 ILM .OHMM   07 120 44 00:   INDUCTION LOG MEDIUM
 SFLU.OHMM   07 220 01 00:   SPHERICALLY FOCUSED LOG UNAVERAGED RESISTIVITY
 SPR .MV     07 010 01 00:   SPONTANEOUS POTENTIAL
~PARAMETER INFORMATION
#MNEM.UNIT          VALUE    DESCRIPTION
#----------   ------------   ------------------------------
 PD  .                 GL:   PERMANENT DATUM
 EPD .F              5189:   ELEVATION PERMANENT DATUM
 LMF .                 KB:   LOG MEASURED FROM
 DAPD.F                10:   FEET ABOVE PERMANENT DATUM
 DMF .                 KB:   DRILLING MEASURED FROM
 EKB .F              5199:   KELLING BUSHING
 EGL .F              5189:   GROUND LEVEL
 DATE.        05-OCT-1982:   RUN DATE
 RUN .                  1:   RUN NUMBER
 DD  .F              3200:   DEPTH DRILLER
 DL  .F              3142:   DEPTH LOGGER
 BLI .F              3139:   BOTTOM LOG INTERVAL
 TLI .F               484:   TOP LOG INTERVAL
 CS  .IN            9.625:   CASING SIZE
 CBD .F               482:   CASING BOTTOM DRILLER
 CBL .F               484:   CASING BOTTOM LOGGER
 BS  .IN            7.875:   BIT SIZE
 BSD .F              3200:   BIT SIZE AT DEPTH
 DFT .        KCL/POLYMER:   DRILLING FLUID TYPE
 DFD .                8.6:   DRILLING FLUID DENSITY
 DFV .                 38:   DRILLING FLUID VISCOSITY
 DFPH.                8.5:   DRILLING FLUID PH
 DFL .                6.8:   DRILLING FLUID LOSS
 MSS .           MUD TANK:   MUD SAMPLE SOURCE
 RMS .OHMM            .40:   RESISTIVITY MUD SAMPLE
 MST .F                64:   MUD SAMPLE TEMPERATURE
 RMF .OHMM            .34:   RESISTIVITY MUD FILTRATE SAMPLE
 MFST.F                64:   MUD FILTRATE SAMPLE TEMPERATURE
 RMC .OHMM            .36:   RESISTIVITY MUD CAKE
 MCST.F                64:   MUD CAKE SAMPLE TEMPERATURE
 MFSS.               MEAS:   MUD FILTRATE SAMPLE SOURCE
 MCSS.               CALC:   MUD CAKE SAMPLE SOURCE
 RMB .OHMM             .2:   RESISTIVITY MUD AT BHT
 BHT .F               125:   BOTTOM HOLE TEMPERATURE
 TCS .HRS            2300:   TIME CURCULATED STOPPED
 TLAB.HRS            0500:   TIME LOGGER AT BOTTOM
 MRT .F               125:   MAXIMUM RECORDED TEMPERATURE
 LUN .               8043:   LOGGING UNIT NUMBER
 LUL .                GLT:   LOGGING UNIT LOCATION
 ENGI.            NEUFFER:   RECORDING ENGINEER
 WITN.             STRONG:   WITNESSED BY
 CLNT.            A2DTECH:   CLIENT CODE
 ORIG.           5" PRINT:   ORIGIN OF DATA
 UWI .       490251090100:   UNIQUE WELL ID
 DICO. A2D Technologies, Inc.:   DIGITIZING COMPANY
~OTHER INFORMATION
~A    DEPT    DPHI          GRD     NPHI       CALD       CORR       RHOB        ILD        ILM       SFLU        SPR   
# ...
 2579.5000     0.1106    80.1790     0.1679     9.9041     0.0190     2.4693    17.8633    18.0382    23.8667    -9.8079
 2580.0000     0.1065    85.9582     0.1700     9.9027     0.0220     2.4753    19.5358    18.0324    22.8887    -9.6644
 2580.5000     0.1059    86.2511     0.1718     9.9015     0.0243     2.4798    20.9255    17.9011    22.4112    -9.3710
 2581.0000     0.1062    85.0677     0.1735     9.9004     0.0265     2.4828    20.4913    17.8953    21.6404    -9.0756
 2581.5000     0.1059    84.4749     0.1759     9.8992     0.0310     2.4820    20.0660    17.7664    21.3361    -8.7801
 2582.0000     0.1044    85.6514     0.1795     9.8978     0.0356     2.4812    20.0608    17.3804    21.0360    -8.4847
 2582.5000     0.1029    87.4185     0.1854     9.8966     0.0370     2.4849    20.0544    17.1525    20.8826    -7.8774
 2583.0000     0.1035    88.0064     0.1907     9.8803     0.0347     2.4871    20.3280    17.7478    20.7319    -7.1381
 2583.5000     0.1124    88.0029     0.1925     9.8792     0.0347     2.4811    20.6053    18.3653    21.0157    -6.3868
 2584.0000     0.1180    87.9994     0.1910     9.9235     0.0354     2.4668    21.1769    19.2669    21.7573    -5.4834
 2584.5000     0.1201    87.1117     0.1901     9.9221     0.0338     2.4600    22.0655    20.2145    22.9754    -4.2782
 2585.0000     0.1251    85.3390     0.1904     9.9209     0.0293     2.4555    22.9928    20.9177    24.4439    -3.2229
 2585.5000     0.1342    80.3215     0.1960     9.9198     0.0231     2.4454    24.3029    21.8129    25.4720    -2.1675
 2586.0000     0.1499    70.2452     0.2118     9.9186     0.0216     2.4097    26.0204    22.7081    27.2860    -1.2281
 2586.5000     0.1602    53.7665     0.2288     9.9175     0.0352     2.3879    27.6814    23.3384    29.2316    -0.6648
 2587.0000     0.1640    45.7991     0.2388     9.9161     0.0428     2.3826    29.4485    23.9822    31.3160    -0.5213
 2587.5000     0.1596    43.7321     0.2353     9.9301     0.0465     2.3833    30.2653    24.3078    31.7422    -0.5319
 2588.0000     0.1540    47.3075     0.2285     9.9744     0.0480     2.3942    30.2555    23.9648    31.5106    -0.6945
 2588.5000     0.1496    48.4456     0.2217    10.0190     0.0503     2.4073    30.2478    22.9849    30.8533    -1.0070
 2589.0000     0.1391    48.4422     0.2151    10.0935     0.0571     2.4268    29.4162    21.7127    29.5888    -1.9273
 2589.5000     0.1147    48.7343     0.2069    10.1528     0.0882     2.4560    28.2134    20.8521    28.3742    -2.6978
 2590.0000     0.1012    49.9115     0.2022    10.1820     0.1626     2.4860    27.4378    22.9609    26.8375    -3.3142
 2590.5000     0.1094    53.4478     0.2008    10.1960     0.1398     2.4627    27.0546    23.9243    25.3840    -4.0826
 2591.0000     0.1413    56.3949     0.2070    10.1782     0.0789     2.4161    27.2333    24.7547    23.6773    -4.6991
 2591.5000     0.1581    61.9968     0.2126    10.0265     0.0493     2.3899    27.4166    24.9201    23.1834    -5.3175
 2592.0000     0.1540    67.5988     0.2031     9.9191     0.0371     2.4003    27.5995    24.2316    23.3369    -5.7819
 2592.5000     0.1463    70.2509     0.1990     9.8573     0.0286     2.4161    27.7817    23.2406    24.6553    -6.2463
 2593.0000     0.1431    68.4775     0.1975     9.8106     0.0256     2.4183    27.9670    23.0716    25.6922    -6.7129
 2593.5000     0.1425    66.7048     0.1957     9.8092     0.0225     2.4190    28.1524    22.9054    26.9587    -7.0253
 2594.0000     0.1360    66.1120     0.1913     9.7928     0.0195     2.4220    27.7585    22.7405    27.3256    -7.1858
 2594.5000     0.1298    67.9668     0.1878     9.7765     0.0187     2.4407    27.1807    22.1121    25.6654    -7.1945
 2595.0000     0.1292    72.8904     0.1840     9.7754     0.0194     2.4444    26.9867    21.9529    23.6126    -7.0508
 2595.5000     0.1333    74.3632     0.1887     9.7894     0.0178     2.4361    26.9797    21.9458    22.1798    -6.9073
 2596.0000     0.1407    74.9504     0.1958     9.7728     0.0163     2.4248    26.9727    22.1009    22.0198    -6.7660
 2596.5000     0.1469    73.7475     0.2002     9.7716     0.0147     2.4143    27.3390    23.0158    23.2638    -6.4705
 2597.0000     0.1549    69.3387     0.2017     9.7705     0.0131     2.4007    27.7120    23.8185    25.2699    -6.3270
 2597.5000     0.1673    60.7814     0.2011     9.7693     0.0131     2.3850    27.8970    24.8159    28.8090    -6.1854
 2598.0000     0.1699    52.2240     0.1983     9.7682     0.0123     2.3715    28.2774    25.8572    33.0745    -6.3483
 2598.5000     0.1667    48.9764     0.1866     9.7667     0.0123     2.3707    28.4660    25.1427    37.4497    -6.5088
 2599.0000     0.1578    51.3328     0.1801     9.7656     0.0122     2.3849    28.8544    24.6194    37.3859    -6.9732
 2599.5000     0.1494    56.3447     0.1849     9.7644     0.0130     2.4032    29.2554    24.4420    30.1975    -7.2857
 2600.0000     0.1422    63.2541     0.1952     9.7481     0.0113     2.4123    30.0574    24.9436    27.4004    -7.7522
 2600.5000     0.1389    64.2992     0.2032     9.7629     0.0099     2.4178    31.1063    25.6338    26.2807    -8.2706
 2601.0000     0.1360    62.5189     0.1985     9.7779     0.0144     2.4298    30.2515    26.3546    27.3908    -8.6551
 2601.5000     0.1360    60.7404     0.1890     9.7927     0.0212     2.4313    29.4217    25.1070    27.7656    -9.0396
 2602.0000     0.1354    61.0252     0.1834     9.8076     0.0243     2.4312    29.0125    24.4199    28.1470    -9.7870
 2602.5000     0.1313    67.8016     0.1788     9.8073     0.0225     2.4319    28.6090    24.4167    28.1400   -10.6697
 2603.0000     0.1179    72.2181     0.1722     9.8070     0.0174     2.4597    28.8015    24.5818    28.7246   -11.4354
 2603.5000     0.1013    75.4525     0.1633     9.8067     0.0212     2.4979    28.9953    25.0938    29.3228   -12.0491
 2604.0000     0.0750    77.8041     0.1500     9.8063     0.0310     2.5391    28.5907    24.0713    31.8538   -12.6627
 2604.5000     0.0676    79.5657     0.1423     9.8212     0.0401     2.5481    27.9990    23.2514    32.9687   -12.8362
 2605.0000     0.0865    79.5772     0.1589     9.8209     0.0371     2.5105    27.4130    22.7718    28.8998   -12.9797
 2605.5000     0.1080    79.2520     0.1692     9.8206     0.0295     2.4625    26.8510    21.8448    24.4727   -12.9855
 2606.0000     0.1339    79.8337     0.1804     9.8355     0.0203     2.4265    26.4775    20.9556    23.7999   -12.8379
 2606.5000     0.1445    80.7103     0.1852     9.8656     0.0127     2.4189    26.2901    21.2435    24.1268   -12.8451
 2607.0000     0.1380    82.4719     0.1819     9.8956     0.0119     2.4249    25.7461    21.0946    25.3263   -12.8511
 2607.5000     0.1221    84.2335     0.1801     9.9110     0.0172     2.4466    25.2133    20.9467    25.8452   -12.8582
 2608.0000     0.1121    80.3883     0.1798     9.9405     0.0233     2.4766    24.8615    20.5146    25.4837   -13.0160
 2608.5000     0.1065    78.9051     0.1801     9.9554     0.0263     2.4825    24.1795    19.8066    24.7830   -13.1737
 2609.0000     0.1101    78.2982     0.1810    10.0006     0.0187     2.4683    23.5162    19.0086    24.2691   -13.4835
 2609.5000     0.1233    77.4115     0.1825    10.0158     0.0134     2.4435    22.7138    18.2349    23.7657   -13.6519
 2610.0000     0.1324    77.4032     0.1842    10.0607     0.0096     2.4217    21.9189    17.6138    23.1112   -14.1044
 2610.5000     0.1454    77.6919     0.1869    10.0907     0.0065     2.4021    20.8985    17.0139    22.1669   -14.2622
 2611.0000     0.1504    80.1028     0.1907    10.1359     0.0050     2.4014    20.0465    16.2014    20.2559   -14.5719
 2611.5000     0.1518    85.9307     0.1948    10.1661     0.0092     2.4066    19.3624    15.4417    18.5096   -14.7297
 2612.0000     0.1386    87.6944     0.2025    10.2263     0.0194     2.4365    18.9618    15.2285    17.5093   -15.0395
 2612.5000     0.1318    85.9141     0.2058    10.2564     0.0262     2.4478    19.1002    15.8699    17.9962   -15.3506
