~VERSION INFORMATION
 VERS.                2.0:   CWLS LOG ASCII STANDARD - VERSION 2.0
 WRAP.                 NO:   ONE LINE PER DEPTH STEP
~WELL INFORMATION
#MNEM.UNIT      DATA TYPE    INFORMATION
#----------   ------------   ------------------------------
 STRT.F           15.0000:   START DEPTH
 STOP.F         5640.0000:   STOP DEPTH
 STEP.F            0.5000:   STEP LENGTH
 NULL.          -999.2500:   NO VALUE
 COMP.       F D SERV INC:   COMPANY
 WELL. NAVAL PETROLEUM RESERVE 3 SX-1 #43-10:   WELL
 FLD .         N.P.R. #.3:   FIELD
 LOC .      S10 T38N R78W:   LOCATION
 CNTY.            NATRONA:   COUNTY
 STAT.            WYOMING:   STATE
 CTRY. UNITED STATES OF AMERICA:   COUNTRY
 SRVC.      Dresser Atlas:   SERVICE COMPANY
 DATE.        05-JUL-1986:   LOGDATE
 API .       490251101800:   API NUMBER
~CURVE INFORMATION
#MNEM.UNIT       API CODE    CURVE DESCRIPTION
#----------   ------------   ------------------------------
 DEPT.F                  :   
 GRR .GAPI   07 310 01 00:   GAMMA RAY
 ILD .OHMM   07 120 46 00:   INDUCTION LOG DEEP
 ILM .OHMM   07 120 44 00:   INDUCTION LOG MEDIUM
 CALS.IN     60 280 50 00:   CALIPER FROM SONIC LOG
 GRS .GAPI   60 310 01 00:   GAMMA RAY FROM SONIC LOG
 AC  .US/F   60 520 00 00:   ACCOUSTIC
~PARAMETER INFORMATION
#MNEM.UNIT          VALUE    DESCRIPTION
#----------   ------------   ------------------------------
 PD  .                 GL:   PERMANENT DATUM
 EPD .F              5205:   ELEVATION PERMANENT DATUM
 LMF .                 KB:   LOG MEASURED FROM
 DAPD.F                 5:   FEET ABOVE PERMANENT DATUM
 DMF .                 KB:   DRILLING MEASURED FROM
 EKB .F              5210:   KELLING BUSHING
 EGL .F              5205:   GROUND LEVEL
 DATE.        05-JUL-1986:   RUN DATE
 RUN .                  1:   RUN NUMBER
 DD  .F               560:   DEPTH DRILLER
 DL  .F               560:   DEPTH LOGGER
 BLI .F               550:   BOTTOM LOG INTERVAL
 TLI .F                15:   TOP LOG INTERVAL
 CS  .IN            8.625:   CASING SIZE
 CBD .F                47:   CASING BOTTOM DRILLER
 CBL .F                47:   CASING BOTTOM LOGGER
 BS  .IN            7.875:   BIT SIZE
 BSD .F               560:   BIT SIZE AT DEPTH
 DFT .                AIR:   DRILLING FLUID TYPE
 BHT .F                83:   BOTTOM HOLE TEMPERATURE
 TCS .HRS            2100:   TIME CURCULATED STOPPED
 TLAB.HRS            2230:   TIME LOGGER AT BOTTOM
 MRT .F                83:   MAXIMUM RECORDED TEMPERATURE
 LUN .               7609:   LOGGING UNIT NUMBER
 LUL .           GILLETTE:   LOGGING UNIT LOCATION
 ENGI.              BAURT:   RECORDING ENGINEER
 CLNT.            A2DTECH:   CLIENT CODE
 ORIG. 1" 2" 2.5", 5" PRINT:   ORIGIN OF DATA
 UWI .       490251101800:   UNIQUE WELL ID
 DICO. A2D Technologies, Inc.:   DIGITIZING COMPANY
 R2  . HEADER NOT CLEARLY VISIBLE:   REMARKS 2
~OTHER INFORMATION
~A   DEPT       GRR       ILD        ILM       CALS        GRS         AC   
# ...
 5579.0000  -999.2500  -999.2500  -999.2500     8.7097    18.9332    49.0619
 5579.5000  -999.2500  -999.2500  -999.2500     8.7245    18.6635    48.6109
 5580.0000  -999.2500  -999.2500  -999.2500     8.7545    18.9702    48.3861
 5580.5000  -999.2500  -999.2500  -999.2500     8.7997    19.5792    48.9156
 5581.0000  -999.2500  -999.2500  -999.2500     8.7994    20.1882    49.5958
 5581.5000  -999.2500  -999.2500  -999.2500     8.7839    20.4942    50.6616
 5582.0000  -999.2500  -999.2500  -999.2500     8.8012    21.1032    52.4591
 5582.5000  -999.2500  -999.2500  -999.2500     8.9196    21.7122    54.9550
 5583.0000  -999.2500  -999.2500  -999.2500     8.9649    23.2595    56.6910
 5583.5000  -999.2500  -999.2500  -999.2500     8.9797    26.0058    57.7483
 5584.0000  -999.2500  -999.2500  -999.2500     9.0097    28.6914    57.9760
 5584.5000  -999.2500  -999.2500  -999.2500     9.0397    30.5126    57.3742
 5585.0000  -999.2500  -999.2500  -999.2500     9.0848    30.5155    55.8673
 5585.5000  -999.2500  -999.2500  -999.2500     9.0997    30.5185    54.3605
 5586.0000  -999.2500  -999.2500  -999.2500     9.1448    30.5214    53.0605
 5586.5000  -999.2500  -999.2500  -999.2500     9.1597    30.5244    52.4781
 5587.0000  -999.2500  -999.2500  -999.2500     9.1746    31.1334    52.4041
 5587.5000  -999.2500  -999.2500  -999.2500     9.1439    32.3973    52.8584
 5588.0000  -999.2500  -999.2500  -999.2500     9.0527    37.2006    53.8403
 5588.5000  -999.2500  -999.2500  -999.2500     9.0069    40.2338    54.8222
 5589.0000  -999.2500  -999.2500  -999.2500     9.0219    40.5398    55.5778
 5589.5000  -999.2500  -999.2500  -999.2500     9.0215    38.7246    56.1071
 5590.0000  -999.2500  -999.2500  -999.2500     9.0212    35.0912    56.5611
 5590.5000  -999.2500  -999.2500  -999.2500     8.9755    36.6092    56.8730
 5591.0000  -999.2500  -999.2500  -999.2500     8.8061    39.3395    57.3185
 5591.5000  -999.2500  -999.2500  -999.2500     8.7021    41.1606    57.8479
 5592.0000  -999.2500  -999.2500  -999.2500     8.6715    37.9325    60.6397
 5592.5000  -999.2500  -999.2500  -999.2500     8.6712    24.5006    66.2973
 5593.0000  -999.2500  -999.2500  -999.2500     8.6709    19.6543    73.1615
 5593.5000  -999.2500  -999.2500  -999.2500     8.6554    19.9610    74.8971
 5594.0000  -999.2500  -999.2500  -999.2500     8.6551    21.4791    73.4661
 5594.5000  -999.2500  -999.2500  -999.2500     8.6548    24.2093    71.8681
 5595.0000  -999.2500  -999.2500  -999.2500     8.6697    29.0607    71.9726
 5595.5000  -999.2500  -999.2500  -999.2500     8.6542    35.4273    74.9037
 5596.0000  -999.2500  -999.2500  -999.2500     8.6691    44.3545    74.3773
 5596.5000  -999.2500  -999.2500  -999.2500     8.6687    53.3127    72.0409
 5597.0000  -999.2500  -999.2500  -999.2500     8.6684    60.8914    69.1012
 5597.5000  -999.2500  -999.2500  -999.2500     8.6681    66.3489    67.1419
 5598.0000  -999.2500  -999.2500  -999.2500     8.6830    63.6246    65.6350
 5598.5000  -999.2500  -999.2500  -999.2500     8.7130    53.6275    64.6561
 5599.0000  -999.2500  -999.2500  -999.2500     8.7127    42.7214    64.8303
 5599.5000  -999.2500  -999.2500  -999.2500     8.7124    37.2698    66.3185
 5600.0000  -999.2500  -999.2500  -999.2500     8.6970    35.4545    67.3004
 5600.5000  -999.2500  -999.2500  -999.2500     8.6663    35.4467    67.3019
 5601.0000  -999.2500  -999.2500  -999.2500     8.6659    33.9068    66.3984
 5601.5000  -999.2500  -999.2500  -999.2500     8.6503    30.5820    65.4194
 5602.0000  -999.2500  -999.2500  -999.2500     8.6348    30.2717    64.5913
 5602.5000  -999.2500  -999.2500  -999.2500     8.6193    31.1736    64.2911
 5603.0000  -999.2500  -999.2500  -999.2500     8.6189    32.0755    64.2953
 5603.5000  -999.2500  -999.2500  -999.2500     8.6186    32.3713    64.5204
 5604.0000  -999.2500  -999.2500  -999.2500     8.6181    31.1501    64.7484
 5604.5000  -999.2500  -999.2500  -999.2500     8.6026    30.2338    64.9761
 5605.0000  -999.2500  -999.2500  -999.2500     8.6022    29.3175    65.1284
 5605.5000  -999.2500  -999.2500  -999.2500     8.6170    27.7951    65.1299
 5606.0000  -999.2500  -999.2500  -999.2500     8.6318    26.5708    64.9051
 5606.5000  -999.2500  -999.2500  -999.2500     8.6617    25.9625    64.3786
 5607.0000  -999.2500  -999.2500  -999.2500     8.6917    28.0747    63.7014
 5607.5000  -999.2500  -999.2500  -999.2500     8.7065    29.2796    62.6152
 5608.0000  -999.2500  -999.2500  -999.2500     8.7061    30.1833    61.0651
 5608.5000  -999.2500  -999.2500  -999.2500     8.7208    28.0530    60.3878
 5609.0000  -999.2500  -999.2500  -999.2500     8.7356    21.3773    60.9925
 5609.5000  -999.2500  -999.2500  -999.2500     8.7352    18.3398    61.5219
 5610.0000  -999.2500  -999.2500  -999.2500     8.7348    17.7265    62.2021
 5610.5000  -999.2500  -999.2500  -999.2500     8.7193    17.7193    62.8245
 5611.0000  -999.2500  -999.2500  -999.2500     8.7190    17.7121    63.6383
 5611.5000  -999.2500  -999.2500  -999.2500     8.7034    18.0061    64.2431
 5612.0000  -999.2500  -999.2500  -999.2500     8.6878    18.9079    64.5462
 5612.5000  -999.2500  -999.2500  -999.2500     8.6875    19.8116    64.6985
 5613.0000  -999.2500  -999.2500  -999.2500     8.6871    17.0753    64.5491
 5613.5000  -999.2500  -999.2500  -999.2500     8.6867    16.4620    63.4194
 5614.0000  -999.2500  -999.2500  -999.2500     8.6712    17.1525    62.3650
 5614.5000  -999.2500  -999.2500  -999.2500     8.6556    17.9627    61.4536
 5615.0000  -999.2500  -999.2500  -999.2500     8.6553    18.2586    60.7595
 5615.5000  -999.2500  -999.2500  -999.2500     8.6549    19.1586    59.7303
 5616.0000  -999.2500  -999.2500  -999.2500     8.6545    20.9696    58.9022
 5616.5000  -999.2500  -999.2500  -999.2500     8.6541    23.2021    58.6016
 5617.0000  -999.2500  -999.2500  -999.2500     8.6538    26.1048    59.0559
 5617.5000  -999.2500  -999.2500  -999.2500     8.6382    28.8249    59.2837
 5618.0000  -999.2500  -999.2500  -999.2500     8.6073    31.2419    59.9638
 5618.5000  -999.2500  -999.2500  -999.2500     8.5768    32.7498    61.6244
 5619.0000  -999.2500  -999.2500  -999.2500     8.5765    31.4969    63.1570
 5619.5000  -999.2500  -999.2500  -999.2500     8.5761    29.4003    63.9656
 5620.0000  -999.2500  -999.2500  -999.2500     8.5757    24.8476    64.3441
 5620.5000  -999.2500  -999.2500  -999.2500     8.5754    20.2949    64.1194
 5621.0000  -999.2500  -999.2500  -999.2500     8.5749    19.9525    63.6683
 5621.5000  -999.2500  -999.2500  -999.2500     8.5898    21.5446    62.8402
 5622.0000  -999.2500  -999.2500  -999.2500     8.5894    24.2108    62.1630
 5622.5000  -999.2500  -999.2500  -999.2500     8.5890    26.0218    61.2595
 5623.0000  -999.2500  -999.2500  -999.2500     8.5886    26.3194    60.6527
 5623.5000  -999.2500  -999.2500  -999.2500     8.5730    25.0983    60.1082
 5624.0000  -999.2500  -999.2500  -999.2500     8.5727    23.8589    59.1526
 5624.5000  -999.2500  -999.2500  -999.2500     8.5723    22.3547    57.8720
 5625.0000  -999.2500  -999.2500  -999.2500     8.5720    21.7414    56.5914
 5625.5000  -999.2500  -999.2500  -999.2500     8.5716    21.4312    55.4617
 5626.0000  -999.2500  -999.2500  -999.2500     8.5711    21.1209    54.1811
 5626.5000  -999.2500  -999.2500  -999.2500     8.5860    21.7198    52.7497
 5627.0000  -999.2500  -999.2500  -999.2500     8.5856    22.9229    51.7708
 5627.5000  -999.2500  -999.2500  -999.2500     8.5852    25.0369    51.5460
 5628.0000  -999.2500  -999.2500  -999.2500     8.5849    25.9387    51.6229
 5628.5000  -999.2500  -999.2500  -999.2500     8.5844    25.6285    51.1722
 5629.0000  -999.2500  -999.2500  -999.2500     8.5840    25.3182    50.7966
 5629.5000  -999.2500  -999.2500  -999.2500     8.6140    25.6122    50.4210
 5630.0000  -999.2500  -999.2500  -999.2500     8.6136    26.2129    50.1208
 5630.5000  -999.2500  -999.2500  -999.2500     8.6133    26.2038    50.2731
