~VERSION INFORMATION
 VERS.                2.0:   CWLS LOG ASCII STANDARD - VERSION 2.0
 WRAP.                 NO:   ONE LINE PER DEPTH STEP
~WELL INFORMATION
#MNEM.UNIT      DATA TYPE    INFORMATION
#----------   ------------   ------------------------------
 STRT.F           34.0000:   START DEPTH
 STOP.F          496.0000:   STOP DEPTH
 STEP.F            0.5000:   STEP LENGTH
 NULL.          -999.2500:   NO VALUE
 COMP. LAWRENCE/ALLISON INC:   COMPANY
 WELL.   55-55 SX FI #3-3:   WELL
 FLD .             TEAPOT:   FIELD
 LOC .       S3 T38N R78W:   LOCATION
 CNTY.            NATRONA:   COUNTY
 STAT.            WYOMING:   STATE
 CTRY. UNITED STATES OF AMERICA:   COUNTRY
 SRVC.       Schlumberger:   SERVICE COMPANY
 DATE.        18-JUL-1982:   LOGDATE
 API .       490251089500:   API NUMBER
~CURVE INFORMATION
#MNEM.UNIT       API CODE    CURVE DESCRIPTION
#----------   ------------   ------------------------------
 DEPT.F                  :   
 CALD.IN     45 280 60 00:   CALIPER FROM DENSITY LOG
 GRD .GAPI   45 310 01 00:   GAMMA RAY FROM DENSITY LOG
 CORR.G/C3   45 356 01 00:   DENSITY CORRECTION
 RHOB.G/C3   45 350 01 00:   BULK DENSITY
 DPHI.DEC    45 890 12 00:   DENSITY POROSITY SANDSTONE
 SPR .MV     07 010 01 00:   SPONTANEOUS POTENTIAL
 ILD .OHMM   07 120 46 00:   INDUCTION LOG DEEP
 ILM .OHMM   07 120 44 00:   INDUCTION LOG MEDIUM
 SFL .OHMM   07 220 01 00:   SHALLOW FOCUSED LOG RESISTIVITY
~PARAMETER INFORMATION
#MNEM.UNIT          VALUE    DESCRIPTION
#----------   ------------   ------------------------------
 PD  .                 GL:   PERMANENT DATUM
 EPD .F              5167:   ELEVATION PERMANENT DATUM
 LMF .                 KB:   LOG MEASURED FROM
 DAPD.F                 9:   FEET ABOVE PERMANENT DATUM
 DMF .                 KB:   DRILLING MEASURED FROM
 EKB .F              5176:   KELLING BUSHING
 EDF .F                  :   DRILLING FLOOR
 EGL .F              5167:   GROUND LEVEL
 DATE.        18-JUL-1982:   RUN DATE
 RUN .                  1:   RUN NUMBER
 DD  .F               500:   DEPTH DRILLER
 DL  .F               499:   DEPTH LOGGER
 BLI .F               436:   BOTTOM LOG INTERVAL
 TLI .F                50:   TOP LOG INTERVAL
 CS  .IN           13.375:   CASING SIZE
 CBD .F                50:   CASING BOTTOM DRILLER
 CBL .F                50:   CASING BOTTOM LOGGER
 BS  .IN            12.25:   BIT SIZE
 BSD .F               500:   BIT SIZE AT DEPTH
 DFT .         KCL FILLED:   DRILLING FLUID TYPE
 DFD .                   :   DRILLING FLUID DENSITY
 DFV .                   :   DRILLING FLUID VISCOSITY
 DFPH.                   :   DRILLING FLUID PH
 DFL .                   :   DRILLING FLUID LOSS
 MSS .           WELLHEAD:   MUD SAMPLE SOURCE
 RMS .OHMM           2.82:   RESISTIVITY MUD SAMPLE
 MST .F                80:   MUD SAMPLE TEMPERATURE
 RMF .OHMM               :   RESISTIVITY MUD FILTRATE SAMPLE
 MFST.F                  :   MUD FILTRATE SAMPLE TEMPERATURE
 RMC .OHMM               :   RESISTIVITY MUD CAKE
 MCST.F                  :   MUD CAKE SAMPLE TEMPERATURE
 MFSS.                   :   MUD FILTRATE SAMPLE SOURCE
 MCSS.                   :   MUD CAKE SAMPLE SOURCE
 RMB .OHMM           2.62:   RESISTIVITY MUD AT BHT
 BHT .F                86:   BOTTOM HOLE TEMPERATURE
 TCS .HRS            1530:   TIME CURCULATED STOPPED
 TLAB.HRS            1800:   TIME LOGGER AT BOTTOM
 MRT .F                86:   MAXIMUM RECORDED TEMPERATURE
 LUN .               8035:   LOGGING UNIT NUMBER
 LUL .             CASPER:   LOGGING UNIT LOCATION
 ENGI.              PENNY:   RECORDING ENGINEER
 WITN.             TAYLOR:   WITNESSED BY
 CLNT.            A2DTECH:   CLIENT CODE
 ORIG.           5" PRINT:   ORIGIN OF DATA
 UWI .       490251089500:   UNIQUE WELL ID
 DICO. A2D Technologies, Inc.:   DIGITIZING COMPANY
 OS  .                   :   OTHER SERVICES
 PWI .                   :   PRIMARY WELL IDENTIFIER
 R1  . POROSITY WITH SANDSTONE:   REMARKS 1
 R2  .                   :   REMARKS 2
 LSRV.                   :   LOG MNEMONIC
~OTHER INFORMATION
~A   DEPT     CALD         GRD      CORR       RHOB       DPHI        SPR        ILD        ILM        SFL   
# ...
  107.0000    12.4195    66.5750     0.0055     2.5118     0.0963   -49.4419    12.2091    12.2209    14.6591
  107.5000    12.4180    67.4672     0.0145     2.4980     0.1012   -49.4554    12.2014    12.2107    14.0971
  108.0000    12.4318    68.1304     0.0243     2.4850     0.1070   -49.4689    12.0261    12.1164    12.7742
  108.5000    12.4610    65.6324     0.0295     2.4810     0.1174   -49.4824    11.8533    11.8576    11.6963
  109.0000    12.4748    64.9422     0.0210     2.4794     0.1199   -49.6457    11.6829    11.6043    11.0719
  109.5000    12.4733    65.6054     0.0149     2.4793     0.1190   -49.8089    11.4356    11.2781    10.6887
  110.0000    12.4721    67.3965     0.0141     2.4815     0.1185   -49.9721    11.1934    11.0372    10.5449
  110.5000    12.4709    69.4131     0.0180     2.4838     0.1185   -50.1353    11.0326    10.8765    10.5379
  111.0000    12.4697    71.4297     0.0207     2.4790     0.1198   -50.2985    10.8740    10.7181    10.6118
  111.5000    12.4685    72.3218     0.0183     2.4713     0.1223   -50.4617    10.7923    10.6353    10.6774
  112.0000    12.5124    69.1471     0.0127     2.4597     0.1288   -50.6250    10.7111    10.6264    10.7365
  112.5000    12.5265    68.2314     0.0073     2.4513     0.1408   -50.7882    10.6305    10.5444    10.6550
  113.0000    12.5250    68.2179    -0.0002     2.4435     0.1468   -50.8017    10.5506    10.5356    10.5742
  113.5000    12.5392    69.1067     0.0006     2.4450     0.1437   -50.8152    10.5440    10.4542    10.5668
  114.0000    12.5680    69.9989     0.0020     2.4495     0.1400   -50.8287    10.5374    10.4455    10.4867
  114.5000    12.5819    70.8843     0.0034     2.4540     0.1349   -50.8423    10.5308    10.4369    10.4795
  115.0000    12.5804    71.0998     0.0018     2.4545     0.1335   -50.8558    10.5242    10.5006    10.4722
  115.5000    12.5641    70.8574     0.0002     2.4521     0.1342   -50.8693    10.5924    10.4918    10.4650
  116.0000    12.5329    70.8439     0.0016     2.4576     0.1336   -51.0325    10.6593    10.4831    10.5313
  116.5000    12.5166    70.6049     0.0046     2.4649     0.1303   -51.1957    10.7267    10.5493    10.5964
  117.0000    12.5004    70.8170     0.0090     2.4647     0.1279   -51.2092    10.7183    10.5383    10.8109
  117.5000    12.4992    71.4802     0.0105     2.4532     0.1316   -51.2201    10.7116    10.4570    11.1837
  118.0000    12.4829    71.9179     0.0066     2.4379     0.1478   -51.2335    10.5577    10.4483    11.3339
  118.5000    12.4667    71.9044     0.0004     2.4348     0.1496   -51.2470    10.4060    10.4396    10.8633
  119.0000    12.4655    71.6654    -0.0004     2.4392     0.1460   -51.2605    10.2564    10.2166    10.4143
  119.5000    12.4793    70.7496     0.0086     2.4414     0.1436   -51.4456    10.1090    10.1377    10.1230
  120.0000    12.4935    70.2850     0.0032     2.4367     0.1455   -51.7365     9.9638     9.9900     9.9081
  120.5000    12.4920    69.5949     0.0008     2.4366     0.1446   -51.8997     9.8206     9.8445     9.7652
  121.0000    12.5059    68.9047     0.0090     2.4433     0.1389   -51.9291     9.6795     9.7011     9.7584
  121.5000    12.5046    69.1173     0.0188     2.4661     0.1234   -52.2260     9.6067     9.5598     9.7516
  122.0000    12.5184    69.7804     0.0339     2.4911     0.1170   -52.2395     9.5344     9.4206     9.6777
  122.5000    12.5172    69.7666     0.0361     2.4819     0.1183   -52.4027     9.4627     9.3478     9.6709
  123.0000    12.5160    69.7531     0.0163     2.4581     0.1329   -52.5659     9.3915     9.2117     9.6642
  123.5000    12.5148    69.0630     0.0025     2.4314     0.1525   -52.5793     9.3220     9.1406     9.5248
  124.0000    12.5136    67.9217    -0.0028     2.4138     0.1601   -52.7425     9.2519     9.0700     9.4526
  124.5000    12.4974    68.8105     0.0008     2.4129     0.1574   -52.9057     9.2462     8.9999     9.3809
  125.0000    12.4962    69.4737     0.0053     2.4204     0.1550   -52.9192     9.1767     8.9924     9.2455
  125.5000    12.4950    70.1414     0.0075     2.4279     0.1508   -52.9327     9.1709     8.9850     9.1754
  126.0000    12.5089    70.3490     0.0028     2.4263     0.1502   -52.9462     9.1559     8.9156     9.1058
  126.5000    12.5076    69.6586    -0.0010     2.4247     0.1506   -52.9597     9.0963     8.9081     9.0995
  127.0000    12.4914    68.9505    -0.0034     2.4238     0.1512   -52.9732     9.0827     8.9007     9.0305
  127.5000    12.4902    68.7294    -0.0020     2.4237     0.1522   -52.9868     9.0150     8.8933     9.0242
  128.0000    12.4890    68.7158    -0.0013     2.4221     0.1544   -53.0003     8.9544     8.8859     9.0179
  128.5000    12.5029    68.7022     0.0009     2.4189     0.1559   -53.0138     8.8871     8.8785     9.0117
  129.0000    12.5016    68.7248     0.0053     2.4203     0.1544   -53.0273     8.8815     8.9346     9.0054
  129.5000    12.5004    69.3925     0.0105     2.4278     0.1517   -53.0408     8.8760     8.9253     8.9992
  130.0000    12.4992    69.7868     0.0142     2.4407     0.1469   -53.0543     8.8705     8.9179     8.9930
  130.5000    12.4980    70.2278     0.0172     2.4436     0.1411   -53.0679     8.8650     8.9105     8.9867
  131.0000    12.5119    69.5343     0.0163     2.4344     0.1458   -53.0814     8.8594     8.9031     8.9186
  131.5000    12.5106    68.8441     0.0109     2.4213     0.1516   -53.2446     8.8539     8.8343     8.9124
  132.0000    12.5094    68.3795     0.0071     2.4166     0.1583   -53.4078     8.8484     8.8269     8.9062
  132.5000    12.5082    67.6894     0.0039     2.4228     0.1550   -53.4213     8.8419     8.8196     8.8386
  133.0000    12.5070    67.6759     0.0031     2.4303     0.1514   -53.4349     8.7764     8.6911     8.7716
  133.5000    12.5209    68.5647     0.0075     2.4370     0.1478   -53.4484     8.7104     8.5055     8.7051
  134.0000    12.5347    70.3557     0.0074     2.4391     0.1439   -53.4619     8.5852     8.2094     8.6390
  134.5000    12.5335    71.0223     0.0066     2.4293     0.1497   -53.3257     8.2647     7.9236     8.3974
  135.0000    12.5323    70.3288     0.0042     2.4144     0.1558   -53.4889     7.9793     7.7009     8.0503
  135.5000    12.5311    70.3153     0.0018     2.4083     0.1610   -53.3494     7.7237     7.5364     7.5590
  136.0000    12.5299    70.5308    -0.0020     2.4142     0.1605   -53.3663     7.5601     7.4266     7.0976
  136.5000    12.5287    70.2884    -0.0028     2.4180     0.1580   -53.2267     7.4515     7.3693     6.8043
  137.0000    12.5275    70.0494    -0.0029     2.4072     0.1609   -53.2436     7.3444     7.3124     6.6598
  137.5000    12.5263    69.8103    -0.0032     2.4048     0.1630   -53.2571     7.2892     7.3570     6.7948
  138.0000    12.5251    70.2480    -0.0046     2.4108     0.1634   -53.4203     7.2846     7.3509     7.1271
  138.5000    12.5239    70.6857    -0.0025     2.4175     0.1598   -53.5836     7.3308     7.4471     7.4757
  139.0000    12.5227    71.1233     0.0005     2.4227     0.1558   -53.7468     7.4283     7.4926     7.8412
  139.5000    12.5215    72.9144     0.0042     2.4204     0.1550   -53.9100     7.4753     7.5399     7.9464
  140.0000    12.5353    75.3821     0.0033     2.4187     0.1556   -54.0732     7.5226     7.5962     7.9395
  140.5000    12.5341    77.3987     0.0002     2.4201     0.1550   -54.2364     7.6228     7.6323     7.9340
  141.0000    12.5329    79.8665    -0.0029     2.4269     0.1526   -54.2499     7.6710     7.6882     7.8738
  141.5000    12.5468    80.5331    -0.0007     2.4435     0.1455   -54.2635     7.7729     7.7346     7.8683
  142.0000    12.5606    78.7117     0.0022     2.4511     0.1383   -54.2770     7.8222     7.7730     7.8629
  142.5000    12.5443    76.6682     0.0067     2.4403     0.1410   -54.2905     7.8717     7.8204     7.9683
  143.0000    12.5281    75.5269     0.0081     2.4348     0.1468   -54.3040     7.9763     7.8139     8.0181
