~VERSION INFORMATION
 VERS.                2.0:   CWLS LOG ASCII STANDARD - VERSION 2.0
 WRAP.                 NO:   ONE LINE PER DEPTH STEP
~WELL INFORMATION
#MNEM.UNIT      DATA TYPE    INFORMATION
#----------   ------------   ------------------------------
 STRT.F           28.0000:   START DEPTH
 STOP.F          687.0000:   STOP DEPTH
 STEP.F            0.5000:   STEP LENGTH
 NULL.          -999.2500:   NO VALUE
 COMP. LAWRENCE/ALLISON INC:   COMPANY
 WELL.      41 STX #15-15:   WELL
 FLD .             TEAPOT:   FIELD
 LOC .      S15 T38N R78W:   LOCATION
 CNTY.            NATRONA:   COUNTY
 STAT.            WYOMING:   STATE
 CTRY. UNITED STATES OF AMERICA:   COUNTRY
 SRVC.           Gearhart:   SERVICE COMPANY
 DATE.        24-AUG-1987:   LOGDATE
 API .       490251118800:   API NUMBER
~CURVE INFORMATION
#MNEM.UNIT       API CODE    CURVE DESCRIPTION
#----------   ------------   ------------------------------
 DEPT.F                  :   
 GRR .GAPI   07 310 01 00:   GAMMA RAY
 ILD .OHMM   07 120 46 00:   INDUCTION LOG DEEP
 ILM .OHMM   07 120 44 00:   INDUCTION LOG MEDIUM
~PARAMETER INFORMATION
#MNEM.UNIT          VALUE    DESCRIPTION
#----------   ------------   ------------------------------
 PD  .                 GL:   PERMANENT DATUM
 EPD .F              5230:   ELEVATION PERMANENT DATUM
 LMF .                 KB:   LOG MEASURED FROM
 DAPD.F              10.5:   FEET ABOVE PERMANENT DATUM
 DMF .                 KB:   DRILLING MEASURED FROM
 EKB .F            5240.5:   KELLING BUSHING
 EDF .F            5239.5:   DRILLING FLOOR
 EGL .F              5230:   GROUND LEVEL
 DATE.        24-AUG-1987:   RUN DATE
 RUN .                  1:   RUN NUMBER
 DD  .F               693:   DEPTH DRILLER
 DL  .F               695:   DEPTH LOGGER
 BLI .F               687:   BOTTOM LOG INTERVAL
 TLI .F                30:   TOP LOG INTERVAL
 CS  .IN            9.625:   CASING SIZE
 CBD .F                48:   CASING BOTTOM DRILLER
 CBL .F                48:   CASING BOTTOM LOGGER
 BS  .IN             8.75:   BIT SIZE
 BSD .F               693:   BIT SIZE AT DEPTH
 DFT .                AIR:   DRILLING FLUID TYPE
 TCS .HRS            0700:   TIME CURCULATED STOPPED
 TLAB.HRS            0617:   TIME LOGGER AT BOTTOM
 MRT .F                80:   MAXIMUM RECORDED TEMPERATURE
 LUN .               7597:   LOGGING UNIT NUMBER
 LUL .           GILLETTE:   LOGGING UNIT LOCATION
 ENGI.         WEATHERMON:   RECORDING ENGINEER
 WITN.             STRONG:   WITNESSED BY
 CLNT.            A2DTECH:   CLIENT CODE
 ORIG.       2", 5" PRINT:   ORIGIN OF DATA
 UWI .       490251118800:   UNIQUE WELL ID
 DICO. A2D Technologies, Inc.:   DIGITIZING COMPANY
~OTHER INFORMATION
~A   DEPT       GRR       ILD        ILM   
# ...
  301.0000   120.8696     8.9859     8.8228
  301.5000   122.0929     8.9882     8.8228
  302.0000   125.1259     8.9279     8.8228
  302.5000   127.2526     8.9298     8.8279
  303.0000   128.1708     8.8699     8.8228
  303.5000   128.1826     8.8718     8.7013
  304.0000   125.7776     8.8123     8.4047
  304.5000   121.8619     8.5735     8.3466
  305.0000   123.0823     8.2832     8.3466
  305.5000   127.0216     7.8926     8.2317
  306.0000   127.6377     7.8393     7.8962
  306.5000   126.4411     7.6269     7.5220
  307.0000   125.5466     7.4711     7.1655
  307.5000   126.1631     7.4730     6.8734
  308.0000   127.0839     7.5265     6.8259
  308.5000   128.0021     7.6331     7.0180
  309.0000   127.1076     7.8493     7.0668
  309.5000   122.8898     8.0192     7.2154
  310.0000   119.8776     8.1860     7.6270
  310.5000   122.3093     8.3023     7.8416
  311.0000   123.8317     8.4199     8.0064
  311.5000   124.4478     8.4801     8.2317
  312.0000   124.1571     8.5409     8.4047
  312.5000   123.5650     8.6020     8.5221
  313.0000   123.8792     8.6636     8.5814
  313.5000   125.1631     8.6055     8.5814
  314.0000   129.4301     8.3141     8.3466
  314.5000   131.1685     8.2009     8.1183
  315.0000   130.8752     7.9787     8.0405
  315.5000   129.6816     7.8705     8.0064
  316.0000   129.0863     7.8178     7.9511
  316.5000   130.3096     7.8194     7.8962
  317.0000   131.2278     7.8754     7.7336
  317.5000   130.0312     7.3499     7.3671
  318.0000   125.8134     7.1505     7.0180
  318.5000   122.8041     6.8606     6.8259
  319.0000   121.9094     6.7208     6.7788
  319.5000   121.0151     6.5384     6.6392
  320.0000   122.5980     6.2301     5.8600
  320.5000   124.7079     6.1028     5.4991
  321.0000   126.4917     6.1468     5.2445
  321.5000   125.5973     6.1481     5.3920
  322.0000   121.6816     6.2352     5.6997
  322.5000   121.3884     6.4117     6.0668
  323.0000   123.2159     6.7805     6.2808
  323.5000   125.0405     7.0302     6.5477
  324.0000   127.4692     7.6828     6.9695
  324.5000   129.2938     7.9553     7.2154
  325.0000   130.8162     8.0122     7.3162
  325.5000   131.7344     8.0696     7.5743
  326.0000   132.6526     8.1839     7.7336
  326.5000   130.5307     8.2425     7.9007
  327.0000   129.3531     8.4174     8.1277
  327.5000   130.5763     8.5366     8.3466
  328.0000   134.5157     8.6575     8.4047
  328.5000   136.6423     8.7195     8.4047
  329.0000   136.9534     8.8430     8.5221
  329.5000   133.0407     8.8448     8.7013
  330.0000   133.3547     8.8466     8.8228
  330.5000   133.6657     8.9100     8.9461
  331.0000   132.4720     8.9122     9.0083
  331.5000   126.4416     8.9141     9.0710
  332.0000   125.2450     8.9159     9.0710
  332.5000   127.0695     8.9797     9.1977
  333.0000   131.9882     9.0440     9.2084
  333.5000   135.6767     9.1088     9.2617
  334.0000   140.0990     9.2378     9.1977
  334.5000   137.9961     9.3034     9.2617
  335.0000   128.6424     9.2411     9.2617
  335.5000   125.0288     9.2434     9.2617
  336.0000   125.3428     9.1814     9.1977
  336.5000   128.6779     9.1199     9.1342
  337.0000   130.2004     8.9905     9.0083
  337.5000   130.5143     8.8129     8.9461
  338.0000   132.9431     8.8152     8.8228
  338.5000   133.2860     8.8170     8.7013
  339.0000   130.8520     8.8188     8.5814
  339.5000   125.9617     8.7592     8.4632
  340.0000   123.6250     8.7616     8.2890
  340.5000   124.5462     8.4649     8.2317
  341.0000   126.0686     8.3501     8.2317
  341.5000   129.4037     8.2937     8.2317
  342.0000   130.9261     8.0133     8.0622
  342.5000   130.9380     7.6354     7.6801
  343.0000   129.7414     7.2250     7.1655
  343.5000   128.8439     6.8368     6.7319
  344.0000   132.4841     6.2490     6.5933
  344.5000   134.0066     5.8318     6.3612
  345.0000   134.6227     5.4049     5.9215
  345.5000   134.9436     4.8372     5.2810
  346.0000   133.4057     4.2332     4.4403
  346.5000   131.6371     3.8084     3.8385
  347.0000   131.0447     3.3767     3.4353
  347.5000   130.4553     3.0440     2.9697
  348.0000   127.7481     2.9004     2.7326
  348.5000   120.2071     2.9010     2.4797
  349.0000   116.2915     2.9016     2.4427
  349.5000   114.1885     2.9427     2.5144
  350.0000   113.5932     3.0561     2.7326
  350.5000   115.2286     3.3846     2.9293
  351.0000   121.3938     3.5568     3.5330
  351.5000   129.6458     3.9944     3.6329
  352.0000   137.5127     4.9868     4.0317
  352.5000   139.3372     5.4200     5.2119
  353.0000   138.1406     5.7297     5.3966
  353.5000   134.8292     6.0572     5.9065
  354.0000   129.4030     6.2716     6.2444
  354.5000   129.1098     6.3161     6.3765
  355.0000   133.9585     6.3609     6.3333
  355.5000   140.3148     6.3178     6.3342
  356.0000   141.3050     6.2317     6.2915
  356.5000   136.1089     6.0203     5.9941
  357.0000   134.6102     5.9795     5.7109
  357.5000   139.0029     5.6559     5.5940
  358.0000   148.0846     5.5039     5.2928
  358.5000   149.7515     5.5048     4.9732
  359.0000   148.8600     5.5055     5.0085
  359.5000   141.6211     5.5446     5.0792
  360.0000   134.0801     5.8210     5.1152
  360.5000   130.4666     6.0690     5.2235
  361.0000   130.1734     6.1545     5.5238
  361.5000   132.9073     6.3724     5.6784
  362.0000   140.7741     6.7834     5.8819
  362.5000   142.2966     7.1216     6.3028
  363.0000   142.3084     7.2722     6.7097
  363.5000   142.6224     7.5820     6.8994
  364.0000   144.4633     7.8504     7.3448
  364.5000   144.7613     8.0738     7.7112
  365.0000   144.1716     8.1294     7.9292
  365.5000   143.8783     8.0743     8.0410
  366.0000   143.2889     8.0757     8.0421
  366.5000   141.1860     8.0208     7.9876
  367.0000   141.1979     7.9665     7.9887
  367.5000   142.4182     7.9125     7.9346
  368.0000   143.3364     7.8049     7.8758
  368.5000   142.7440     7.6454     7.7196
  369.0000   141.5475     7.4888     7.6145
  369.5000   142.1636     7.2853     7.4588
  370.0000   147.6135     7.0871     7.2055
  370.5000   148.2296     6.9422     6.9609
  371.0000   145.4743     6.8952     6.9135
  371.5000   143.0715     6.8476     6.8194
  372.0000   143.4343     6.3294     6.1892
  372.5000   146.1652     5.9165     5.8560
  373.0000   147.9898     5.6431     5.7362
  373.5000   148.6059     5.4893     5.4651
  374.0000   148.9198     5.6839     5.0289
  374.5000   148.9317     5.8444     4.7917
  375.0000   148.9436     5.8452     4.9329
  375.5000   147.4449     5.9688     5.1374
  376.0000   144.4356     6.1801     5.9850
  376.5000   142.0305     6.5788     6.4157
  377.0000   142.3445     7.2000     6.6892
  377.5000   141.7422     7.7177     7.0229
  378.0000   140.8577     8.1024     7.5283
  378.5000   143.0393     8.2738     7.8493
  379.0000   145.1140     8.3360     8.0154
  379.5000   146.9386     8.4576     8.1285
  380.0000   147.8568     8.6889     8.1296
  380.5000   147.8686     8.8114     8.1307
  381.0000   145.7657     8.9356     8.1318
  381.5000   142.7564     8.9368     8.1895
  382.0000   139.7471     8.8150     8.2479
  382.5000   139.1518     8.6348     8.2490
  383.0000   140.0730     8.5760     8.1931
  383.5000   143.7102     8.5775     8.1373
  384.0000   146.1390     8.6383     8.3098
  384.5000   145.2265     8.6996     8.4857
  385.0000   144.6522     8.6406     8.5459
  385.5000   146.4797     8.5821     8.5471
  386.0000   146.7937     8.6430     8.3722
  386.5000   146.2013     8.7110     8.3733
  387.0000   145.0047     8.8270     8.4332
  387.5000   143.2039     8.8899     8.5567
  388.0000   141.4031     8.9529     8.6724
  388.5000   135.9769     8.8920     8.7950
  389.0000   135.3815     8.8935     8.9190
  389.5000   137.2091     8.8333     8.9202
  390.0000   142.6590     8.8345     8.8598
  390.5000   144.7857     8.7744     8.6186
  391.0000   146.3082     8.5953     8.3839
  391.5000   146.6224     8.3615     8.1556
