~VERSION INFORMATION
 VERS.                2.0:   CWLS LOG ASCII STANDARD - VERSION 2.0
 WRAP.                 NO:   ONE LINE PER DEPTH STEP
~WELL INFORMATION
#MNEM.UNIT      DATA TYPE    INFORMATION
#----------   ------------   ------------------------------
 STRT.F           46.0000:   START DEPTH
 STOP.F          670.0000:   STOP DEPTH
 STEP.F            0.5000:   STEP LENGTH
 NULL.          -999.2500:   NO VALUE
 COMP. FENIX & SCISSON INC:   COMPANY
 WELL. TEAPOT #27 62SX 11WI-11:   WELL
 FLD .             TEAPOT:   FIELD
 LOC .      S11 T38N R78W:   LOCATION
 CNTY.            NATRONA:   COUNTY
 STAT.            WYOMING:   STATE
 CTRY. UNITED STATES OF AMERICA:   COUNTRY
 SRVC.      Dresser Atlas:   SERVICE COMPANY
 DATE.        27-JUL-1980:   LOGDATE
 API .       490251084000:   API NUMBER
~CURVE INFORMATION
#MNEM.UNIT       API CODE    CURVE DESCRIPTION
#----------   ------------   ------------------------------
 DEPT.F                  :   
 GRD .GAPI   45 310 01 00:   GAMMA RAY FROM DENSITY LOG
 RHOB.G/C3   45 350 01 00:   BULK DENSITY
 CORR.G/C3   45 356 01 00:   DENSITY CORRECTION
 CALD.IN     45 280 60 00:   CALIPER
 DPOR.DEC    45 890 12 00:   DENSITY POROSITY SANDSTONE
 SPR .MV     07 010 01 00:   SPONTANEOUS POTENTIAL
 SFL .OHMM   07 220 01 00:   SHALLOW FOCUSED LOG RESISTIVITY
 ILD .OHMM   07 120 46 00:   INDUCTION LOG DEEP
 ILM .OHMM   07 120 44 00:   INDUCTION LOG MEDIUM
~PARAMETER INFORMATION
#MNEM.UNIT          VALUE    DESCRIPTION
#----------   ------------   ------------------------------
 PD  .                 GL:   PERMANENT DATUM
 EPD .F              5186:   ELEVATION PERMANENT DATUM
 LMF .                 KB:   LOG MEASURED FROM
 DAPD.F                 5:   FEET ABOVE PERMANENT DATUM
 DMF .                 KB:   DRILLING MEASURED FROM
 EKB .F              5191:   KELLING BUSHING
 EGL .F              5186:   GROUND LEVEL
 DATE.            7-27-80:   RUN DATE
 RUN .                  1:   RUN NUMBER
 DD  .F               660:   DEPTH DRILLER
 DL  .F               663:   DEPTH LOGGER
 BLI .F               661:   BOTTOM LOG INTERVAL
 TLI .F                46:   TOP LOG INTERVAL
 BS  .IN            7.875:   BIT SIZE
 BSD .F               660:   BIT SIZE AT DEPTH
 DFT .           CHEM GEL:   DRILLING FLUID TYPE
 DFD .                9.5:   DRILLING FLUID DENSITY
 DFV .                 50:   DRILLING FLUID VISCOSITY
 DFPH.                 11:   DRILLING FLUID PH
 DFL .                  6:   DRILLING FLUID LOSS
 MSS .           FLOWLINE:   MUD SAMPLE SOURCE
 RMS .OHMM            .08:   RESISTIVITY MUD SAMPLE
 MST .F                70:   MUD SAMPLE TEMPERATURE
 RMC .OHMM            .08:   RESISTIVITY MUD CAKE
 MCST.F                70:   MUD CAKE SAMPLE TEMPERATURE
 MFSS.               MEAS:   MUD FILTRATE SAMPLE SOURCE
 MCSS.               MEAS:   MUD CAKE SAMPLE SOURCE
 RMB .OHMM            .06:   RESISTIVITY MUD AT BHT
 BHT .F                90:   BOTTOM HOLE TEMPERATURE
 TCS .HRS               5:   TIME CURCULATED STOPPED
 MRT .F                90:   MAXIMUM RECORDED TEMPERATURE
 LUN .               6145:   LOGGING UNIT NUMBER
 LUL .              GLTTE:   LOGGING UNIT LOCATION
 ENGI.              HENRY:   RECORDING ENGINEER
 WITN.              AMEND:   WITNESSED BY
 CLNT.            A2DTECH:   CLIENT CODE
 ORIG.       2", 5" PRINT:   ORIGIN OF DATA
 UWI .       490251084000:   UNIQUE WELL ID
 DICO. A2D Technologies, Inc.:   DIGITIZING COMPANY
~OTHER INFORMATION
~A   DEPT      GRD       RHOB       CORR       CALD       DPOR        SPR          SFL        ILD      ILM   
# ...
  155.5000   107.3920     2.4988     0.0137     8.4052     0.1089   -21.1330     8.1978     5.6702     6.3347
  156.0000   107.6695     2.4907     0.0149     8.4052     0.1133   -20.9854     8.0947     5.6178     6.2865
  156.5000   106.9889     2.4897     0.0121     8.4052     0.1137   -20.7478     7.9929     5.6178     6.2295
  157.0000   107.6213     2.4893     0.0095     8.4052     0.1141   -20.5120     7.9688     5.7326     6.1731
  157.5000   108.7093     2.4884     0.0068     8.4052     0.1147   -20.4528     7.9854     5.8180     6.1030
  158.0000   107.3260     2.4825     0.0041     8.4052     0.1169   -20.6912     8.0147     5.9043     6.1940
  158.5000   105.7940     2.4732     0.0029     8.4052     0.1251   -20.9253     8.0437     5.9920     6.3179
  159.0000   104.9180     2.4590     0.0021     8.4052     0.1322   -20.8849     8.0734     6.0809     6.4443
  159.5000   105.7469     2.4579     0.0020     8.4052     0.1326   -20.6401     8.1029     6.1712     6.5732
  160.0000   102.9350     2.4598     0.0029     8.4052     0.1329   -20.3640     8.2683     6.2164     6.7015
  160.5000   100.7375     2.4708     0.0017     8.4052     0.1257   -42.4172     8.2376     6.3100     6.9176
  161.0000   100.9895     2.4818     0.0042     8.4050     0.1181   -42.4172     8.2376     6.3100     6.9176
  161.5000   101.8945     2.4883     0.0164     8.4057     0.1055   -42.4172     8.2376     6.3100     6.9176
  162.0000   100.6496     2.5297     0.0272     8.4465     0.0908   -42.4172     8.2376     6.3100     6.9176
  162.5000    99.5656     2.5121     0.0216     8.4855     0.0989   -42.2215     8.4218     6.9048     7.1364
  163.0000    98.9793     2.5013     0.0158     8.4807     0.1063   -42.1518     8.4491     6.7881     7.1229
  163.5000    99.5798     2.4920     0.0101     8.4767     0.1122   -42.2912     8.6159     6.7291     7.1115
  164.0000   101.4489     2.4841     0.0082     8.4727     0.1174   -42.4692     8.8130     6.5918     7.0558
  164.5000   102.9142     2.4756     0.0093     8.4688     0.1226   -42.6462     9.0219     6.4899     7.0425
  165.0000   102.5966     2.4723     0.0082     8.4650     0.1242   -42.8211     9.1557     6.3892     7.0295
  165.5000   102.5766     2.4798     0.0077     8.4701     0.1203   -42.8661     9.2708     6.2903     7.0160
  166.0000   101.5858     2.4833     0.0121     8.4761     0.1164   -42.7480     9.4050     6.2164     6.9837
  166.5000   100.1478     2.4880     0.0168     8.4821     0.1156   -42.6313     9.1213     6.1826     6.8872
  167.0000    99.7478     2.5045     0.0215     8.4861     0.1057   -42.5140     8.8106     6.1400     6.7930
  167.5000   100.2977     2.5132     0.0262     8.4883     0.0988   -42.3970     8.4997     6.0677     6.6912
  168.0000   101.9046     2.5138     0.0296     8.4905     0.1007   -42.2670     8.3447     5.9971     6.6160
  168.5000   103.7616     2.5076     0.0274     8.4927     0.1039   -42.1147     8.3705     5.9274     6.5347
  169.0000   104.9370     2.5015     0.0230     8.4949     0.1066   -41.9625     8.3985     5.8825     6.3925
  169.5000   105.6827     2.4945     0.0186     8.4971     0.1093   -41.8081     8.4218     5.9393     6.4552
  170.0000   106.2493     2.4869     0.0156     8.4992     0.1134   -41.6021     8.3578     6.0146     6.5382
  170.5000   106.8171     2.4790     0.0098     8.5014     0.1191   -41.3319     8.2928     6.0910     6.6245
  171.0000   107.3509     2.4748     0.0034     8.5036     0.1229   -41.0600     8.2683     6.1680     6.7306
  171.5000   107.3349     2.4785     0.0063     8.5058     0.1197   -41.1047     8.5014     6.2476     6.9123
  172.0000   106.2950     2.4927     0.0139     8.5080     0.1177   -41.4103     8.8337     6.4025     7.0978
  172.5000   101.8664     2.5109     0.0213     8.5102     0.1044   -41.7196     9.1489     6.6071     7.2883
  173.0000   100.8159     2.5222     0.0277     8.5124     0.0936   -42.0302     9.3053     6.8166     7.4839
  173.5000   102.4792     2.5310     0.0283     8.5145     0.0901   -42.3185     9.4518     7.0329     7.6397
  174.0000   104.4240     2.5272     0.0245     8.5167     0.0919   -42.3256     9.6005     7.1810     7.7802
  174.5000   102.9659     2.5100     0.0167     8.5189     0.1006   -42.3241     9.7517     7.2656     7.9232
  175.0000   101.0225     2.4965     0.0095     8.5211     0.1084   -42.3238     9.8478     7.3361     8.0431
  175.5000    99.9286     2.4861     0.0020     8.5233     0.1165   -42.3238     9.7280     7.2122     7.9384
  176.0000   100.5043     2.4850     0.0055     8.5250     0.1132   -42.3238     9.5903     7.0570     7.7730
  176.5000   101.2320     2.4879     0.0028     8.5250     0.1123   -42.3238     9.4020     6.9052     7.5710
  177.0000   101.6389     2.4813     0.0015     8.5250     0.1174   -42.3241     9.2175     6.7566     7.3749
  177.5000   103.4042     2.4829     0.0014     8.5250     0.1189   -42.3259     9.0368     6.6104     7.1839
  178.0000   104.9564     2.4802     0.0077     8.5250     0.1198   -42.2468     8.8579     6.4703     6.9978
  178.5000   104.3809     2.4769     0.0155     8.5250     0.1225   -42.1527     8.6827     6.3307     6.7997
  179.0000   102.9306     2.4836     0.0234     8.5250     0.1173   -42.1596     8.4985     6.1941     6.6010
  179.5000   102.0369     2.5249     0.0312     8.5250     0.0920   -42.2071     8.3447     6.0965     6.4775
  180.0000   102.8637     2.5252     0.0325     8.5250     0.0936   -42.2558     8.3773     5.9917     6.3895
  180.5000   104.7904     2.5201     0.0253     8.5250     0.0968   -42.3026     8.4218     6.0798     6.4205
  181.0000   105.8929     2.5127     0.0184     8.5250     0.1017   -42.2133     8.5782     6.2362     6.5036
  181.5000   106.6708     2.5041     0.0145     8.5250     0.1075   -41.9211     8.7816     6.4555     6.6096
  182.0000   108.1533     2.4885     0.0112     8.5240     0.1156   -41.5456     8.9897     6.8143     6.8073
  182.5000   107.9553     2.4888     0.0074     8.5192     0.1156   -41.1696     9.2028     6.7773     7.0093
  183.0000   107.3875     2.5065     0.0062     8.5146     0.1058   -40.8020     9.7537     6.7531     7.2023
  183.5000   105.9438     2.5245     0.0081     8.5099     0.0944   -40.6166    10.3972     6.8966     7.2302
  184.0000   104.2237     2.5230     0.0115     8.5052     0.0948   -40.8983    10.7009     6.9730     7.2563
  184.5000   103.3367     2.4996     0.0065     8.5069     0.1026   -41.1706     9.6578     7.0710     7.2831
  185.0000   102.8971     2.4927     0.0014     8.5091     0.1120   -41.4444     9.0627     7.0191     7.3104
  185.5000   102.7539     2.4994     0.0022     8.5112     0.1079   -41.7174     9.0629     6.9490     7.3379
  186.0000   102.7655     2.5086     0.0053     8.5133     0.1017   -41.9618     9.2158     6.8785     7.3654
  186.5000   103.2997     2.5042     0.0126     8.5154     0.1062   -42.1061     9.3152     6.8785     7.4039
  187.0000   104.4007     2.4916     0.0054     8.5175     0.1132   -42.2510     9.4149     6.9022     7.3973
  187.5000   103.5022     2.4850     0.0008     8.5197     0.1139   -42.3959     9.5069     6.9193     7.3865
  188.0000   102.7045     2.4855    -0.0001     8.5218     0.1137   -42.5407     9.5707     6.9421     7.3757
  188.5000   102.0254     2.4961    -0.0013     8.5239     0.1063   -42.6568     9.9738     6.9277     7.3649
  189.0000   102.4758     2.5185     0.0025     8.5250     0.0961   -42.7766    10.4067     6.9061     7.3541
  189.5000   103.5954     2.5338     0.0062     8.5250     0.0876   -42.8999    10.5029     6.8846     7.3434
  190.0000   104.5545     2.5241     0.0100     8.5250     0.0934   -42.8366     9.7986     6.7868     7.3361
  190.5000   105.1239     2.5068     0.0108     8.5250     0.1013   -42.7346     9.3618     6.6606     7.3361
  191.0000   105.1392     2.5000     0.0098     8.5250     0.1076   -42.7172     9.2373     6.5369     7.3366
  191.5000   105.7876     2.5041     0.0094     8.5236     0.1028   -42.8133     9.1139     6.4155     7.3154
