~VERSION INFORMATION
 VERS.                2.0:   CWLS LOG ASCII STANDARD - VERSION 2.0
 WRAP.                 NO:   ONE LINE PER DEPTH STEP
~WELL INFORMATION
#MNEM.UNIT      DATA TYPE    INFORMATION
#----------   ------------   ------------------------------
 STRT.F           61.0000:   START DEPTH
 STOP.F          527.0000:   STOP DEPTH
 STEP.F            0.5000:   STEP LENGTH
 NULL.          -999.2500:   NO VALUE
 COMP.       F D SERV INC:   COMPANY
 WELL.  82-5 SX 10 #82-10:   WELL
 FLD .             TEAPOT:   FIELD
 LOC .      S10 T38N R78W:   LOCATION
 CNTY.            NATRONA:   COUNTY
 STAT.            WYOMING:   STATE
 CTRY. UNITED STATES OF AMERICA:   COUNTRY
 SRVC.     Atlas Wireline:   SERVICE COMPANY
 DATE.        08-FEB-1993:   LOGDATE
 API .       490252258800:   API NUMBER
~CURVE INFORMATION
#MNEM.UNIT       API CODE    CURVE DESCRIPTION
#----------   ------------   ------------------------------
 DEPT.F                  :   
 C13 .IN     45 280 13 00:   CALIPER
 GRD .GAPI   45 310 01 00:   GAMMA RAY FROM DENSITY LOG
 NPHI.DEC    42 890 03 00:   NEUTRON POROSITY SANDSTONE
 PORZ.DEC    45 890 12 00:   DENSITY POROSITY SANDSTONE
 ZCOR.G/C3   45 356 01 00:   DENSITY CORRECTION
 ZDEN.G/C3   45 350 01 00:   BULK DENSITY
 RILD.OHMM   07 120 46 00:   INDUCTION LOG DEEP RESISTIVITY
 RILM.OHMM   07 120 44 00:   RESITIVITY LONG MEDIUM
~PARAMETER INFORMATION
#MNEM.UNIT          VALUE    DESCRIPTION
#----------   ------------   ------------------------------
 PD  .                 GL:   PERMANENT DATUM
 EPD .F              5166:   ELEVATION PERMANENT DATUM
 LMF .                 KB:   LOG MEASURED FROM
 DAPD.F                10:   FEET ABOVE PERMANENT DATUM
 DMF .                 KB:   DRILLING MEASURED FROM
 EKB .F              5176:   KELLING BUSHING
 EDF .F              5175:   DRILLING FLOOR
 EGL .F              5166:   GROUND LEVEL
 DATE.        08-FEB-1993:   RUN DATE
 RUN .                  1:   RUN NUMBER
 DD  .F               530:   DEPTH DRILLER
 DL  .F               532:   DEPTH LOGGER
 BLI .F               529:   BOTTOM LOG INTERVAL
 TLI .F                96:   TOP LOG INTERVAL
 CS  .IN            8.625:   CASING SIZE
 CBD .F                90:   CASING BOTTOM DRILLER
 CBL .F                96:   CASING BOTTOM LOGGER
 BS  .IN            7.875:   BIT SIZE
 BSD .F               530:   BIT SIZE AT DEPTH
 DFT .                AIR:   DRILLING FLUID TYPE
 MRT .F                60:   MAXIMUM RECORDED TEMPERATURE
 LUN .            HL 6274:   LOGGING UNIT NUMBER
 LUL .             CASPER:   LOGGING UNIT LOCATION
 ENGI.          V. RAUTIO:   RECORDING ENGINEER
 WITN.          G. STRONG:   WITNESSED BY
 CLNT.            A2DTECH:   CLIENT CODE
 ORIG.           5" PRINT:   ORIGIN OF DATA
 UWI .       490252258800:   UNIQUE WELL ID
 DICO. A2D Technologies, Inc.:   DIGITIZING COMPANY
~OTHER INFORMATION
~A   DEPT      C13        GRD       NPHI       PORZ       ZCOR       ZDEN       RILD       RILM   
# ...
  142.0000     8.1329   157.1336     0.2886     0.0944     0.0172     2.4936    11.6631    11.4230
  142.5000     8.1331   157.7416     0.2877     0.0975     0.0068     2.4869    11.5840    11.2676
  143.0000     8.1332   158.3496     0.2867     0.1004     0.0009     2.4824    11.5055    11.2691
  143.5000     8.1334   159.2602     0.2850     0.1022     0.0009     2.4794    11.5074    11.2705
  144.0000     8.1336   158.6620     0.2847     0.1028     0.0069     2.4795    11.3505    11.2720
  144.5000     8.1337   158.0652     0.2856     0.1013     0.0176     2.4825    11.2736    11.2738
  145.0000     8.1338   157.4598     0.2859     0.1004     0.0205     2.4810    11.1202    11.2753
  145.5000     8.1340   155.9708     0.2853     0.1052     0.0146     2.4758    11.1216    11.2767
  146.0000     8.1191   153.2656     0.2840     0.1082     0.0041     2.4698    11.1231    11.2003
  146.5000     8.1192   149.6567     0.2825     0.1088     0.0012     2.4691    11.1245    11.1244
  147.0000     8.1194   149.0599     0.2813     0.1088    -0.0018     2.4713    11.1263    11.1262
  147.5000     8.1346   149.6694     0.2801     0.1067    -0.0017     2.4781    11.2051    11.1276
  148.0000     8.1197   148.4701     0.2777     0.1039     0.0013     2.4774    11.1292    11.0522
  148.5000     8.1199   147.2709     0.2759     0.1046     0.0104     2.4759    10.9774    10.9773
  149.0000     8.1200   147.8803     0.2747     0.1066     0.0149     2.4752    10.8277    10.9029
  149.5000     8.1202   149.9944     0.2744     0.1060     0.0119     2.4752    10.7543    10.7504
  150.0000     8.1203   154.5181     0.2801     0.1042     0.0120     2.4760    10.6818    10.5185
  150.5000     8.1205   154.8223     0.2795     0.1060     0.0111     2.4745    10.6071    10.3114
  151.0000     8.1206   153.3198     0.2792     0.1054     0.0106     2.4753    10.5324    10.1112
  151.5000     8.1208   150.3105     0.2804     0.1045     0.0121     2.4768    10.4702    10.1849
  152.0000     8.1209   149.4096     0.2835     0.1024     0.0107     2.4806    10.4737    10.2584
  152.5000     8.1211   152.4252     0.2826     0.1000     0.0092     2.4837    10.4040    10.2611
  153.0000     8.1212   156.9461     0.2802     0.0988     0.0137     2.4867    10.4075    10.2638
  153.5000     8.1214   158.4900     0.2793     0.0997     0.0244     2.4890    10.4102    10.2671
  154.0000     8.1366   156.9517     0.2802     0.1032     0.0108     2.4845    10.2696    10.1284
  154.5000     8.1367   158.4612     0.2835     0.1057     0.0019     2.4786    10.2013    10.0611
  155.0000     8.1368   160.2712     0.2847     0.1027    -0.0011     2.4756    10.1335    10.0637
  155.5000     8.1521   160.5752     0.2847     0.1006     0.0035     2.4794    10.1368     9.9969
  156.0000     8.1371   158.1690     0.2838     0.1078     0.0080     2.4817    10.1395     9.8625
  156.5000     8.1223   156.3646     0.2829     0.1099     0.0051     2.4750    10.0721     9.7969
  157.0000     8.1224   153.8976     0.2829     0.1099     0.0021     2.4690    10.0754     9.7318
  157.5000     8.1226   150.6480     0.2829     0.1099     0.0097     2.4683    10.0078     9.4688
  158.0000     8.1227   149.7465     0.2835     0.1096     0.0142     2.4676     9.9413     9.2764
  158.5000     8.1229   152.1898     0.2850     0.1042     0.0157     2.4684     9.9445     9.2789
  159.0000     8.1230   155.7775     0.2874     0.0994     0.0173     2.4707     9.9478     9.4763
  159.5000     8.1232   156.9852     0.2902     0.0988     0.0203     2.4804     9.9504     9.6117
  160.0000     8.1233   157.2892     0.2907     0.0994     0.0174     2.4865     9.9530     9.7484
  160.5000     8.1235   156.9914     0.2898     0.0964     0.0159     2.4858    10.0248     9.8187
  161.0000     8.1236   153.9822     0.2814     0.0913     0.0145     2.4873    10.0281     9.8896
  161.5000     8.1238   148.8645     0.2739     0.0874     0.0145     2.4911     9.9608     9.8923
  162.0000     8.1239   145.2535     0.2700     0.0874     0.0146     2.4971     9.9404     9.8954
  162.5000     8.1090   143.7496     0.2727     0.0979     0.0116     2.5039     9.8978     9.8290
  163.0000     8.1092   143.1506     0.2799     0.1084     0.0027     2.5047     9.6973     9.7637
  163.5000     8.0943   142.8523     0.2853     0.1195    -0.0093     2.4973     9.5003     9.5659
  164.0000     8.1095   145.5666     0.2886     0.1217    -0.0107     2.4733     9.3072     9.2432
  164.5000     8.1096   152.4971     0.2911     0.1171    -0.0077     2.4538     9.1180     8.9928
  165.0000     8.1248   156.1150     0.2926     0.1132    -0.0016     2.4471     8.8651     8.5100
  165.5000     8.1250   154.9130     0.2944     0.1126    -0.0001     2.4531     8.6309     8.2221
  166.0000     8.1251   152.8074     0.2959     0.1168    -0.0001     2.4599     8.3976     8.0553
  166.5000     8.1270   153.4830     0.2980     0.1202    -0.0032     2.4622     8.2837     7.8916
  167.0000     8.1405   156.7293     0.3025     0.1186    -0.0104     2.4561     8.1723     7.8391
  167.5000     8.1406   158.2381     0.3034     0.1126    -0.0119     2.4495     8.0619     7.8417
  168.0000     8.1408   158.2410     0.3006     0.1087    -0.0089     2.4541     8.0084     7.8443
  168.5000     8.1259   155.2324     0.2968     0.1090     0.0032     2.4647     7.9551     7.8463
  169.0000     8.1260   150.7171     0.2938     0.1117     0.0212     2.4714     7.9577     7.8484
  169.5000     8.1262   149.2139     0.2953     0.1156     0.0152     2.4707     7.9603     7.9050
  170.0000     8.1263   152.2294     0.2980     0.1174     0.0003     2.4647     8.0178     7.9383
  170.5000     8.1114   157.3526     0.3017     0.1132    -0.0086     2.4557     8.0757     7.9647
  171.0000     8.1116   161.8735     0.3061     0.1063    -0.0071     2.4595     8.1905     8.0780
  171.5000     8.1118   159.4674     0.3055     0.1027     0.0079     2.4701     8.1932     8.0801
  172.0000     8.1119   157.6629     0.3017     0.1024     0.0155     2.4806     8.2029     8.1384
  172.5000     8.1120   156.4608     0.2989     0.1042     0.0170     2.4807     8.2545     8.1977
  173.0000     8.1272   157.9704     0.2980     0.1067     0.0155     2.4777     8.3141     8.3143
  173.5000     8.1274   160.6841     0.2986     0.1096     0.0126     2.4725     8.4324     8.3743
  174.0000     8.1275   163.0965     0.2995     0.1102     0.0066     2.4688     8.4351     8.4363
  174.5000     8.1277   159.4855     0.2986     0.1078     0.0037     2.4680     8.4960     8.5552
  175.0000     8.1278   155.8738     0.2962     0.1042     0.0052     2.4741     8.6168     8.6769
  175.5000     8.1430   155.2735     0.2944     0.1018     0.0038     2.4809     8.6833     8.7395
  176.0000     8.1432   158.7510     0.2947     0.1009     0.0023     2.4832     8.9259     8.8026
  176.5000     8.1433   163.1118     0.2950     0.1006     0.0039     2.4833     8.9903     8.8667
  177.0000     8.1435   163.4151     0.2956     0.0982     0.0114     2.4870     9.1182     8.9307
  177.5000     8.1436   160.3313     0.2960     0.0943     0.0219     2.4923     9.1840     8.9331
  178.0000     8.1438   157.0961     0.2966     0.0889     0.0250     2.5015     9.1229     8.8737
  178.5000     8.1439   160.7141     0.2975     0.0892     0.0280     2.5051     9.0623     8.8153
  179.0000     8.1591   164.0602     0.2968     0.0946     0.0235     2.4954     9.0021     8.8176
  179.5000     8.1593   167.0456     0.2963     0.0976     0.0161     2.4910     8.8811     8.6384
  180.0000     8.1594   168.2533     0.2975     0.0970     0.0132     2.4925     8.7006     8.5218
  180.5000     8.1595   169.4609     0.2996     0.0961     0.0132     2.4933     8.5238     8.4067
  181.0000     8.1597   171.2716     0.3030     0.0958     0.0163     2.4941     8.5266     8.4094
  181.5000     8.1448   172.1780     0.3071     0.0955     0.0133     2.4911     8.4699     8.4701
  182.0000     8.1450   170.0723     0.3098     0.0961     0.0104     2.4874     8.5311     8.4723
