~VERSION INFORMATION
 VERS.                2.0:   CWLS LOG ASCII STANDARD - VERSION 2.0
 WRAP.                 NO:   ONE LINE PER DEPTH STEP
~WELL INFORMATION
#MNEM.UNIT      DATA TYPE    INFORMATION
#----------   ------------   ------------------------------
 STRT.F           40.0000:   START DEPTH
 STOP.F          490.0000:   STOP DEPTH
 STEP.F            0.5000:   STEP LENGTH
 NULL.          -999.2500:   NO VALUE
 COMP.    FENIX & SCISSON:   COMPANY
 WELL. RES 3 TEAPOT DOM #76-10:   WELL
 FLD .        TEAPOT DOME:   FIELD
 LOC .      S10 T38N R78W:   LOCATION
 CNTY.            NATRONA:   COUNTY
 STAT.            WYOMING:   STATE
 CTRY. UNITED STATES OF AMERICA:   COUNTRY
 SRVC.           BIRDWELL:   SERVICE COMPANY
 DATE.        19-JUN-1978:   LOGDATE
 API .       490251065100:   API NUMBER
~CURVE INFORMATION
#MNEM.UNIT       API CODE    CURVE DESCRIPTION
#----------   ------------   ------------------------------
 DEPT.F                  :   
 CALD.IN     45 280 60 00:   CALIPER FROM DENSITY LOG
 CORR.G/C3   45 356 01 00:   DENSITY CORRECTION
 DPHI.DEC    45 890 12 00:   DENSITY POROSITY SANDSTONE
 GRD .GAPI   45 310 01 00:   GAMMA RAY FROM DENSITY LOG
 RHOB.G/C3   45 350 01 00:   BULK DENSITY
 ILD .OHMM   05 120 46 00:   INDUCTION LOG DEEP
 SN  .OHMM   05 040 16 00:   SHORT NORMAL 16"
 SPR .MV     05 010 01 00:   SPONTANEOUS POTENTIAL FROM RES.
~PARAMETER INFORMATION
#MNEM.UNIT          VALUE    DESCRIPTION
#----------   ------------   ------------------------------
 PD  .                 GL:   PERMANENT DATUM
 EPD .F              5185:   ELEVATION PERMANENT DATUM
 LMF .                 KB:   LOG MEASURED FROM
 DAPD.F                 4:   FEET ABOVE PERMANENT DATUM
 DMF .                 KB:   DRILLING MEASURED FROM
 EKB .F              5189:   KELLING BUSHING
 EGL .F              5185:   GROUND LEVEL
 DATE.        19-JUN-1978:   RUN DATE
 RUN .                  1:   RUN NUMBER
 DD  .F               485:   DEPTH DRILLER
 DL  .F               490:   DEPTH LOGGER
 BLI .F               490:   BOTTOM LOG INTERVAL
 TLI .F                50:   TOP LOG INTERVAL
 CS  .IN            8.625:   CASING SIZE
 CBD .F                30:   CASING BOTTOM DRILLER
 CBL .F                30:   CASING BOTTOM LOGGER
 BS  .IN            7.875:   BIT SIZE
 BSD .F               485:   BIT SIZE AT DEPTH
 DFT .                KCL:   DRILLING FLUID TYPE
 DFD .                8.7:   DRILLING FLUID DENSITY
 DFV .                 34:   DRILLING FLUID VISCOSITY
 DFPH.               10.5:   DRILLING FLUID PH
 MSS .           FLOWLINE:   MUD SAMPLE SOURCE
 RMS .OHMM           0.24:   RESISTIVITY MUD SAMPLE
 MST .F                70:   MUD SAMPLE TEMPERATURE
 RMF .OHMM           0.24:   RESISTIVITY MUD FILTRATE SAMPLE
 MFST.F                72:   MUD FILTRATE SAMPLE TEMPERATURE
 RMC .OHMM           0.28:   RESISTIVITY MUD CAKE
 MCST.F                78:   MUD CAKE SAMPLE TEMPERATURE
 MFSS.               MEAS:   MUD FILTRATE SAMPLE SOURCE
 MCSS.               MEAS:   MUD CAKE SAMPLE SOURCE
 RMB .OHMM           0.27:   RESISTIVITY MUD AT BHT
 BHT .F                74:   BOTTOM HOLE TEMPERATURE
 TCS .HRS               1:   TIME CURCULATED STOPPED
 MRT .F                74:   MAXIMUM RECORDED TEMPERATURE
 LUN .               2958:   LOGGING UNIT NUMBER
 LUL .               CASP:   LOGGING UNIT LOCATION
 ENGI.           REYNOLDS:   RECORDING ENGINEER
 WITN.           MCGINLEY:   WITNESSED BY
 CLNT.            A2DTECH:   CLIENT CODE
 ORIG.           5" PRINT:   ORIGIN OF DATA
 UWI .       490251065100:   UNIQUE WELL ID
 DICO. A2D Technologies, Inc.:   DIGITIZING COMPANY
~OTHER INFORMATION
~A   DEPT     CALD       CORR       DPHI        GRD       RHOB        ILD         SN        SPR   
# ...
  121.0000     7.3364     0.0430     0.1152   110.8394     2.4813     7.9085     8.8645   -44.4383
  121.5000     7.3818     0.0430     0.1149   110.9987     2.4821     7.9091     8.8018   -44.2824
  122.0000     7.4420     0.0431     0.1146   109.3566     2.4844     7.9097     8.7997   -44.1271
  122.5000     7.4723     0.0446     0.1143   106.0549     2.4880     7.9102     8.8068   -44.1219
  123.0000     7.4876     0.0432     0.1131   105.4641     2.4910     7.9107     8.8835   -44.1180
  123.5000     7.4879     0.0447     0.1131   105.0090     2.4948     7.9113     8.9610   -44.1134
  124.0000     7.4732     0.0448     0.1053   103.0806     2.4985     7.9118     8.9770   -44.1082
  124.5000     7.4585     0.0433     0.1032   100.5320     2.5000     7.9124     9.0375   -44.1039
  125.0000     7.4438     0.0419     0.1029    99.6371     2.4970     7.8585     9.1610   -44.5285
  125.5000     7.4141     0.0314     0.1058   101.1576     2.4895     7.8051     9.2228   -45.1720
  126.0000     7.4144     0.0255     0.1112   103.8801     2.4723     7.7325     9.2206   -45.4826
  126.5000     7.4447     0.0255     0.1230   107.5062     2.4610     7.6724     9.2188   -45.9013
  127.0000     7.4750     0.0256     0.1284   109.6416     2.4610     7.5865     9.0275   -45.8971
  127.5000     7.4985     0.0258     0.1271   109.7884     2.4611     7.4909     8.9636   -45.8926
  128.0000     7.5206     0.0272     0.1274   107.6945     2.4618     7.3888     8.8171   -45.8876
  128.5000     7.5058     0.0287     0.1286   105.8989     2.4625     7.2382     8.7502   -45.8826
  129.0000     7.4761     0.0318     0.1301   105.1546     2.4640     7.0905     8.7140   -45.8790
  129.5000     7.4464     0.0348     0.1310   105.1691     2.4723     6.9458     8.7122   -45.8744
  130.0000     7.4168     0.0378     0.1226   104.5783     2.4760     6.8985     8.7104   -45.8699
  130.5000     7.4018     0.0377     0.1171   101.3373     2.4760     6.8991     8.7083   -45.8653
  131.0000     7.3874     0.0349     0.1150    99.3334     2.4760     6.8995     8.7068   -45.8608
  131.5000     7.3878     0.0320     0.1141    99.6462     2.4760     6.8999     8.7050   -45.8558
  132.0000     7.4180     0.0290     0.1147   101.1638     2.4768     6.9004     8.7029   -45.8517
  132.5000     7.4183     0.0246     0.1150   103.4345     2.4760     6.9009     8.7014   -45.8472
  133.0000     7.4186     0.0231     0.1129   104.8015     2.4708     6.9014     8.6905   -45.8427
  133.5000     7.3589     0.0262     0.1117   105.2649     2.4655     6.8544     8.5784   -45.8378
  134.0000     7.3292     0.0292     0.1243   104.5235     2.4679     6.8550     8.4586   -45.8332
  134.5000     7.3596     0.0293     0.1270   104.6886     2.4715     6.8554     8.2835   -45.8290
  135.0000     7.4048     0.0278     0.1227   104.7002     2.4723     6.8558     8.2248   -45.8245
  135.5000     7.4201     0.0249     0.1200   104.4107     2.4730     6.9037     8.2233   -45.8197
  136.0000     7.3904     0.0204     0.1188   102.3138     2.4753     6.9043     8.2787   -45.8154
  136.5000     7.3607     0.0175     0.1158   100.9700     2.4760     6.9047     8.3918   -45.8102
  137.0000     7.3610     0.0190     0.1134   101.1476     2.4768     6.9052     8.5070   -45.8060
  137.5000     7.3638     0.0221     0.1122   102.0504     2.4783     6.9056     8.5049   -45.8017
  138.0000     7.3917     0.0236     0.1116   102.3632     2.4790     6.9062     8.3288   -45.6451
  138.5000     7.3919     0.0251     0.1109   102.6747     2.4745     6.8591     8.2559   -45.6409
  139.0000     7.3922     0.0252     0.1139   102.5370     2.4625     6.8596     8.2113   -45.6367
  139.5000     7.3925     0.0252     0.1226   102.6988     2.4618     6.8129     8.2094   -45.4281
  140.0000     7.3778     0.0223     0.1268   102.7108     2.4640     6.7665     8.2076   -45.3249
  140.5000     7.4108     0.0178     0.1271   102.8735     2.4631     6.7206     8.1497   -45.3203
  141.0000     7.4234     0.0134     0.1220   103.0382     2.4550     6.5383     7.9806   -45.4675
  141.5000     7.3937     0.0134     0.1295   103.5016     2.4453     6.4492     7.9790   -45.6142
  142.0000     7.3790     0.0150     0.1337   105.4710     2.4415     6.3176     7.8138   -45.7615
  142.5000     7.3643     0.0150     0.1367   109.2477     2.4438     6.1887     7.7585   -45.7562
  143.0000     7.3647     0.0197     0.1382   113.6268     2.4445     6.1892     7.7032   -46.2108
  143.5000     7.3800     0.0271     0.1391   113.9398     2.4460     6.1895     7.6487   -46.6543
  144.0000     7.4402     0.0316     0.1361   111.2433     2.4525     6.1900     7.5946   -46.6501
  144.5000     7.4855     0.0331     0.1312   107.3392     2.4640     6.1904     7.5404   -46.6460
  145.0000     7.4858     0.0272     0.1270   104.3388     2.4715     6.1909     7.5390   -46.7919
  145.5000     7.4711     0.0198     0.1231   101.9408     2.4730     6.1913     7.5375   -46.7882
  146.0000     7.4398     0.0183     0.1189   104.3620     2.4655     6.1917     7.5883   -46.7834
  146.5000     7.3968     0.0184     0.1252   105.7291     2.4655     6.1922     7.6480   -46.8554
  147.0000     7.3670     0.0199     0.1282   104.8072     2.4670     6.1926     7.7443   -46.9259
  147.5000     7.3373     0.0215     0.1258   103.7945     2.4678     6.1930     7.7424   -46.9213
  148.0000     7.2927     0.0215     0.1224   103.5049     2.4687     6.1935     7.6872   -46.7654
  148.5000     7.3076     0.0215     0.1224   103.8206     2.4700     6.1939     7.6859   -46.7601
  149.0000     7.2479     0.0231     0.1233   104.2840     2.4723     6.1516     7.6842   -46.7558
  149.5000     7.2035     0.0246     0.1236   105.5004     2.4730     6.1521     7.6298   -46.4490
  150.0000     7.1589     0.0255     0.1233   106.7169     2.4745     6.2380     7.5235   -46.2935
  150.5000     7.1744     0.0280     0.1223   107.6551     2.4754     6.3683     7.6807   -46.5961
  151.0000     7.2348     0.0306     0.1212   107.3454     2.4790     6.5014     7.7869   -46.5961
  151.5000     7.3102     0.0331     0.1197   106.4534     2.4865     6.5014     7.8948   -46.7474
  152.0000     7.3106     0.0308     0.1148   106.6156     2.4993     6.5464     7.9489   -46.7474
  152.5000     7.2512     0.0235     0.0992   107.9827     2.5045     6.5464     7.9483   -46.8986
  153.0000     7.2666     0.0176     0.0992   108.0090     2.5037     6.5464     7.8931   -46.8986
  153.5000     7.3120     0.0191     0.0992   106.9368     2.5022     6.5014     7.9473   -46.8986
  154.0000     7.3428     0.0283     0.1001   105.9091     2.4970     6.4124     7.9468   -46.8986
  154.5000     7.3729     0.0327     0.1085   108.1826     2.4918     6.3683     7.8914   -46.8986
  155.0000     7.3734     0.0298     0.1052   110.4533     2.4873     6.3246     7.7826   -46.9020
  155.5000     7.3738     0.0298     0.1040   110.4649     2.4798     6.2811     7.6753   -47.0499
  156.0000     7.3430     0.0329     0.1070   110.6271     2.4730     6.1951     7.5173   -47.0499
  156.5000     7.2998     0.0389     0.1178   112.5965     2.4723     6.1462     7.4650   -47.0499
  157.0000     7.3152     0.0434     0.1193   114.5964     2.4723     6.1103     7.4132   -46.8986
  157.5000     7.3606     0.0480     0.1159   116.2371     2.4723     6.1103     7.4641   -46.9037
  158.0000     7.3760     0.0510     0.1210   112.4837     2.4723     6.1103     7.4870   -47.0499
  158.5000     7.3915     0.0526     0.1213   110.0827     2.4723     6.1525     7.5148   -47.0499
  159.0000     7.4069     0.0526     0.1213   110.0973     2.4723     6.1103     7.5141   -47.0499
  159.5000     7.4074     0.0497     0.1207   110.1089     2.4740     6.0520     7.5658   -47.0499
  160.0000     7.3908     0.0468     0.1201   105.7209     2.4777     5.9852     7.5652   -47.0499
  160.5000     7.3782     0.0453     0.1117   105.4321     2.4811     5.8921     7.5647   -47.1308
  161.0000     7.3636     0.0424     0.1099   106.1975     2.4729     5.8627     7.5641   -47.1442
