~VERSION INFORMATION
 VERS.                2.0:   CWLS LOG ASCII STANDARD - VERSION 2.0
 WRAP.                 NO:   ONE LINE PER DEPTH STEP
~WELL INFORMATION
#MNEM.UNIT      DATA TYPE    INFORMATION
#----------   ------------   ------------------------------
 STRT.F           14.0000:   START DEPTH
 STOP.F          549.0000:   STOP DEPTH
 STEP.F            0.5000:   STEP LENGTH
 NULL.          -999.2500:   NO VALUE
 COMP.   LAWRENCE-ALLISON:   COMPANY
 WELL.    NPR 3 #58-64SX3:   WELL
 FLD .           NPR NO 3:   FIELD
 LOC .       S3 T38N R78W:   LOCATION
 CNTY.            NATRONA:   COUNTY
 STAT.            WYOMING:   STATE
 CTRY. UNITED STATES OF AMERICA:   COUNTRY
 SRVC.      Dresser Atlas:   SERVICE COMPANY
 DATE.        05-DEC-1984:   LOGDATE
 API .       490251099700:   API NUMBER
~CURVE INFORMATION
#MNEM.UNIT       API CODE    CURVE DESCRIPTION
#----------   ------------   ------------------------------
 DEPT.F                  :   
 RFOC.OHMM   07 220 04 00:   RESISTIVITY FOCUSED LOG
 RILD.OHMM   07 120 46 00:   INDUCTION LOG DEEP RESISTIVITY
 RILM.OHMM   07 120 44 00:   INDUCTION LOG MEDIUM RESISTIVITY
 SPR .MV     07 010 01 00:   SPONTANEOUS POTENTIAL
 DT  .US/F   60 520 00 00:   INTERVAL TRANSIT TIME
 CALD.IN     45 280 60 00:   CALIPER FROM DENSITY LOG
 CORR.G/C3   45 356 01 00:   DENSITY CORRECTION
 CNC .DEC    42 890 03 00:   NEUTRON POROSITY SANDSTONE
 DEN .G/C3   45 350 01 00:   COMPENSATED BULK DENSTIY
 GRD .GAPI   45 310 01 00:   GAMMA RAY FROM DENSITY LOG
 PORD.DEC    45 890 12 00:   POROSITY DENSITY SANDSTONE
~PARAMETER INFORMATION
#MNEM.UNIT          VALUE    DESCRIPTION
#----------   ------------   ------------------------------
 PD  .                 GL:   PERMANENT DATUM
 EPD .F              5188:   ELEVATION PERMANENT DATUM
 LMF .                 KB:   LOG MEASURED FROM
 DMF .                 KB:   DRILLING MEASURED FROM
 EGL .F              5188:   GROUND LEVEL
 DATE.        05-DEC-1984:   RUN DATE
 RUN .                  1:   RUN NUMBER
 DD  .F               556:   DEPTH DRILLER
 DL  .F               551:   DEPTH LOGGER
 BLI .F               548:   BOTTOM LOG INTERVAL
 CS  .IN            8.625:   CASING SIZE
 CBD .F                20:   CASING BOTTOM DRILLER
 CBL .F                20:   CASING BOTTOM LOGGER
 BS  .IN            7.875:   BIT SIZE
 BSD .F               556:   BIT SIZE AT DEPTH
 DFT .          KCL WATER:   DRILLING FLUID TYPE
 MSS .           FLOWLINE:   MUD SAMPLE SOURCE
 RMS .OHMM            .36:   RESISTIVITY MUD SAMPLE
 MST .F                70:   MUD SAMPLE TEMPERATURE
 RMF .OHMM            .26:   RESISTIVITY MUD FILTRATE SAMPLE
 MFST.F                70:   MUD FILTRATE SAMPLE TEMPERATURE
 RMC .OHMM            .46:   RESISTIVITY MUD CAKE
 MCST.F                70:   MUD CAKE SAMPLE TEMPERATURE
 MFSS.               CALC:   MUD FILTRATE SAMPLE SOURCE
 MCSS.               CALC:   MUD CAKE SAMPLE SOURCE
 RMB .OHMM            .29:   RESISTIVITY MUD AT BHT
 BHT .F                85:   BOTTOM HOLE TEMPERATURE
 TCS .HRS               3:   TIME CURCULATED STOPPED
 MRT .F               100:   MAXIMUM RECORDED TEMPERATURE
 LUN .               6274:   LOGGING UNIT NUMBER
 LUL .               GLTE:   LOGGING UNIT LOCATION
 ENGI.             PAUTIO:   RECORDING ENGINEER
 WITN.       GROONS/LUERS:   WITNESSED BY
 CLNT.            A2DTECH:   CLIENT CODE
 ORIG.           5" PRINT:   ORIGIN OF DATA
 UWI .       490251099700:   UNIQUE WELL ID
 DICO. A2D Technologies, Inc.:   DIGITIZING COMPANY
~OTHER INFORMATION
~A   DEPT     RFOC       RILD       RILM        SPR         DT       CALD       CORR          CNC      DEN         GRD      PORD   
# ...
  380.0000    17.0815    16.9637    16.0509   -49.3876    94.5561     8.0061     0.0159     0.2175     2.4122    80.9247     0.1560
  380.5000    16.9440    16.6474    16.0077   -49.5566    94.4791     8.0205     0.0125     0.2207     2.4058    83.0606     0.1586
  381.0000    16.6728    16.5597    15.7819   -49.8794    94.3235     8.0349     0.0156     0.2278     2.4026    84.5792     0.1605
  381.5000    16.4305    16.3015    15.7646   -50.2022    94.1686     8.0338     0.0122     0.2373     2.4001    86.7151     0.1637
  382.0000    16.2982    16.1650    15.5801   -50.5250    93.9337     8.0327     0.0089     0.2361     2.3992    88.2346     0.1656
  382.5000    16.0493    16.0296    15.4997   -50.8479    93.6193     8.0316     0.0183     0.2307     2.3992    85.4313     0.1653
  383.0000    15.8043    15.7794    15.2571   -51.1707    93.3050     8.0305     0.0293     0.2279     2.4031    84.1721     0.1628
  383.5000    15.5629    15.5300    15.0183   -51.8012    93.1494     8.0295     0.0403     0.2303     2.4261    85.0734     0.1574
  384.0000    15.4374    15.2879    14.7799   -52.1240    92.8350     8.0129     0.0449     0.2337     2.4315    85.9747     0.1492
  384.5000    15.1834    15.1601    14.7630   -52.4468    92.6794     8.0119     0.0272     0.2337     2.4298    86.5679     0.1476
  385.0000    14.8581    15.0356    14.6387   -52.7696    92.6005     8.0108     0.0175     0.2319     2.4316    88.3947     0.1486
  385.5000    14.6312    14.9650    14.6219   -52.7847    92.4389     8.0097     0.0142     0.2300     2.4387    90.8392     0.1490
  386.0000    14.5134    14.7830    14.4989   -53.1077    92.1340     8.0241     0.0236     0.2364     2.4444    90.1973     0.1461
  386.5000    14.3965    14.7671    14.2723   -53.1231    91.9776     8.0230     0.0329     0.2398     2.4522    88.6295     0.1398
  387.0000    14.3851    14.6436    14.2223   -53.1385    91.7434     8.0156     0.0439     0.2435     2.4589    87.9876     0.1341
  387.5000    14.3738    14.6278    14.1359   -53.1567    91.4290     8.0118     0.0486     0.2400     2.4533    88.5802     0.1311
  388.0000    14.3624    14.5055    14.0170   -53.3256    91.3520     8.0043     0.0373     0.2353     2.4477    89.1729     0.1336
  388.5000    14.3519    14.3842    14.0009   -53.4946    91.3559     8.0032     0.0323     0.2337     2.4468    87.9053     0.1374
  389.0000    14.3398    14.0568    13.9850   -53.6636    91.2796     8.0021     0.0353     0.2328     2.4491    86.9630     0.1387
  389.5000    14.3285    13.8376    13.8670   -53.8325    91.2026     8.0010     0.0416     0.2328     2.4530    86.9383     0.1362
  390.0000    14.3172    13.7150    13.7500   -53.8477    91.0470     8.0000     0.0431     0.2335     2.4585    88.4981     0.1317
  390.5000    14.3059    13.6003    13.7308   -54.0154    90.8127     8.0144     0.0349     0.2342     2.4648    91.2104     0.1286
  391.0000    14.2944    13.3915    13.6153   -54.0317    90.5778     8.0133     0.0315     0.2348     2.4663    90.5390     0.1267
  391.5000    14.2273    13.3770    13.5007   -54.0462    90.4198     8.0122     0.0346     0.2352     2.4646    89.3086     0.1283
  392.0000    14.1655    13.3626    13.4852   -54.0615    90.1788     8.0111     0.0393     0.2406     2.4630    88.6667     0.1287
  392.5000    14.1543    13.2509    13.4698   -54.0771    90.0966     8.0100     0.0438     0.2384     2.4645    89.9177     0.1280
  393.0000    14.0403    13.2366    13.4543   -54.0923    89.9554     8.0089     0.0452     0.2378     2.4668    91.4403     0.1268
  393.5000    14.0293    13.1259    13.4389   -54.2615    89.8799     8.0233     0.0486     0.2395     2.4691    93.0123     0.1259
  394.0000    13.9163    13.1129    13.4235   -54.3015    89.8830     8.0377     0.0561     0.2433     2.4707    93.1986     0.1243
  394.5000    13.8042    13.0987    13.4081   -54.6029    89.8060     8.0366     0.0591     0.2392     2.4722    90.8971     0.1237
  395.0000    13.5934    12.9891    13.3928   -54.6180    89.7305     8.0355     0.0430     0.2364     2.4737    89.4395     0.1222
  395.5000    13.4847    12.9749    13.3774   -54.8131    89.7336     8.0345     0.0269     0.2345     2.4688    89.4149     0.1257
  396.0000    13.3753    12.9606    13.1681   -54.9560    89.7367     8.0334     0.0140     0.2339     2.4624    89.6990     0.1279
  396.5000    13.3648    13.0423    13.0570   -55.1249    89.8192     8.0323     0.0075     0.2355     2.4623    89.9830     0.1280
  397.0000    13.1607    12.9297    12.9439   -55.2939    89.8223     8.0312     0.0073     0.2378     2.4639    90.8843     0.1274
  397.5000    13.0547    12.8216    12.9291   -55.3090    89.8254     8.0301     0.0024     0.2474     2.4646    92.4029     0.1267
  398.0000    12.9494    12.8078    12.8203   -55.4780    89.8286     8.0290     0.0038     0.2499     2.4661    94.5388     0.1258
  398.5000    12.8334    12.7007    12.8056   -55.4931    89.7442     8.0280     0.0069     0.2446     2.4676    97.6006     0.1252
  399.0000    12.7393    12.6870    12.7909   -55.5082    89.6761     8.0269     0.0099     0.2392     2.4699    99.1192     0.1240
  399.5000    12.7292    12.6733    12.6833   -55.6772    89.6799     8.0258     0.0161     0.2376     2.4715   100.6439     0.1218
  400.0000    12.8124    12.8455    12.7229   -56.0023    89.7632     8.0400     0.0271     0.2399     2.4762    98.7675     0.1189
  400.5000    12.8602    12.9314    12.9353   -56.0161    89.6897     8.0235     0.0286     0.2409     2.4777    94.4302     0.1190
  401.0000    13.0137    12.9173    13.1123   -56.0299    89.5407     8.0381     0.0302     0.2428     2.4777    91.0230     0.1193
  401.5000    13.1671    12.9060    13.0037   -55.8863    89.3898     8.0213     0.0318     0.2390     2.4753    91.6281     0.1203
  402.0000    13.3206    12.8948    12.9905   -55.9036    89.2369     8.0360     0.0269     0.2260     2.4745    92.2362     0.1207
  402.5000    13.4740    12.8836    12.9773   -55.9173    88.8499     8.0347     0.0189     0.2197     2.4744    93.7642     0.1200
  403.0000    13.6275    12.9697    12.9641   -55.9311    88.3021     8.0336     0.0205     0.2238     2.4768    95.6038     0.1182
  403.5000    13.7809    13.2459    12.9509   -55.9449    87.2782     8.0325     0.0268     0.2305     2.4874    96.8262     0.1109
  404.0000    13.8973    13.4294    12.7502   -56.1125    85.8574     8.0315     0.0332     0.2341     2.5118    98.0486     0.0931
  404.5000    13.5853    13.4148    12.4612   -56.2801    85.4366     8.0304     0.0443     0.2319     2.5284   100.1969     0.0884
  405.0000    13.1839    13.4031    12.2680   -56.4478    86.5079     8.0448     0.0538     0.2319     2.5172   102.9625     0.0945
  405.5000    12.7944    13.2939    12.1663   -56.6154    87.7275     8.0437     0.0506     0.2341     2.5037   104.1852     0.1028
  406.0000    12.5073    12.9940    11.9777   -56.6292    88.8465     8.0581     0.0346     0.2469     2.4957   102.0121     0.1086
  406.5000    12.3162    12.8880    11.9656   -56.9506    89.4698     8.0570     0.0120     0.2466     2.4917    98.6049     0.1105
  407.0000    12.1280    12.6897    11.9534   -57.1183    89.7951     8.0560     0.0059     0.2469     2.4901    97.9753     0.1112
  407.5000    12.0301    12.4945    11.9413   -57.2846    89.9616     8.0549     0.0078     0.2489     2.4909    97.9630     0.1125
  408.0000    11.9203    12.2127    11.7562   -57.2997    90.0488     8.0538     0.0202     0.2499     2.4933    97.9506     0.1106
  408.5000    11.7507    12.0248    11.5739   -57.5179    90.1360     8.0527     0.0345     0.2464     2.4948    98.6122     0.1081
  409.0000    11.6540    11.7535    11.3945   -57.6338    90.2231     8.0516     0.0440     0.2400     2.4980   100.0841     0.1059
  409.5000    11.6448    11.6577    11.3829   -57.8015    90.2309     8.0505     0.0503     0.2363     2.5027   101.0009     0.1006
  410.0000    11.6355    11.6475    11.3714   -57.9701    90.3181     8.0495     0.0551     0.2420     2.5051   100.6800     0.0993
