~VERSION INFORMATION
 VERS.                2.0:   CWLS LOG ASCII STANDARD - VERSION 2.0
 WRAP.                 NO:   ONE LINE PER DEPTH STEP
~WELL INFORMATION
#MNEM.UNIT      DATA TYPE    INFORMATION
#----------   ------------   ------------------------------
 STRT.F          906.5000:   START DEPTH
 STOP.F         2710.5000:   STOP DEPTH
 STEP.F            0.5000:   STEP LENGTH
 NULL.          -999.2500:   NO VALUE
 COMP.   FLUOR DANIEL INC:   COMPANY
 WELL. NAVAL PETROLEUM RESERVE 3 X-4 #77-4:   WELL
 FLD .             TEAPOT:   FIELD
 LOC .       S4 T38N R78W:   LOCATION
 CNTY.            NATRONA:   COUNTY
 STAT.            WYOMING:   STATE
 CTRY. UNITED STATES OF AMERICA:   COUNTRY
 SRVC.            Unknown:   SERVICE COMPANY
 DATE.        21-JUN-1995:   LOGDATE
 API .       490252273600:   API NUMBER
~CURVE INFORMATION
#MNEM.UNIT       API CODE    CURVE DESCRIPTION
#----------   ------------   ------------------------------
 DEPT.F                  :   
 TGAS.UNITS  91 830 01 00:   TOTAL GAS FROM HOTWIRE
 ROP .MIN/FT 91 810 01 00:   RAT OF DRILLING PENETRATION
~PARAMETER INFORMATION
#MNEM.UNIT          VALUE    DESCRIPTION
#----------   ------------   ------------------------------
 EKB .F              5291:   KELLING BUSHING
 EGL .F              5281:   GROUND LEVEL
 DATE.            6-21-95:   RUN DATE
 DD  .F              2711:   DEPTH DRILLER
 CBD .F               893:   CASING BOTTOM DRILLER
 ENGI.               HUSK:   RECORDING ENGINEER
 WITN.              TOWER:   WITNESSED BY
 CLNT.            A2DTECH:   CLIENT CODE
 ORIG.           5" PRINT:   ORIGIN OF DATA
 UWI .       490252273600:   UNIQUE WELL ID
 DICO. A2D Technologies, Inc.:   DIGITIZING COMPANY
~OTHER INFORMATION
~A   DEPT      TGAS         ROP 
# ...
 1635.5000   233.1101     0.8850
 1636.0000   233.1123     0.8855
 1636.5000   233.1145     0.8861
 1637.0000   233.1168     0.8866
 1637.5000   233.1190     0.8645
 1638.0000   233.1212     0.8651
 1638.5000   233.1235     0.8656
 1639.0000   233.1257     0.8663
 1639.5000   233.1279     1.1390
 1640.0000   233.1302     1.1395
 1640.5000   233.1324     1.1401
 1641.0000   233.1346     1.1520
 1641.5000   233.1369     1.1639
 1642.0000   233.1391     1.1531
 1642.5000   233.1413     1.0289
 1643.0000   233.1436     1.0315
 1643.5000   233.1458     1.0642
 1644.0000   233.1480     1.0647
 1644.5000   233.1503     0.9519
 1645.0000   233.1525     0.7596
 1645.5000   233.1547     0.7602
 1646.0000   233.1570     0.7721
 1646.5000   233.1592     1.5210
 1647.0000   233.1614     1.5215
 1647.5000   233.1637     1.5107
 1648.0000   233.1659     1.1713
 1648.5000   233.1681     0.9336
 1649.0000   233.1703     0.9228
 1649.5000   233.1726     0.9349
 1650.0000   233.1748     0.9467
 1650.5000   233.1770     0.9473
 1651.0000   233.1793     0.9478
 1651.5000   233.1815     0.9484
 1652.0000   233.1837     0.6133
 1652.5000   233.1860     0.6117
 1653.0000   233.1882     0.6101
 1653.5000   233.1904     0.6085
 1654.0000   233.1927     0.6068
 1654.5000   233.1949     0.6052
 1655.0000   233.1971     0.6036
 1655.5000   233.1994     0.6020
 1656.0000   233.2016     0.6003
 1656.5000   233.2038     0.5987
 1657.0000   233.2061     0.5971
 1657.5000   233.2083     0.5955
 1658.0000   233.2105     0.5938
 1658.5000   233.2128     0.5922
 1659.0000   233.2150     0.5906
 1659.5000   233.2172     0.5890
 1660.0000   233.2194     0.5873
 1660.5000   233.2217     0.5857
 1661.0000   233.2239     0.5841
 1661.5000   233.2261     0.5825
 1662.0000   233.2284     0.5809
 1662.5000   233.2306     0.5792
 1663.0000   233.2328     0.5776
 1663.5000   233.2351     0.7346
 1664.0000   233.2373     0.7449
 1664.5000   233.2395     0.7438
 1665.0000   233.2418     0.7654
 1665.5000   233.2440     0.7640
 1666.0000   233.2462     1.0239
 1666.5000   233.2485     1.0225
 1667.0000   233.2507     1.0101
 1667.5000   233.2529     1.0090
 1668.0000   233.2551     0.6224
 1668.5000   233.2574     0.6213
 1669.0000   233.2596     0.6202
 1669.5000   233.2618     0.6190
 1670.0000   233.2641     0.6179
 1670.5000   233.2663     0.6168
 1671.0000   233.2685     0.6156
 1671.5000   233.2708     0.6145
 1672.0000   233.2730     0.6134
 1672.5000   233.2752     0.6122
 1673.0000   233.2775     0.6111
 1673.5000   233.2797     0.6100
 1674.0000   233.2819     0.6088
 1674.5000   233.2842     0.6077
 1675.0000   233.2864     0.6066
 1675.5000   233.2886     0.6054
 1676.0000   233.2908     0.6043
 1676.5000   233.2931     0.6032
 1677.0000   233.2953     0.6020
 1677.5000   233.2975     0.6009
 1678.0000   233.2998     0.5998
 1678.5000   233.3020     0.5986
 1679.0000   233.3042     0.5975
 1679.5000   233.3065     0.5964
 1680.0000   233.3087     0.5947
 1680.5000   233.3109     0.5874
 1681.0000   233.3132     0.5800
 1681.5000   233.3154     0.5726
 1682.0000   233.3176     0.5652
 1682.5000   233.3199     0.5578
 1683.0000   233.3221     0.5505
 1683.5000   233.3243     0.5431
 1684.0000   233.3266     0.6656
 1684.5000   233.3288     0.6658
 1685.0000   233.3310     0.6661
 1685.5000   233.3333     0.6664
 1686.0000   233.3355     0.6667
 1686.5000   233.3377     0.6670
 1687.0000   233.3400     0.6673
 1687.5000   233.3422     0.6675
 1688.0000   233.3444     0.6678
 1688.5000   233.3466     0.6681
 1689.0000   233.3489     0.6684
 1689.5000   233.3511     0.6687
 1690.0000   233.3533     0.6690
 1690.5000   233.3556     0.6692
 1691.0000   233.3578     0.6695
 1691.5000   233.3600     0.9192
 1692.0000   233.3623     1.0329
 1692.5000   233.3645     1.0445
 1693.0000   233.3667     1.0334
 1693.5000   233.3690     1.0338
 1694.0000   233.3712     1.0340
 1694.5000   233.3734     0.7735
 1695.0000   233.3757     0.7624
 1695.5000   233.3779     0.7628
 1696.0000   233.3801     0.7631
 1696.5000   233.3824     0.5819
 1697.0000   233.3846     0.5822
 1697.5000   233.3868     0.5825
 1698.0000   233.3890     0.5828
 1698.5000   233.3913     0.5831
 1699.0000   233.3935     0.5834
 1699.5000   233.3957     0.5836
 1700.0000   233.3980     2.2959
 1700.5000   233.4002     2.2962
 1701.0000   233.4024     2.2965
 1701.5000   233.4047     2.2968
 1702.0000   233.4069     1.2426
 1702.5000   233.4091     1.2501
 1703.0000   233.4114     1.2564
 1703.5000   233.4136     1.2628
 1704.0000   233.4158     0.7222
 1704.5000   233.4181     0.7248
 1705.0000   233.4203     0.7271
 1705.5000   233.4225     0.7294
 1706.0000   233.4247     0.7317
 1706.5000   233.4270     0.7341
 1707.0000   233.4292     0.7364
 1707.5000   233.4314     0.7387
 1708.0000   233.4337     0.7410
 1708.5000   233.4359     0.7433
 1709.0000   233.4381     0.7456
 1709.5000   233.4404     0.7480
 1710.0000   233.4426     0.9070
 1710.5000   233.4448     0.9073
 1711.0000   233.4471     0.9077
 1711.5000   233.4493     0.9079
 1712.0000   233.4515     0.9082
 1712.5000   233.4538     0.9085
 1713.0000   233.4560     0.9088
 1713.5000   233.4582     0.9090
 1714.0000   233.4604     1.7256
 1714.5000   233.4627     1.7373
 1715.0000   233.4649     1.7375
 1715.5000   233.4671     1.7242
 1716.0000   233.4694     1.5000
 1716.5000   233.4716     1.5003
 1717.0000   233.4738     1.5006
 1717.5000   233.4761     1.5009
 1718.0000   233.4783     1.1950
 1718.5000   233.4805     1.1839
 1719.0000   233.4828     1.1843
 1719.5000   233.4850     1.1845
 1720.0000   233.4872     1.1848
 1720.5000   233.4895     0.7313
 1721.0000   233.4917     0.7309
 1721.5000   233.4939     0.7306
 1722.0000   233.4962     0.7303
 1722.5000   233.4984     0.7300
 1723.0000   233.5006     0.7296
 1723.5000   233.5029     1.1896
 1724.0000   233.5051     1.9989
 1724.5000   233.5073     1.9985
 1725.0000   233.5096     1.9983
 1725.5000   233.5118     1.9980
 1726.0000   233.5140     1.0000
 1726.5000   233.5163     0.9997
 1727.0000   233.5185     0.9994
 1727.5000   233.5207     0.9991
 1728.0000   233.5229     1.2482
 1728.5000   233.5252     2.9487
 1729.0000   233.5274     2.9370
 1729.5000   233.5296     2.9368
 1730.0000   233.5319     4.5125
 1730.5000   233.5341     4.5122
 1731.0000   233.5363     4.5119
 1731.5000   233.5386     4.5116
 1732.0000   233.5408     4.5113
 1732.5000   233.5430     0.7242
 1733.0000   233.5453     0.7239
 1733.5000   233.5475     0.8823
 1734.0000   233.5497     0.9161
 1734.5000   233.5520     0.9045
 1735.0000   233.5542     0.9042
 1735.5000   233.5564     0.9039
 1736.0000   233.5587     0.9036
 1736.5000   233.5609     0.9033
 1737.0000   233.5631     0.9030
 1737.5000   233.5653     0.8120
 1738.0000   233.5676     0.7160
 1738.5000   233.5698     0.7075
 1739.0000   233.5720     0.6990
 1739.5000   233.5743     0.6905
 1740.0000   233.5765     0.6845
 1740.5000   233.5787     0.6813
 1741.0000   233.5810     0.6781
 1741.5000   233.5832     0.9257
 1742.0000   233.5854     0.9149
 1742.5000   233.5877     0.9156
 1743.0000   233.5899     0.9275
 1743.5000   233.5921     0.9166
 1744.0000   233.5944     0.9173
 1744.5000   233.5966     0.9178
 1745.0000   233.5988     0.9184
 1745.5000   233.6010     0.6922
 1746.0000   233.6033     0.6928
 1746.5000   233.6055     0.7160
 1747.0000   233.6077     0.7166
 1747.5000   233.6100     0.7171
 1748.0000   233.6122     0.7177
 1748.5000   233.6144     0.7183
 1749.0000   233.6167     0.7189
 1749.5000   233.6189     0.7195
 1750.0000   233.6211     0.7200
 1750.5000   233.6234     0.7206
 1751.0000   233.6256     0.7325
 1751.5000   233.6278     0.7444
 1752.0000   233.6301     0.5521
 1752.5000   233.6323     0.5641
 1753.0000   233.6345     0.5647
 1753.5000   233.6367     0.5652
 1754.0000   233.6390     0.6111
 1754.5000   233.6412     0.7137
 1755.0000   233.6434     0.7029
 1755.5000   233.6457     0.7149
 1756.0000   233.6479     1.9513
 1756.5000   233.6501     1.9745
