~VERSION INFORMATION
 VERS.                2.0:   CWLS LOG ASCII STANDARD - VERSION 2.0
 WRAP.                 NO:   ONE LINE PER DEPTH STEP
~WELL INFORMATION
#MNEM.UNIT      DATA TYPE    INFORMATION
#----------   ------------   ------------------------------
 STRT.F            0.0000:   START DEPTH
 STOP.F         1340.0000:   STOP DEPTH
 STEP.F            0.5000:   STEP LENGTH
 NULL.          -999.2500:   NO VALUE
 COMP. U S NAVY-INTEX OIL:   COMPANY
 WELL. NAVAL PETROLEUM RESERVE 3 S #81-14:   WELL
 FLD .             TEAPOT:   FIELD
 LOC .      S14 T38N R78W:   LOCATION
 CNTY.            NATRONA:   COUNTY
 STAT.            WYOMING:   STATE
 CTRY. UNITED STATES OF AMERICA:   COUNTRY
 SRVC.       Schlumberger:   SERVICE COMPANY
 DATE.        20-AUG-1966:   LOGDATE
 API .       490250971600:   API NUMBER
~CURVE INFORMATION
#MNEM.UNIT       API CODE    CURVE DESCRIPTION
#----------   ------------   ------------------------------
 DEPT.F                  :   
 SPR .MV     07 010 01 00:   SPONTANEOUS POTENTIAL
 CILD.MMHO   07 110 46 00:   CONDUCTIVITY INDUCTION LOG DEEP
 ILD .OHMM   07 120 46 00:   INDUCTION LOG DEEP
 ASN .OHMM   01 041 16 00:   AMPLIFIED SHORT NORMAL 16"
 CALD.IN     45 280 60 00:   CALIPER
 RHOB.G/C3   45 350 01 00:   BULK DENSITY
 DPHI.DEC    45 890 12 00:   DENSITY POROSITY SANDSTONE
 GRD .GAPI   45 310 01 00:   GAMMA RAY FROM DENSITY LOG
 CORR.G/C3   45 356 01 00:   DENSITY CORRECTION
~PARAMETER INFORMATION
#MNEM.UNIT          VALUE    DESCRIPTION
#----------   ------------   ------------------------------
 PD  .                 GL:   PERMANENT DATUM
 EPD .F              5283:   ELEVATION PERMANENT DATUM
 LMF .                 KB:   LOG MEASURED FROM
 DAPD.F                 5:   FEET ABOVE PERMANENT DATUM
 DMF .                 KB:   DRILLING MEASURED FROM
 EKB .F              5288:   KELLING BUSHING
 EGL .F              5283:   GROUND LEVEL
 DATE.            8-20-66:   RUN DATE
 RUN .                  1:   RUN NUMBER
 DD  .F              1340:   DEPTH DRILLER
 DL  .F              1337:   DEPTH LOGGER
 BLI .F              1336:   BOTTOM LOG INTERVAL
 TLI .F                17:   TOP LOG INTERVAL
 CS  .IN            8.625:   CASING SIZE
 CBD .F                15:   CASING BOTTOM DRILLER
 CBL .F                17:   CASING BOTTOM LOGGER
 BS  .IN            7.875:   BIT SIZE
 BSD .F              1340:   BIT SIZE AT DEPTH
 DFT .           GEL-CHEM:   DRILLING FLUID TYPE
 DFD .                9.8:   DRILLING FLUID DENSITY
 DFV .                 70:   DRILLING FLUID VISCOSITY
 DFL .                  8:   DRILLING FLUID LOSS
 MSS .          FLOW LINE:   MUD SAMPLE SOURCE
 RMS .OHMM           1.26:   RESISTIVITY MUD SAMPLE
 MST .F                71:   MUD SAMPLE TEMPERATURE
 RMF .OHMM            .71:   RESISTIVITY MUD FILTRATE SAMPLE
 MFST.F                71:   MUD FILTRATE SAMPLE TEMPERATURE
 MFSS.                  M:   MUD FILTRATE SAMPLE SOURCE
 RMB .OHMM           1.04:   RESISTIVITY MUD AT BHT
 BHT .F                86:   BOTTOM HOLE TEMPERATURE
 TCS .HRS               2:   TIME CURCULATED STOPPED
 MRT .F                86:   MAXIMUM RECORDED TEMPERATURE
 LUN .               3527:   LOGGING UNIT NUMBER
 LUL .               CSPR:   LOGGING UNIT LOCATION
 ENGI.          TOLLEFSON:   RECORDING ENGINEER
 WITN.                MAY:   WITNESSED BY
 CLNT.            A2DTECH:   CLIENT CODE
 ORIG.        2" 5" PRINT:   ORIGIN OF DATA
 UWI .       490250971600:   UNIQUE WELL ID
 DICO. A2D Technologies, Inc.:   DIGITIZING COMPANY
~OTHER INFORMATION
~A    DEPT     SPR       CILD        ILD        ASN         CALD     RHOB       DPHI          GRD     CORR   
# ...
  365.0000   -50.4970   166.3673     5.9913     7.1132     8.0055     2.4678     0.1249   102.6837     0.0368
  365.5000   -50.6016   162.8450     6.0372     7.2231     8.0052     2.4752     0.1227   101.6541     0.0456
  366.0000   -50.7065   161.1776     6.0381     7.3329     8.0050     2.4780     0.1248   100.6295     0.0543
  366.5000   -50.8028   160.1796     6.0381     7.4424     8.0048     2.4720     0.1280    99.6057     0.0488
  367.0000   -50.7405   160.1796     6.0379     7.4962     8.0046     2.4661     0.1268    98.5819     0.0397
  367.5000   -50.6702   163.1736     6.0384     7.4969     8.0043     2.4623     0.1242    97.5574     0.0411
  368.0000   -50.6012   164.1717     5.9793     7.4542     8.0041     2.4715     0.1215    96.5344     0.0443
  368.5000   -50.5425   168.3206     5.8810     7.4077     8.0039     2.4815     0.1188    95.5059     0.0458
  369.0000   -50.4845   173.3409     5.7818     7.1977     8.0037     2.4914     0.1164    94.8225     0.0401
  369.5000   -50.4265   178.3621     5.6831     6.9882     8.0035     2.5009     0.1203    94.8685     0.0321
  370.0000   -50.3685   183.3868     5.5097     6.7813     8.0033     2.4929     0.1260    95.3405     0.0354
  370.5000   -50.3103   188.4205     5.2779     6.6370     8.0030     2.4845     0.1243    97.4341     0.0461
  371.0000   -50.2519   193.0882     5.1662     6.5916     8.0028     2.4762     0.1218    99.5174     0.0521
  371.5000   -50.2097   194.1788     5.1399     6.5527     8.0026     2.4678     0.1194   101.5978     0.0506
  372.0000   -50.2959   191.1796     5.1882     6.5182     8.0024     2.4688     0.1169   103.6819     0.0494
  372.5000   -50.3857   187.9646     5.2423     6.5401     8.0021     2.4901     0.1163   105.7407     0.0539
  373.0000   -50.3750   184.7457     5.2963     6.6033     8.0019     2.5118     0.1198   107.1131     0.0642
  373.5000   -50.3424   181.5269     5.3503     6.6834     8.0017     2.4959     0.1232   106.0552     0.0617
  374.0000   -50.3095   181.1377     5.4032     6.8617     8.0016     2.4775     0.1222   103.2274     0.0472
  374.5000   -50.2768   181.1377     5.4208     7.0363     8.0014     2.4963     0.1189   100.4319     0.0392
  375.0000   -50.2443   181.1377     5.3635     7.1798     8.0012     2.5197     0.1156    97.6186     0.0699
  375.5000   -50.2111   181.1377     5.3075     7.1738     8.0010     2.5301     0.1123    96.5076     0.0611
  376.0000   -50.2163   182.1357     5.2512     7.0552     8.0008     2.5119     0.1090   100.4189     0.0484
  376.5000   -50.2396   186.4167     5.1950     6.7942     8.0006     2.4992     0.1157   103.1842     0.0364
  377.0000   -50.2634   190.3783     5.1387     6.5289     8.0004     2.4866     0.1343   104.3577     0.0300
  377.5000   -50.2872   194.3646     5.0825     6.4083     8.0002     2.4709     0.1307   104.6391     0.0361
  378.0000   -50.3109   198.0961     5.0351     6.2936     8.0000     2.4816     0.1248   104.0051     0.0466
  378.5000   -50.3346   200.0887     5.0176     6.2346     7.9998     2.4979     0.1190   103.0204     0.0553
  379.0000   -50.3585   198.0991     4.9997     6.1968     7.9996     2.5097     0.1148   102.0201     0.0661
  379.5000   -50.3829   196.2639     4.9818     6.1602     7.9994     2.4984     0.1194   101.0217     0.0718
  380.0000   -50.3976   194.4288     4.9641     6.1458     7.9992     2.4836     0.1230   100.0241     0.0607
  380.5000   -50.2833   194.1005     4.9457     6.1670     7.9991     2.4688     0.1266    99.0265     0.0468
  381.0000   -50.1668   195.0985     4.9258     6.1876     7.9989     2.4582     0.1276    98.0289     0.0501
  381.5000   -50.0501   198.5963     4.8654     6.2089     7.9987     2.4610     0.1249    97.0289     0.0549
  382.0000   -50.0182   202.4421     4.8077     6.1658     7.9985     2.4680     0.1220    96.0349     0.0494
  382.5000   -50.0478   206.2853     4.7499     6.0755     7.9983     2.4749     0.1193    95.0301     0.0430
  383.0000   -50.0786   210.1284     4.6921     5.9832     7.9981     2.4819     0.1198    95.5928     0.0458
  383.5000   -50.1095   213.1755     4.6342     5.8769     7.9979     2.4874     0.1234    97.4365     0.0534
  384.0000   -50.1402   214.0484     4.5765     5.7531     7.9977     2.4749     0.1269    99.2873     0.0594
  384.5000   -50.1711   214.0416     4.5427     5.6310     7.9975     2.4627     0.1303   100.9081     0.0669
  385.0000   -50.1998   213.0739     4.6203     5.5571     7.9973     2.4485     0.1332    99.4782     0.0607
  385.5000   -50.2006   211.9395     4.7006     5.6509     7.9971     2.4583     0.1309    97.5042     0.0431
  386.0000   -50.2004   209.6815     4.7807     5.7879     7.9969     2.4738     0.1277    95.5006     0.0481
  386.5000   -50.2004   205.1910     4.8607     5.9268     7.9967     2.4852     0.1245    93.4685     0.0509
  387.0000   -50.2004   200.7004     4.9408     6.0677     7.9966     2.4860     0.1213    93.0862     0.0349
  387.5000   -50.2004   196.2099     5.0206     6.1536     7.9963     2.4860     0.1180    94.5708     0.0371
  388.0000   -50.2004   192.1158     5.1008     6.1780     7.9962     2.4871     0.1148    96.2903     0.0487
  388.5000   -50.2005   192.1158     5.1353     6.1654     7.9960     2.4981     0.1116    97.9666     0.0628
  389.0000   -50.2012   192.1158     5.1067     6.1482     7.9958     2.5195     0.1084    97.4407     0.0769
  389.5000   -50.1677   192.4784     5.0772     6.1370     7.9956     2.5282     0.1126    94.3925     0.0861
  390.0000   -50.1260   194.2116     5.0476     6.1611     7.9954     2.5018     0.1236    94.0825     0.0750
  390.5000   -50.0841   195.9448     5.0182     6.1916     7.9952     2.4912     0.1217    95.0011     0.0434
  391.0000   -50.0423   197.6780     4.9888     6.1445     7.9950     2.4928     0.1200    96.5919     0.0462
  391.5000   -50.0006   199.4628     4.9594     6.0705     7.9948     2.4946     0.1182    98.1903     0.0612
  392.0000   -49.9588   201.4625     4.9299     5.9959     7.9946     2.4942     0.1173    99.7914     0.0664
  392.5000   -49.9170   203.4674     4.9004     5.9215     7.9944     2.4828     0.1204   101.4430     0.0430
  393.0000   -49.8751   203.3504     4.8703     5.8620     7.9942     2.4716     0.1235   101.5001     0.0272
  393.5000   -49.8332   200.8744     4.8431     5.8577     7.9940     2.4604     0.1265   100.0446     0.0467
  394.0000   -49.7957   198.3984     4.9365     5.8738     7.9939     2.4494     0.1296    98.6264     0.0438
  394.5000   -49.9112   195.9224     5.0386     5.9354     7.9937     2.4417     0.1326    97.2114     0.0356
  395.0000   -50.0518   192.7968     5.1402     6.0039     7.9935     2.4510     0.1357    95.7951     0.0286
  395.5000   -50.1937   187.9030     5.2417     6.1951     7.9933     2.4613     0.1331    94.3830     0.0282
  396.0000   -50.1569   183.0093     5.3431     6.3970     7.9931     2.4718     0.1298    93.6450     0.0400
  396.5000   -50.1071   178.1437     5.4449     6.5955     7.9929     2.4820     0.1266    95.0711     0.0529
  397.0000   -50.0583   175.2384     5.5466     6.7173     7.9927     2.4960     0.1234    97.5934     0.0651
  397.5000   -50.0098   173.1537     5.6382     6.7719     7.9925     2.4748     0.1243    98.5579     0.0586
  398.0000   -49.9612   174.1891     5.5284     6.8058     7.9923     2.4388     0.1284    96.3728     0.0436
  398.5000   -49.9126   177.4389     5.3117     6.7070     7.9921     2.4431     0.1326    94.1865     0.0295
  399.0000   -49.8642   184.3353     5.0950     6.6101     7.9919     2.4498     0.1379    92.3546     0.0253
  399.5000   -49.8142   192.2419     4.8763     6.5108     7.9917     2.4566     0.1353    92.2746     0.0374
  400.0000   -49.8593   200.1582     4.6516     6.3212     7.9915     2.4636     0.1314    99.1991     0.0467
  400.5000   -49.9443   208.0672     4.5969     6.1339     7.9913     2.4650     0.1268   101.4911     0.0589
  401.0000   -50.0005   216.0679     4.5186     5.9472     7.9911     2.4619     0.1309   100.1265     0.0627
