~VERSION INFORMATION
 VERS.                2.0:   CWLS LOG ASCII STANDARD - VERSION 2.0
 WRAP.                 NO:   ONE LINE PER DEPTH STEP
~WELL INFORMATION
#MNEM.UNIT      DATA TYPE    INFORMATION
#----------   ------------   ------------------------------
 STRT.F           52.5000:   START DEPTH
 STOP.F         2929.0000:   STOP DEPTH
 STEP.F            0.5000:   STEP LENGTH
 NULL.          -999.2500:   NO VALUE
 COMP.   FLUOR DANIEL INC:   COMPANY
 WELL. NAVAL PETROLEUM RESERVE 3 X-23 #52-23:   WELL
 FLD .            WILDCAT:   FIELD
 LOC .      S23 T38N R78W:   LOCATION
 CNTY.            NATRONA:   COUNTY
 STAT.            WYOMING:   STATE
 CTRY. UNITED STATES OF AMERICA:   COUNTRY
 SRVC.            Unknown:   SERVICE COMPANY
 DATE.        23-APR-1995:   LOGDATE
 API .       490252271500:   API NUMBER
~CURVE INFORMATION
#MNEM.UNIT       API CODE    CURVE DESCRIPTION
#----------   ------------   ------------------------------
 DEPT.F                  :   
 ROP .MIN/FT 91 810 01 00:   RAT OF DRILLING PENETRATION
 TGAS.UNITS  91 830 01 00:   TOTAL GAS FROM HOTWIRE
~PARAMETER INFORMATION
#MNEM.UNIT          VALUE    DESCRIPTION
#----------   ------------   ------------------------------
 EKB .F              5344:   KELLING BUSHING
 EGL .F              5334:   GROUND LEVEL
 DATE.            4-23-95:   RUN DATE
 DD  .F              2929:   DEPTH DRILLER
 CS  .IN            9.625:   CASING SIZE
 CBD .F                53:   CASING BOTTOM DRILLER
 BS  .IN             8.75:   BIT SIZE
 BSD .F              2929:   BIT SIZE AT DEPTH
 ENGI.              TOWER:   RECORDING ENGINEER
 WITN.               HUSK:   WITNESSED BY
 CLNT.            A2DTECH:   CLIENT CODE
 ORIG.           5" PRINT:   ORIGIN OF DATA
 UWI .       490252271500:   UNIQUE WELL ID
 DICO. A2D Technologies, Inc.:   DIGITIZING COMPANY
~OTHER INFORMATION
~A   DEPT        ROP     TGAS   
# ...
 2847.0000     0.7866     5.7995
 2847.5000     0.7866     5.7995
 2848.0000     0.7866     5.5847
 2848.5000     0.9914     5.3699
 2849.0000     0.9914     5.1551
 2849.5000     0.9914     4.9403
 2850.0000     0.9914     4.9403
 2850.5000     0.7866     4.5107
 2851.0000     0.7866     4.2959
 2851.5000     0.7866     4.0811
 2852.0000     0.7866     4.0811
 2852.5000     0.7866     4.0811
 2853.0000     0.7866     4.0811
 2853.5000     0.7866     4.0811
 2854.0000     0.7866     3.8663
 2854.5000     0.7866     3.8663
 2855.0000     0.7866     3.6516
 2855.5000     0.7866     3.6516
 2856.0000     0.7866     3.6516
 2856.5000     0.6462     3.8663
 2857.0000     0.6443     3.6516
 2857.5000     0.6424     3.6516
 2858.0000     0.6405     3.6516
 2858.5000     0.6386     3.6516
 2859.0000     0.6367     3.6516
 2859.5000     0.6348     3.6516
 2860.0000     0.6329     3.6516
 2860.5000     0.6310     3.6516
 2861.0000     0.6291     3.6516
 2861.5000     0.6272     3.6516
 2862.0000     0.6250     3.6516
 2862.5000     0.7853     3.6516
 2863.0000     0.7742     3.6516
 2863.5000     0.7631     3.6483
 2864.0000     0.7629     3.6205
 2864.5000     1.0321     3.5927
 2865.0000     1.0102     3.5650
 2865.5000     1.0099     3.5372
 2866.0000     1.0097     3.5094
 2866.5000     1.0094     3.4816
 2867.0000     1.0091     3.4538
 2867.5000     1.0089     3.4261
 2868.0000     0.5345     3.3983
 2868.5000     0.5351     3.3705
 2869.0000     0.5357     3.3427
 2869.5000     0.5363     3.3150
 2870.0000     0.5369     3.2872
 2870.5000     0.5375     3.2594
 2871.0000     0.5381     3.2316
 2871.5000     0.5387     3.2220
 2872.0000     0.5393     3.2220
 2872.5000     0.5399     3.2220
 2873.0000     0.5405     3.2220
 2873.5000     0.5411     3.2220
 2874.0000     0.5416     3.2220
 2874.5000     0.5418     3.2220
 2875.0000     0.5415     3.2220
 2875.5000     0.5412     3.2220
 2876.0000     0.5409     3.2220
 2876.5000     0.5407     3.2220
 2877.0000     0.5404     3.2220
 2877.5000     0.5401     3.2220
 2878.0000     0.6477     3.2220
 2878.5000     0.6474     3.2802
 2879.0000     0.6464     3.3606
 2879.5000     0.6442     3.4410
 2880.0000     0.6419     3.5214
 2880.5000     0.6396     3.6018
 2881.0000     0.6374     3.6822
 2881.5000     0.6351     3.7625
 2882.0000     0.6329     3.8429
 2882.5000     0.6306     3.8663
 2883.0000     0.6284     3.8663
 2883.5000     0.6261     3.8663
 2884.0000     0.8082     3.8663
 2884.5000     0.8082     3.8663
 2885.0000     0.8082     3.8663
 2885.5000     0.8082     3.8663
 2886.0000     0.8082     3.8663
 2886.5000     0.6146     3.7905
 2887.0000     0.6163     3.6780
 2887.5000     0.6180     3.5654
 2888.0000     0.6197     3.4529
 2888.5000     0.6214     3.3403
 2889.0000     0.6231     3.2278
 2889.5000     0.6248     3.1152
 2890.0000     0.6265     3.0027
 2890.5000     0.6281     2.8901
 2891.0000     0.6298     2.7924
 2891.5000     0.6315     2.8334
 2892.0000     0.6332     2.8696
 2892.5000     0.6349     2.9059
 2893.0000     0.6358     2.9422
 2893.5000     0.6358     2.9784
 2894.0000     0.6358     3.0147
 2894.5000     0.7994     3.0509
 2895.0000     0.8043     3.0872
 2895.5000     0.8046     3.1234
 2896.0000     0.7874     3.1597
 2896.5000     0.6142     3.1960
 2897.0000     0.6269     3.2007
 2897.5000     0.6395     3.1257
 2898.0000     0.6521     3.0507
 2898.5000     0.5277     2.9757
 2899.0000     0.5257     2.9006
 2899.5000     0.5238     2.8256
 2900.0000     0.5219     2.7506
 2900.5000     0.5200     2.6756
 2901.0000     0.5180     2.6005
 2901.5000     0.5161     2.5776
 2902.0000     0.5142     2.5776
 2902.5000     0.5122     2.5776
 2903.0000     0.5103     2.5776
 2903.5000     0.5084     2.5776
 2904.0000     0.5065     2.5776
 2904.5000     0.5139     2.5776
 2905.0000     0.5212     2.5776
 2905.5000     0.5284     2.5776
 2906.0000     0.5357     2.5776
 2906.5000     0.5430     2.5776
 2907.0000     0.5496     2.5776
 2907.5000     0.5458     2.5776
 2908.0000     0.5424     2.5776
 2908.5000     0.5390     2.5776
 2909.0000     0.5355     2.5776
 2909.5000     0.5321     2.5776
 2910.0000     0.5287     2.5776
 2910.5000     0.6789     2.5776
 2911.0000     0.6789     2.5776
 2911.5000     0.6789     2.5776
 2912.0000     0.6897     2.5854
 2912.5000     0.7004     2.5995
 2913.0000     0.7004     2.6136
 2913.5000     0.7004     2.6276
 2914.0000     0.7004     2.6417
 2914.5000     0.7004     2.6557
 2915.0000     0.7004     2.6698
 2915.5000     0.7004     2.6839
 2916.0000     0.7004     2.6979
 2916.5000     0.7003     2.7120
 2917.0000     0.6946     2.7260
 2917.5000     0.6889     2.7401
 2918.0000     0.6832     2.7542
 2918.5000     0.6776     2.7682
 2919.0000     0.6719     2.7823
 2919.5000     0.6662     2.7924
 2920.0000     0.6605     2.7924
 2920.5000     0.6578     2.7924
 2921.0000     0.6588     2.7924
 2921.5000     0.6598     2.7924
 2922.0000     0.6609     2.7924
 2922.5000     0.6619     2.7924
 2923.0000     0.6629     2.7924
 2923.5000     0.6639     2.7557
 2924.0000     0.6650     2.6832
 2924.5000     0.6660     2.6108
 2925.0000     0.6670     2.5776
 2925.5000     0.6681     2.5776
 2926.0000     0.6694     2.5776
 2926.5000     0.6709     2.5776
 2927.0000     0.6723     2.5776
 2927.5000     0.6737     2.5776
 2928.0000     0.6752     2.5776
 2928.5000     0.6766     2.5776
 2929.0000     0.6780     2.5776
