~VERSION INFORMATION
 VERS.                2.0:   CWLS LOG ASCII STANDARD - VERSION 2.0
 WRAP.                 NO:   ONE LINE PER DEPTH STEP
~WELL INFORMATION
#MNEM.UNIT      DATA TYPE    INFORMATION
#----------   ------------   ------------------------------
 STRT.F           34.0000:   START DEPTH
 STOP.F          662.0000:   STOP DEPTH
 STEP.F            0.5000:   STEP LENGTH
 NULL.          -999.2500:   NO VALUE
 COMP. LAWRENCE/ALLISON INC:   COMPANY
 WELL.   68-66 STX #34-34:   WELL
 FLD .             TEAPOT:   FIELD
 LOC .      S34 T39N R78W:   LOCATION
 CNTY.            NATRONA:   COUNTY
 STAT.            WYOMING:   STATE
 CTRY. UNITED STATES OF AMERICA:   COUNTRY
 SRVC.           Gearhart:   SERVICE COMPANY
 DATE.        24-AUG-1987:   LOGDATE
 API .       490251115000:   API NUMBER
~CURVE INFORMATION
#MNEM.UNIT       API CODE    CURVE DESCRIPTION
#----------   ------------   ------------------------------
 DEPT.F                  :   
 GRR .GAPI   07 310 01 00:   GAMMA RAY FROM RES. LOG
 ILD .OHMM   07 120 46 00:   INDUCTION LOG DEEP
 ILM .OHMM   07 120 44 00:   INDUCTION LOG MEDIUM
~PARAMETER INFORMATION
#MNEM.UNIT          VALUE    DESCRIPTION
#----------   ------------   ------------------------------
 PD  .                 GL:   PERMANENT DATUM
 EPD .F              5089:   ELEVATION PERMANENT DATUM
 LMF .                 KB:   LOG MEASURED FROM
 DAPD.F                 8:   FEET ABOVE PERMANENT DATUM
 DMF .                 KB:   DRILLING MEASURED FROM
 EKB .F              5097:   KELLING BUSHING
 EDF .F              5095:   DRILLING FLOOR
 EGL .F              5089:   GROUND LEVEL
 DATE.            8-24-87:   RUN DATE
 RUN .                  1:   RUN NUMBER
 DD  .F               675:   DEPTH DRILLER
 DL  .F               670:   DEPTH LOGGER
 BLI .F               662:   BOTTOM LOG INTERVAL
 TLI .F                30:   TOP LOG INTERVAL
 CS  .IN            8.625:   CASING SIZE
 CBD .F                48:   CASING BOTTOM DRILLER
 CBL .F                48:   CASING BOTTOM LOGGER
 BS  .IN            7.875:   BIT SIZE
 BSD .F               675:   BIT SIZE AT DEPTH
 DFT .                AIR:   DRILLING FLUID TYPE
 TCS .HRS            1300:   TIME CURCULATED STOPPED
 TLAB.HRS            1712:   TIME LOGGER AT BOTTOM
 MRT .F                80:   MAXIMUM RECORDED TEMPERATURE
 LUN .               7597:   LOGGING UNIT NUMBER
 LUL .           GILLETTE:   LOGGING UNIT LOCATION
 ENGI.         WEATHERMON:   RECORDING ENGINEER
 WITN.             STRONG:   WITNESSED BY
 CLNT.            A2DTECH:   CLIENT CODE
 ORIG.       2", 5" PRINT:   ORIGIN OF DATA
 UWI .       490251115000:   UNIQUE WELL ID
 DICO. A2D Technologies, Inc.:   DIGITIZING COMPANY
~OTHER INFORMATION
~A   DEPT       GRR       ILD        ILM   
# ...
  216.0000   128.7852     9.1570     9.6883
  216.5000   132.6220     9.0942     9.5593
  217.0000   137.7159     9.0319     9.4071
  217.5000   139.8238     8.9262     9.2636
  218.0000   139.1340     8.7330     9.0631
  218.5000   138.3757     8.5440     8.8670
  219.0000   138.1800     8.3591     8.6751
  219.5000   141.4578     8.2096     8.5199
  220.0000   144.9609     8.1338     8.4413
  220.5000   148.2773     8.1329     8.4403
  221.0000   147.2920     8.1739     8.4828
  221.5000   144.7735     8.2024     8.5118
  222.0000   139.9580     8.3315     8.6632
  222.5000   134.9931     8.4983     8.8601
  223.0000   131.0177     8.6685     9.0615
  223.5000   130.8094     8.8421     9.2675
  224.0000   130.6442     9.0193     9.4780
  224.5000   129.7796     9.1996     9.7013
  225.0000   127.7142     9.3480     9.8145
  225.5000   124.3424     9.2791     9.8830
  226.0000   122.8891     9.1762     9.6916
  226.5000   122.4986     8.9808     9.5592
  227.0000   123.5694     8.8024     9.4286
  227.5000   124.9472     8.6276     9.2998
  228.0000   126.8316     8.4563     9.1728
  228.5000   131.5582     8.3633     9.0075
  229.0000   137.8788     8.3633     9.0696
  229.5000   141.0577     8.4337     9.1619
  230.0000   142.9039     8.5701     9.2553
  230.5000   143.3512     8.7087     9.3496
  231.0000   139.1671     8.8496     9.4449
  231.5000   134.9265     8.9928     9.5411
  232.0000   130.7296     9.1382     9.6383
  232.5000   130.8368     9.2617     9.7917
  233.0000   131.3320     9.1727     9.6779
  233.5000   130.6783     9.0968     9.5622
  234.0000   130.4418     9.0216     9.4478
  234.5000   131.8865     8.9471     9.3348
  235.0000   133.6035     8.8731     9.2231
  235.5000   134.9216     8.8245     9.1658
  236.0000   133.9789     8.7942     9.1497
  236.5000   133.0675     8.7640     9.1330
  237.0000   132.6239     8.7339     9.1164
  237.5000   135.0261     8.7039     9.0997
  238.0000   137.4003     8.6741     9.0831
  238.5000   139.8172     8.6443     9.0665
  239.0000   139.8600     8.6146     9.0500
  239.5000   137.3421     8.5850     9.0334
  240.0000   135.0357     8.5556     9.0169
  240.5000   135.6623     8.5262     9.0005
  241.0000   136.4896     8.4969     8.9840
  241.5000   135.2326     8.4678     8.9676
  242.0000   133.3364     8.4387     8.9512
  242.5000   132.1505     8.4097     8.9348
  243.0000   133.1323     8.3809     8.9117
  243.5000   134.2799     8.3521     8.8760
  244.0000   135.4433     8.3234     8.8405
  244.5000   136.5897     8.2949     8.8051
  245.0000   136.3369     8.2812     8.7597
  245.5000   135.9941     8.2741     8.7603
  246.0000   135.6630     8.2670     8.7603
  246.5000   135.6149     8.2598     8.7603
  247.0000   136.9232     8.2528     8.7603
  247.5000   139.3154     8.2457     8.7603
  248.0000   141.6542     8.2386     8.7603
  248.5000   142.5703     8.2315     8.7603
  249.0000   141.0642     8.2244     8.7603
  249.5000   139.4603     8.2172     8.7603
  250.0000   138.0156     8.2095     8.7604
  250.5000   139.5960     8.2572     8.7756
  251.0000   138.2346     8.3104     8.8043
  251.5000   136.9522     8.3637     8.8331
  252.0000   136.7389     8.4174     8.8620
  252.5000   135.7293     8.4714     8.8910
  253.0000   134.1417     8.5258     8.9202
  253.5000   133.4114     8.5806     8.9494
  254.0000   135.2566     8.6357     8.9787
  254.5000   136.6728     8.6800     9.0075
  255.0000   136.6123     8.7156     9.0642
  255.5000   138.2395     8.7603     9.1329
  256.0000   140.5237     8.6860     9.1762
  256.5000   142.8537     8.5882     8.9781
  257.0000   141.8119     8.4915     8.8566
  257.5000   140.2771     8.3959     8.7367
  258.0000   138.8897     8.3014     8.6184
  258.5000   138.1189     8.2697     8.5822
  259.0000   137.3305     8.2443     8.5560
  259.5000   136.6590     8.2191     8.5298
  260.0000   136.7812     8.1346     8.4420
  260.5000   137.2530     8.0157     8.3187
  261.0000   139.0535     7.8985     8.1971
  261.5000   140.8902     7.7834     8.0774
  262.0000   141.5376     7.6891     8.0087
  262.5000   139.1737     7.5998     7.9500
  263.0000   135.9071     7.5115     7.8913
  263.5000   132.6126     7.4133     7.8376
  264.0000   130.4473     7.4880     7.9146
  264.5000   130.0411     7.5745     7.9877
  265.0000   131.1128     7.6620     8.0615
  265.5000   135.3857     7.7505     8.1360
  266.0000   139.7142     7.8400     8.2112
  266.5000   142.1911     7.9306     8.2871
  267.0000   143.2301     8.0222     8.3637
  267.5000   143.0463     8.1148     8.4410
  268.0000   141.3752     8.2095     8.5199
  268.5000   141.3351     8.2838     8.6074
  269.0000   141.6391     8.3593     8.6967
  269.5000   141.9516     8.4357     8.7871
  270.0000   142.2775     8.5126     8.8549
  270.5000   141.6749     8.5993     8.9243
  271.0000   140.9106     8.5462     8.8692
  271.5000   140.2196     8.4865     8.8072
  272.0000   139.9756     8.4272     8.7457
  272.5000   138.8209     8.3633     8.6795
  273.0000   137.2647     8.3548     8.6972
  273.5000   137.5099     8.3462     8.7174
  274.0000   138.8951     8.3374     8.7374
  274.5000   139.8099     8.3285     8.7573
  275.0000   137.2274     8.3196     8.7774
  275.5000   133.3294     8.3106     8.7973
  276.0000   130.6126     8.3019     8.8175
  276.5000   131.3300     8.2930     8.8377
  277.0000   133.6356     8.2096     8.9492
  277.5000   135.9324     8.3852     9.0875
  278.0000   136.5441     8.5592     9.2279
  278.5000   135.0329     8.7368     9.4012
  279.0000   133.5144     8.9181     9.5875
  279.5000   132.2655     9.1032     9.7776
  280.0000   133.4505     9.2921     9.9712
  280.5000   134.7501     9.4850    10.1623
  281.0000   135.3649     9.6819    10.3301
  281.5000   133.2578     9.8246    10.4957
  282.0000   130.7898     9.9769    10.6636
  282.5000   128.9065    10.1414    10.8342
  283.0000   130.0181    10.3087    11.0075
  283.5000   132.1685    10.4774    11.1841
  284.0000   134.2809    10.6457    11.4394
  284.5000   132.6622    11.0261    11.7542
  285.0000   128.5168    11.4085    12.0768
  285.5000   124.3697    11.8028    12.4084
  286.0000   122.7927    12.2106    12.7468
  286.5000   120.9909    12.6174    13.0987
  287.0000   117.4980    12.9344    13.4220
  287.5000   114.0670    12.8765    13.3633
  288.0000   115.5187    12.8072    13.2907
  288.5000   119.6104    12.7370    13.2184
  289.0000   123.0694    12.6312    13.1107
  289.5000   124.9988    12.4723    12.9509
  290.0000   125.2394    12.3153    12.7931
  290.5000   125.5058    12.1604    12.5790
  291.0000   125.9028    12.0074    12.3926
  291.5000   126.8277    11.8563    12.2833
  292.0000   127.6938    11.7383    12.1819
  292.5000   127.1223    11.6477    12.0879
  293.0000   124.0449    11.5577    11.9946
  293.5000   120.5471    11.4643    11.8974
  294.0000   118.1793    11.3310    11.7597
  294.5000   116.0467    11.1495    11.5709
  295.0000   117.3123    11.1789    11.6014
  295.5000   120.0334    11.2223    11.6465
  296.0000   122.7418    11.2658    11.6917
  296.5000   125.4430    11.3096    11.7370
  297.0000   124.3174    11.3535    11.7826
  297.5000   121.2833    11.3977    11.8285
  298.0000   118.2164    11.4423    11.8748
  298.5000   113.2722    11.4646    11.8980
  299.0000   113.9421    11.3017    11.7289
  299.5000   114.7529    11.0795    11.4983
  300.0000   114.5420    10.7988    11.2069
  300.5000   114.4244    10.5252    10.9230
  301.0000   117.4998    10.2572    10.6449
  301.5000   120.8495    10.2281    10.6147
  302.0000   123.9669    10.2014    10.5870
  302.5000   124.3302    10.1741    10.5587
  303.0000   123.1615    10.1468    10.5303
  303.5000   121.7394    10.1194    10.5019
  304.0000   119.6344    10.0923    10.4738
  304.5000   116.5906    10.0630    10.4434
  305.0000   113.6064    10.0220    10.4008
  305.5000   111.5014     9.9807    10.3580
  306.0000   112.6555     9.9396    10.3153
  306.5000   114.6256     9.8987    10.2728
