~VERSION INFORMATION
 VERS.                2.0:   CWLS LOG ASCII STANDARD - VERSION 2.0
 WRAP.                 NO:   ONE LINE PER DEPTH STEP
~WELL INFORMATION
#MNEM.UNIT      DATA TYPE    INFORMATION
#----------   ------------   ------------------------------
 STRT.F           12.0000:   START DEPTH
 STOP.F          448.0000:   STOP DEPTH
 STEP.F            0.5000:   STEP LENGTH
 NULL.          -999.2500:   NO VALUE
 COMP. LAWRENCE/ALLISON INC:   COMPANY
 WELL. LI2 -52-61 SX10 #10-10:   WELL
 FLD .             TEAPOT:   FIELD
 LOC .      S10 T38N R78W:   LOCATION
 CNTY.            NATRONA:   COUNTY
 STAT.            WYOMING:   STATE
 CTRY. UNITED STATES OF AMERICA:   COUNTRY
 SRVC.      Dresser Atlas:   SERVICE COMPANY
 DATE.        13-JAN-1985:   LOGDATE
 API .       490251100400:   API NUMBER
~CURVE INFORMATION
#MNEM.UNIT       API CODE    CURVE DESCRIPTION
#----------   ------------   ------------------------------
 DEPT.F                  :   
 AC  .US/F   60 520 00 00:   ACCOUSTIC
 SPR .MV     11 010 01 00:   SPONTANEOUS POTENTIAL FROM RES.
 RD  .OHMM   11 220 10 00:   RESISTIVITY DEEP
 RS  .OHMM   11 220 09 00:   RESISTIVITY SHALLOW
 RMLL.OHMM   11 270 04 00:   MICRO LATEROLOG
 GRD .GAPI   45 310 01 00:   GAMMA RAY FROM DENSITY LOG
 CALD.IN     45 280 60 00:   CALIPER FROM DENSITY LOG
 CORR.G/C3   45 356 01 00:   DENSITY CORRECTION
 DEN .G/C3   45 350 01 00:   COMPENSATED BULK DENSTIY
 PORD.DEC    45 890 12 00:   POROSITY DENSITY SANDSTONE
 CNC .DEC    42 890 03 00:   NEUTRON POROSITY SANDSTONE
~PARAMETER INFORMATION
#MNEM.UNIT          VALUE    DESCRIPTION
#----------   ------------   ------------------------------
 PD  .                 GL:   PERMANENT DATUM
 EPD .F              5156:   ELEVATION PERMANENT DATUM
 LMF .                 GL:   LOG MEASURED FROM
 DMF .                 GL:   DRILLING MEASURED FROM
 EGL .F              5156:   GROUND LEVEL
 DATE.        13-JAN-1985:   RUN DATE
 RUN .                  1:   RUN NUMBER
 DD  .F               450:   DEPTH DRILLER
 DL  .F               450:   DEPTH LOGGER
 BLI .F               448:   BOTTOM LOG INTERVAL
 TLI .F                20:   TOP LOG INTERVAL
 CS  .IN            8.625:   CASING SIZE
 CBD .F                20:   CASING BOTTOM DRILLER
 CBL .F                20:   CASING BOTTOM LOGGER
 BS  .IN            7.875:   BIT SIZE
 BSD .F               450:   BIT SIZE AT DEPTH
 DFT .            KCL-H2O:   DRILLING FLUID TYPE
 MSS .               TANK:   MUD SAMPLE SOURCE
 RMS .OHMM           0.16:   RESISTIVITY MUD SAMPLE
 MST .F                20:   MUD SAMPLE TEMPERATURE
 RMF .OHMM           0.12:   RESISTIVITY MUD FILTRATE SAMPLE
 MFST.F                20:   MUD FILTRATE SAMPLE TEMPERATURE
 RMC .OHMM            0.2:   RESISTIVITY MUD CAKE
 MCST.F                20:   MUD CAKE SAMPLE TEMPERATURE
 MFSS.               CALC:   MUD FILTRATE SAMPLE SOURCE
 MCSS.               CALC:   MUD CAKE SAMPLE SOURCE
 BHT .F               100:   BOTTOM HOLE TEMPERATURE
 TCS .HRS               2:   TIME CURCULATED STOPPED
 MRT .F               100:   MAXIMUM RECORDED TEMPERATURE
 LUN .               6270:   LOGGING UNIT NUMBER
 LUL .                 FM:   LOGGING UNIT LOCATION
 ENGI.          E. GOVETT:   RECORDING ENGINEER
 WITN.             GROOMS:   WITNESSED BY
 CLNT.            A2DTECH:   CLIENT CODE
 ORIG.        2" 5" PRINT:   ORIGIN OF DATA
 UWI .       490251100400:   UNIQUE WELL ID
 DICO. A2D Technologies, Inc.:   DIGITIZING COMPANY
 R1  . POROSITY WITH SANDSTONE:   REMARKS 1
~OTHER INFORMATION
~A   DEPT       AC        SPR         RD         RS       RMLL         GRD      CALD       CORR        DEN       PORD        CNC   
# ...
  408.5000    88.9760   -45.3415    18.1630    16.3766    13.6759    95.9726     7.8696     0.0370     2.4595     0.1321     0.2550
  409.0000    89.2819   -45.3505    17.6573    16.1561    13.2973    97.4757     7.8689     0.0400     2.4617     0.1309     0.2602
  409.5000    89.4328   -45.3596    17.4075    16.0401    13.1101    98.6776     7.8833     0.0429     2.4700     0.1259     0.2602
  410.0000    89.2048   -45.5213    17.2811    16.1490    13.3825    99.5784     7.8826     0.0444     2.4752     0.1225     0.2481
  410.5000    88.9817   -45.5302    17.3973    16.1439    13.7567   100.0266     7.8820     0.0428     2.4712     0.1264     0.2393
  411.0000    88.9087   -45.5392    17.5116    16.1399    14.0442   101.0779     7.8814     0.0413     2.4676     0.1270     0.2415
  411.5000    89.0079   -45.6988    17.5055    16.1357    13.6545   100.4726     7.8809     0.0352     2.4683     0.1253     0.2461
  412.0000    89.0884   -45.7078    17.4983    16.1308    13.2764    97.3070     7.8803     0.0306     2.4691     0.1247     0.2407
  412.5000    89.1689   -45.7190    17.4925    16.0150    13.3658    97.0030     7.8797     0.0276     2.4705     0.1247     0.2374
  413.0000    89.6101   -45.7279    17.4866    15.8999    13.3616    99.1607     7.8791     0.0322     2.4728     0.1247     0.2392
  413.5000    90.1397   -45.7369    17.3596    15.6763    13.3582   101.9663     7.8784     0.0441     2.4727     0.1245     0.2554
  414.0000    90.5942   -45.7459    17.1140    15.4559    13.0791   103.6201     7.8778     0.0320     2.4704     0.1245     0.2731
  414.5000    90.8985   -45.7549    16.8665    15.3400    12.8057   104.3702     7.8772     0.0244     2.4666     0.1266     0.2795
  415.0000    90.9022   -45.7661    16.5166    15.0232    12.8025   105.8733     7.8767     0.0304     2.4628     0.1288     0.2671
  415.5000    91.2816   -45.6222    16.0579    14.7093    12.2697   105.2680     7.8761     0.0364     2.4621     0.1287     0.2632
  416.0000    91.8113   -45.6334    15.8308    14.5024    11.7705   102.3233     7.8605     0.0316     2.4767     0.1180     0.2678
  416.5000    92.1907   -45.6424    15.4987    14.3983    11.5246   100.4422     7.8597     0.0181     2.4877     0.1144     0.2675
  417.0000    92.4949   -45.6514    15.1735    14.1958    11.4418   101.6442     7.8592     0.0120     2.4899     0.1138     0.2691
  417.5000    92.4236   -45.6626    14.9566    13.9961    11.4389   103.7497     7.8586     0.0090     2.4785     0.1226     0.2703
  418.0000    92.2761   -45.6716    14.7460    13.8947    11.4243   105.4035     7.8580     0.0135     2.4619     0.1308     0.2697
  418.5000    92.1305   -45.6805    14.5374    13.6993    11.4342   106.9066     7.8574     0.0225     2.4581     0.1329     0.2691
  419.0000    92.1342   -45.6895    14.3317    13.6010    11.7521   107.3555     7.8568     0.0270     2.4633     0.1314     0.2685
  419.5000    92.2882   -45.6985    14.1290    13.4097    11.8319   106.2977     7.8411     0.0103     2.4709     0.1266     0.2754
  420.0000    92.8179   -45.7097    13.8326    13.2211    11.3447   105.3912     7.8405     0.0012     2.4792     0.1200     0.2810
  420.5000    93.3475   -45.7187    13.7321    12.9448    11.0306   104.9365     7.8399     0.0042     2.4814     0.1170     0.2765
  421.0000    93.7270   -45.7276    13.5376    12.6603    10.8755   104.7830     7.8243     0.0162     2.4776     0.1234     0.2584
  421.5000    93.5804   -45.7366    13.4384    12.5825    10.7974   105.3825     7.8237     0.0268     2.4668     0.1291     0.2502
  422.0000    93.4330   -45.7456    13.3419    12.6671    10.6343   106.9519     7.8232     0.0187     2.4586     0.1322     0.2475
  422.5000    93.3616   -45.7549    13.4305    12.8414    10.5684   109.5929     7.8224     0.0055     2.4571     0.1304     0.2661
  423.0000    93.2150   -45.6129    13.4249    12.9278    10.6402   111.9996     7.8219     0.0115     2.4676     0.1235     0.2772
  423.5000    93.1437   -45.6242    13.4204    13.0147    10.7118   114.2558     7.8213     0.0266     2.4767     0.1199     0.2745
  424.0000    93.1483   -45.6331    13.3228    13.0114    10.5605   116.3613     7.8207     0.0462     2.4819     0.1175     0.2691
  424.5000    93.2272   -45.6421    13.2250    13.0074    10.4119   118.0151     7.8201     0.0431     2.4818     0.1199     0.2679
  425.0000    93.4563   -45.6514    13.1290    12.8245    10.4092   117.2584     7.8195     0.0370     2.4751     0.1237     0.2655
  425.5000    93.9109   -45.6623    13.1246    12.6441    10.3339   113.0387     7.8189     0.0339     2.4675     0.1288     0.2578
  426.0000    94.2151   -45.6713    12.9389    12.5533    10.1886   110.1743     7.8182     0.0324     2.4622     0.1309     0.2553
  426.5000    94.2940   -45.6802    12.7559    12.4632    10.1154   110.9245     7.8177     0.0414     2.4629     0.1285     0.2638
  427.0000    94.2977   -45.6892    12.6536    12.2786    10.0428   112.8794     7.8171     0.0519     2.4682     0.1267     0.2714
  427.5000    94.3766   -45.5476    12.3965    11.9469     9.9707   114.8445     7.8317     0.0549     2.4757     0.1237     0.2762
  428.0000    94.7560   -45.5588    12.2212    11.7789     9.8990   116.0363     7.8310     0.0518     2.4764     0.1207     0.2799
  428.5000    95.1354   -45.5678    12.0483    11.6133     9.8274   111.8158     7.8304     0.0488     2.4718     0.1229     0.2802
  429.0000    95.5148   -45.5767    11.7137    11.4499     9.7568   110.3069     7.8297     0.0442     2.4711     0.1244     0.2766
  429.5000    95.6688   -45.4349    11.5480    11.2106     9.7544   109.0992     7.8291     0.0336     2.4718     0.1241     0.2727
  430.0000    95.8228   -45.4443    11.2991    11.0466     9.6172   108.3433     7.8437     0.0214     2.4718     0.1238     0.2703
  430.5000    96.2022   -45.4553    10.9909    10.8213     9.5481   110.0191     7.8430     0.0122     2.4695     0.1242     0.2700
  431.0000    96.5064   -45.4643    10.7603    10.5217     9.3437   112.5536     7.8424     0.0032     2.4604     0.1288     0.2752
  431.5000    96.6604   -45.4733    10.5345    10.0191     9.1526   114.3580     7.8418     0.0017     2.4550     0.1315     0.2782
  432.0000    96.8144   -45.4822     9.7552     9.2787     9.0869   115.7105     7.8563     0.0167     2.4603     0.1330     0.2719
  432.5000    96.8182   -45.4913     8.6042     8.4156     9.2119   116.1602     7.8556     0.0409     2.4686     0.1316     0.2692
  433.0000    97.2884   -45.5024     8.1325     8.1225     9.2739   113.8975     7.8702     0.0589     2.4746     0.1273     0.2680
  433.5000    99.7042   -45.5114     7.9092     7.9555     9.2715   111.7605     7.8694     0.0556     2.4776     0.1247     0.2726
  434.0000   101.5626   -45.5204     7.8517     7.8436     7.6715   110.5778     7.8689     0.0362     2.4791     0.1228     0.2829
  434.5000   102.9189   -45.3787     7.7947     7.7333     6.0620  -999.2500     7.8683     0.0346     2.4737     0.1205     0.2982
  435.0000   102.5094   -45.3878     7.7921     7.7314     6.6804  -999.2500     7.8676     0.0482     2.4579     0.1196     0.3093
  435.5000   101.2296   -45.3989     7.7895     7.7295     8.0029  -999.2500     7.8670     0.0617     2.4510     0.1263     0.3099
  436.0000    99.1360   -45.4079     7.7869     7.7275     9.5206  -999.2500     7.8664     0.0662     2.4737     0.1357     0.3020
  436.5000    96.9140   -45.4169     7.7297     7.7251    10.1332  -999.2500     7.8658     0.0522     2.4865     0.1351     0.2921
  437.0000    95.5004   -45.5764     7.7271     7.7232    10.5643  -999.2500     7.8652     0.0344     2.4887     0.1255     0.2709
  437.5000    94.6777   -45.5855     7.7245     7.7212    10.9336  -999.2500     7.8647     0.0298     2.4781     0.1143     0.2649
  438.0000    94.0052   -45.5966     7.7219     7.7193    11.0071  -999.2500     7.8641     0.0283     2.4773     0.1179     0.2640
  438.5000    93.5582   -45.6056     7.7193     7.7174    11.0812  -999.2500     7.8483     0.0373     2.4848     0.1207     0.2656
