~VERSION INFORMATION
 VERS.                2.0:   CWLS LOG ASCII STANDARD - VERSION 2.0
 WRAP.                 NO:   ONE LINE PER DEPTH STEP
~WELL INFORMATION
#MNEM.UNIT      DATA TYPE    INFORMATION
#----------   ------------   ------------------------------
 STRT.F            1.0000:   START DEPTH
 STOP.F          478.0000:   STOP DEPTH
 STEP.F            0.1000:   STEP LENGTH
 NULL.          -999.2500:   NO VALUE
 COMP. LAWRENCE/ALLISON INC:   COMPANY
 WELL.     58-61 SX #58-3:   WELL
 FLD .             TEAPOT:   FIELD
 LOC .       S3 T38N R78W:   LOCATION
 CNTY.            NATRONA:   COUNTY
 STAT.            WYOMING:   STATE
 CTRY. UNITED STATES OF AMERICA:   COUNTRY
 SRVC.           Gearhart:   SERVICE COMPANY
 DATE.        08-JUL-1988:   LOGDATE
 API .       490251123400:   API NUMBER
~CURVE INFORMATION
#MNEM.UNIT       API CODE    CURVE DESCRIPTION
#----------   ------------   ------------------------------
 DEPT.F                  :   
 GRR .GAPI   07 310 01 00:   GAMMA RAY
 RILD.OHMM   07 120 46 00:   INDUCTION LOG DEEP RESISTIVITY
 RILM.OHMM   07 120 44 00:   INDUCTION LOG MEDIUM RESISTIVITY
~PARAMETER INFORMATION
#MNEM.UNIT          VALUE    DESCRIPTION
#----------   ------------   ------------------------------
 PD  .                 GL:   PERMANENT DATUM
 EPD .F              5184:   ELEVATION PERMANENT DATUM
 LMF .                 KB:   LOG MEASURED FROM
 DAPD.F                 5:   FEET ABOVE PERMANENT DATUM
 DMF .                 KB:   DRILLING MEASURED FROM
 EKB .F              5189:   KELLING BUSHING
 EGL .F              5184:   GROUND LEVEL
 DATE.        08-JUL-1988:   RUN DATE
 RUN .                  1:   RUN NUMBER
 DD  .F               485:   DEPTH DRILLER
 DL  .F               486:   DEPTH LOGGER
 BLI .F               478:   BOTTOM LOG INTERVAL
 CS  .IN            9.625:   CASING SIZE
 CBD .F                45:   CASING BOTTOM DRILLER
 CBL .F                44:   CASING BOTTOM LOGGER
 BS  .IN             8.75:   BIT SIZE
 BSD .F               485:   BIT SIZE AT DEPTH
 DFT .                AIR:   DRILLING FLUID TYPE
 TCS .HRS            2200:   TIME CURCULATED STOPPED
 TLAB.HRS            2315:   TIME LOGGER AT BOTTOM
 LUN .               7597:   LOGGING UNIT NUMBER
 LUL .           GILLETTE:   LOGGING UNIT LOCATION
 ENGI.           JOHNSTON:   RECORDING ENGINEER
 WITN.              FIVAS:   WITNESSED BY
 CLNT.            A2DTECH:   CLIENT CODE
 ORIG.           5" PRINT:   ORIGIN OF DATA
 UWI .       490251123400:   UNIQUE WELL ID
 DICO. A2D Technologies, Inc.:   DIGITIZING COMPANY
~OTHER INFORMATION
~A    DEPT     GRR       RILD       RILM   
# ...
   92.0000   126.4947    12.7042    12.7791
   92.1000   126.0111    12.7040    12.7791
   92.2000   125.4559    12.7039    12.7396
   92.3000   125.4580    12.7037    12.6682
   92.4000   125.4604    12.7035    12.6015
   92.5000   125.4628    12.7033    12.6015
   92.6000   125.4907    12.7032    12.5442
   92.7000   125.7715    12.7030    12.5136
   92.8000   126.1896    12.6759    12.4691
   92.9000   126.5305    12.6048    12.3347
   93.0000   126.7759    12.5259    12.2536
   93.1000   127.0213    12.4639    12.2536
   93.2000   127.3011    12.4382    12.2536
   93.3000   127.5122    12.3843    12.2309
   93.4000   127.7576    12.2554    12.1624
   93.5000   127.9150    12.1792    12.0833
   93.6000   127.9450    12.1184    12.0267
   93.7000   128.2237    12.0504    11.9593
   93.8000   128.4358    11.9565    11.8924
   93.9000   128.6812    11.8325    11.8258
   94.0000   128.8376    11.7596    11.7497
   94.1000   128.8686    11.7003    11.7497
   94.2000   129.1463    11.6772    11.7497
   94.3000   129.1484    11.6771    11.7733
   94.4000   129.3014    11.6872    11.8322
   94.5000   129.5468    11.7587    11.8322
   94.6000   129.7627    11.8187    11.8897
   94.7000   129.7654    11.9294    11.9153
   94.8000   129.9796    12.0356    11.9153
   94.9000   130.0734    12.1031    11.9235
   95.0000   130.0759    12.1767    11.9990
   95.1000   130.0783    12.2393    12.0582
   95.2000   130.0810    12.3080    12.0833
   95.3000   130.0832    12.3770    12.1093
   95.4000   129.9330    12.4465    12.1681
   95.5000   129.7845    12.5215    12.1681
   95.6000   129.7870    12.5865    12.1681
   95.7000   129.7897    12.6571    12.1681
   95.8000   129.7918    12.7281    12.1952
   95.9000   129.6407    12.7865    12.2536
   96.0000   129.4001    12.7863    12.2536
   96.1000   129.1918    12.8533    12.2536
   96.2000   129.1948    12.9254    12.2536
   96.3000   128.3367    12.9979    12.2536
   96.4000   127.2125    13.0569    12.2536
   96.5000   126.0941    13.0567    12.2536
   96.6000   125.1246    13.1257    12.2536
   96.7000   124.0476    13.0970    12.2536
   96.8000   123.1854    13.0561    12.2536
   96.9000   122.0603    13.0559    12.2536
   97.0000   120.9429    13.0557    12.2536
   97.1000   120.0079    12.9863    12.2536
   97.2000   119.2039    12.9643    12.2536
   97.3000   118.7719    12.9642    12.2536
   97.4000   118.4449    12.9490    12.2536
   97.5000   118.3005    12.8734    12.2536
   97.6000   118.3029    12.8042    12.1893
   97.7000   118.3056    12.7832    12.1681
   97.8000   118.3077    12.7831    12.1681
   97.9000   118.3102    12.7675    12.1681
   98.0000   118.6039    12.6935    12.1681
   98.1000   119.3720    12.6934    12.1681
   98.2000   120.4421    12.6422    12.1203
   98.3000   121.3208    12.5713    12.0833
   98.4000   121.9779    12.5008    12.0691
   98.5000   122.5645    12.4289    11.9990
   98.6000   123.2959    12.4288    11.9344
   98.7000   124.0961    12.3781    11.9153
   98.8000   124.5386    12.3087    11.8841
   98.9000   124.5481    12.2397    11.8322
   99.0000   124.4067    12.1698    11.8322
   99.1000   124.4091    12.1028    11.7677
   99.2000   124.4118    12.0846    11.7018
   99.3000   124.6351    12.0515    11.6363
   99.4000   124.8805    11.9840    11.5864
   99.5000   125.0258    11.9162    11.5864
   99.6000   125.0679    11.8500    11.5864
   99.7000   125.3344    11.7835    11.5384
   99.8000   125.5587    11.7500    11.5056
   99.9000   126.1274    11.7499    11.5056
  100.0000   127.1624    11.7497    11.5056
  100.1000   127.2142    11.7497    11.7096
  100.2000   127.4745    11.6967    11.6678
  100.3000   127.7224    11.6678    11.6678
  100.4000   127.9765    11.6439    11.6678
  100.5000   128.0941    11.5864    11.6043
  100.6000   128.0983    11.5864    11.5864
  100.7000   128.1026    11.5864    11.5864
  100.8000   128.1072    11.5390    11.5864
  100.9000   128.1111    11.5056    11.5864
  101.0000   127.9433    11.5056    11.5864
  101.1000   127.6977    11.5010    11.5864
  101.2000   127.4521    11.4253    11.5864
  101.3000   127.2065    11.4253    11.5864
  101.4000   126.9191    11.4253    11.5864
  101.5000   126.5079    11.4253    11.5864
  101.6000   126.0124    11.4253    11.5864
  101.7000   125.7171    11.4253    11.5864
  101.8000   125.6749    11.4253    11.5864
  101.9000   125.4223    11.4253    11.5864
  102.0000   125.6692    11.4253    11.5864
  102.1000   126.3017    11.4253    11.5864
  102.2000   126.9200    11.4253    11.5864
  102.3000   127.2601    11.4253    11.5864
  102.4000   127.2643    11.4253    11.5864
  102.5000   127.2690    11.4253    11.5864
  102.6000   127.0482    11.4253    11.5864
  102.7000   126.8026    11.4253    11.5864
  102.8000   126.5570    11.4253    11.5864
  102.9000   126.2476    11.4253    11.5864
  103.0000   125.7521    11.4253    11.5864
  103.1000   125.1704    11.4253    11.5864
  103.2000   124.5548    11.4253    11.5864
  103.3000   123.8094    11.4253    11.5864
  103.4000   123.0641    11.4253    11.5864
  103.5000   122.2731    11.4253    11.5492
  103.6000   121.2457    11.4253    11.5056
  103.7000   120.5244    11.4253    11.5056
  103.8000   119.9672    11.4253    11.5056
  103.9000   119.4717    11.4253    11.5056
  104.0000   119.1381    11.4253    11.5056
  104.1000   119.1969    11.4253    11.5056
  104.2000   119.7540    11.4253    11.5056
  104.3000   120.2049    11.4253    11.5056
  104.4000   120.7089    11.4073    11.5056
  104.5000   121.3293    11.3456    11.4505
  104.6000   122.0204    11.3456    11.4253
  104.7000   122.5335    11.3456    11.4253
  104.8000   123.4217    11.3045    11.4130
  104.9000   123.8359    11.2665    11.3456
  105.0000   124.3399    11.2534    11.3456
  105.1000   124.7458    11.1879    11.3456
  105.2000   125.0444    11.1879    11.3104
  105.3000   125.5668    11.1383    11.2665
  105.4000   125.8116    11.1099    11.2665
  105.5000   126.0658    11.1099    11.2665
  105.6000   126.3199    11.1017    11.2665
  105.7000   126.5740    11.0324    11.2226
  105.8000   126.8018    11.0324    11.1879
  105.9000   126.8065    10.9881    11.1720
  106.0000   126.8103    10.9249    11.1058
  106.1000   126.8146    10.8621    10.9555
  106.2000   126.9341    10.8032    10.9041
  106.3000   127.1266    10.8032    10.8416
  106.4000   127.1389    10.7510    10.7793
  106.5000   127.4393    10.6892    10.7174
  106.6000   127.8515    10.6278    10.6530
  106.7000   128.2048    10.5667    10.5947
  106.8000   128.4589    10.5050    10.5787
  106.9000   128.7130    10.5050    10.5470
  107.0000   128.9774    10.4586    10.5050
  107.1000   129.2213    10.4317    10.5050
  107.2000   129.4754    10.4113    10.5050
  107.3000   129.5970    10.3515    10.5050
  107.4000   129.6012    10.2867    10.5050
  107.5000   129.6055    10.2867    10.5050
  107.6000   129.6102    10.2456    10.5050
  107.7000   129.6140    10.2150    10.5050
  107.8000   129.4503    10.2150    10.5050
  107.9000   128.9760    10.2150    10.5050
  108.0000   128.2914    10.2150    10.5050
  108.1000   127.7959    10.2645    10.5050
  108.2000   127.2081    10.2867    10.5142
  108.3000   126.3982    10.2867    10.5787
  108.4000   125.5526    10.2867    10.5787
  108.5000   124.9034    10.2867    10.5787
  108.6000   124.4921    10.3450    10.5787
  108.7000   124.4973    10.3589    10.5787
  108.8000   124.2626    10.3589    10.5787
  108.9000   124.2021    10.3589    10.5787
  109.0000   124.3379    10.3662    10.5787
  109.1000   124.5920    10.4317    10.5787
  109.2000   124.8218    10.4317    10.5787
  109.3000   124.8266    10.4317    10.5787
  109.4000   125.2714    10.4605    10.5787
  109.5000   125.7754    10.5050    10.5787
  109.6000   126.1661    10.5050    10.5787
  109.7000   126.4799    10.5050    10.5787
  109.8000   126.9779    10.5050    10.5787
  109.9000   127.2803    10.5050    10.5787
  110.0000   127.6884    10.5050    10.5787
  110.1000   128.0437    10.5050    10.5787
