~VERSION INFORMATION
 VERS.                2.0:   CWLS LOG ASCII STANDARD - VERSION 2.0
 WRAP.                 NO:   ONE LINE PER DEPTH STEP
~WELL INFORMATION
#MNEM.UNIT      DATA TYPE    INFORMATION
#----------   ------------   ------------------------------
 STRT.F           94.0000:   START DEPTH
 STOP.F          939.0000:   STOP DEPTH
 STEP.F            0.5000:   STEP LENGTH
 NULL.          -999.2500:   NO VALUE
 COMP. U S NAVY/INTEX OIL CO:   COMPANY
 WELL.    NPR #3 #88-S-27:   WELL
 FLD .             TEAPOT:   FIELD
 LOC .      S27 T39N R78W:   LOCATION
 CNTY.            NATRONA:   COUNTY
 STAT.            WYOMING:   STATE
 CTRY. UNITED STATES OF AMERICA:   COUNTRY
 SRVC.       Schlumberger:   SERVICE COMPANY
 DATE.        30-JUL-1963:   LOGDATE
 API .       490250658100:   API NUMBER
~CURVE INFORMATION
#MNEM.UNIT       API CODE    CURVE DESCRIPTION
#----------   ------------   ------------------------------
 DEPT.F                  :   
 SPR .MV     05 010 01 00:   SPONTANEOUS POTENTIAL FROM RES.
 CILD.MMHO   05 110 46 00:   CONDUCTIVITY INDUCTION LOG DEEP
 ASN .OHMM   05 041 16 00:   AMPLIFIED SHORT NORMAL 16"
 ILD .OHMM   05 120 46 00:   INDUCTION LOG DEEP
 GR  .GAPI   30 310 01 00:   GAMMA RAY
~PARAMETER INFORMATION
#MNEM.UNIT          VALUE    DESCRIPTION
#----------   ------------   ------------------------------
 PD  .                 GL:   PERMANENT DATUM
 EPD .F              5069:   ELEVATION PERMANENT DATUM
 LMF .                 KB:   LOG MEASURED FROM
 DAPD.F                 5:   FEET ABOVE PERMANENT DATUM
 DMF .                 KB:   DRILLING MEASURED FROM
 EKB .F              5074:   KELLING BUSHING
 EGL .F              5069:   GROUND LEVEL
 DATE.          7-30-1969:   RUN DATE
 RUN .                  1:   RUN NUMBER
 DD  .F               940:   DEPTH DRILLER
 DL  .F               940:   DEPTH LOGGER
 BLI .F               939:   BOTTOM LOG INTERVAL
 TLI .F                94:   TOP LOG INTERVAL
 CS  .IN            8.625:   CASING SIZE
 CBD .F                10:   CASING BOTTOM DRILLER
 BS  .IN             6.75:   BIT SIZE
 BSD .F               940:   BIT SIZE AT DEPTH
 DFT .            GEL/OIL:   DRILLING FLUID TYPE
 DFD .                9.6:   DRILLING FLUID DENSITY
 DFV .                 40:   DRILLING FLUID VISCOSITY
 DFPH.                  9:   DRILLING FLUID PH
 DFL .                  6:   DRILLING FLUID LOSS
 MSS .          FLOW LINE:   MUD SAMPLE SOURCE
 RMS .OHMM           2.94:   RESISTIVITY MUD SAMPLE
 MST .F                89:   MUD SAMPLE TEMPERATURE
 RMF .OHMM           2.19:   RESISTIVITY MUD FILTRATE SAMPLE
 MFST.F                87:   MUD FILTRATE SAMPLE TEMPERATURE
 MFSS.           MEASURED:   MUD FILTRATE SAMPLE SOURCE
 TCS .HRS               1:   TIME CURCULATED STOPPED
 LUN .               4507:   LOGGING UNIT NUMBER
 LUL .               CSPR:   LOGGING UNIT LOCATION
 ENGI.            WINKLER:   RECORDING ENGINEER
 WITN.          JORGENSEN:   WITNESSED BY
 CLNT.            A2DTECH:   CLIENT CODE
 ORIG.           5" PRINT:   ORIGIN OF DATA
 UWI .       490250658100:   UNIQUE WELL ID
 DICO. A2D Technologies, Inc.:   DIGITIZING COMPANY
~OTHER INFORMATION
~A   DEPT      SPR        CILD         ASN        ILD       GR   
# ...
  277.0000   -44.1065   210.4092     5.8589     4.7603  -999.2500
  277.5000   -44.6727   226.7229     5.6362     4.4220  -999.2500
  278.0000   -45.0898   243.0366     5.3706     4.0793  -999.2500
  278.5000   -45.0867   251.7588     5.0463     3.9671  -999.2500
  279.0000   -45.0948   249.8636     4.8033     4.1185  -999.2500
  279.5000   -44.5517   247.6884     4.9937     4.1695  -999.2500
  280.0000   -43.9302   245.7286     5.1568     4.1708  -999.2500
  280.5000   -43.4877   245.7286     4.9770     4.1677  -999.2500
  281.0000   -44.0090   244.7236     4.8583     4.3323  -999.2500
  281.5000   -44.5191   229.5352     5.1537     4.5574  -999.2500
  282.0000   -44.5085   214.4925     5.3836     4.7831  -999.2500
  282.5000   -43.9045   202.3116     5.5482     4.9837  -999.2500
  283.0000   -44.3410   191.7588     5.6331     5.0033  -999.2500
  283.5000   -44.7741   184.1457     5.7215     5.0269  -999.2500
  284.0000   -45.0900   179.3970     5.7387     5.0512  -999.2500
  284.5000   -44.8875   180.5829     5.7387     5.0755  -999.2500
  285.0000   -44.6205   182.6131     5.7619     5.0390  -999.2500
  285.5000   -44.3387   184.6432     5.7994     4.9928  -999.2500
  286.0000   -44.4946   186.6734     5.7451     4.9465  -999.2500
  286.5000   -44.6701   187.9648     5.6962     4.9010  -999.2500
  287.0000   -44.3766   188.4422     5.6075     4.8743  -999.2500
  287.5000   -44.0531   194.1583     5.3945     4.8706  -999.2500
  288.0000   -43.7287   210.7940     5.1836     4.6545  -999.2500
  288.5000   -43.4035   240.5412     4.9711     4.1655  -999.2500
  289.0000   -43.0849   285.0483     4.7629     3.6805  -999.2500
  289.5000   -43.0703   329.9515     4.4119     3.1933  -999.2500
  290.0000   -43.0331   371.7518     4.0112     2.6870  -999.2500
  290.5000   -42.7980   412.2650     3.6039     2.5043  -999.2500
  291.0000   -42.5668   430.6533     3.3785     2.4617  -999.2500
  291.5000   -42.7181   427.7236     3.4196     2.4616  -999.2500
  292.0000   -43.3634   422.1407     3.4654     2.4622  -999.2500
  292.5000   -43.4737   409.7960     3.4527     2.5298  -999.2500
  293.0000   -43.4754   387.9743     3.3521     2.6277  -999.2500
  293.5000   -43.4741   346.4900     3.4518     3.0726  -999.2500
  294.0000   -43.4739   305.0084     3.9364     3.5154  -999.2500
  294.5000   -43.4739   263.5594     4.4777     3.9566  -999.2500
  295.0000   -43.4739   235.8794     4.7857     4.3997  -999.2500
  295.5000   -43.4747   217.6080     4.9179     4.6959  -999.2500
  296.0000   -43.4807   203.6985     4.9150     4.7729  -999.2500
  296.5000   -43.2300   200.9252     4.9163     4.7626  -999.2500
  297.0000   -43.0760   207.1948     4.9593     4.7029  -999.2500
  297.5000   -43.0225   213.4644     4.9633     4.6447  -999.2500
  298.0000   -42.8774   219.7340     4.9146     4.5866  -999.2500
  298.5000   -42.8703   221.5567     4.9474     4.5287  -999.2500
  299.0000   -42.8711   221.5573     4.9783     4.4712  -999.2500
  299.5000   -42.8715   221.6788     4.8735     4.4121  -999.2500
  300.0000   -42.8714   233.4133     4.7582     4.3120  -999.2500
  300.5000   -42.8707   244.4823     4.6424     4.0686  -999.2500
  301.0000   -42.8702   261.8894     4.5271     3.8345  -999.2500
  301.5000   -42.9192   282.0302     4.4124     3.6007  -999.2500
  302.0000   -43.3642   302.1708     4.2758     3.3658  -999.2500
  302.5000   -43.3979   322.3116     4.0894     3.1296  -999.2500
  303.0000   -43.1449   338.1588     3.8979     2.9587  -999.2500
  303.5000   -42.8908   341.2945     3.7969     2.9653  -999.2500
  304.0000   -42.6675   333.2382     3.7286     2.9917  -999.2500
  304.5000   -43.0372   325.1819     3.8769     3.0816  -999.2500
  305.0000   -43.4448   316.6691     4.0469     3.1709  -999.2500
  305.5000   -43.8594   304.8004     4.0704     3.2568  -999.2500
  306.0000   -43.6960   292.9318     4.0642     3.5152  -999.2500
  306.5000   -43.4461   260.8040     4.3888     3.8557  -999.2500
  307.0000   -43.2707   241.8177     4.8281     4.1983  -999.2500
  307.5000   -43.2752   221.3173     5.0919     4.5414  -999.2500
  308.0000   -43.2656   202.3568     5.2095     4.8960  -999.2500
  308.5000   -42.8954   193.5452     5.3242     4.9742  -999.2500
  309.0000   -42.8189   187.4271     5.4137     4.9758  -999.2500
  309.5000   -42.7450   186.4400     5.4853     4.9751  -999.2500
  310.0000   -42.8647   186.3973     5.5282     4.9755  -999.2500
  310.5000   -42.8720   190.5908     5.5370     4.9755  -999.2500
  311.0000   -42.8717   196.9246     5.4932     4.9329  -999.2500
  311.5000   -42.8716   206.9950     5.3580     4.6263  -999.2500
  312.0000   -42.8717   225.6506     5.1289     4.3197  -999.2500
  312.5000   -42.8706   251.4189     4.8216     4.0137  -999.2500
  313.0000   -42.8027   277.1871     4.5147     3.7086  -999.2500
  313.5000   -42.5993   302.3484     4.2095     3.4015  -999.2500
  314.0000   -42.4002   319.3024     3.9597     3.2285  -999.2500
  314.5000   -42.2667   326.2801     3.8496     3.1543  -999.2500
  315.0000   -42.2660   327.0833     3.9914     3.0800  -999.2500
  315.5000   -42.4149   328.1434     4.0947     3.0651  -999.2500
  316.0000   -42.6061   326.7236     3.9401     3.0665  -999.2500
  316.5000   -42.7977   314.5829     3.8597     3.1618  -999.2500
  317.0000   -42.9909   297.3668     4.3006     3.4356  -999.2500
  317.5000   -43.0729   269.6734     4.4830     3.7066  -999.2500
  318.0000   -42.9854   241.9799     4.5796     3.9783  -999.2500
  318.5000   -42.8759   227.4133     4.6722     4.2491  -999.2500
  319.0000   -42.8707   217.9079     4.8198     4.4873  -999.2500
  319.5000   -42.8715   214.6225     4.9821     4.5388  -999.2500
  320.0000   -42.8704   212.5681     5.1309     4.5940  -999.2500
  320.5000   -42.9891   212.5501     5.1992     4.6506  -999.2500
  321.0000   -43.1909   212.5617     5.2579     4.6519  -999.2500
  321.5000   -43.2736   213.5346     5.2446     4.6166  -999.2500
  322.0000   -43.1938   215.2228     5.1727     4.5816  -999.2500
  322.5000   -43.0915   218.6655     5.0281     4.5006  -999.2500
  323.0000   -43.0725   222.6131     4.8662     4.4100  -999.2500
  323.5000   -43.0717   232.5286     4.7040     4.2519  -999.2500
  324.0000   -43.0749   249.0297     4.5420     4.0512  -999.2500
  324.5000   -42.8386   267.0974     4.3889     3.8491  -999.2500
  325.0000   -42.4527   285.1611     4.2786     3.6437  -999.2500
  325.5000   -42.0815   297.9900     4.1672     3.4619  -999.2500
  326.0000   -42.0574   297.4724     4.0562     3.4654  -999.2500
  326.5000   -41.7790   293.6577     3.9680     3.4672  -999.2500
  327.0000   -41.6692   295.3812     3.9708     3.4682  -999.2500
  327.5000   -41.6663   301.2155     3.9633     3.3944  -999.2500
  328.0000   -41.6281   307.1055     3.7653     3.2766  -999.2500
  328.5000   -41.4233   312.9799     3.6953     3.1584  -999.2500
  329.0000   -41.2611   316.3517     3.8421     3.0631  -999.2500
  329.5000   -41.2659   318.1809     3.8241     3.0655  -999.2500
  330.0000   -41.3442   326.4991     3.7144     3.0688  -999.2500
  330.5000   -41.5373   339.3668     3.6049     2.9327  -999.2500
  331.0000   -41.7293   360.7954     3.4954     2.7711  -999.2500
  331.5000   -41.9184   388.7897     3.3877     2.6089  -999.2500
  332.0000   -42.0657   422.2327     3.2418     2.4466  -999.2500
  332.5000   -41.8558   452.6809     3.0905     2.2847  -999.2500
  333.0000   -41.8147   473.8694     2.9499     2.1587  -999.2500
  333.5000   -41.7595   473.8694     2.9397     2.2141  -999.2500
  334.0000   -41.7008   445.7286     2.9435     2.2662  -999.2500
  334.5000   -41.7029   423.3740     3.0632     2.3982  -999.2500
  335.0000   -41.7875   401.7947     3.2439     2.5312  -999.2500
  335.5000   -41.8677   377.3875     3.3425     2.6621  -999.2500
  336.0000   -41.7447   344.0994     3.2295     2.7570  -999.2500
  336.5000   -41.5578   310.8113     3.4236     3.0943  -999.2500
  337.0000   -41.3713   277.5232     3.9671     3.4859  -999.2500
  337.5000   -41.3540   254.3970     4.2478     3.8775  -999.2500
