~VERSION INFORMATION
 VERS.                2.0:   CWLS LOG ASCII STANDARD - VERSION 2.0
 WRAP.                 NO:   ONE LINE PER DEPTH STEP
~WELL INFORMATION
#MNEM.UNIT      DATA TYPE    INFORMATION
#----------   ------------   ------------------------------
 STRT.F            8.0000:   START DEPTH
 STOP.F         2320.0000:   STOP DEPTH
 STEP.F            0.5000:   STEP LENGTH
 NULL.          -999.2500:   NO VALUE
 COMP.    FENIX & SCISSON:   COMPANY
 WELL. N.P.R #3 #77-SHX-10:   WELL
 FLD .             TEAPOT:   FIELD
 LOC .      S10 T38N R78W:   LOCATION
 CNTY.            NATRONA:   COUNTY
 STAT.            WYOMING:   STATE
 CTRY. UNITED STATES OF AMERICA:   COUNTRY
 SRVC.              Welex:   SERVICE COMPANY
 DATE.        05-JUN-1980:   LOGDATE
 API .       490251064900:   API NUMBER
~CURVE INFORMATION
#MNEM.UNIT       API CODE    CURVE DESCRIPTION
#----------   ------------   ------------------------------
 DEPT.F                  :   
 GRD .GAPI   45 310 01 00:   GAMMA RAY FROM DENSITY LOG
 CALD.IN     45 280 60 00:   CALIPER FROM DENSITY LOG
 RHOB.G/C3   45 350 01 00:   BULK DENSITY
 DPHI.DEC    45 890 12 00:   DENSITY POROSITY SANDSTONE
 ILD .OHMM   05 120 46 00:   INDUCTION LOG DEEP
 CORR.G/C3   45 356 01 00:   DENSITY CORRECTION
~PARAMETER INFORMATION
#MNEM.UNIT          VALUE    DESCRIPTION
#----------   ------------   ------------------------------
 PD  .                 GL:   PERMANENT DATUM
 EPD .F              5210:   ELEVATION PERMANENT DATUM
 LMF .                 KB:   LOG MEASURED FROM
 DAPD.F                10:   FEET ABOVE PERMANENT DATUM
 DMF .                 KB:   DRILLING MEASURED FROM
 EKB .F              5220:   KELLING BUSHING
 EGL .F              5210:   GROUND LEVEL
 DATE.        05-JUN-1980:   RUN DATE
 RUN .                  1:   RUN NUMBER
 DD  .F              2358:   DEPTH DRILLER
 DL  .F              2322:   DEPTH LOGGER
 BLI .F              2320:   BOTTOM LOG INTERVAL
 TLI .F               900:   TOP LOG INTERVAL
 CS  .IN                7:   CASING SIZE
 BS  .IN             6.25:   BIT SIZE
 BSD .F              2358:   BIT SIZE AT DEPTH
 DFT .        AIR DRILLED:   DRILLING FLUID TYPE
 MRT .F               107:   MAXIMUM RECORDED TEMPERATURE
 ENGI.               REIN:   RECORDING ENGINEER
 WITN.              AMEND:   WITNESSED BY
 CLNT.            A2DTECH:   CLIENT CODE
 ORIG.           5" PRINT:   ORIGIN OF DATA
 UWI .       490251064900:   UNIQUE WELL ID
 DICO. A2D Technologies, Inc.:   DIGITIZING COMPANY
~OTHER INFORMATION
~A    DEPT      GRD      CALD       RHOB       DPHI        ILD       CORR   
# ...
  632.0000   114.2584    10.5168     2.5083     0.0306     7.1293     0.0487
  632.5000   113.3284    10.4742     2.5114     0.0360     7.1346     0.0503
  633.0000   111.5037    10.4756     2.5047     0.0363     7.1896     0.0489
  633.5000   108.9520    10.4771     2.5010     0.0323     7.2450     0.0506
  634.0000   106.5877    10.4193     2.5011     0.0190     7.2505     0.0553
  634.5000   103.6291    10.3318     2.5115     0.0053     7.2057     0.0719
  635.0000   106.1683    10.3333     2.5354     0.0172     7.2124     0.0720
  635.5000   107.0730    10.3496     2.5432     0.0247     7.2178     0.0641
  636.0000   104.7087    10.3662     2.5238     0.0283     7.2232     0.0559
  636.5000   104.1243    10.3677     2.5119     0.0231     7.2286     0.0575
  637.0000   105.1808    10.3691     2.5150     0.0258     7.1841     0.0606
  637.5000   104.8968    10.3706     2.5166     0.0270     7.1895     0.0623
  638.0000   101.6410    10.3569     2.5107     0.0243     7.1948     0.0654
  638.5000   100.2981    10.3435     2.5167     0.0155     7.2002     0.0730
  639.0000   100.6272    10.3301     2.5235     0.0077     7.3061     0.0761
  639.5000    99.0059    10.2727     2.5378     0.0107     7.3623     0.0733
  640.0000   101.0007    10.1705     2.5395     0.0181     7.4707     0.0645
  640.5000   102.3016    10.0682     2.5222     0.0203     7.5807     0.0571
  641.0000   101.2775    10.0548     2.5208     0.0268     7.7468     0.0543
  641.5000    97.7246    10.0711     2.5191     0.0282     7.9703     0.0528
  642.0000    95.5089    10.1170     2.5127     0.0219     7.9763     0.0550
  642.5000    97.0080    10.1341     2.5173     0.0147     8.0377     0.0682
  643.0000    99.8443    10.1793     2.5203     0.0072     8.0437     0.0728
  643.5000   100.1514    10.2104     2.5369     0.0113     7.9927     0.0745
  644.0000    98.0876    10.1677     2.5355     0.0158     8.0002     0.0746
  644.5000    97.8003    10.1247     2.5303     0.0092     8.0061     0.0748
  645.0000    97.6649    10.1410     2.5311     0.0094     7.9568     0.0734
  645.5000    98.2757    10.2017     2.5319     0.0118     7.9628     0.0720
  646.0000    99.1804    10.2920     2.5297     0.0184     7.9688     0.0707
  646.5000    99.8039    10.3379     2.5246     0.0193     7.9196     0.0664
  647.0000    97.5722    10.2209     2.5216     0.0243     7.9270     0.0590
  647.5000    96.0995    10.1923     2.5193     0.0303     7.9330     0.0502
  648.0000    95.8155    10.2090     2.5068     0.0377     7.9389     0.0382
  648.5000    99.2893    10.2549     2.4979     0.0335     7.9448     0.0325
  649.0000   101.3429    10.3156     2.4980     0.0266     8.0060     0.0356
  649.5000   102.0990    10.3467     2.5033     0.0194     7.9552     0.0388
  650.0000   103.3009    10.2741     2.5221     0.0181     8.0180     0.0389
  650.5000   105.5428    10.2459     2.5244     0.0190     7.9671     0.0376
  651.0000   106.1471    10.2474     2.5237     0.0214     7.9745     0.0377
  651.5000   101.1115    10.2640     2.5223     0.0178     7.9805     0.0363
  652.0000   101.8676    10.2951     2.5273     0.0108     7.9865     0.0350
  652.5000   102.4752    10.3410     2.5374     0.0120     7.9925     0.0337
  653.0000   101.5968    10.3569     2.5293     0.0137     7.9986     0.0338
  653.5000    99.6783    10.2698     2.5286     0.0227     8.0059     0.0325
  654.0000    99.0971    10.2561     2.5234     0.0305     8.0119     0.0251
  654.5000    98.2187    10.2876     2.5063     0.0299     8.0178     0.0208
  655.0000   100.4607    10.3038     2.5041     0.0202     8.0238     0.0210
  655.5000   101.6671    10.2609     2.5139     0.0214     8.0298     0.0211
  656.0000   101.8247    10.2471     2.5222     0.0334     7.9789     0.0183
  656.5000   101.5403    10.2638     2.5080     0.0366     7.9863     0.0154
  657.0000   100.6653    10.2652     2.4991     0.0417     7.9357     0.0156
  657.5000   100.3780    10.2963     2.4917     0.0375     7.9908     0.0172
  658.0000   103.2176    10.2978     2.4888     0.0229     7.9962     0.0325
  658.5000   106.4964    10.2696     2.5133     0.0209     8.0016     0.0461
  659.0000   103.0953    10.2394     2.5211     0.0226     8.0071     0.0491
  659.5000   102.8080    10.1988     2.5204     0.0211     8.0125     0.0478
  660.0000   101.7844    10.2267     2.5228     0.0175     7.9626     0.0464
  660.5000    97.9342    10.3117     2.5251     0.0151     7.9680     0.0481
  661.0000    97.6469    10.2690     2.5266     0.0192     7.9182     0.0452
  661.5000    97.9606    10.2263     2.5260     0.0243     7.9238     0.0364
  662.0000   100.0540    10.1984     2.5156     0.0252     7.8744     0.0305
  662.5000   102.4445    10.2002     2.5149     0.0203     7.8799     0.0352
  663.0000   103.7950    10.2019     2.5157     0.0137     7.8307     0.0428
  663.5000   102.4863    10.2185     2.5240     0.0113     7.7819     0.0505
  664.0000   102.9510    10.2943     2.5346     0.0063     7.7885     0.0521
  664.5000   101.0334    10.1627     2.5301     0.0049     7.6866     0.0476
  665.0000   101.5028    10.2548     2.5390     0.0117     7.6374     0.0464
  665.5000   101.0759    10.3439     2.5452     0.0057     7.6439     0.0451
  666.0000    97.8258    10.2720     2.5304     0.0024     7.7558     0.0452
  666.5000    93.6842    10.1849     2.5372     0.0021     7.8693     0.0438
  667.0000    91.4742    10.0977     2.5522     0.0059     7.9294     0.0410
  667.5000    94.3462     9.9958     2.5418     0.0035     7.9347     0.0412
  668.0000    96.8003    10.0568     2.5419     0.0047     7.9953     0.0398
  668.5000   101.0452    10.1918     2.5419     0.0106     8.0008     0.0384
  669.0000   102.5499    10.2825     2.5360     0.0166     8.0156     0.0356
  669.5000   103.3117    10.3583     2.5264     0.0166     8.0686     0.0328
  670.0000   103.0334    10.4045     2.5212     0.0266     8.1867     0.0344
  670.5000    99.9319    10.3618     2.5137     0.0213     8.2492     0.0361
  671.0000    99.5050    10.3339     2.5116     0.0159     8.2548     0.0482
  671.5000    98.0380    10.2916     2.5252     0.0197     8.2604     0.0499
  672.0000    94.7879    10.2489     2.5245     0.0284     8.2660     0.0455
  672.5000    93.4695    10.1617     2.5111     0.0385     8.2716     0.0247
  673.0000    95.6229    10.0746     2.4991     0.0250     8.2772     0.0234
  673.5000   100.9413    10.0023     2.5082     0.0346     8.2256     0.0250
  674.0000   103.0404    10.0484     2.4948     0.0420     8.1745     0.0191
  674.5000   107.2197    10.1238     2.4911     0.0441     8.1235     0.0193
  675.0000   110.2104    10.0519     2.4905     0.0411     8.0730     0.0195
  675.5000   110.3731     9.9796     2.4875     0.0365     8.0240     0.0196
  676.0000   107.1277     9.9665     2.4913     0.0390     8.0295     0.0198
  676.5000   105.8093    10.0868     2.4967     0.0398     8.0349     0.0214
  677.0000   107.1655    10.0741     2.4885     0.0262     8.0963     0.0246
  677.5000   109.7103    10.0310     2.4934     0.0016     8.1581     0.0367
  678.0000   110.4725    10.0179     2.5313    -0.0023     8.1636     0.0549
  678.5000   109.2680    10.1090     2.5508     0.0043     8.1691     0.0534
  679.0000   104.1253    10.1255     2.5524     0.0099     8.1747     0.0476
  679.5000   107.2645    10.0828     2.5495     0.0141     8.1802     0.0313
  680.0000   108.4673    10.0397     2.5279     0.0177     8.1293     0.0239
  680.5000   102.8446    10.0270     2.5219     0.0191     8.1349     0.0226
  681.0000   100.6346    10.0436     2.5235     0.0203     8.1406     0.0228
  681.5000    99.3162    10.0898     2.5236     0.0215     8.1472     0.0214
  682.0000    98.7400    10.1212     2.5169     0.0244     8.0951     0.0216
  682.5000   100.2454    10.1381     2.5140     0.0292     8.1020     0.0217
  683.0000   104.1347    10.1399     2.5118     0.0163     8.1075     0.0219
  683.5000   104.9114    10.1564     2.5089     0.0096     8.0556     0.0356
