~VERSION INFORMATION
 VERS.                2.0:   CWLS LOG ASCII STANDARD - VERSION 2.0
 WRAP.                 NO:   ONE LINE PER DEPTH STEP
~WELL INFORMATION
#MNEM.UNIT      DATA TYPE    INFORMATION
#----------   ------------   ------------------------------
 STRT.F            6.0000:   START DEPTH
 STOP.F         4020.0000:   STOP DEPTH
 STEP.F            0.5000:   STEP LENGTH
 NULL.          -999.2500:   NO VALUE
 COMP. LAWRENCE/ALLISON INC:   COMPANY
 WELL.       66 JX #33-33:   WELL
 FLD .              NPR-3:   FIELD
 LOC .      S33 T39N R78W:   LOCATION
 CNTY.            NATRONA:   COUNTY
 STAT.            WYOMING:   STATE
 CTRY. UNITED STATES OF AMERICA:   COUNTRY
 SRVC.      Dresser Atlas:   SERVICE COMPANY
 DATE.        02-DEC-1983:   LOGDATE
 API .       490251095100:   API NUMBER
~CURVE INFORMATION
#MNEM.UNIT       API CODE    CURVE DESCRIPTION
#----------   ------------   ------------------------------
 DEPT.F                  :   
 CALD.IN     45 280 60 00:   CALIPER
 CNC .DEC    42 890 03 00:   NEUTRON POROSITY SANDSTONE
 PORD.DEC    45 890 12 00:   POROSITY DENSITY SANDSTONE
 DEN .G/C3   45 350 01 00:   COMPENSATED BULK DENSTIY
 CORR.G/C3   45 356 01 00:   DENSITY CORRECTION
 RFOC.OHMM   07 220 04 00:   RESISTIVITY FOCUSED LOG
 RILD.OHMM   07 120 46 00:   INDUCTION LOG DEEP RESISTIVITY
 RILM.OHMM   07 120 44 00:   INDUCTION LOG MEDIUM RESISTIVITY
 GRR .GAPI   07 310 01 00:   GAMMA RAY FROM RES. LOG.
 DT  .US/F   60 520 00 00:   INTERVAL TRANSIT TIME
 SPR .MV     07 010 01 00:   SPONTANEOUS POTENTIAL
~PARAMETER INFORMATION
#MNEM.UNIT          VALUE    DESCRIPTION
#----------   ------------   ------------------------------
 PD  .                 GL:   PERMANENT DATUM
 EPD .F              5141:   ELEVATION PERMANENT DATUM
 LMF .                 KB:   LOG MEASURED FROM
 DAPD.F                10:   FEET ABOVE PERMANENT DATUM
 DMF .                 KB:   DRILLING MEASURED FROM
 EKB .F              5151:   KELLING BUSHING
 EGL .F              5141:   GROUND LEVEL
 DATE.            12-2-83:   RUN DATE
 RUN .                  1:   RUN NUMBER
 DD  .F              4025:   DEPTH DRILLER
 DL  .F              4020:   DEPTH LOGGER
 BLI .F              4018:   BOTTOM LOG INTERVAL
 TLI .F                10:   TOP LOG INTERVAL
 CS  .IN            8.625:   CASING SIZE
 CBD .F               718:   CASING BOTTOM DRILLER
 CBL .F               722:   CASING BOTTOM LOGGER
 BS  .IN            7.875:   BIT SIZE
 BSD .F              4025:   BIT SIZE AT DEPTH
 DFT .            GEL/KCL:   DRILLING FLUID TYPE
 DFD .                  9:   DRILLING FLUID DENSITY
 DFV .                 45:   DRILLING FLUID VISCOSITY
 DFPH.                8.5:   DRILLING FLUID PH
 DFL .                 12:   DRILLING FLUID LOSS
 MSS .           FLOWLINE:   MUD SAMPLE SOURCE
 RMS .OHMM            .37:   RESISTIVITY MUD SAMPLE
 MST .F                88:   MUD SAMPLE TEMPERATURE
 RMF .OHMM            .29:   RESISTIVITY MUD FILTRATE SAMPLE
 MFST.F                88:   MUD FILTRATE SAMPLE TEMPERATURE
 RMC .OHMM            .46:   RESISTIVITY MUD CAKE
 MCST.F                88:   MUD CAKE SAMPLE TEMPERATURE
 MFSS.               MEAS:   MUD FILTRATE SAMPLE SOURCE
 MCSS.               CALC:   MUD CAKE SAMPLE SOURCE
 RMB .OHMM            .26:   RESISTIVITY MUD AT BHT
 BHT .F               127:   BOTTOM HOLE TEMPERATURE
 TCS .HRS               4:   TIME CURCULATED STOPPED
 MRT .F               127:   MAXIMUM RECORDED TEMPERATURE
 LUN .               6264:   LOGGING UNIT NUMBER
 LUL .              WLSTN:   LOGGING UNIT LOCATION
 ENGI.            PANASUK:   RECORDING ENGINEER
 WITN.              SCOTT:   WITNESSED BY
 CLNT.            A2DTECH:   CLIENT CODE
 ORIG.       2", 5" PRINT:   ORIGIN OF DATA
 UWI .       490251095100:   UNIQUE WELL ID
 DICO. A2D Technologies, Inc.:   DIGITIZING COMPANY
~OTHER INFORMATION
~A    DEPT    CALD        CNC       PORD        DEN       CORR       RFOC       RILD       RILM          GRR       DT        SPR   
# ...
 3971.0000     8.1314     0.0530     0.0072     2.6397    -0.0180    35.1096    13.3668    19.4555  -999.2500    59.2663   -22.0487
 3971.5000     8.2211     0.0611     0.0173     2.6210    -0.0129    87.9805    15.1560    20.0000  -999.2500    55.5804   -21.8121
 3972.0000     8.3074     0.0692     0.0270     2.6021    -0.0054    87.9805    17.1847    20.0988  -999.2500    55.9202   -21.4684
 3972.5000     8.3596     0.0758     0.0310     2.5948     0.0022    47.4507    19.4849    20.3715  -999.2500    57.8586   -21.1265
 3973.0000     8.3119     0.0774     0.0288     2.6008     0.0097    27.9140    20.5598    19.5861  -999.2500    60.3769   -20.8703
 3973.5000     8.2652     0.0789     0.0247     2.6070     0.0172    14.4107    20.0000    17.6306  -999.2500    62.9689   -20.8523
 3974.0000     8.2455     0.0798     0.0210     2.6116     0.0247    14.4524    17.1324    15.8703  -999.2500    63.6737   -20.8650
 3974.5000     8.2752     0.0856     0.0282     2.6045     0.0323    17.1230    14.9114    14.2858  -999.2500    63.2605   -20.8384
 3975.0000     8.3253     0.0922     0.0358     2.5923     0.0397    21.2282    13.8099    12.8594  -999.2500    62.3724   -21.0659
 3975.5000     8.3755     0.0993     0.0414     2.5800     0.0429    19.9966    13.3388    12.0573  -999.2500    62.4795   -21.2955
 3976.0000     8.4279     0.0991     0.0476     2.5678     0.0193    14.0568    12.9783    12.4199  -999.2500    63.6777   -21.4277
 3976.5000     8.4240     0.0978     0.0551     2.5593    -0.0191    11.0984    12.3845    12.8670  -999.2500    65.0310   -21.6050
 3977.0000     8.4122     0.1002     0.0507     2.5613    -0.0579    12.4110    11.7290    12.3739  -999.2500    65.9279   -21.6450
 3977.5000     8.3961     0.1050     0.0428     2.5742    -0.0683    14.6418    10.6971    11.6337  -999.2500    65.8759   -21.6072
 3978.0000     8.3803     0.1241     0.0394     2.5826    -0.0401    17.7452     9.3992    11.1528  -999.2500    64.8683   -21.5814
 3978.5000     8.3640     0.1440     0.0458     2.5762    -0.0095    17.2122     8.2587     9.3006  -999.2500    64.6394   -21.5496
 3979.0000     8.3318     0.1639     0.0555     2.5619     0.0207    16.3349     7.2566     6.4412  -999.2500    65.7665   -21.5212
 3979.5000     8.3000     0.1838     0.0617     2.5477     0.0419    10.5273     6.3762     5.7924  -999.2500    69.3455   -21.4911
 3980.0000     8.2670     0.2036     0.0670     2.5360     0.0356     7.4002     5.6025     5.1030  -999.2500    73.5412   -21.4604
 3980.5000     8.2312     0.2235     0.0684     2.5355     0.0240     6.1787     4.9227     4.4948  -999.2500    78.0307   -21.4578
 3981.0000     8.1936     0.2386     0.0675     2.5354     0.0151     5.6229     4.3286     4.0757  -999.2500    81.9960   -21.4556
 3981.5000     8.1541     0.2363     0.0648     2.5369     0.0217     5.2148     3.9605     3.9554  -999.2500    84.4675   -21.4613
 3982.0000     8.2183     0.2302     0.0609     2.5453     0.0283     5.1880     3.7077     3.8387  -999.2500    85.4431   -21.4501
 3982.5000     8.3521     0.2241     0.0577     2.5526     0.0231     5.1920     3.7143     3.7133  -999.2500    85.7958   -21.4721
 3983.0000     8.4677     0.2154     0.0538     2.5570     0.0087     5.1664     3.7106     3.8590  -999.2500    85.4389   -21.2954
 3983.5000     8.4385     0.1994     0.0398     2.5712    -0.0128     5.3153     3.7108     4.0293  -999.2500    84.7766   -21.1291
 3984.0000     8.4558     0.1854     0.0257     2.5928    -0.0344     5.4269     3.7157     4.2238  -999.2500    83.8939   -21.0403
 3984.5000     8.4856     0.1850     0.0189     2.6102    -0.0561     6.2008     3.5163     3.9839  -999.2500    80.8867   -20.9240
 3985.0000     8.5367     0.2037     0.0399     2.5934    -0.0542     6.9872     3.3473     3.7167  -999.2500    78.0262   -20.7323
 3985.5000     8.5019     0.2238     0.0597     2.5611    -0.0158     7.4542     3.1865     3.4675  -999.2500    76.6867   -20.9372
 3986.0000     8.4485     0.2440     0.0728     2.5280     0.0001     6.0015     3.0334     3.2349  -999.2500    77.5496   -21.2210
 3986.5000     8.3938     0.2641     0.0774     2.5218    -0.0008     4.7548     2.8877     3.0179  -999.2500    81.6016   -21.4678
 3987.0000     8.3997     0.2794     0.0695     2.5339     0.0055     4.0827     2.7490     2.8869  -999.2500    86.6767   -21.7488
 3987.5000     8.4713     0.2798     0.0628     2.5470     0.0164     3.9388     2.6169     2.7502  -999.2500    91.0861   -21.8601
 3988.0000     8.5425     0.2784     0.0561     2.5559     0.0284     4.0238     2.4912     2.5974  -999.2500    93.4722   -21.8299
 3988.5000     8.5419     0.2715     0.0514     2.5621     0.0373     4.1341     2.3440     2.4530  -999.2500    94.0626   -21.8234
 3989.0000     8.5088     0.2646     0.0523     2.5603     0.0287     4.2323     2.3226     2.3657  -999.2500  -999.2500   -21.8048
 3989.5000     8.5357     0.2577     0.0564     2.5537    -0.0020     4.4136     2.3657     2.4672  -999.2500  -999.2500   -21.7927
 3990.0000     8.5599     0.2508     0.0590     2.5506    -0.0070     4.3372     2.4096     2.5576  -999.2500  -999.2500   -21.7769
 3990.5000     8.4547     0.2457     0.0551     2.5574    -0.0333     4.1863     2.4795     2.6514  -999.2500  -999.2500   -21.7628
 3991.0000     8.3530     0.2506     0.0478     2.5702     0.0161     4.2122     2.5403     2.7485  -999.2500  -999.2500   -21.7487
 3991.5000     8.2658     0.2593     0.0405     2.5819     0.0538     4.2862     2.6027     2.8493  -999.2500  -999.2500   -21.7339
 3992.0000     8.2909     0.2630     0.0326     2.5889     0.0815     4.3451     2.6663     2.9537  -999.2500  -999.2500   -21.7218
 3992.5000     8.3142     0.2506     0.0326     2.5910     0.0705     4.6048     2.7954     3.0609  -999.2500  -999.2500   -21.7044
 3993.0000     8.3371     0.2361     0.0364     2.5858     0.0503     4.8354     2.8989     3.2056  -999.2500  -999.2500   -21.6959
 3993.5000     8.3600     0.2260     0.0414     2.5807     0.0303     5.1715     3.0759     3.3935  -999.2500  -999.2500   -21.6712
 3994.0000     8.3954     0.2121     0.0414     2.5820     0.0181     5.1241     3.2607     3.5924  -999.2500  -999.2500   -21.6783
 3994.5000     8.4344     0.1978     0.0270     2.5970     0.0271     4.7605     3.4568     3.8030  -999.2500  -999.2500   -21.4880
 3995.0000     8.4641     0.1966     0.0145     2.6146     0.0359     4.9028     3.6477     4.0259  -999.2500  -999.2500   -21.0267
 3995.5000     8.4062     0.1974     0.0118     2.6265     0.0432     5.3868     3.7240     4.1088  -999.2500  -999.2500   -20.6293
 3996.0000     8.3464     0.2021     0.0154     2.6212     0.0381     6.2854     3.7849     4.0230  -999.2500  -999.2500   -20.1327
 3996.5000     8.2867     0.2087     0.0196     2.6141     0.0460     6.6912     3.7847     3.9240  -999.2500  -999.2500   -19.8253
 3997.0000     8.2833     0.2153     0.0226     2.6094     0.0636     6.1538     3.7646     3.8274  -999.2500  -999.2500   -19.8322
 3997.5000     8.3695     0.2219     0.0256     2.6030     0.0811     5.6423     3.7412     3.7332  -999.2500  -999.2500   -19.7829
 3998.0000     8.4538     0.2285     0.0304     2.5955     0.0988     5.1733     3.7181     3.6122  -999.2500  -999.2500   -19.7637
 3998.5000     8.4656     0.2298     0.0362     2.5865     0.1003     4.8753     3.6953     3.6248  -999.2500  -999.2500   -19.7253
 3999.0000     8.4719     0.2290     0.0420     2.5777     0.0633     4.7250     3.6456     3.6456  -999.2500  -999.2500   -19.7027
 3999.5000     8.4783     0.2266     0.0462     2.5751     0.0223     4.6309     3.5422     3.7083  -999.2500  -999.2500   -19.6625
 4000.0000     8.4857     0.2182     0.0415     2.5825    -0.0052     4.8696     3.4499     4.2238  -999.2500  -999.2500   -19.7217
 4000.5000     8.4406     0.2105     0.0374     2.5863     0.0025     5.2343     3.3597     4.1088  -999.2500  -999.2500   -19.8401
 4001.0000     8.3909     0.2078     0.0388     2.5821     0.0144     5.6263     3.2622     3.7913  -999.2500  -999.2500   -19.9383
