~VERSION INFORMATION
 VERS.                2.0:   CWLS LOG ASCII STANDARD - VERSION 2.0
 WRAP.                 NO:   ONE LINE PER DEPTH STEP
~WELL INFORMATION
#MNEM.UNIT      DATA TYPE    INFORMATION
#----------   ------------   ------------------------------
 STRT.F          664.0000:   START DEPTH
 STOP.F         1880.0000:   STOP DEPTH
 STEP.F            0.5000:   STEP LENGTH
 NULL.          -999.2500:   NO VALUE
 COMP. LAWRENCE/ALLISON INC:   COMPANY
 WELL.     NPR 3 TX #42-3:   WELL
 FLD .             TEAPOT:   FIELD
 LOC .       S3 T38N R78W:   LOCATION
 CNTY.            NATRONA:   COUNTY
 STAT.            WYOMING:   STATE
 CTRY. UNITED STATES OF AMERICA:   COUNTRY
 SRVC.            Unknown:   SERVICE COMPANY
 DATE.        23-JUN-1984:   LOGDATE
 API .       490251096800:   API NUMBER
~CURVE INFORMATION
#MNEM.UNIT       API CODE    CURVE DESCRIPTION
#----------   ------------   ------------------------------
 DEPT.F                  :   
 ROP .MIN/FT 91 810 01 00:   RAT OF DRILLING PENETRATION
 TGAS.UNITS  91 830 01 00:   TOTAL GAS FROM HOTWIRE
~PARAMETER INFORMATION
#MNEM.UNIT          VALUE    DESCRIPTION
#----------   ------------   ------------------------------
 EKB .F              5142:   KELLING BUSHING
 EGL .F              5132:   GROUND LEVEL
 DATE.            6-23-84:   RUN DATE
 BLI .F              1180:   BOTTOM LOG INTERVAL
 TLI .F               660:   TOP LOG INTERVAL
 CS  .IN            8.625:   CASING SIZE
 CBD .F               653:   CASING BOTTOM DRILLER
 LUN .               T-63:   LOGGING UNIT NUMBER
 ENGI.            JOHNSON:   RECORDING ENGINEER
 WITN.           SCHERGER:   WITNESSED BY
 CLNT.            A2DTECH:   CLIENT CODE
 ORIG.           5" PRINT:   ORIGIN OF DATA
 UWI .       490251096800:   UNIQUE WELL ID
 DICO. A2D Technologies, Inc.:   DIGITIZING COMPANY
~OTHER INFORMATION
~A   DEPT        ROP       TGAS 
# ...
  785.5000     1.2867     7.9477
  786.0000     1.3079     7.9992
  786.5000     1.3498     8.0507
  787.0000     1.3916     8.1022
  787.5000     1.4335     8.1537
  788.0000     1.4546     8.2052
  788.5000     1.5171     8.2567
  789.0000     1.5176     8.3082
  789.5000     1.5181     8.3597
  790.0000     1.5187     8.4112
  790.5000     1.4777     8.5513
  791.0000     1.4370     8.5142
  791.5000     1.4375     8.5786
  792.0000     1.4587     7.5658
  792.5000     1.5006     5.5145
  793.0000     1.5011     5.5789
  793.5000     1.5222     5.6303
  794.0000     1.5227     5.6819
  794.5000     1.5233     5.7333
  795.0000     1.5238     5.7849
  795.5000     1.5036     5.8363
  796.0000     1.4628     5.8878
  796.5000     1.2963     5.9404
  797.0000     1.1058     5.9930
  797.5000     0.9453     6.0552
  798.0000     0.9966    40.8030
  798.5000     1.1969    88.1547
  799.0000     1.3214    48.2658
  799.5000     1.4045    24.1350
  800.0000     1.5291    22.0794
  800.5000     1.6752    21.0280
  801.0000     1.7800    21.0280
  801.5000     1.9272    21.0280
  802.0000     2.0131    21.0280
  802.5000     2.0282    21.0280
  803.0000     2.0242    21.0280
  803.5000     2.0202    21.0280
  804.0000     2.0246    19.9766
  804.5000     2.1509    19.9766
  805.0000     2.2772    18.9252
  805.5000     2.4035    16.8224
  806.0000     2.4980    16.8224
  806.5000     2.5202    16.8224
  807.0000     2.5217    17.8738
  807.5000     2.5232    16.8224
  808.0000     2.4218    16.8224
  808.5000     2.2580    16.8224
  809.0000     2.0322    15.7710
  809.5000     1.9714    13.6682
  810.0000     2.0352     9.4626
  810.5000     2.1401     7.3598
  811.0000     2.2862     7.3598
  811.5000     2.3704     7.3598
  812.0000     2.2548     7.3598
  812.5000     1.9192     5.2570
  813.0000     1.6934     3.1542
  813.5000     1.4883     2.1028
  814.0000     1.4897     0.0000
  814.5000     1.4912     0.0000
  815.0000     1.4928     0.0000
  815.5000     1.4943     0.0000
  816.0000     1.4959     0.0000
  816.5000     1.4974     0.0000
  817.0000     1.4990     0.0000
  817.5000     1.5005     0.0000
  818.0000     1.5021     0.0000
  818.5000     1.5036     0.0000
  819.0000     1.5052     0.0000
  819.5000     1.5067     0.0000
  820.0000     1.4879     0.0145
  820.5000     1.5512     0.1109
  821.0000     1.5940     0.2133
  821.5000     1.6782     0.3156
  822.0000     1.6798     3.5748
  822.5000     1.5783     3.7002
  823.0000     1.4971     2.7256
  823.5000     1.4160     1.7765
  824.0000     1.3142     2.9559
  824.5000     1.1917     4.1096
  825.0000     1.1106     4.2120
  825.5000     1.0295     4.3144
  826.0000     0.9896     3.3645
  826.5000     1.0122     2.4163
  827.0000     1.0550     1.4673
  827.5000     1.1185     0.5182
  828.0000     1.1613     0.6462
  828.5000     1.2868     0.7486
  829.0000     1.4123     1.9023
  829.5000     1.4758     4.1075
  830.0000     1.4979     7.3641
  830.5000     1.3111    13.7749
  831.0000     1.1501    17.0327
  831.5000     1.0276    13.8175
  832.0000     1.0498     2.5421
  832.5000     1.0513     1.5675
  833.0000     1.1148     1.6955
  833.5000     1.1989     2.8492
  834.0000     1.2831     5.0544
  834.5000     1.2226     5.1568
  835.0000     1.1381     5.2592
  835.5000     1.0607     5.3622
  836.0000     0.9589     5.4673
  836.5000     0.8980     5.5919
  837.0000     0.8586     5.6942
  837.5000     0.7978     5.7966
  838.0000     0.8203     6.9503
  838.5000     1.0491     7.0527
  839.0000     1.2614     7.1551
  839.5000     1.4863     7.2574
  840.0000     1.5495    10.5140
  840.5000     1.4880    10.5666
  841.0000     1.4887    10.6192
  841.5000     1.4892    10.6717
  842.0000     1.4897    10.7243
  842.5000     1.2629    10.7769
  843.0000     0.9742    10.8294
  843.5000     0.6855    10.8820
  844.0000     0.5620    10.9346
  844.5000     0.6038    10.9871
  845.0000     0.7490    11.0397
  845.5000     0.8735    11.0923
  846.0000     0.9164    11.1449
  846.5000     0.9193    11.1974
  847.0000     0.9222    11.2500
  847.5000     0.9250    11.3026
  848.0000     0.9279    11.3551
  848.5000     0.9308    11.4077
  849.0000     0.9337    11.4603
  849.5000     0.9365    11.5128
  850.0000     0.9394    11.5654
  850.5000     0.8993    11.6180
  851.0000     0.8379    11.6705
  851.5000     0.7969    11.7231
  852.0000     0.7561    11.7757
  852.5000     0.6741    11.8283
  853.0000     0.5920    11.8808
  853.5000     0.5305    11.9334
  854.0000     0.5102    11.9860
  854.5000     0.5109    12.0385
  855.0000     0.5734    12.0911
  855.5000     0.6565    12.1437
  856.0000     0.9256    14.3042
  856.5000     1.3394    23.8182
  857.0000     1.7738    21.7539
  857.5000     1.9809    18.6640
  858.0000     1.9814    13.4584
  858.5000     1.9819    10.3556
  859.0000     1.9824     9.3555
  859.5000     1.9830     8.3684
  860.0000     2.0661     7.3641
  860.5000     2.0041     6.3319
  861.0000     1.8987     7.4154
  861.5000     1.7562     6.3832
  862.0000     1.6570     6.4153
  862.5000     1.5960     6.4409
  863.0000     1.4320     7.5179
  863.5000     1.3297     8.5952
  864.0000     1.3098     8.6215
  864.5000     1.4144     7.6013
  865.0000     1.4981     8.6783
  865.5000     1.5611     7.6461
  866.0000     1.5773     7.6782
  866.5000     1.6044     7.7039
  867.0000     1.6054     7.7295
  867.5000     1.5445     7.7552
  868.0000     1.4629     7.7808
  868.5000     1.3606     7.8066
  869.0000     1.3409     7.8329
  869.5000     1.3006     7.8641
  870.0000     1.2397     7.8898
  870.5000     1.1994     7.9154
  871.0000     1.2004     7.9411
  871.5000     1.2014     7.9667
  872.0000     1.2233     7.9923
  872.5000     1.2863     8.0180
  873.0000     1.3700     8.0436
  873.5000     1.4330     8.0695
  874.0000     1.5167     2.8380
  874.5000     1.6003     3.9214
  875.0000     1.6840     3.9470
  875.5000     1.7264     5.0241
  876.0000     1.6241     6.1011
  876.5000     1.4391     8.2296
  877.0000     1.3573     8.2552
  877.5000     1.2963     8.2809
  878.0000     1.2560     5.1523
  878.5000     1.2366     4.1265
  879.0000     1.2169     4.2935
  879.5000     1.2180     5.2356
  880.0000     1.2399     6.3211
  880.5000     1.2414     6.5035
  881.0000     1.3256     6.6858
  881.5000     1.3478     6.8682
  882.0000     1.3906     7.0506
  882.5000     1.4128     7.2329
  883.0000     1.4556     7.4153
  883.5000     1.4778     7.5976
  884.0000     1.4796    13.0404
  884.5000     1.4811   100.5856
  885.0000     1.4827   129.0558
  885.5000     1.5255   115.2427
  886.0000     1.5270    98.9715
  886.5000     1.5075    86.5353
  887.0000     1.4267    70.9449
  887.5000     1.3456    60.6115
  888.0000     1.2837    42.8731
  888.5000     1.1725    42.0023
  889.0000     1.0612    42.2281
  889.5000     0.9801    42.4087
  890.0000     0.9816    42.5893
  890.5000     0.9621    42.7699
  891.0000     0.9639    42.9505
  891.5000     1.0068    43.1337
  892.0000     1.1942    54.3870
  892.5000     1.3008   218.0251
  893.0000     1.5165   154.1153
  893.5000     1.5707    53.3613
  894.0000     1.4073    49.2761
  894.5000     1.2228    48.4505
  895.0000     1.0590    44.4255
  895.5000     1.0395    43.5543
  896.0000     1.0204    42.6839
  896.5000     1.0636    42.8709
  897.0000     1.1894    43.0903
  897.5000     1.2552    44.3223
  898.0000     1.2957    42.4001
  898.5000     1.2766    42.5807
  899.0000     1.2781    42.7613
  899.5000     1.2586    41.8454
  900.0000     1.2190    36.7905
  900.5000     1.1977    37.9709
  901.0000     1.1600    38.0741
  901.5000     1.1409    39.2029
  902.0000     1.1428    37.2291
  902.5000     1.2063    34.1781
  903.0000     1.3111    32.1527
  903.5000     1.3952    29.1238
  904.0000     1.4175    28.1776
  904.5000     1.4190    25.1196
  905.0000     1.3792    23.1287
  905.5000     1.3188    23.2360
  906.0000     1.2996    22.3095
  906.5000     1.2804    21.3355
