~VERSION INFORMATION
 VERS.                2.0:   CWLS LOG ASCII STANDARD - VERSION 2.0
 WRAP.                 NO:   ONE LINE PER DEPTH STEP
~WELL INFORMATION
#MNEM.UNIT      DATA TYPE    INFORMATION
#----------   ------------   ------------------------------
 STRT.F           83.0000:   START DEPTH
 STOP.F         3044.0000:   STOP DEPTH
 STEP.F            0.5000:   STEP LENGTH
 NULL.          -999.2500:   NO VALUE
 COMP.   TESORO PETROLEUM:   COMPANY
 WELL.  NPR # 3  AX #81-4:   WELL
 FLD .        TEAPOT DOME:   FIELD
 LOC .       S4 T38N R78W:   LOCATION
 CNTY.            NATRONA:   COUNTY
 STAT.            WYOMING:   STATE
 CTRY. UNITED STATES OF AMERICA:   COUNTRY
 SRVC.       Schlumberger:   SERVICE COMPANY
 DATE.        31-JUL-1969:   LOGDATE
 API .       490251002700:   API NUMBER
~CURVE INFORMATION
#MNEM.UNIT       API CODE    CURVE DESCRIPTION
#----------   ------------   ------------------------------
 DEPT.F                  :   
 CILD.MMHO   05 110 46 00:   CONDUCTIVITY INDUCTION LOG DEEP
 ILD .OHMM   05 120 46 00:   INDUCTION LOG DEEP
 SN  .OHMM   05 040 16 00:   SHORT NORMAL 16"
 SPR .MV     05 010 01 00:   SPONTANEOUS POTENTIAL FROM RES.
 CALD.IN     45 280 60 00:   CALIPER FROM DENSITY
 DPHI.DEC    45 890 12 00:   DENSITY POROSITY SANDSTONE
 GRD .GAPI   45 310 01 00:   GAMMA RAY FROM DENSITY LOG
 RHOB.G/C3   45 350 01 00:   BULK DENSITY
 DRHO.G/C3   45 356 01 00:   DENSITY CORRECTION
~PARAMETER INFORMATION
#MNEM.UNIT          VALUE    DESCRIPTION
#----------   ------------   ------------------------------
 PD  .                 GL:   PERMANENT DATUM
 EPD .F              5170:   ELEVATION PERMANENT DATUM
 LMF .                 KB:   LOG MEASURED FROM
 DAPD.F                13:   FEET ABOVE PERMANENT DATUM
 DMF .                 KB:   DRILLING MEASURED FROM
 EKB .F              5183:   KELLING BUSHING
 EGL .F              5170:   GROUND LEVEL
 DATE.            7-31-69:   RUN DATE
 RUN .                  2:   RUN NUMBER
 DD  .F              3047:   DEPTH DRILLER
 DL  .F              3044:   DEPTH LOGGER
 BLI .F              3043:   BOTTOM LOG INTERVAL
 TLI .F               626:   TOP LOG INTERVAL
 CS  .IN            10.75:   CASING SIZE
 CBD .F               625:   CASING BOTTOM DRILLER
 CBL .F               626:   CASING BOTTOM LOGGER
 BS  .IN             6.25:   BIT SIZE
 BSD .F              3047:   BIT SIZE AT DEPTH
 DFT .      FRESH GEL MUD:   DRILLING FLUID TYPE
 DFD .                9.7:   DRILLING FLUID DENSITY
 DFV .                 50:   DRILLING FLUID VISCOSITY
 DFPH.                9.5:   DRILLING FLUID PH
 DFL .                  8:   DRILLING FLUID LOSS
 MSS .          FLOW LINE:   MUD SAMPLE SOURCE
 RMS .OHMM           1.35:   RESISTIVITY MUD SAMPLE
 MST .F                74:   MUD SAMPLE TEMPERATURE
 RMF .OHMM            .81:   RESISTIVITY MUD FILTRATE SAMPLE
 MFST.F                74:   MUD FILTRATE SAMPLE TEMPERATURE
 MFSS.                  M:   MUD FILTRATE SAMPLE SOURCE
 RMB .OHMM            .83:   RESISTIVITY MUD AT BHT
 BHT .F               121:   BOTTOM HOLE TEMPERATURE
 TCS .HRS               4:   TIME CURCULATED STOPPED
 MRT .F               121:   MAXIMUM RECORDED TEMPERATURE
 LUN .               4507:   LOGGING UNIT NUMBER
 LUL .               CSPR:   LOGGING UNIT LOCATION
 ENGI.               MIXA:   RECORDING ENGINEER
 WITN.                MAY:   WITNESSED BY
 CLNT.            A2DTECH:   CLIENT CODE
 ORIG.     1", 2.5" PRINT:   ORIGIN OF DATA
 UWI .       490251002700:   UNIQUE WELL ID
 DICO. A2D Technologies, Inc.:   DIGITIZING COMPANY
~OTHER INFORMATION
~A   DEPT      CILD       ILD         SN        SPR       CALD       DPHI        GRD       RHOB       DRHO   
# ...
 2820.5000   386.2126     2.0863     4.3412    -9.0235     8.6234     0.0808   171.1068     2.4885     0.0401
 2821.0000   508.0141     1.6837     3.6931    -8.8364     8.6230     0.1090   167.9776     2.4504     0.0496
 2821.5000   551.2592     1.3620     3.0452    -8.6958     8.6225     0.1185   161.5018     2.4437     0.0620
 2822.0000   602.1925     1.1346     2.5348    -8.6964     8.6221     0.1261   145.4717     2.4234     0.0736
 2822.5000   648.4961     0.9745     2.3637    -9.0239     8.6216     0.1369   119.4594     2.3793     0.0787
 2823.0000   679.3677     0.9226     2.3660    -9.3513     8.6212     0.1554   106.9905     2.3351     0.0849
 2823.5000   677.8318     0.9241     2.3684    -9.8807     8.6207     0.1737   103.7817     2.3289     0.0829
 2824.0000   666.7935     0.9257     2.3707   -10.3149     8.6203     0.1451   104.4455     2.3580     0.0704
 2824.5000   565.6454     1.0823     2.4765   -10.4120     8.6199     0.1260   105.0465     2.4060     0.0617
 2825.0000   510.4606     1.2386     2.6415   -10.4176     8.6399     0.1049   106.8523     2.4541     0.0555
 2825.5000   460.0935     1.5497     3.0410   -10.4220     8.6488     0.0832   106.8509     2.5222     0.0494
 2826.0000   377.5561     1.8607     3.9381   -10.1178     8.6483     0.0661   104.3319     2.5642     0.0446
 2826.5000   297.2322     2.4858     5.3423   -10.1222     8.6478     0.0509   101.7906     2.5777     0.0433
 2827.0000   253.8830     3.1500     6.2791    -9.8180     8.6474     0.0431    98.8833     2.5583     0.0511
 2827.5000   219.9480     4.0622     6.7486    -9.5138     8.6470     0.0471    93.6783     2.5644     0.0827
 2828.0000   201.2543     4.4087     7.0624    -9.4980     8.6764     0.0540    87.8078     2.5734     0.0754
 2828.5000   176.3327     4.8951     7.3843    -9.1798     8.6779     0.0566    81.6466     2.5475     0.0613
 2829.0000   151.6834     5.3462     7.8650    -8.9098     8.7054     0.0512    77.0392     2.5435     0.0494
 2829.5000   142.4315     5.7554     8.2090    -8.8521     8.7100     0.0548    75.5136     2.5712     0.0421
 2830.0000   131.6364     6.4037     8.7227    -8.5340     8.7343     0.0614    75.5121     2.5890     0.0380
 2830.5000   114.6685     7.2192     9.6178    -8.3071     8.7339     0.0375    75.8290     2.6066     0.0380
 2831.0000    97.5619     8.4774    11.7206    -8.3117     8.7434     0.0244    77.1644     2.6225     0.0570
 2831.5000    80.3988    10.0031    14.0608    -8.3164     8.8240     0.0074    80.6004     2.6260     0.0749
 2832.0000    74.1045    11.9268    15.5880    -8.4548     8.9140     0.0084    84.2103     2.6100     0.0889
 2832.5000    69.2701    13.5257    16.9493    -8.7822     8.9123     0.0261    85.5911     2.6063     0.0975
 2833.0000    64.4374    14.3169    18.0272    -8.9475     8.8736     0.0218    82.7316     2.6120     0.1009
 2833.5000    61.0687    14.7712    18.1600    -8.9522     8.7796     0.0222    79.1158     2.5970     0.1022
 2834.0000    62.2531    14.8885    17.9154    -8.9568     8.6928     0.0314    78.5119     2.5886     0.0896
 2834.5000    62.7689    14.8901    17.7551    -8.9614     8.6216     0.0257    79.1129     2.6072     0.0669
 2835.0000    64.3902    14.6568    17.4105    -9.1847     8.5590     0.0023    80.3782     2.6371     0.0487
 2835.5000    66.0121    14.1195    16.9248    -9.5121     8.6562    -0.0007    85.1341     2.6507     0.0407
 2836.0000    67.6340    13.6566    16.5452    -9.5935     8.8537     0.0101    83.0363     2.6192     0.0396
 2836.5000    70.0463    13.1937    16.2222    -9.5979     8.9802     0.0205    80.8094     2.6163     0.0501
 2837.0000    74.1430    12.7307    15.7795   -10.2196     9.0557     0.0127    80.8581     2.6270     0.0580
 2837.5000    78.0608    12.2678    15.3626   -10.2240     9.1063     0.0061    83.2262     2.6347     0.0623
 2838.0000    80.2934    11.7904    14.8975   -10.2285     9.1496     0.0095    85.5333     2.6389     0.0623
 2838.5000    82.9896    11.1665    14.7440   -10.2330     9.1377     0.0306    87.5346     2.6185     0.0580
 2839.0000    86.2244    10.8447    14.5905   -10.2146     9.0707     0.0378    87.5331     2.6051     0.0496
 2839.5000    89.4600    10.5471    14.2812    -9.8963     9.0413     0.0323    87.8307     2.5975     0.0427
 2840.0000    93.2111    10.3869    13.8110    -9.6289     9.0418     0.0162    89.1263     2.6049     0.0536
 2840.5000    93.2185    10.2647    13.6626    -9.5687     8.9528     0.0044    91.7566     2.6233     0.0610
 2841.0000    93.2259    10.3109    13.7029    -9.2505     8.9226     0.0155    97.3074     2.6312     0.0601
 2841.5000    91.6900    10.5255    14.0306    -9.0262     8.8325     0.0376   102.5738     2.6046     0.0523
 2842.0000    88.5591    10.9086    14.3583    -8.9228     8.8015     0.0440   104.2499     2.5691     0.0442
 2842.5000    85.4355    11.3300    14.6859    -8.7269     8.7653     0.0478   103.7874     2.5691     0.0621
 2843.0000    83.8298    11.5108    14.9670    -8.5951     8.7097     0.0475   104.9908     2.5860     0.0792
 2843.5000    82.4603    11.3547    15.1320    -8.4275     8.6872     0.0407   106.7966     2.5958     0.0852
 2844.0000    84.3213    11.0330    15.1162    -8.4321     8.6776     0.0373   103.7831     2.5837     0.0729
 2844.5000    85.9432    10.7113    14.7933    -8.4367     8.6348     0.0520    99.4011     2.5617     0.0493
 2845.0000    88.0154    10.3896    14.4704    -8.4414     8.5993     0.0537    94.7441     2.5812     0.0338
 2845.5000    91.2503    10.1740    14.1475    -8.4460     8.5847     0.0412    95.3451     2.5977     0.0413
 2846.0000    94.4863    10.0140    13.9123    -8.4506     8.5704     0.0291    94.3884     2.6068     0.0537
 2846.5000    96.3966     9.9737    13.7520    -8.4552     8.5710     0.0241    92.1823     2.6113     0.0639
 2847.0000    97.1377     9.9755    13.5916    -8.4607     8.5715     0.0202    89.1898     2.5977     0.0709
 2847.5000    97.9552     9.9770    13.5397    -8.4652     8.5720     0.0428    86.6493     2.5794     0.0771
 2848.0000    97.0881     9.9785    13.5421    -8.4696     8.5725     0.0498    84.3551     2.5680     0.0832
 2848.5000    95.4817     9.9799    13.6666    -8.4740     8.5731     0.0464    83.0081     2.5839     0.0877
 2849.0000    93.8763    10.2910    13.7029    -8.4784     8.5736     0.0368    81.7485     2.5991     0.0897
 2849.5000    91.1843    10.4594    14.0166    -8.1742     8.5741     0.0286    80.5309     2.5938     0.0877
 2850.0000    87.9638    10.7973    14.3304    -8.1790     8.5746     0.0308    79.8946     2.5818     0.0822
 2850.5000    82.5709    11.3034    14.6442    -8.1495     8.6050     0.0385    78.8493     2.5814     0.0765
 2851.0000    83.0658    11.9516    15.2709    -7.8796     8.6153     0.0427    86.8450     2.6004     0.0728
 2851.5000    79.8452    12.6329    15.6062    -7.8843     8.6956     0.0286    97.9546     2.6222     0.0716
 2852.0000    76.6254    13.3623    16.0820    -7.9198     8.7027     0.0133   109.7829     2.6365     0.0733
 2852.5000    73.4057    13.7074    16.4096    -8.2022     8.7265     0.0098   114.6008     2.6363     0.0765
 2853.0000    72.6158    13.7090    16.7090    -8.2659     8.7467     0.0152   119.4186     2.6301     0.0797
 2853.5000    75.1188    13.5890    16.8036    -8.5201     8.7987     0.0128   126.0493     2.6466     0.0822
 2854.0000    79.3069    13.1322    16.6012    -8.5247     8.8176     0.0026   131.6961     2.6346     0.0848
 2854.5000    83.1330    12.1893    16.1315    -8.5293     8.8181     0.0110   135.6794     2.6107     0.0860
 2855.0000    88.5548    10.4097    15.2647    -8.5340     8.8022     0.0223   118.9243     2.6122     0.0873
 2855.5000   102.0037     8.8536    14.0403    -8.5386     8.7713     0.0175   115.8782     2.6121     0.0878
 2856.0000   124.3225     7.6958    12.4163    -8.5432     8.7403     0.0247   113.9880     2.5918     0.0887
 2856.5000   136.6755     6.5060    11.0979    -8.5478     8.7093     0.0371   115.5474     2.5747     0.0910
