~VERSION INFORMATION
 VERS.                2.0:   CWLS LOG ASCII STANDARD - VERSION 2.0
 WRAP.                 NO:   ONE LINE PER DEPTH STEP
~WELL INFORMATION
#MNEM.UNIT      DATA TYPE    INFORMATION
#----------   ------------   ------------------------------
 STRT.F            0.0000:   START DEPTH
 STOP.F         3030.0000:   STOP DEPTH
 STEP.F            0.5000:   STEP LENGTH
 NULL.          -999.2500:   NO VALUE
 COMP. LAWRENCE/ALLISON INC:   COMPANY
 WELL. NAVAL PETROLEUM RESERVE 3 AX-3 #36  X 34-34:   WELL
 FLD .         N. P. R #3:   FIELD
 LOC .      S34 T39N R78W:   LOCATION
 CNTY.            NATRONA:   COUNTY
 STAT.            WYOMING:   STATE
 CTRY. UNITED STATES OF AMERICA:   COUNTRY
 SRVC.      Dresser Atlas:   SERVICE COMPANY
 DATE.        29-JUN-1985:   LOGDATE
 API .       490251103200:   API NUMBER
~CURVE INFORMATION
#MNEM.UNIT       API CODE    CURVE DESCRIPTION
#----------   ------------   ------------------------------
 DEPT.F                  :   
 RFOC.OHMM   07 220 01 00:   RESISTIVITY FOCUSED LOG
 RILM.OHMM   07 120 44 00:   RESITIVITY LONG MEDIUM
 SPR .MV     07 010 01 00:   SPONTANEOUS POTENTIAL
 RILD.OHMM   07 120 46 00:   INDUCTION LOG DEEP RESITIVITY
 GRR .GAPI   07 310 01 00:   GAMMA RAY
 DT  .US/F   60 520 00 00:   INTERVAL TRANSIT TIME
 CALD.IN     45 280 60 00:   CALIPER FROM DENSITY LOG
 CORR.G/C3   45 356 01 00:   DENSITY CORRECTION
 CNC .DEC    42 890 03 00:   NEUTRON POROSITY SANDSTONE
 DEN .G/C3   45 350 01 00:   COMPENSATED BULK DENSTIY
 PORD.DEC    45 890 12 00:   POROSITY DENSITY SANDSTONE
~PARAMETER INFORMATION
#MNEM.UNIT          VALUE    DESCRIPTION
#----------   ------------   ------------------------------
 PD  .                 GL:   PERMANENT DATUM
 EPD .F              5108:   ELEVATION PERMANENT DATUM
 LMF .                 KB:   LOG MEASURED FROM
 DAPD.F                12:   FEET ABOVE PERMANENT DATUM
 DMF .                 KB:   DRILLING MEASURED FROM
 EKB .F              5120:   KELLING BUSHING
 EGL .F              5108:   GROUND LEVEL
 DATE.       29-JUNE-1985:   RUN DATE
 RUN .                  1:   RUN NUMBER
 DD  .F              3033:   DEPTH DRILLER
 DL  .F              3033:   DEPTH LOGGER
 BLI .F              3030:   BOTTOM LOG INTERVAL
 CS  .IN            8.625:   CASING SIZE
 CBD .F               601:   CASING BOTTOM DRILLER
 CBL .F               601:   CASING BOTTOM LOGGER
 BS  .IN            7.875:   BIT SIZE
 BSD .F              3033:   BIT SIZE AT DEPTH
 DFT .   FOAM & KCL WATER:   DRILLING FLUID TYPE
 MSS .           FLOWLINE:   MUD SAMPLE SOURCE
 RMS .OHMM           0.44:   RESISTIVITY MUD SAMPLE
 MST .F                82:   MUD SAMPLE TEMPERATURE
 RMF .OHMM           0.44:   RESISTIVITY MUD FILTRATE SAMPLE
 MFST.F                82:   MUD FILTRATE SAMPLE TEMPERATURE
 MFSS.               MEAS:   MUD FILTRATE SAMPLE SOURCE
 RMB .OHMM           0.31:   RESISTIVITY MUD AT BHT
 BHT .F               116:   BOTTOM HOLE TEMPERATURE
 TCS .HRS               3:   TIME CURCULATED STOPPED
 MRT .F               116:   MAXIMUM RECORDED TEMPERATURE
 LUN .               6274:   LOGGING UNIT NUMBER
 LUL .               GLTE:   LOGGING UNIT LOCATION
 ENGI.             RAUTIO:   RECORDING ENGINEER
 WITN.       MR. JENNINGS:   WITNESSED BY
 CLNT.            A2DTECH:   CLIENT CODE
 ORIG.        2" 5" PRINT:   ORIGIN OF DATA
 UWI .       490251103200:   UNIQUE WELL ID
 DICO. A2D Technologies, Inc.:   DIGITIZING COMPANY
~OTHER INFORMATION
~A    DEPT    RFOC       RILM        SPR       RILD         GRR        DT       CALD       CORR        CNC        DEN       PORD   
# ...
 2409.5000     6.2373     4.5634    32.9578     4.5886   116.7678    85.9754     7.2858    -0.0251     0.2920     2.5442     0.0602
 2410.0000     5.8049     4.5664    32.9592     4.5920   119.2121    85.3909     7.2711    -0.0538     0.2938     2.5302     0.0704
 2410.5000     4.9275     4.6021    32.9607     4.6275   124.3887    86.6665     7.2714    -0.0445     0.3010     2.5325     0.0722
 2411.0000     4.7608     4.7024    33.1139     4.6952   127.7421    89.3333     7.2868    -0.0204     0.3007     2.5362     0.0707
 2411.5000     4.7291     4.7715    33.1575     4.7972   128.9742    98.1784     7.3323     0.0052     0.2843     2.5431     0.0682
 2412.0000     4.7672     4.8755    33.2688     4.9014   128.9943   104.4995     7.3627     0.0278     0.2740     2.5543     0.0631
 2412.5000     5.1462     5.0525    33.4660     5.0437   119.3224   105.7000     7.3630     0.0203     0.2710     2.5574     0.0591
 2413.0000     5.7549     5.2350    33.5752     5.1893   112.3727   104.7875     7.3320    -0.0202     0.2734     2.5582     0.0567
 2413.5000     6.3465     5.4241    33.7284     5.3764   108.7564   102.8291     7.3033    -0.0052     0.2824     2.5567     0.0558
 2414.0000     6.8112     5.5811    33.7301     5.5316   107.5643    98.4574     7.2885     0.0234     0.2845     2.5582     0.0563
 2414.5000     6.7159     5.8241    33.7316     5.7809   107.5848    95.1399     7.2738     0.0445     0.2842     2.5688     0.0566
 2415.0000     6.5797     6.0345    33.7330     6.0500   108.2155    88.2131     7.2892     0.0521     0.2675     2.5952     0.0530
 2415.5000     6.4462     6.2091    33.8862     6.2824   107.6244    86.0949     7.2895     0.0626     0.2215     2.6139     0.0463
 2416.0000     6.4040     6.3444    34.0395     6.4313    97.6495    88.4243     7.2898     0.0131     0.2140     2.6177     0.0326
 2416.5000     6.9171     6.5291    34.0412     6.6513    90.0638    88.7213     7.3052    -0.0004     0.2251     2.6050     0.0178
 2417.0000     7.8984     6.5333    34.1943     6.6091    88.5987    85.4027     7.3055    -0.0079     0.2399     2.5779     0.0308
 2417.5000     8.7104     6.3580    34.0440     6.3422    94.0783    83.6666     7.3058    -0.0078     0.2586     2.5599     0.0407
 2418.0000     9.0225     6.2707    33.8941     6.1296   102.5832    82.9093     7.3061    -0.0048     0.2719     2.5530     0.0505
 2418.5000     7.1243     6.1456    33.7438     6.0898   112.9062    85.3901     7.2762     0.0044     0.2825     2.5441     0.0588
 2419.0000     6.8355     6.0254    33.5931     6.0099   114.7495    87.4932     7.2614     0.0149     0.2837     2.5426     0.0624
 2419.5000     6.7907     5.9469    33.5949     6.0135   114.7695    87.0371     7.2467     0.0224     0.2791     2.5426     0.0639
 2420.0000     6.8410     5.9086    33.4242     5.9347   114.1785    85.1729     7.2470     0.0210     0.2742     2.5434     0.0645
 2420.5000     6.8921     5.8723    33.2943     5.8961   113.5970    83.8653     7.2473     0.0180     0.2778     2.5434     0.0647
 2421.0000     6.8948     5.8354    33.2960     5.8586   114.5673    83.4846     7.2476     0.0165     0.2802     2.5435     0.0647
 2421.5000     6.8975     5.7987    33.2974     5.7817   115.1577    83.7063     7.2479     0.0119     0.2778     2.5420     0.0647
 2422.0000     6.8932     5.7622    33.1350     5.7861   114.8697    84.3787     7.2633     0.0046     0.2787     2.5292     0.0650
 2422.5000     6.8550     5.7669    32.8455     5.7484   114.5867    85.0522     7.2636    -0.0044     0.2814     2.5172     0.0779
 2423.0000     6.7166     5.8120    32.6948     5.7929   114.3088    86.1021     7.2654    -0.0103     0.2859     2.5142     0.0806
 2423.5000     6.5347     5.8565    32.3931     5.8777   113.7277    86.4008     7.2793    -0.0148     0.2850     2.5135     0.0812
 2424.0000     6.3137     5.9841    32.2387     5.9645   113.1417    86.4699     7.2946    -0.0208     0.2771     2.5135     0.0811
 2424.5000     6.1856     6.1573    28.2992     6.0941   112.2527    86.4654     7.2949    -0.0270     0.2695     2.5105     0.0824
 2425.0000     6.3193     6.3419    11.8281     6.2700   112.2727    86.4608     7.2952    -0.0312     0.2661     2.5060     0.0875
 2425.5000     6.6838     6.5306   -33.1397     6.3618   112.6008    86.4563     7.2955    -0.0311     0.2676     2.4993     0.0908
 2426.0000     7.1692     6.7557   -52.8802     6.3665   110.8027    86.3758     7.2958    -0.0266     0.2709     2.4948     0.0886
 2426.5000     7.5828     6.9512     4.6331     6.3702   110.2116    85.8445     7.2961    -0.0160     0.2754     2.5076     0.0850
 2427.0000     7.6921     6.7646    43.9365     6.4185   111.4488    85.2379     7.2964    -0.0130     0.2860     2.5091     0.0837
 2427.5000     7.7489     6.2661    48.1864     6.3777   111.4739    84.5549     7.2967    -0.0189     0.2905     2.5076     0.0846
 2428.0000     7.4875     6.1450    35.7451     6.2061   111.1909    83.9482     7.3121    -0.0339     0.2778     2.5077     0.0858
 2428.5000     7.0847     6.1053    35.2913     6.1667   108.4837    83.7944     7.3123    -0.0384     0.2584     2.5077     0.0852
 2429.0000     6.7035     6.1103    35.4448     6.1275   109.4128    84.6175     7.3127    -0.0308     0.2523     2.5092     0.0800
 2429.5000     6.4318     6.2002    35.4463     6.0893   113.4330    85.1393     7.3280    -0.0142     0.2520     2.5175     0.0712
 2430.0000     6.2142     6.2486    35.5994     6.0932   109.7609    85.1350     7.3434     0.0041     0.2632     2.5303     0.0672
 2430.5000     6.4375     6.2964    35.6009     6.1402   106.7456    84.6790     7.3437     0.0159     0.2737     2.5364     0.0663
 2431.0000     6.8089     6.2558    35.7544     6.1438   106.1596    83.9860     7.3590     0.0175     0.2843     2.5386     0.0670
 2431.5000     7.4050     6.2139    35.7558     6.1474   106.8009    83.3894     7.3593     0.0160     0.2900     2.5379     0.0726
 2432.0000     7.9428     6.1354    36.0608     6.1511   110.7552    83.3098     7.3446    -0.0080     0.2909     2.5221     0.0828
 2432.5000     7.7817     6.0134    36.1419     6.0274   110.4722    83.3809     7.3449    -0.0545     0.2909     2.4996     0.1006
 2433.0000     7.4663     5.8929    36.5190     5.8661   109.5781    83.6015     7.3452    -0.0342     0.2939     2.4823     0.1140
 2433.5000     7.1140     5.7748    36.6722     5.7081   109.6032    83.8985     7.3417     0.0222     0.2996     2.4596     0.1178
 2434.0000     6.9697     5.6986    36.6737     5.6679   110.8404    84.7226     7.3307     0.0267     0.2947     2.4545     0.1093
 2434.5000     7.2705     5.6244    36.6753     5.5968   112.9816    87.4292     7.3310     0.0027     0.2856     2.4688     0.0939
 2435.0000     8.5961     5.5117    36.3736     5.5226   115.4259    88.2526     7.3313     0.0013     0.2796     2.4944     0.0860
 2435.5000     9.4140     5.4359    36.3005     5.4115   117.5672    87.5706     7.3316    -0.0002     0.2813     2.5080     0.0836
 2436.0000     7.2798     5.3681    36.2244     5.3779   118.8401    86.8883     7.3320     0.0001     0.2841     2.5133     0.0811
 2436.5000     6.1621     5.3716    36.2261     5.3819   113.9759    86.8841     7.3473     0.0044     0.2802     2.5126     0.0766
 2437.0000     6.1645     5.3370    36.2279     5.3106   109.4505    87.1804     7.3476     0.0090     0.2695     2.5246     0.0681
 2437.5000     6.3854     5.3043    36.4526     5.3137   105.8342    89.9038     7.3479     0.0105     0.2683     2.5352     0.0644
 2438.0000     6.7544     5.2709    36.6859     5.2799   104.0360    96.2070     7.3482     0.0061     0.2697     2.5412     0.0653
 2438.5000     6.9479     5.2386    36.8392     5.2464   107.3944    99.6891     7.3485     0.0016     0.2758     2.5412     0.0662
 2439.0000     6.8545     5.2056    37.1442     5.2138   108.0205   101.2447     7.3489     0.0031     0.2866     2.5390     0.0668
 2439.5000     6.8090     5.2091    37.2976     5.1799   108.9497    99.9593     7.3491     0.0107     0.2914     2.5383     0.0674
