~VERSION INFORMATION
 VERS.                2.0:   CWLS LOG ASCII STANDARD - VERSION 2.0
 WRAP.                 NO:   ONE LINE PER DEPTH STEP
~WELL INFORMATION
#MNEM.UNIT      DATA TYPE    INFORMATION
#----------   ------------   ------------------------------
 STRT.F          100.0000:   START DEPTH
 STOP.F          780.0000:   STOP DEPTH
 STEP.F            0.5000:   STEP LENGTH
 NULL.          -999.2500:   NO VALUE
 COMP. U S NAVY-INTEX OIL:   COMPANY
 WELL.        NPR #34-S-2:   WELL
 FLD .             TEAPOT:   FIELD
 LOC .       S2 T38N R78W:   LOCATION
 CNTY.            NATRONA:   COUNTY
 STAT.            WYOMING:   STATE
 CTRY. UNITED STATES OF AMERICA:   COUNTRY
 SRVC.       Schlumberger:   SERVICE COMPANY
 DATE.        16-JUL-1962:   LOGDATE
 API .       490250644000:   API NUMBER
~CURVE INFORMATION
#MNEM.UNIT       API CODE    CURVE DESCRIPTION
#----------   ------------   ------------------------------
 DEPT.F                  :   
 ASN .OHMM   05 041 16 00:   AMPLIFIED SHORT NORMAL 16"
 CILD.MMHO   05 110 46 00:   CONDUCTIVITY INDUCTION LOG DEEP
 ILD .OHMM   05 120 46 00:   INDUCTION LOG DEEP
 SPR .MV     05 010 01 00:   SPONTANEOUS POTENTIAL FROM RES.
 CALM.IN     15 280 01 00:   CALIPER FROM MICRO LOG
 GR  .GAPI   30 310 01 00:   GAMMA RAY
~PARAMETER INFORMATION
#MNEM.UNIT          VALUE    DESCRIPTION
#----------   ------------   ------------------------------
 LMF .                 KB:   LOG MEASURED FROM
 DMF .                 KB:   DRILLING MEASURED FROM
 EKB .F              5130:   KELLING BUSHING
 EGL .F              5125:   GROUND LEVEL
 DATE.        16-JUL-1962:   RUN DATE
 RUN .                  1:   RUN NUMBER
 DD  .F               780:   DEPTH DRILLER
 DL  .F               781:   DEPTH LOGGER
 BLI .F               780:   BOTTOM LOG INTERVAL
 TLI .F               100:   TOP LOG INTERVAL
 CBD .F                10:   CASING BOTTOM DRILLER
 BS  .IN             6.75:   BIT SIZE
 BSD .F               780:   BIT SIZE AT DEPTH
 DFT .       OIL EMULSION:   DRILLING FLUID TYPE
 DFD .               10.3:   DRILLING FLUID DENSITY
 DFV .                 43:   DRILLING FLUID VISCOSITY
 DFL .                4.6:   DRILLING FLUID LOSS
 RMS .OHMM              4:   RESISTIVITY MUD SAMPLE
 MST .F                82:   MUD SAMPLE TEMPERATURE
 RMF .OHMM            3.1:   RESISTIVITY MUD FILTRATE SAMPLE
 MFST.F                82:   MUD FILTRATE SAMPLE TEMPERATURE
 RMC .OHMM            4.3:   RESISTIVITY MUD CAKE
 MCST.F                82:   MUD CAKE SAMPLE TEMPERATURE
 TCS .HRS             0.5:   TIME CURCULATED STOPPED
 LUN .               2503:   LOGGING UNIT NUMBER
 LUL .               CSPR:   LOGGING UNIT LOCATION
 ENGI.           ELLERMAN:   RECORDING ENGINEER
 WITN.          JORGENSON:   WITNESSED BY
 CLNT.            A2DTECH:   CLIENT CODE
 ORIG.           5" PRINT:   ORIGIN OF DATA
 UWI .       490250644000:   UNIQUE WELL ID
 DICO. A2D Technologies, Inc.:   DIGITIZING COMPANY
~OTHER INFORMATION
~A   DEPT       ASN       CILD         ILD      SPR       CALM         GR   
# ...
  308.0000     7.5983   126.1368     7.9942   -50.1012  -999.2500  -999.2500
  308.5000     7.7181   128.3603     7.9049   -50.2470  -999.2500  -999.2500
  309.0000     7.8231   129.8255     7.7716   -50.2440  -999.2500  -999.2500
  309.5000     7.7935   131.3547     7.7344   -50.2411  -999.2500  -999.2500
  310.0000     7.7041   134.2822     7.6015   -50.2381  -999.2500  -999.2500
  310.5000     7.6594   137.2486     7.4749   -50.2345  -999.2500  -999.2500
  311.0000     7.6000   139.4721     7.3263   -50.2316  -999.2500  -999.2500
  311.5000     7.5405   141.6955     7.1772   -50.2287  -999.2500  -999.2500
  312.0000     7.4362   143.9190     7.1038   -50.2257  -999.2500  -999.2500
  312.5000     7.3318   146.1425     7.0301   -50.1705  -999.2500  -999.2500
  313.0000     7.2106   147.6174     7.0316   -50.2199  -999.2500  -999.2500
  313.5000     7.1979   147.5954     7.0331   -50.2173  -999.2500  -999.2500
  314.0000     7.2282   147.5733     7.0346   -50.2140  -999.2500  -999.2500
  314.5000     7.2285   146.0542     7.0361   -50.2110  -999.2500  -999.2500
  315.0000     7.1989   144.5352     7.1131   -50.2083  -999.2500  -999.2500
  315.5000     7.1693   142.2676     7.1897   -50.0566  -999.2500  -999.2500
  316.0000     7.1695   138.4930     7.2664   -50.0532  -999.2500  -999.2500
  316.5000     7.2595   133.9246     7.3431   -50.0506  -999.2500  -999.2500
  317.0000     7.4691   129.2363     7.4949   -50.0476  -999.2500  -999.2500
  317.5000     7.6637   123.4613     7.7220   -50.0446  -999.2500  -999.2500
  318.0000     7.8583   118.9483     7.9490   -49.8899  -999.2500  -999.2500
  318.5000     8.1277   115.9322     8.2512   -49.7411  -999.2500  -999.2500
  319.0000     8.3671   114.4132     8.4783   -49.7381  -999.2500  -999.2500
  319.5000     8.5318   114.3911     8.6301   -49.7351  -999.2500  -999.2500
  320.0000     8.5620   116.6201     8.6416   -49.7316  -999.2500  -999.2500
  320.5000     8.5165   119.5865     8.4075   -49.6799  -999.2500  -999.2500
  321.0000     8.4241   122.5585     8.1835   -49.5774  -999.2500  -999.2500
  321.5000     8.2790   127.7759     7.9551   -49.5740  -999.2500  -999.2500
  322.0000     8.0999   134.4904     7.7263   -49.7202  -999.2500  -999.2500
  322.5000     7.7415   141.2049     7.5112   -49.7167  -999.2500  -999.2500
  323.0000     7.5026   146.4821     7.2875   -49.7140  -999.2500  -999.2500
  323.5000     7.2936   148.6458     7.2134   -49.6494  -999.2500  -999.2500
  324.0000     7.1893   146.3728     7.2150   -49.5593  -999.2500  -999.2500
  324.5000     7.1596   143.3567     7.2917   -49.5565  -999.2500  -999.2500
  325.0000     7.1749   139.5921     7.3686   -49.5532  -999.2500  -999.2500
  325.5000     7.2051   135.8276     7.5205   -49.5506  -999.2500  -999.2500
  326.0000     7.3100   132.0630     7.6206   -49.5476  -999.2500  -999.2500
  326.5000     7.4897   129.0469     7.7490   -49.5446  -999.2500  -999.2500
  327.0000     7.8338   126.0309     7.9008   -49.6935  -999.2500  -999.2500
  327.5000     8.1181   123.0148     8.0833   -49.8363  -999.2500  -999.2500
  328.0000     8.0576   121.4958     8.2046   -49.8333  -999.2500  -999.2500
  328.5000     8.0290   120.7252     8.2060   -49.6810  -999.2500  -999.2500
  329.0000     8.2835   120.7032     8.2827   -49.6780  -999.2500  -999.2500
  329.5000     8.2090   121.4296     8.2842   -49.5268  -999.2500  -999.2500
  330.0000     8.0449   123.6531     8.2857   -49.5139  -999.2500  -999.2500
  330.5000     8.0751   125.2320     8.2875   -49.2998  -999.2500  -999.2500
  331.0000     8.1950   126.6030     8.2890   -49.2202  -999.2500  -999.2500
  331.5000     8.2700   126.5754     8.2902   -49.2169  -999.2500  -999.2500
  332.0000     8.3002   125.8049     8.2920   -49.0652  -999.2500  -999.2500
  332.5000     8.3005   123.5373     8.2934   -49.0625  -999.2500  -999.2500
  333.0000     8.2857   122.7667     8.2003   -49.0595  -999.2500  -999.2500
  333.5000     8.3160   123.4987     8.0708   -49.0564  -999.2500  -999.2500
  334.0000     8.3462   125.2146     7.9971   -49.0536  -999.2500  -999.2500
  334.5000     8.3475   127.1916     7.8969   -49.0505  -999.2500  -999.2500
  335.0000     8.3019   128.2186     7.7745   -49.0476  -999.2500  -999.2500
  335.5000     8.1348   129.3937     7.7008   -49.0446  -999.2500  -999.2500
  336.0000     7.9378   130.8680     7.6271   -49.0417  -999.2500  -999.2500
  336.5000     7.7349   131.6092     7.6286   -48.9541  -999.2500  -999.2500
  337.0000     7.6754   132.7296     7.6301   -48.8869  -999.2500  -999.2500
  337.5000     7.6906   134.2315     7.6316   -48.7351  -999.2500  -999.2500
  338.0000     7.7059   134.5223     7.6331   -48.7321  -999.2500  -999.2500
  338.5000     7.7211   134.4947     7.6349   -48.7287  -999.2500  -999.2500
  339.0000     7.6915   134.0294     7.6361   -48.7258  -999.2500  -999.2500
  339.5000     7.6768   133.7021     7.7128   -48.7228  -999.2500  -999.2500
  340.0000     7.6621   132.9316     7.7143   -48.7199  -999.2500  -999.2500
  340.5000     7.6475   132.9095     7.7158   -48.7170  -999.2500  -999.2500
  341.0000     7.6628   132.7620     7.7175   -48.7140  -999.2500  -999.2500
  341.5000     7.7079   132.1169     7.7943   -48.7111  -999.2500  -999.2500
  342.0000     7.7381   131.7540     7.7955   -48.8577  -999.2500  -999.2500
  342.5000     7.7683   131.3243     7.7219   -48.8540  -999.2500  -999.2500
  343.0000     7.8144   129.8054     7.7234   -48.8511  -999.2500  -999.2500
  343.5000     7.8436   128.9995     7.8001   -48.8482  -999.2500  -999.2500
  344.0000     7.8590   127.7620     7.8015   -48.8452  -999.2500  -999.2500
  344.5000     7.9041   126.6957     7.8782   -48.9911  -999.2500  -999.2500
  345.0000     7.9492   125.2205     7.9937   -48.9881  -999.2500  -999.2500
  345.5000     7.9196   125.1985     8.0603   -49.1340  -999.2500  -999.2500
  346.0000     7.9049   125.1764     8.1083   -49.1304  -999.2500  -999.2500
  346.5000     7.9950   125.1544     8.1851   -49.1280  -999.2500  -999.2500
  347.0000     8.0849   125.8808     8.2885   -49.1245  -999.2500  -999.2500
  347.5000     8.1450   126.6128     8.3515   -49.2711  -999.2500  -999.2500
  348.0000     8.1752   126.5852     8.4153   -49.2674  -999.2500  -999.2500
  348.5000     8.2353   125.0661     8.4919   -49.4141  -999.2500  -999.2500
  349.0000     8.2804   123.5471     8.4934   -49.4104  -999.2500  -999.2500
  349.5000     8.3256   122.0280     8.5701   -49.4075  -999.2500  -999.2500
  350.0000     8.3259   119.7605     8.5716   -49.5533  -999.2500  -999.2500
  350.5000     8.3720   117.4376     8.5730   -49.5504  -999.2500  -999.2500
  351.0000     8.4351   115.8633     8.6194   -49.6970  -999.2500  -999.2500
  351.5000     8.7005   114.4493     8.6512   -49.8423  -999.2500  -999.2500
  352.0000     8.9549   113.6787     8.6527   -50.2679  -999.2500  -999.2500
  352.5000     9.0000   112.9082     8.6541   -50.4092  -999.2500  -999.2500
  353.0000     8.9704   113.6402     8.6574   -50.5506  -999.2500  -999.2500
  353.5000     8.9110   114.3666     8.7323   -50.8408  -999.2500  -999.2500
  354.0000     8.8515   115.0931     8.7338   -50.9822  -999.2500  -999.2500
  354.5000     8.8218   115.0655     8.8108   -51.1237  -999.2500  -999.2500
  355.0000     8.8221   114.2949     8.8969   -51.0317  -999.2500  -999.2500
  355.5000     8.8224   112.7759     9.0393   -50.8110  -999.2500  -999.2500
  356.0000     8.9573   111.2568     9.1160   -50.8022  -999.2500  -999.2500
  356.5000     9.1818   108.9893     9.2679   -50.7948  -999.2500  -999.2500
  357.0000     9.3614   106.7216     9.4403   -50.7874  -999.2500  -999.2500
  357.5000     9.4963   104.4528     9.6469   -51.0795  -999.2500  -999.2500
  358.0000     9.6500   102.1851     9.7987   -51.3698  -999.2500  -999.2500
  358.5000     9.9383   100.1854    10.0258   -51.6582  -999.2500  -999.2500
  359.0000     9.8682    98.3832    10.2528   -51.9503  -999.2500  -999.2500
  359.5000    10.0178    96.0730    10.4799   -51.9411  -999.2500  -999.2500
