~VERSION INFORMATION
 VERS.                2.0:   CWLS LOG ASCII STANDARD - VERSION 2.0
 WRAP.                 NO:   ONE LINE PER DEPTH STEP
~WELL INFORMATION
#MNEM.UNIT      DATA TYPE    INFORMATION
#----------   ------------   ------------------------------
 STRT.F            0.0000:   START DEPTH
 STOP.F          542.0000:   STOP DEPTH
 STEP.F            0.5000:   STEP LENGTH
 NULL.          -999.2500:   NO VALUE
 COMP. LAWRENCE/ALLISON INC:   COMPANY
 WELL.          SX #12-11:   WELL
 FLD .             TEAPOT:   FIELD
 LOC .      S11 T38N R78W:   LOCATION
 CNTY.            NATRONA:   COUNTY
 STAT.            WYOMING:   STATE
 CTRY. UNITED STATES OF AMERICA:   COUNTRY
 SRVC.           Gearhart:   SERVICE COMPANY
 DATE.        16-SEP-1988:   LOGDATE
 API .       490251124300:   API NUMBER
~CURVE INFORMATION
#MNEM.UNIT       API CODE    CURVE DESCRIPTION
#----------   ------------   ------------------------------
 DEPT.F                  :   
 GRR .GAPI   07 310 01 00:   GAMMA RAY FROM RES. LOG.
 RLL .OHMM   07 220 00 00:   LATEROLOG RESISTIVITY
 RILD.OHMM   07 120 46 00:   INDUCTION LOG DEEP RESISTIVITY
 RILM.OHMM   07 120 44 00:   INDUCTION LOG MEDIUM RESISTIVITY
 SPR .MV     07 010 01 00:   SPONTANEOUS POTENTIAL
~PARAMETER INFORMATION
#MNEM.UNIT          VALUE    DESCRIPTION
#----------   ------------   ------------------------------
 PD  .                 GL:   PERMANENT DATUM
 EPD .F              5163:   ELEVATION PERMANENT DATUM
 LMF .                 KB:   LOG MEASURED FROM
 DAPD.F                10:   FEET ABOVE PERMANENT DATUM
 DMF .                 KB:   DRILLING MEASURED FROM
 EKB .F              5173:   KELLING BUSHING
 EDF .F              5172:   DRILLING FLOOR
 EGL .F              5163:   GROUND LEVEL
 DATE.            9-16-88:   RUN DATE
 RUN .                  1:   RUN NUMBER
 DD  .F               550:   DEPTH DRILLER
 DL  .F               545:   DEPTH LOGGER
 BLI .F               542:   BOTTOM LOG INTERVAL
 CS  .IN            9.625:   CASING SIZE
 CBD .F                50:   CASING BOTTOM DRILLER
 CBL .F                50:   CASING BOTTOM LOGGER
 BS  .IN             8.75:   BIT SIZE
 BSD .F               550:   BIT SIZE AT DEPTH
 DFT .                MUD:   DRILLING FLUID TYPE
 MSS .           FLOWLINE:   MUD SAMPLE SOURCE
 RMS .OHMM            .55:   RESISTIVITY MUD SAMPLE
 MST .F                70:   MUD SAMPLE TEMPERATURE
 RMF .OHMM            .42:   RESISTIVITY MUD FILTRATE SAMPLE
 MFST.F                71:   MUD FILTRATE SAMPLE TEMPERATURE
 RMC .OHMM            .71:   RESISTIVITY MUD CAKE
 MCST.F                71:   MUD CAKE SAMPLE TEMPERATURE
 MFSS.                  M:   MUD FILTRATE SAMPLE SOURCE
 MCSS.                  M:   MUD CAKE SAMPLE SOURCE
 RMB .OHMM            .30:   RESISTIVITY MUD AT BHT
 BHT .F                81:   BOTTOM HOLE TEMPERATURE
 TCS .HRS            1430:   TIME CURCULATED STOPPED
 TLAB.HRS            1900:   TIME LOGGER AT BOTTOM
 MRT .F                81:   MAXIMUM RECORDED TEMPERATURE
 LUN .               7597:   LOGGING UNIT NUMBER
 LUL .           GILLETTE:   LOGGING UNIT LOCATION
 ENGI.     BENCK/ROUSSEAU:   RECORDING ENGINEER
 WITN.             STRONG:   WITNESSED BY
 CLNT.            A2DTECH:   CLIENT CODE
 ORIG.        2" 5" PRINT:   ORIGIN OF DATA
 UWI .       490251124300:   UNIQUE WELL ID
 DICO. A2D Technologies, Inc.:   DIGITIZING COMPANY
~OTHER INFORMATION
~A    DEPT      GRR       RLL       RILD       RILM        SPR   
# ...
  488.0000    94.5058    12.8017    13.3068    11.7374   -44.6653
  488.5000    95.3549    12.7558    13.2206    11.9420   -44.7377
  489.0000    95.7746    12.7958    13.1349    12.1502   -44.9921
  489.5000    95.3518    12.8375    13.0498    12.3620   -45.2470
  490.0000    94.8021    12.8793    12.9971    12.5774   -45.5109
  490.5000    93.0487    12.9212    13.1760    12.7558   -45.2448
  491.0000    91.2752    12.9629    13.3074    12.5749   -45.0215
  491.5000    91.9621    12.9965    13.4935    12.4242   -45.0454
  492.0000    94.3213    12.7311    13.4417    12.2753   -45.0733
  492.5000    96.7283    12.5130    13.3560    12.1282   -45.1023
  493.0000    96.8958    12.2986    13.2708    11.9829   -45.1309
  493.5000    95.6353    12.0879    13.1861    11.8393   -45.1598
  494.0000    94.2198    11.8809    13.1020    11.6974   -45.1877
  494.5000    95.9853    11.7231    13.0184    11.5572   -45.1732
  495.0000    98.9662    11.7015    12.9354    11.5066   -45.0169
  495.5000   101.2513    11.6793    12.8528    11.5066   -44.8646
  496.0000    99.8073    11.6575    12.7708    11.5066   -44.7123
  496.5000    96.5385    11.6353    12.6894    11.5066   -44.5601
  497.0000    96.1567    11.6167    12.6084    11.5066   -44.4058
  497.5000    97.0901    11.4731    12.5280    11.3275   -44.4970
  498.0000    97.8504    11.3129    12.4480    11.0637   -44.6572
  498.5000    95.9359    11.1540    12.3686    10.8060   -44.8200
  499.0000    94.0420    10.9970    12.2897    10.5543   -44.9821
  499.5000    93.5954    10.8415    12.2113    10.3798   -45.0370
  500.0000    95.9366    10.6764    12.1652    10.2830   -45.1898
  500.5000    97.1731    10.8329    12.1520    10.3798   -45.3369
  501.0000    95.7446    11.0125    12.1387    10.3798   -45.4842
  501.5000    94.4136    11.1945    12.1254    10.6609   -45.6146
  502.0000    94.6447    11.3791    12.1121    11.0642   -45.4717
  502.5000    98.5837    11.5667    12.0988    11.5066   -45.3167
  503.0000   102.4370    11.6150    12.0856    11.5925   -45.1624
  503.5000   105.4584    11.3707    12.0728    11.7243   -45.0083
  504.0000   102.2550    11.1930    12.0585    11.6534   -44.8543
  504.5000    98.9606    11.0181    11.9463    11.5289   -44.6999
  505.0000    97.9344    10.8459    11.8316    11.4058   -44.5442
  505.5000   100.2966    10.6764    11.7181    11.2839   -44.3963
  506.0000   102.7062    10.4766    11.6056    11.1634   -44.5192
  506.5000   102.4514    10.4777    11.4942    11.0441   -44.6583
  507.0000   100.4539    10.4309    11.3839    10.9262   -44.7916
  507.5000    99.5620    10.3982    11.2746    10.8094   -44.7968
  508.0000    98.7228    10.3655    11.1664    10.6940   -44.7961
  508.5000    97.8475    10.3329    11.0593    10.5353   -44.7959
  509.0000    99.0826    10.3002    10.9800    10.3707   -44.7960
  509.5000   101.5294    10.2831    11.0453    10.2086   -44.7958
  510.0000   103.9962    10.3275    11.0861    10.0490   -44.7969
  510.5000   106.5084    10.3574    10.8626     9.8919   -44.7301
  511.0000   106.4250    10.3798    10.5373     9.7374   -44.6281
  511.5000   105.0231    10.1871    10.3784     9.5852   -44.5261
  512.0000   103.7084    10.1007    10.4519     9.4354   -44.4178
  512.5000   103.6606    10.0058    10.5180     9.2879   -44.6285
  513.0000   104.9040     9.9118    10.5761     9.1427   -44.9839
  513.5000   106.5833     9.8131    10.1386     8.8972   -45.3417
  514.0000   108.2841     9.5468     9.5674     8.6213   -45.7007
  514.5000   109.9910     9.2709     9.0283     8.3539   -45.5956
  515.0000   111.6743     9.0029     8.5196     7.9772   -45.6662
  515.5000   111.6624     8.7427     7.9499     7.4448   -45.7340
  516.0000   111.7914     8.4899     7.2758     6.9377   -45.8023
  516.5000   112.9395     8.1756     6.6589     5.6985   -45.7247
  517.0000   115.9040     7.5879     6.1999     5.3134   -45.5972
  517.5000   120.5699     7.0418     5.9990     4.9498   -45.4686
  518.0000   125.2452     6.5343     5.8063     4.6111   -45.3395
  518.5000   130.0893     6.1356     5.8586     4.4248   -45.2077
  519.0000   129.2284     6.4084     5.9108     4.7483   -45.0650
  519.5000   122.0264     7.0696     5.9634     5.3157   -44.6545
  520.0000   108.5419     7.8066     6.4495     5.9510   -44.3720
  520.5000   109.1988     8.6171     7.0679     6.6201   -44.3418
  521.0000   111.0083     9.4514     7.7456     7.0365   -44.3068
  521.5000   111.5574     9.2745     8.2170     7.4549   -44.2728
  522.0000   105.8505     9.0743     8.5777     7.8981   -44.2387
  522.5000    96.6012     8.9317     8.8733     8.2543   -44.2056
  523.0000    85.9390     9.0381     9.0915     8.5036   -44.1786
  523.5000    75.7537     9.0874     9.3152     8.7606   -44.0182
  524.0000  -999.2500     9.1335     9.5444     9.0253   -43.8508
  524.5000  -999.2500     9.1799     9.7792     9.2976   -43.6840
  525.0000  -999.2500     9.2265    10.0197     9.5549   -43.5175
  525.5000  -999.2500     9.2759    10.2662     9.6645   -43.3509
  526.0000  -999.2500     9.4019    10.4697     9.7754   -43.1842
  526.5000  -999.2500     9.5371    10.6359     9.8875   -43.0177
  527.0000  -999.2500     9.6744    10.8048    10.0010   -42.8534
  527.5000  -999.2500     9.8136    10.9763    10.1157   -42.6919
  528.0000  -999.2500     9.9548    11.1505    10.2317   -42.5301
  528.5000  -999.2500    10.0980    11.3276    10.3491   -42.3745
  529.0000  -999.2500    10.2434    11.5074    10.4678   -42.1234
  529.5000  -999.2500    10.3907    11.7243    10.5880   -41.8572
  530.0000  -999.2500    10.4775    11.6297    10.7098   -41.2332
  530.5000  -999.2500    10.3804    11.5145    10.8773   -40.1887
  531.0000  -999.2500    10.3127    11.4006    10.8535   -39.9494
  531.5000  -999.2500    10.2451    11.2930    10.8133   -40.0127
  532.0000  -999.2500    10.1780    11.2930    10.7740   -40.0872
  532.5000  -999.2500    10.1114    11.3477    10.7346   -39.9997
  533.0000  -999.2500    10.0453    11.5582    10.6946   -39.8590
  533.5000  -999.2500     9.9979    11.7732    10.6733   -39.7169
  534.0000  -999.2500     9.9979    11.9901    10.8923   -39.5352
  534.5000  -999.2500     9.9979    12.0629    11.0964   -39.4243
  535.0000  -999.2500     9.9979    11.6324    11.3043   -39.0618
  535.5000  -999.2500     9.9979    11.2900    11.5161   -75.4242
  536.0000  -999.2500    10.0025    11.2949    11.7319  -999.2500
  536.5000  -999.2500    10.0390    11.2194    11.8495  -999.2500
  537.0000  -999.2500    10.0755    11.1713    11.8783  -999.2500
  537.5000  -999.2500    10.1122    11.1235    11.9081  -999.2500
  538.0000  -999.2500    10.1491    11.0837    11.9451  -999.2500
  538.5000  -999.2500    10.1870    11.2793    11.3442  -999.2500
  539.0000  -999.2500    10.2100    11.4512    10.3517  -999.2500
  539.5000  -999.2500    10.2503    11.6258     9.4460  -999.2500
  540.0000  -999.2500    10.2834    11.8029  -999.2500  -999.2500
  540.5000  -999.2500    10.2830    11.9461  -999.2500  -999.2500
  541.0000  -999.2500    10.2062    11.8528  -999.2500  -999.2500
  541.5000  -999.2500    10.1303    11.7760  -999.2500  -999.2500
  542.0000  -999.2500    10.0546    11.6995  -999.2500  -999.2500
