~VERSION INFORMATION
 VERS.                2.0:   CWLS LOG ASCII STANDARD - VERSION 2.0
 WRAP.                 NO:   ONE LINE PER DEPTH STEP
~WELL INFORMATION
#MNEM.UNIT      DATA TYPE    INFORMATION
#----------   ------------   ------------------------------
 STRT.F            0.0000:   START DEPTH
 STOP.F          678.0000:   STOP DEPTH
 STEP.F            0.5000:   STEP LENGTH
 NULL.          -999.2500:   NO VALUE
 COMP. FENIX & SCISSON INC:   COMPANY
 WELL. 37-21 SX 11 WO #37-11:   WELL
 FLD .             TEAPOT:   FIELD
 LOC .      S11 T38N R78W:   LOCATION
 CNTY.            NATRONA:   COUNTY
 STAT.            WYOMING:   STATE
 CTRY. UNITED STATES OF AMERICA:   COUNTRY
 SRVC.      Dresser Atlas:   SERVICE COMPANY
 DATE.        14-OCT-1983:   LOGDATE
 API .       490251084300:   API NUMBER
~CURVE INFORMATION
#MNEM.UNIT       API CODE    CURVE DESCRIPTION
#----------   ------------   ------------------------------
 DEPT.F                  :   
 SPR .MV     07 010 01 00:   SPONTANEOUS POTENTIAL
 SFLU.OHMM   07 220 01 00:   SPHERICALLY FOCUSED LOG UNAVERAGED RESISTIVITY
 ILM .OHMM   07 120 44 00:   INDUCTION LOG MEDIUM
 ILD .OHMM   07 120 46 00:   INDUCTION LOG DEEP
 NPHI.DEC    42 890 03 00:   NEUTRON POROSITY SANDSTONE
 DPHI.DEC    45 890 12 00:   DENSITY POROSITY SANDSTONE
 RHOB.G/C3   45 350 01 00:   BULK DENSITY
 CORR.G/C3   45 356 01 00:   DENSITY CORRECTION
 GRD .GAPI   45 310 01 00:   GAMMA RAY FROM DENSITY LOG
 CALD.IN     45 280 60 00:   CALIPER
~PARAMETER INFORMATION
#MNEM.UNIT          VALUE    DESCRIPTION
#----------   ------------   ------------------------------
 PD  .                 GL:   PERMANENT DATUM
 EPD .F              5188:   ELEVATION PERMANENT DATUM
 LMF .                 KB:   LOG MEASURED FROM
 DAPD.F                 5:   FEET ABOVE PERMANENT DATUM
 DMF .                 KB:   DRILLING MEASURED FROM
 EKB .F              5193:   KELLING BUSHING
 EGL .F              5188:   GROUND LEVEL
 DATE.           10-14-83:   RUN DATE
 RUN .                  4:   RUN NUMBER
 DD  .F               629:   DEPTH DRILLER
 DL  .F               630:   DEPTH LOGGER
 BLI .F               624:   BOTTOM LOG INTERVAL
 TLI .F               335:   TOP LOG INTERVAL
 BS  .IN             8.75:   BIT SIZE
 BSD .F               629:   BIT SIZE AT DEPTH
 DFT .          KCL WATER:   DRILLING FLUID TYPE
 LUN .               6307:   LOGGING UNIT NUMBER
 LUL .               GLTE:   LOGGING UNIT LOCATION
 ENGI.            DEYOUNG:   RECORDING ENGINEER
 WITN.            SCHULTE:   WITNESSED BY
 CLNT.            A2DTECH:   CLIENT CODE
 ORIG.       2", 5" PRINT:   ORIGIN OF DATA
 UWI .       490251084300:   UNIQUE WELL ID
 DICO. A2D Technologies, Inc.:   DIGITIZING COMPANY
~OTHER INFORMATION
~A    DEPT     SPR       SFLU        ILM        ILD       NPHI       DPHI       RHOB       CORR        GRD       CALD   
# ...
  636.5000   -27.6302    15.1947    13.9307    12.2471     0.2028     0.1456     2.4311     0.0474    80.2593     9.4693
  637.0000   -27.4759    14.8527    13.6966    12.1590     0.2025     0.1430     2.4239     0.0431    79.7391     9.4711
  637.5000   -27.3229    14.9015    13.4554    12.0716     0.2026     0.1472     2.4071     0.0388    78.7147     9.4728
  638.0000   -27.3042    14.9530    13.2184    11.9228     0.2063     0.1542     2.4010     0.0346    80.1852     9.4746
  638.5000   -27.3681    15.0046    13.0659    11.9472     0.2099     0.1611     2.3957     0.0322    78.7706     9.4763
  639.0000   -27.4335    15.0565    13.1640    11.9768     0.2077     0.1682     2.4086     0.0380    80.0196     9.4781
  639.5000   -27.4989    15.1085    13.2502    12.0078     0.2024     0.1701     2.4243     0.0436    81.9629     9.4798
  640.0000   -27.5643    15.1607    13.3370    12.0389     0.1976     0.1691     2.4355     0.0462    82.8802     9.4816
  640.5000   -27.6297    15.2130    13.4243    12.0701     0.1961     0.1599     2.4414     0.0437    83.1172     9.4833
  641.0000   -27.6951    15.2657    13.5122    12.1013     0.2030     0.1509     2.4330     0.0412    83.3591     9.4850
  641.5000   -27.7602    15.3188    13.6779    12.1327     0.2088     0.1457     2.4254     0.0390    83.9708     9.4867
  642.0000   -27.8262    15.3712    13.6483    12.1641     0.2057     0.1463     2.4463     0.0433    84.4970     9.4884
  642.5000   -27.8365    15.4067    13.5595    12.1957     0.2022     0.1490     2.4705     0.0599    84.0379     9.4901
  643.0000   -27.8065    14.6456    13.4713    12.2271     0.2034     0.1485     2.4644     0.0560    83.5772     9.4918
  643.5000   -27.7759    14.0624    13.3836    12.2552     0.2046     0.1382     2.4577     0.0533    84.2004     9.4935
  644.0000   -27.7453    14.1428    13.3074    12.2056     0.2057     0.1280     2.4685     0.0583    85.0291     9.4952
  644.5000   -27.7152    14.2403    13.4658    12.1526     0.2069     0.1339     2.4583     0.0632    86.2961     9.4969
  645.0000   -27.6842    14.3365    13.5158    12.0998     0.2080     0.1364     2.4644     0.0682    87.5706     9.4986
  645.5000   -27.6107    14.4327    13.5659    12.0472     0.2090     0.1288     2.4738     0.0725    90.0964     9.5003
  646.0000   -27.2805    14.5295    13.6163    11.9950     0.2098     0.1330     2.4813     0.0668    91.7569     9.4993
  646.5000   -27.2906    14.6270    13.6669    11.9429     0.2106     0.1298     2.4789     0.0560    92.9228     9.4954
  647.0000   -27.3238    14.7251    13.7177    11.8910     0.2114     0.1251     2.4765     0.0454    94.0612     9.4914
  647.5000   -27.3557    14.8527    13.7696    11.8394     0.2141     0.1218     2.4747     0.0480    94.5232     9.4874
  648.0000   -27.3871    14.6139    13.8039    11.7541     0.2184     0.1219     2.4854     0.0518    92.9251     9.4835
  648.5000   -27.4184    14.2839    13.4644    11.6370     0.2228     0.1248     2.4788     0.0557    94.4942     9.4795
  649.0000   -27.4498    13.9613    13.2099    11.5211     0.2271     0.1221     2.4843     0.0601    96.2672     9.4755
  649.5000   -27.4811    13.6460    12.9607    11.4064     0.2274     0.1199     2.4891     0.0646    95.2728     9.4716
  650.0000   -27.5125    13.5533    12.7162    11.2927     0.2262     0.1217     2.4822     0.0606    95.9840     9.4676
  650.5000   -27.5439    13.6497    12.5961    11.1803     0.2248     0.1173     2.4778     0.0577    96.9261     9.4636
  651.0000   -27.5752    13.7576    12.7459    11.0777     0.2287     0.1185     2.4810     0.0609    95.7941     9.4597
  651.5000   -27.6066    13.8664    12.8833    11.0495     0.2317     0.1218     2.4798     0.0616    94.6869     9.4557
  652.0000   -27.6380    13.9760    13.0221    11.0213     0.2263     0.1251     2.4719     0.0578    93.5640     9.4518
  652.5000   -27.6693    14.0865    13.1627    10.9932     0.2223     0.1216     2.4653     0.0589    92.2177     9.4478
  653.0000   -27.7007    14.1979    13.3038    10.9652     0.2204     0.1251     2.4626     0.0614    90.8356     9.4438
  653.5000   -27.7320    14.3186    13.4289    10.9373     0.2185     0.1292     2.4664     0.0640    91.1507     9.4398
  654.0000   -27.7634    14.2333    13.3507    10.9094     0.2204     0.1324     2.4742     0.0666    91.9479     9.4357
  654.5000   -27.7952    14.1416    13.2808    10.8816     0.2202     0.1317     2.4797     0.0686    90.4713     9.4316
  655.0000   -27.8278    14.0506    13.2112    10.8538     0.2181     0.1280     2.4777     0.0653    88.9511     9.4275
  655.5000   -27.8444    13.9601    13.1420    10.8262     0.2184     0.1243     2.4842     0.0622    87.7776     9.4234
  656.0000   -27.6391    13.8702    13.0732    10.7986     0.2201     0.1217     2.4795     0.0591    89.7657     9.4193
  656.5000   -27.4413    13.7809    13.0048    10.7710     0.2160     0.1194     2.4696     0.0586    87.8987     9.4153
  657.0000   -27.2635    13.6921    12.9468    10.7436     0.2120     0.1198     2.4766     0.0635    90.8322     9.4112
  657.5000   -27.1022    13.6039    12.8183    10.7162     0.2078     0.1248     2.4877     0.0683    88.1322     9.4071
  658.0000   -26.9143    13.5163    12.6490    10.6889     0.2038     0.1298     2.4854     0.0684    86.6788     9.4030
  658.5000   -26.7653    13.4293    12.4818    10.6791     0.2057     0.1259     2.4811     0.0677    89.4416     9.3989
  659.0000   -26.5526    13.3428    12.3169    10.5803     0.2123     0.1210     2.4783     0.0670    91.4793     9.3948
  659.5000   -26.3429    13.2569    12.1542    10.5910     0.2104     0.1182     2.4754     0.0704    90.9639     9.3908
  660.0000   -26.1317    13.1369    11.9936    10.2248     0.2081     0.1212     2.4693     0.0751    92.7158     9.3870
  660.5000   -25.9193    12.8526    11.8351    10.0134     0.2092     0.1240     2.4636     0.0798    91.5927     9.3840
  661.0000   -25.7024    12.5745    11.6559     9.8115     0.2141     0.1251     2.4581     0.0873    93.4651     9.2900
  661.5000   -25.6242    12.3024    11.3758     9.6133     0.2165     0.1263     2.4525     0.0954    95.8415     9.2135
  662.0000   -25.5552    12.0324    11.1025     9.4191     0.2153     0.1295     2.4475     0.1036    94.6184     9.1430
  662.5000   -25.4851    11.6611    10.8357     9.2267     0.2139     0.1329     2.4473     0.1117    93.1659     9.0724
  663.0000   -25.4148    11.2960    10.5098     9.1426     0.2122     0.1364     2.4531     0.1199    93.7486     9.0015
  663.5000   -25.3445    10.9424    10.2240     8.9834     0.2089     0.1397     2.4597     0.1279    92.9213     8.9308
  664.0000   -25.2742    10.5998     9.9460     8.8886     0.2083     0.1429     2.4618     0.1254    92.1635     8.8680
  664.5000   -25.2041    10.2680     9.6756     8.7729     0.2113     0.1393     2.4548     0.1224    91.5622     8.8671
  665.0000   -25.1332    10.1544     9.4126     8.7379     0.2143     0.1343     2.4600     0.1239    91.6515     8.8650
  665.5000   -25.0794    10.0724     9.1426     8.6497     0.2142     0.1298     2.4628     0.1255    96.0992     8.8626
  666.0000   -25.0393     9.9911     9.0367     8.7498     0.2177     0.1381     2.4537     0.1257    95.4770     8.8602
  666.5000   -24.9998     9.8374     8.9079     8.8138     0.2218     0.1350     2.4447     0.1177    96.4192     8.8577
  667.0000   -24.9608     8.4505     8.7809     7.5868     0.2230     0.1328     2.4358     0.1105    95.9787     8.8553
  667.5000   -24.9222     7.2785     8.7335     6.4599     0.2224     0.1379     2.4238     0.1089    95.1595     8.8529
  668.0000   -24.9528     6.2690     8.7335     5.5004     0.2169     0.1433     2.4238     0.1074    96.3236     8.8505
  668.5000   -25.0546     5.4254     8.7390     5.1826     0.2089     0.1491     2.4215     0.1059    96.0260     8.8481
  669.0000   -25.1560     7.7651     8.7626     5.1734     0.2046     0.1559     2.4246     0.1045    95.5452     8.8457
  669.5000   -25.2580    10.9909     8.7863     5.1523  -999.2500  -999.2500     2.4224     0.1026    95.0751     8.8432
