~VERSION INFORMATION
 VERS.                2.0:   CWLS LOG ASCII STANDARD - VERSION 2.0
 WRAP.                 NO:   ONE LINE PER DEPTH STEP
~WELL INFORMATION
#MNEM.UNIT      DATA TYPE    INFORMATION
#----------   ------------   ------------------------------
 STRT.F           24.0000:   START DEPTH
 STOP.F          609.0000:   STOP DEPTH
 STEP.F            0.5000:   STEP LENGTH
 NULL.          -999.2500:   NO VALUE
 COMP. FENIX & SCISSON INC:   COMPANY
 WELL.        S 34 #48-34:   WELL
 FLD .            NPR - 3:   FIELD
 LOC .      S34 T39N R78W:   LOCATION
 CNTY.            NATRONA:   COUNTY
 STAT.            WYOMING:   STATE
 CTRY. UNITED STATES OF AMERICA:   COUNTRY
 SRVC.              Welex:   SERVICE COMPANY
 DATE.        03-MAY-1977:   LOGDATE
 API .       490251035700:   API NUMBER
~CURVE INFORMATION
#MNEM.UNIT       API CODE    CURVE DESCRIPTION
#----------   ------------   ------------------------------
 DEPT.F                  :   
 CALD.IN     45 280 60 00:   CALIPER FROM DENSITY LOG
 CORR.G/C3   45 356 01 00:   DENSITY CORRECTION
 DPHI.DEC    45 890 12 00:   DENSITY POROSITY SANDSTONE
 GRD .GAPI   45 310 01 00:   GAMMA RAY FROM DENSITY LOG
 RHOB.G/C3   45 350 01 00:   BULK DENSITY
 GURD.OHMM   07 220 05 00:   SHALLOW GUARD RESISTIVITY
 ILD .OHMM   07 120 46 00:   INDUCTION LOG DEEP
 ILM .OHMM   07 120 44 00:   INDUCTION LOG MEDIUM
 SPR .MV     07 010 01 00:   SPONTANEOUS POTENTIAL FROM RES.
~PARAMETER INFORMATION
#MNEM.UNIT          VALUE    DESCRIPTION
#----------   ------------   ------------------------------
 PD  .                 GL:   PERMANENT DATUM
 EPD .F              5160:   ELEVATION PERMANENT DATUM
 LMF .                 GL:   LOG MEASURED FROM
 DMF .                 GL:   DRILLING MEASURED FROM
 EGL .F              5160:   GROUND LEVEL
 DATE.        03-MAY-1977:   RUN DATE
 RUN .                  1:   RUN NUMBER
 DD  .F               610:   DEPTH DRILLER
 DL  .F               611:   DEPTH LOGGER
 BLI .F               609:   BOTTOM LOG INTERVAL
 TLI .F                30:   TOP LOG INTERVAL
 CS  .IN            8.625:   CASING SIZE
 CBD .F                40:   CASING BOTTOM DRILLER
 CBL .F                32:   CASING BOTTOM LOGGER
 BS  .IN            7.875:   BIT SIZE
 BSD .F               610:   BIT SIZE AT DEPTH
 DFT .            KCL GEL:   DRILLING FLUID TYPE
 DFD .                8.9:   DRILLING FLUID DENSITY
 DFV .                 33:   DRILLING FLUID VISCOSITY
 DFPH.                8.0:   DRILLING FLUID PH
 DFL .                7.2:   DRILLING FLUID LOSS
 MSS .            MUD PIT:   MUD SAMPLE SOURCE
 RMS .OHMM           0.19:   RESISTIVITY MUD SAMPLE
 MST .F                65:   MUD SAMPLE TEMPERATURE
 RMF .OHMM           0.16:   RESISTIVITY MUD FILTRATE SAMPLE
 MFST.F                65:   MUD FILTRATE SAMPLE TEMPERATURE
 RMC .OHMM           0.24:   RESISTIVITY MUD CAKE
 MCST.F                65:   MUD CAKE SAMPLE TEMPERATURE
 MFSS.               MEAS:   MUD FILTRATE SAMPLE SOURCE
 MCSS.               MEAS:   MUD CAKE SAMPLE SOURCE
 RMB .OHMM           0.17:   RESISTIVITY MUD AT BHT
 BHT .F                72:   BOTTOM HOLE TEMPERATURE
 TCS .HRS               2:   TIME CURCULATED STOPPED
 MRT .F                72:   MAXIMUM RECORDED TEMPERATURE
 LUN .               8766:   LOGGING UNIT NUMBER
 LUL .             CASPER:   LOGGING UNIT LOCATION
 ENGI.          T. JOYNER:   RECORDING ENGINEER
 WITN.           ROB LYON:   WITNESSED BY
 CLNT.            A2DTECH:   CLIENT CODE
 ORIG.           5" PRINT:   ORIGIN OF DATA
 UWI .       490251035700:   UNIQUE WELL ID
 DICO. A2D Technologies, Inc.:   DIGITIZING COMPANY
~OTHER INFORMATION
~A   DEPT       CALD      CORR        DPHI      GRD         RHOB     GURD        ILD        ILM        SPR   
# ...
  571.5000     7.7343     0.0302     0.1119    99.8126     2.4921    18.4981    11.5619    14.4459   -25.8477
  572.0000     7.7349     0.0318     0.1085    98.4926     2.4974    18.0061    11.5699    13.2147   -25.9821
  572.5000     7.7355     0.0334     0.1055    99.3991     2.5014    18.0228    11.5778    14.9079   -26.1163
  573.0000     7.7362     0.0365     0.1031   100.9387     2.5066    18.2877    11.5858    15.3157   -26.2505
  573.5000     7.7218     0.0397     0.1016   102.4020     2.5074    18.8153    11.6742    15.1158   -26.3848
  574.0000     7.7077     0.0398     0.1090   102.7106     2.4970    19.0919    11.7634    14.9220   -26.3666
  574.5000     7.6932     0.0339     0.1144   101.8401     2.4926    18.8398    11.7714    14.6324   -26.5045
  575.0000     7.6940     0.0325     0.1155   101.1141     2.4896    18.3421    11.7795    13.8569   -26.6387
  575.5000     7.6945     0.0281     0.1155   100.0873     2.4882    18.1033    11.7904    13.0288   -26.6205
  576.0000     7.6951     0.0252     0.1149    99.3652     2.4905    18.1168    11.9602    12.9431   -26.7584
  576.5000     7.6660     0.0224     0.1136   100.0242     2.4943    18.2748    12.0600    13.9928   -26.8927
  577.0000     7.6499     0.0225     0.1130   103.7035     2.4967    18.9169    12.1437    14.4184   -27.0233
  577.5000     7.6374     0.0226     0.1121   108.4670     2.4967    19.3284    12.0544    13.4518   -27.0087
  578.0000     7.6381     0.0227     0.1117   112.6371     2.4961    19.4771    11.9103    14.7329   -27.1430
  578.5000     7.6387     0.0228     0.1111   116.2137     2.4976    19.3535    11.7566    15.0529   -27.1280
  579.0000     7.6393     0.0230     0.1102   118.0100     2.4992    19.2342    11.6816    13.3969   -27.1103
  579.5000     7.6399     0.0231     0.1092   121.4382     2.5008    18.8562    11.6916    13.3139   -27.0957
  580.0000     7.6404     0.0232     0.1083   123.5312     2.5009    18.4823    11.6170    13.7040   -27.2336
  580.5000     7.6410     0.0271     0.1068   121.5396     2.5010    18.2416    11.4671    13.1587   -27.3679
  581.0000     7.6416     0.0295     0.1047   118.3738     2.5025    18.1202    11.3173    12.4611   -27.3497
  581.5000     7.6422     0.0296     0.1019   116.9020     2.5056    17.7485    11.0905    13.1025   -27.4876
  582.0000     7.6429     0.0357     0.0977   117.3668     2.5132    17.1808    10.7970    12.8757   -27.4694
  582.5000     7.6435     0.0373     0.0935   116.3440     2.5245    16.7238    10.5094    11.9880   -27.6042
  583.0000     7.6441     0.0419     0.0889   114.2827     2.5313    16.6177    10.1590    12.1696   -27.7381
  583.5000     7.6446     0.0480     0.0850   115.7822     2.5366    16.7487     9.8884    12.2657   -27.7232
  584.0000     7.6452     0.0482     0.0838   121.2086     2.5390    16.7611     9.7430    12.3626   -27.7088
  584.5000     7.6458     0.0423     0.0866   119.9720     2.5353    16.6547     9.6207    11.3090   -27.8430
  585.0000     7.6464     0.0364     0.0909   117.4655     2.5316    16.2147     9.4744    11.4775   -28.1225
  585.5000     7.6470     0.0305     0.0933   114.6623     2.5294    15.7835     9.2251    11.5682   -28.2567
  586.0000     7.6499     0.0307     0.0908   112.8977     2.5363    15.9053     8.9823    11.6596   -28.3946
  586.5000     7.6928     0.0353     0.0875   113.2103     2.5431    15.9197     8.8656    12.1023   -28.3764
  587.0000     7.7083     0.0384     0.0851   114.7097     2.5492    15.8187     8.8134    12.3470   -28.3619
  587.5000     7.7088     0.0430     0.0830   116.5059     2.5522    15.0841     8.7033    11.7767   -28.6449
  588.0000     7.7094     0.0431     0.0817   118.1741     2.5501    14.2818     8.5310    10.9991   -28.9286
  588.5000     7.7249     0.0433     0.0811   112.8323     2.5441    14.2924     8.1944    11.7990   -29.6575
  589.0000     7.7551     0.0434     0.0876   114.0350     2.5382    14.4024     7.9788    11.9748   -30.0923
  589.5000     7.7557     0.0420     0.0945   115.3861     2.5315    14.6141     7.9318    11.0303   -30.3724
  590.0000     7.7563     0.0391     0.0957   113.6215     2.5241    14.8290     7.9953    11.0407   -30.6555
  590.5000     7.7125     0.0377     0.0953   107.4058     2.5174    14.8401     8.1167    11.6001   -30.9349
  591.0000     7.7130     0.0378     0.0999    98.6679     2.5115    14.8510     8.1814    11.0557   -30.9204
  591.5000     7.6987     0.0348     0.1041    52.7790     2.5010    14.5471     8.2465    10.7696   -30.9058
  592.0000     7.6845     0.0321     0.1078    51.3701     2.4927    14.3891     8.2549    10.7823   -30.8913
  592.5000     7.6850     0.0322     0.1090    51.3899     2.4870    14.2311     8.1497    10.7925   -30.8767
  593.0000     7.6706     0.0323     0.1072    51.4057     2.4953    14.0939     8.1017    10.2205   -30.8622
  593.5000     7.6565     0.0324     0.1041    51.4215     2.5014    13.8146     7.9964    10.0174   -30.8476
  594.0000     7.6571     0.0326     0.1029    52.0307     2.5060    13.8251     7.9511    10.8231   -30.8330
  594.5000     7.6577     0.0327     0.1047    52.6400     2.5091    13.7397     7.8500    10.8591   -30.8185
  595.0000     7.6584     0.0313     0.1034    52.9525     2.5106    13.4697     7.7500     9.6393   -30.6548
  595.5000     7.6588     0.0314     0.1022    52.8007     2.5107    13.5734     7.6512     9.7209   -30.6369
  596.0000     7.6595     0.0285     0.1025    52.0979     2.5093    13.3966     7.5537    10.4329   -30.6224
  596.5000     7.6601     0.0271     0.1030    51.8169     2.5086    13.2197     7.5112     9.8038   -30.6078
  597.0000     7.6606     0.0273     0.1030    51.5320     2.5079    12.8705     7.3643     9.6090   -30.4445
  597.5000     7.6613     0.0244     0.0997    50.9583     2.5095    12.5281     7.2686     9.6872   -30.1323
  598.0000     7.6618     0.0215     0.0966    50.9741     2.5149    12.3648     7.1760     9.7637   -30.2702
  598.5000     7.6624     0.0157     0.0947    50.9899     2.5216    12.2040     7.0863     9.7503   -30.4044
  599.0000     7.6630     0.0143     0.0933    51.0059     2.5250    12.2241     6.9478     9.6273   -30.3862
  599.5000     7.6637     0.0099     0.0989    51.4705     2.5270    11.4858     6.7183     9.5043   -30.6693
  600.0000     7.6643     0.0070     0.1112    51.9314     2.4986     9.1461     6.5415     9.1456   -30.5060
  600.5000     7.6649     0.0041     0.1169    52.3923     2.4890     8.7803     6.4582     8.9640   -30.3423
  601.0000     7.6654     0.0012     0.1201    52.8532     2.4823     8.9713     6.4664     9.0369   -29.8542
  601.5000     7.6660    -0.0016     0.1207    52.8690     2.4786    11.7618     6.4729     9.4947   -29.1194
  602.0000     7.6666    -0.0015     0.1126    52.7359     2.4839    13.1497     6.4795    10.1283   -28.5096
  602.5000     7.6672    -0.0059     0.1044    52.4555     2.5027    12.7996     6.5311    10.8530   -28.1974
  603.0000     7.6678    -0.0073     0.0951    52.3229     2.5216    12.8094     6.5832    11.4820   -27.8852
  603.5000     7.6684     0.0108     0.0867    52.3427     2.5396    13.0030     6.6817    11.7341   -27.5731
  604.0000     7.6691     0.0410     0.0792    52.3585     2.5555    13.2956     6.7817    11.8240   -27.2609
  604.5000     7.6696     0.0576     0.0734    52.3742     2.5676    13.5718     6.7885    11.4351   -27.2463
  605.0000     7.6701     0.0657     0.0707    52.3900     2.5714    13.5819     6.7954    10.7543   -27.2318
  605.5000     7.6708     0.0773     0.0779    52.2575     2.5525    13.5920     6.8972     9.5690   -27.3661
  606.0000     7.6863     0.0880     0.0907    51.9763     2.5318    13.8876     7.1593     7.8897   -27.5003
  606.5000     7.7017     0.0956     0.0943    51.8439     2.5243    14.2883     7.5114     8.1847   -27.6593
  607.0000     7.6874     0.0987     0.0960    52.0121     2.5192    14.8027     7.5190     8.7899   -27.7688
  607.5000     7.6731     0.1018     0.0984    52.4730     2.5110    14.7115     7.4232     9.2165   -27.7506
