~VERSION INFORMATION
 VERS.                2.0:   CWLS LOG ASCII STANDARD - VERSION 2.0
 WRAP.                 NO:   ONE LINE PER DEPTH STEP
~WELL INFORMATION
#MNEM.UNIT      DATA TYPE    INFORMATION
#----------   ------------   ------------------------------
 STRT.F           30.0000:   START DEPTH
 STOP.F          580.0000:   STOP DEPTH
 STEP.F            0.5000:   STEP LENGTH
 NULL.          -999.2500:   NO VALUE
 COMP. FENIX & SCISSON INC:   COMPANY
 WELL.      87 SX 3 #87-3:   WELL
 FLD .             TEAPOT:   FIELD
 LOC .       S3 T38N R78W:   LOCATION
 CNTY.            NATRONA:   COUNTY
 STAT.            WYOMING:   STATE
 CTRY. UNITED STATES OF AMERICA:   COUNTRY
 SRVC.            Unknown:   SERVICE COMPANY
 DATE.        16-NOV-1978:   LOGDATE
 API .       490251074200:   API NUMBER
~CURVE INFORMATION
#MNEM.UNIT       API CODE    CURVE DESCRIPTION
#----------   ------------   ------------------------------
 DEPT.F                  :   
 CALD.IN     45 280 60 00:   CALIPER
 GRD .GAPI   45 310 01 00:   GAMMA RAY FROM DENSITY LOG
 RHOB.G/C3   45 350 01 00:   BULK DENSITY
 DPHI.DEC    45 890 12 00:   DENSITY POROSITY SANDSTONE
 CORR.G/C3   45 356 01 00:   DENSITY CORRECTION
 SFL .OHMM   05 221 01 00:   AMP. SHALLOW FOCUSED LOG RESISTIVITY
 ILD .OHMM   05 120 46 00:   INDUCTION LOG DEEP
 SPR .MV     05 010 01 00:   SPONTANEOUS POTENTIAL FROM RES.
~PARAMETER INFORMATION
#MNEM.UNIT          VALUE    DESCRIPTION
#----------   ------------   ------------------------------
 PD  .                 GL:   PERMANENT DATUM
 EPD .F              5120:   ELEVATION PERMANENT DATUM
 LMF .                 KB:   LOG MEASURED FROM
 DAPD.F                 4:   FEET ABOVE PERMANENT DATUM
 DMF .                 KB:   DRILLING MEASURED FROM
 EKB .F              5124:   KELLING BUSHING
 EGL .F              5120:   GROUND LEVEL
 DATE.           11-16-78:   RUN DATE
 RUN .                  1:   RUN NUMBER
 DD  .F               580:   DEPTH DRILLER
 DL  .F               574:   DEPTH LOGGER
 BLI .F               574:   BOTTOM LOG INTERVAL
 TLI .F                50:   TOP LOG INTERVAL
 CS  .IN            8.625:   CASING SIZE
 CBD .F                50:   CASING BOTTOM DRILLER
 CBL .F                50:   CASING BOTTOM LOGGER
 BS  .IN            7.875:   BIT SIZE
 BSD .F               580:   BIT SIZE AT DEPTH
 DFT .            SEA MUD:   DRILLING FLUID TYPE
 DFD .                8.7:   DRILLING FLUID DENSITY
 DFV .                 54:   DRILLING FLUID VISCOSITY
 DFPH.                9.8:   DRILLING FLUID PH
 MSS .           FLOWLINE:   MUD SAMPLE SOURCE
 RMS .OHMM            1.1:   RESISTIVITY MUD SAMPLE
 MST .F                56:   MUD SAMPLE TEMPERATURE
 RMF .OHMM             .9:   RESISTIVITY MUD FILTRATE SAMPLE
 MFST.F                60:   MUD FILTRATE SAMPLE TEMPERATURE
 RMC .OHMM            .95:   RESISTIVITY MUD CAKE
 MCST.F                60:   MUD CAKE SAMPLE TEMPERATURE
 MFSS.           MEASURED:   MUD FILTRATE SAMPLE SOURCE
 MCSS.           MEASURED:   MUD CAKE SAMPLE SOURCE
 RMB .OHMM            .93:   RESISTIVITY MUD AT BHT
 BHT .F                66:   BOTTOM HOLE TEMPERATURE
 TCS .HRS               1:   TIME CURCULATED STOPPED
 MRT .F                66:   MAXIMUM RECORDED TEMPERATURE
 LUN .               2958:   LOGGING UNIT NUMBER
 LUL .                CPR:   LOGGING UNIT LOCATION
 ENGI.             MILLER:   RECORDING ENGINEER
 WITN.           DINSMORE:   WITNESSED BY
 CLNT.            A2DTECH:   CLIENT CODE
 ORIG.       2", 5" PRINT:   ORIGIN OF DATA
 UWI .       490251074200:   UNIQUE WELL ID
 DICO. A2D Technologies, Inc.:   DIGITIZING COMPANY
~OTHER INFORMATION
~A   DEPT     CALD         GRD      RHOB       DPHI       CORR        SFL        ILD        SPR   
# ...
  516.0000     7.6846   104.0061     2.3223     0.2204     0.0417     6.6757     4.8664    -8.1930
  516.5000     7.6735   101.3998     2.3177     0.2231     0.0517     5.9585     4.1969    -8.3602
  517.0000     7.6733    98.7248     2.3463     0.1980     0.0620     5.2660     3.7322    -8.5271
  517.5000     7.6735    95.1016     2.3897     0.1737     0.0592     4.6540     3.5724    -8.6938
  518.0000     7.6646    91.4013     2.4337     0.1494     0.0499     4.1897     3.5223    -8.8604
  518.5000     7.6536    88.3652     2.4641     0.1351     0.0404     4.0089     3.5737    -9.0273
  519.0000     7.6427    88.6110     2.4705     0.1324     0.0351     4.0393     3.6288    -9.1936
  519.5000     7.6322    89.1558     2.4755     0.1300     0.0345     4.1340     3.6893    -9.3626
  520.0000     7.5962    94.9562     2.4795     0.1275     0.0338     4.8488     4.1586    -9.3599
  520.5000     7.5729   100.9166     2.4818     0.1256     0.0332     5.9727     4.7278    -9.2592
  521.0000     7.5666   103.0920     2.4811     0.1259     0.0325     7.4307     5.3748    -9.1566
  521.5000     7.5599   104.4373     2.4837     0.1256     0.0319     8.0028     6.1100    -9.0538
  522.0000     7.5567   104.2746     2.4865     0.1230     0.0311     8.5127     6.9455    -8.9513
  522.5000     7.6086   103.3594     2.4894     0.1204     0.0298     8.9552     7.9989    -8.8486
  523.0000     7.6609   102.9028     2.4869     0.1233     0.0253     9.2426     7.9689    -8.7456
  523.5000     7.7130   102.6556     2.4814     0.1288     0.0198     9.5392     7.9301    -8.6427
  524.0000     7.7650   102.6041     2.4796     0.1280     0.0177     9.8453     7.8915    -8.6564
  524.5000     7.8108   103.1607     2.4804     0.1246     0.0258    10.1624     7.8529    -8.6859
  525.0000     7.7956   104.7454     2.4813     0.1256     0.0310    10.1964     7.9438    -8.7155
  525.5000     7.8156   106.4163     2.4829     0.1232     0.0355    10.2277     8.0364    -8.7449
  526.0000     7.8487   107.0392     2.4875     0.1188     0.0400    10.2598     8.1300    -8.7740
  526.5000     7.8840   106.2112     2.4891     0.1226     0.0429    10.2922     8.2247    -8.8033
  527.0000     7.8500   104.1940     2.4791     0.1286     0.0349    10.3248     8.3205    -8.8620
  527.5000     7.7953   102.1421     2.4692     0.1347     0.0198    10.3574     8.3782    -9.1112
  528.0000     7.8319   101.1833     2.4690     0.1368     0.0115    10.3902     8.3841    -9.3620
  528.5000     7.8501   101.7200     2.4734     0.1315     0.0117    10.4231     8.3896    -9.6121
  529.0000     7.8489   103.2161     2.4778     0.1273     0.0118    10.4474     8.3952    -9.8621
  529.5000     7.8473   104.2611     2.4811     0.1260     0.0119    10.4136     8.4008   -10.1121
  530.0000     7.8456   104.9931     2.4802     0.1276     0.0121    10.3860     8.4065   -10.3621
  530.5000     7.8440   105.7225     2.4768     0.1310     0.0122    10.3585     8.4121   -10.6124
  531.0000     7.8423   106.4563     2.4736     0.1320     0.0123    10.3311     8.4178   -10.8621
  531.5000     7.8407   104.6474     2.4738     0.1316     0.0124    10.3038     8.4234   -11.1127
  532.0000     7.8390   102.6335     2.4785     0.1278     0.0126    10.2765     8.4291   -11.1284
  532.5000     7.8374   102.4621     2.4861     0.1226     0.0127    10.2578     8.4347   -10.9286
  533.0000     7.8357   103.0350     2.4937     0.1172     0.0128    10.2747     8.4404   -10.7289
  533.5000     7.8341   103.5745     2.4964     0.1176     0.0130    10.2884     8.4461   -10.5285
  534.0000     7.8324   101.7144     2.4928     0.1200     0.0131    10.3020     8.4529   -10.3285
  534.5000     7.8308    99.8292     2.4893     0.1224     0.0132    10.3156     8.4394   -10.1284
  535.0000     7.8291    99.5343     2.4857     0.1248     0.0133    10.3291     8.4200    -9.9829
  535.5000     7.8275   100.1540     2.4821     0.1272     0.0135    10.3433     8.4005    -9.9033
  536.0000     7.8258   101.7415     2.4795     0.1278     0.0141    10.3517     8.3810    -9.8241
  536.5000     7.8242   103.0273     2.4782     0.1285     0.0150    10.2463     8.3617    -9.7438
  537.0000     7.8225   103.5964     2.4770     0.1293     0.0159    10.1676     8.3423    -9.6536
  537.5000     7.8209   104.5739     2.4757     0.1300     0.0168    10.0893     8.3230    -9.0827
  538.0000     7.8192   106.0130     2.4731     0.1308     0.0194    10.0118     8.3037    -8.8292
  538.5000     7.8176   107.4295     2.4682     0.1373     0.0275     9.8751     8.1704    -8.8268
  539.0000     7.8159   108.6725     2.4559     0.1436     0.0313     9.6936     7.9424    -8.8286
  539.5000     7.8144   109.2877     2.4412     0.1498     0.0350     9.5161     7.7213    -8.8260
  540.0000     7.8127   109.5139     2.4259     0.1561     0.0408     9.3695     7.5067    -8.9808
  540.5000     7.8072   109.7581     2.4289     0.1573     0.0542     9.2463     7.2951    -9.1860
  541.0000     7.7743   109.5818     2.4368     0.1515     0.0658     9.1247     7.2509    -9.3922
  541.5000     7.7631   109.3225     2.4482     0.1436     0.0655     8.8248     7.1951    -9.5982
  542.0000     7.7951   107.0168     2.4673     0.1339     0.0654     8.4888     7.1398    -9.8044
  542.5000     7.8261   104.1561     2.4801     0.1276     0.0627     8.2993     7.0963   -10.0119
  543.0000     7.8520   101.3973     2.4749     0.1292     0.0598     8.3594     7.1228   -10.2092
  543.5000     7.8507   101.3882     2.4694     0.1356     0.0572     8.7645     7.1448   -10.1276
  544.0000     7.8499   105.4569     2.4748     0.1293     0.0630     9.4316     7.2604   -10.0323
  544.5000     7.8492   108.4691     2.4927     0.1184     0.0852    10.0858     7.7111    -9.9381
  545.0000     7.8484   110.3740     2.5075     0.1096     0.0964    10.4727     8.1897    -9.8444
  545.5000     7.8477   110.7788     2.5078     0.1098     0.1028    10.7536     8.6981    -9.7506
  546.0000     7.8470   110.1124     2.5078     0.1106     0.0979    11.0421     9.1441    -9.6569
  546.5000     7.8462   107.4048     2.5032     0.1136     0.0883    11.2284     9.3185    -9.5631
  547.0000     7.8455   104.6902     2.4985     0.1166     0.0713    11.3509     9.4967    -9.4694
  547.5000     7.8448   102.6438     2.4941     0.1195     0.0556    11.6340     9.6780    -9.3756
  548.0000     7.8440   102.7418     2.4941     0.1200     0.0532    11.9067     9.8862    -9.2818
  548.5000     7.8433   103.8964     2.4912     0.1208     0.0512    12.0210     9.8789    -9.1877
  549.0000     7.8426   104.9307     2.4880     0.1225     0.0491    12.0582     9.8708    -9.0947
  549.5000     7.8418   105.4075     2.4849     0.1240     0.0471    12.0955     9.8623    -9.0422
  550.0000     7.8411   105.3226     2.4847     0.1220     0.0450    12.1329     9.8540    -9.1097
  550.5000     7.8404   105.1609     2.4918     0.1191     0.0429    12.1705     9.8457    -9.1832
  551.0000     7.8396   104.4589     2.4948     0.1172     0.0408    12.2081     9.8374    -9.5147
  551.5000     7.8389   103.8366     2.4808     0.1242     0.0366    12.2459     9.8291   -10.6223
  552.0000     7.8382   103.7905     2.4651     0.1377     0.0279    12.2840     9.8208   -10.9873
  552.5000     7.8374   103.7317     2.4590     0.1412     0.0280    12.3319     9.8125   -11.3256
  553.0000     7.8367   103.6656     2.4647     0.1370     0.0287    12.2368     9.8040   -11.6655
  553.5000     7.8360   103.6974     2.4706     0.1319     0.0294    12.1085     9.7948   -12.0066
  554.0000     7.8352   104.5912     2.4764     0.1268     0.0274    11.9816     9.7099   -12.3455
  554.5000     7.8345   106.0006     2.4784     0.1288     0.0248    11.8560     9.6203   -12.5861
  555.0000     7.8338   108.0204     2.4741     0.1317     0.0221    11.7579     9.5316   -12.4936
  555.5000     7.8330   109.7410     2.4723     0.1323     0.0197    11.7062     9.4436   -12.4084
  556.0000     7.8323   108.2616     2.4739     0.1316     0.0228    11.6546     9.3547   -12.3237
