~VERSION INFORMATION
 VERS.                2.0:   CWLS LOG ASCII STANDARD - VERSION 2.0
 WRAP.                 NO:   ONE LINE PER DEPTH STEP
~WELL INFORMATION
#MNEM.UNIT      DATA TYPE    INFORMATION
#----------   ------------   ------------------------------
 STRT.F           43.0000:   START DEPTH
 STOP.F          466.0000:   STOP DEPTH
 STEP.F            0.5000:   STEP LENGTH
 NULL.          -999.2500:   NO VALUE
 COMP. JOHn BROWN E & C INC:   COMPANY
 WELL. NPR # #3 64-25-SX-10:   WELL
 FLD .        TEAPOT DOME:   FIELD
 LOC .      S10 T38N R78W:   LOCATION
 CNTY.            NATRONA:   COUNTY
 STAT.            WYOMING:   STATE
 CTRY. UNITED STATES OF AMERICA:   COUNTRY
 SRVC.       Schlumberger:   SERVICE COMPANY
 DATE.        26-SEP-1990:   LOGDATE
 API .       490251132200:   API NUMBER
~CURVE INFORMATION
#MNEM.UNIT       API CODE    CURVE DESCRIPTION
#----------   ------------   ------------------------------
 DEPT.F                  :   
 ILD .OHMM   07 120 46 00:   INDUCTION LOG DEEP RESISTIVITY
 ILM .OHMM   07 120 44 00:   INDUCTION LOG MEDIUM
 GRR .GAPI   07 310 01 00:   GAMMA RAY FROM RES. LOG.
~PARAMETER INFORMATION
#MNEM.UNIT          VALUE    DESCRIPTION
#----------   ------------   ------------------------------
 PD  .                 GL:   PERMANENT DATUM
 EPD .F              5190:   ELEVATION PERMANENT DATUM
 LMF .                 KB:   LOG MEASURED FROM
 DAPD.F                10:   FEET ABOVE PERMANENT DATUM
 DMF .                 KB:   DRILLING MEASURED FROM
 EKB .F              5200:   KELLING BUSHING
 EDF .F              5199:   DRILLING FLOOR
 EGL .F              5190:   GROUND LEVEL
 DATE.            9-29-90:   RUN DATE
 RUN .                  1:   RUN NUMBER
 DD  .F               470:   DEPTH DRILLER
 DL  .F               473:   DEPTH LOGGER
 BLI .F               467:   BOTTOM LOG INTERVAL
 TLI .F                46:   TOP LOG INTERVAL
 CS  .IN            8.625:   CASING SIZE
 CBL .F                55:   CASING BOTTOM LOGGER
 BS  .IN            7.875:   BIT SIZE
 BSD .F               470:   BIT SIZE AT DEPTH
 DFT .                AIR:   DRILLING FLUID TYPE
 TCS .HRS            1900:   TIME CURCULATED STOPPED
 TLAB.HRS            2000:   TIME LOGGER AT BOTTOM
 LUN .               5982:   LOGGING UNIT NUMBER
 LUL .               CODY:   LOGGING UNIT LOCATION
 ENGI.             FISHER:   RECORDING ENGINEER
 WITN.             STRONG:   WITNESSED BY
 CLNT.            A2DTECH:   CLIENT CODE
 ORIG.       2", 5" PRINT:   ORIGIN OF DATA
 UWI .       490251132200:   UNIQUE WELL ID
 DICO. A2D Technologies, Inc.:   DIGITIZING COMPANY
~OTHER INFORMATION
~A   DEPT      ILD        ILM         GRR  
   43.0000  -999.2500  -999.2500    67.9436
   43.5000  -999.2500  -999.2500    69.8382
   44.0000  -999.2500  -999.2500    71.9912
   44.5000  -999.2500  -999.2500    73.6022
   45.0000  -999.2500  -999.2500    74.5043
   45.5000  -999.2500  -999.2500    74.1453
   46.0000  -999.2500  -999.2500    70.8837
   46.5000  -999.2500  -999.2500    68.0389
   47.0000  -999.2500  -999.2500    66.7578
   47.5000  -999.2500  -999.2500    66.0192
   48.0000  -999.2500  -999.2500    66.3734
   48.5000  -999.2500  -999.2500    69.1042
   49.0000  -999.2500  -999.2500    75.0151
   49.5000  -999.2500  -999.2500    84.1201
   50.0000  -999.2500  -999.2500    93.7366
   50.5000  -999.2500  -999.2500   103.4154
   51.0000  -999.2500  -999.2500   113.2165
   51.5000  -999.2500  -999.2500   118.2484
   52.0000  -999.2500  -999.2500   119.3927
   52.5000  -999.2500  -999.2500   119.5968
   53.0000  -999.2500  -999.2500   117.4482
   53.5000  -999.2500  -999.2500   115.6233
   54.0000  -999.2500  -999.2500   117.0211
   54.5000  -999.2500  -999.2500   120.9433
   55.0000  -999.2500  -999.2500   125.5627
   55.5000  -999.2500  -999.2500   127.5171
   56.0000     6.1077     7.1543   129.0531
   56.5000     6.4834   112.6216   127.6535
   57.0000     7.1858   659.6489   124.6815
   57.5000     8.0827  1042.7670   121.6126
   58.0000     9.6351   229.0364   121.1902
   58.5000     9.2079    10.7732   123.2657
   59.0000     8.7046     9.1524   124.7930
   59.5000     8.5353     8.4398   124.5333
   60.0000     8.7610     8.2257   122.1584
   60.5000     9.0684     8.2257   119.7736
   61.0000     9.3856     8.8576   116.5617
   61.5000     9.7135     9.2608   113.0574
   62.0000    10.0527     9.5860   111.0270
   62.5000    10.1883     9.9079   108.9395
   63.0000    10.0705     9.8687   107.8924
   63.5000    10.0336     9.8306   109.5032
   64.0000     9.9969     9.7927   113.1122
   64.5000     9.9603     9.7549   113.9026
   65.0000     9.9238     9.7173   113.2992
   65.5000     9.8875     9.6798   111.4049
   66.0000     9.8513     9.6424   112.1100
   66.5000     9.8152     9.6052   113.4071
   67.0000     9.7793     9.5681   114.7183
   67.5000     9.7435     9.5312   115.9341
   68.0000     9.7253     9.4945   116.3297
   68.5000     9.7253     9.4578   115.2658
   69.0000     9.7252     9.4213   114.0543
   69.5000     9.7252     9.3700   113.6586
   70.0000     9.7251     9.4575   113.9048
   70.5000     9.7257     9.6090   114.1613
   71.0000     9.7218     9.7252   114.3213
   71.5000     9.9415     9.7530   114.3448
   72.0000    10.2013     9.7954   114.1404
   72.5000    10.3826     9.8161   110.3696
   73.0000    10.3787     9.8162   106.8540
   73.5000    10.3540     9.8163   106.6588
   74.0000    10.2837     9.8142   109.4789
   74.5000    10.2137     9.9079   112.7257
   75.0000    10.1444     9.8517   115.0827
   75.5000    10.0755     9.7973   114.2488
   76.0000    10.0071     9.7431   113.3569
   76.5000     9.9392     9.6892   112.4723
   77.0000     9.9079     9.6357   111.5939
   77.5000     9.8832     9.5824   111.8718
   78.0000     9.8163     9.5294   113.9234
   78.5000     9.7247     9.4767   116.1708
   79.0000     9.7262     9.3928   117.1497
   79.5000     9.5493     9.2915   115.8759
   80.0000     9.4103     9.1914   114.3839
   80.5000     9.2732     9.0923   115.2247
   81.0000     9.1382     8.9943   114.3662
   81.5000     9.0137     8.8974   112.6527
   82.0000     8.9322     8.8014   110.8934
   82.5000     8.8514     8.7066   110.4140
   83.0000     8.7714     8.6173   110.6497
   83.5000     8.6979     8.6173   110.1092
   84.0000     8.7257     8.6173   109.3510
   84.5000     8.7518     8.6231   108.5765
   85.0000     8.7779     8.6707   107.9350
   85.5000     8.8041     8.7185   109.3730
   86.0000     8.8304     8.7666   111.2776
   86.5000     8.8567     8.8150   113.2968
   87.0000     8.8832     8.8612   114.6894
   87.5000     8.9097     8.8317   114.2474
   88.0000     8.9441     8.8037   113.8400
   88.5000     8.8775     8.6711   113.7428
   89.0000     8.7797     8.4542   115.2185
   89.5000     8.5933     8.2427   116.8502
   90.0000     8.4018     8.0366   119.3163
   90.5000     8.2148     7.8356   121.6962
   91.0000     8.0319     7.6396   121.0284
   91.5000     7.8531     7.4248   117.0543
   92.0000     7.6782     7.4248   113.2256
   92.5000     7.4949     7.4237   111.8866
   93.0000     7.4949     7.4295   113.0798
   93.5000     7.5753     7.3568   114.5510
   94.0000     7.6357     7.5380   115.6777
   94.5000     7.7375     7.6354   116.7322
   95.0000     7.8408     7.7341   117.0503
   95.5000     7.9453     7.8344   117.3281
   96.0000     8.0000     7.9251   116.9288
   96.5000     7.9378     7.8756   115.4404
   97.0000     7.8909     7.8306   113.9547
   97.5000     7.8520     7.7860   115.4980
   98.0000     7.8917     7.7415   119.8474
   98.5000     7.9260     7.7071   122.4364
   99.0000     7.9605     7.7972   122.6322
   99.5000     7.9950     7.8984   123.0753
  100.0000     8.1879     8.0745   124.2679
  100.5000     8.4082     8.2546   123.1557
  101.0000     8.6344     8.4388   121.7686
  101.5000     8.8106     8.6265   121.4435
  102.0000     8.8953     8.7807   121.3295
  102.5000     8.9441     8.8612   117.8732
  103.0000     8.8832     8.7377   114.4334
  103.5000     8.7740     8.5935   115.2246
  104.0000     8.5969     8.4518   117.6041
  104.5000     8.4200     8.3115   119.4209
  105.0000     8.3487     8.2115   120.6395
  105.5000     8.3027     8.1720   124.2350
  106.0000     8.3367     8.1495   127.8010
  106.5000     8.3645     8.3538   128.4957
  107.0000     8.4252     8.4585   126.0509
  107.5000     8.5183     8.3796   123.4326
  108.0000     8.6183     8.4405   122.1145
  108.5000     8.6170     8.5368   120.2590
  109.0000     8.6022     8.4960   119.8278
  109.5000     8.5765     8.4609   119.6764
  110.0000     8.5510     8.4258   119.7065
  110.5000     8.5165     8.3907   120.9006
  111.0000     8.4734     8.3413   122.1022
  111.5000     8.4300     8.2858   123.5954
  112.0000     8.3869     8.2307   125.5353
  112.5000     8.3443     8.1760   127.5650
  113.0000     8.3023     8.1216   127.6015
  113.5000     8.2216     8.0676   124.6456
  114.0000     8.1432     8.0140   121.4519
  114.5000     8.0656     7.9607   119.6173
  115.0000     7.9889     7.8884   119.8255
  115.5000     7.9128     7.7782   119.8975
  116.0000     7.8375     7.6696   119.6179
  116.5000     7.7778     7.5650   119.5528
  117.0000     7.5509     7.5650   119.2608
  117.5000     7.3321     7.3052   118.4512
  118.0000     7.1230     7.0662   117.6415
  118.5000     6.8903     6.8343   117.8931
  119.0000     6.8945     6.6119   117.7302
  119.5000     6.8169     6.5169   117.8464
  120.0000     6.7659     6.5619   120.1332
  120.5000     6.7855     6.6189   122.3585
  121.0000     6.8018     6.7100   123.6152
  121.5000     6.8180     6.8023   124.8320
  122.0000     6.8554     6.8959   125.6065
  122.5000     7.0633     7.0075   125.9649
  123.0000     7.2528     7.1526   125.7970
  123.5000     7.4283     7.3007   125.6560
  124.0000     7.5650     7.3833   124.6886
  124.5000     7.5146     7.4257   123.5289
  125.0000     7.4956     7.4685   123.9112
  125.5000     7.6086     7.5115   124.9220
  126.0000     7.7071     7.5547   125.3809
  126.5000     7.6357     7.5650   123.7894
  127.0000     7.6357     7.5255   122.1649
  127.5000     7.5637     7.4280   123.8295
  128.0000     7.4495     7.3318   126.0851
  128.5000     7.3370     7.2368   128.3612
  129.0000     7.2262     7.1252   126.2099
  129.5000     7.0669     6.8887   123.7318
  130.0000     6.8180     6.6601   123.7831
  130.5000     6.5770     6.4390   125.3822
  131.0000     6.3011     6.0718   125.6379
  131.5000     5.8811     5.6928   124.5415
  132.0000     5.4971     5.3376   123.3147
  132.5000     5.3079     4.9981   123.3592
  133.0000     5.3597     4.8014   122.9958
  133.5000     5.3966     4.9462   120.3935
