~VERSION INFORMATION
 VERS.                2.0:   CWLS LOG ASCII STANDARD - VERSION 2.0
 WRAP.                 NO:   ONE LINE PER DEPTH STEP
~WELL INFORMATION
#MNEM.UNIT      DATA TYPE    INFORMATION
#----------   ------------   ------------------------------
 STRT.F            2.0000:   START DEPTH
 STOP.F          565.0000:   STOP DEPTH
 STEP.F            0.5000:   STEP LENGTH
 NULL.          -999.2500:   NO VALUE
 COMP.       F D SERV INC:   COMPANY
 WELL. NAVAL PETROLEUM RESERVE 3 SX-3 #86-2 SX3:   WELL
 FLD .             TEAPOT:   FIELD
 LOC .       S3 T38N R78W:   LOCATION
 CNTY.            NATRONA:   COUNTY
 STAT.            WYOMING:   STATE
 CTRY. UNITED STATES OF AMERICA:   COUNTRY
 SRVC.     Atlas Wireline:   SERVICE COMPANY
 DATE.        23-OCT-1992:   LOGDATE
 API .       490252255400:   API NUMBER
~CURVE INFORMATION
#MNEM.UNIT       API CODE    CURVE DESCRIPTION
#----------   ------------   ------------------------------
 DEPT.F                  :   
 GRR .GAPI   07 310 01 00:   GAMMA RAY
 RILD.OHMM   07 120 46 00:   INDUCTION LOG DEEP RESISTIVITY
 RILM.OHMM   07 120 44 00:   RESITIVITY LONG MEDIUM
~PARAMETER INFORMATION
#MNEM.UNIT          VALUE    DESCRIPTION
#----------   ------------   ------------------------------
 PD  .                 GL:   PERMANENT DATUM
 EPD .F              5153:   ELEVATION PERMANENT DATUM
 LMF .                 KB:   LOG MEASURED FROM
 DAPD.F                10:   FEET ABOVE PERMANENT DATUM
 DMF .                 KB:   DRILLING MEASURED FROM
 EKB .F              5153:   KELLING BUSHING
 EDF .F              5152:   DRILLING FLOOR
 EGL .F              5143:   GROUND LEVEL
 DATE.        23-OCT-1992:   RUN DATE
 RUN .                  1:   RUN NUMBER
 DD  .F               575:   DEPTH DRILLER
 DL  .F               574:   DEPTH LOGGER
 BLI .F               566:   BOTTOM LOG INTERVAL
 CS  .IN            8.625:   CASING SIZE
 CBD .F                94:   CASING BOTTOM DRILLER
 CBL .F                98:   CASING BOTTOM LOGGER
 BS  .IN            7.875:   BIT SIZE
 BSD .F               575:   BIT SIZE AT DEPTH
 DFT .           AIR FOAM:   DRILLING FLUID TYPE
 TCS .HRS               1:   TIME CURCULATED STOPPED
 MRT .F                70:   MAXIMUM RECORDED TEMPERATURE
 LUN .            HL-6274:   LOGGING UNIT NUMBER
 LUL .             CASPER:   LOGGING UNIT LOCATION
 ENGI.             RAUTIO:   RECORDING ENGINEER
 WITN.        GARY STRONG:   WITNESSED BY
 CLNT.            A2DTECH:   CLIENT CODE
 ORIG.           5" PRINT:   ORIGIN OF DATA
 UWI .       490252255400:   UNIQUE WELL ID
 DICO. A2D Technologies, Inc.:   DIGITIZING COMPANY
~OTHER INFORMATION
~A    DEPT      GRR      RILD       RILM   
# ...
  366.0000    74.6670    36.2240    31.8341
  366.5000    74.6729    36.6989    32.0568
  367.0000    73.1772    36.9663    32.5047
  367.5000    71.9419    37.4945    32.7321
  368.0000    71.6874    37.7677    33.4194
  368.5000    73.4965    38.5739    34.8692
  369.0000    74.1015    39.6736    36.8166
  369.5000    72.9077    40.8017    38.6422
  370.0000    71.1117    42.2534    39.4536
  370.5000    70.5169    42.2664    40.0049
  371.0000    69.9207    42.8704    40.2841
  371.5000    70.2283    42.7909    39.7350
  372.0000    72.0520    41.7306    38.9230
  372.5000    73.5433    40.0457    37.3461
  373.0000    72.9486    38.6958    35.3270
  373.5000    73.2562    37.6513    33.5981
  374.0000    76.2651    36.6319    32.0902
  374.5000    82.2769    35.6461    31.8710
  375.0000    83.1837    35.6581    31.6539
  375.5000    83.4898    36.4496    32.3191
  376.0000    84.0963    37.1990    33.6883
  376.5000    83.5015    37.4701    35.6038
  377.0000    81.9218    37.7432    37.3693
  377.5000    77.5087    38.5485    36.5931
  378.0000    75.7113    38.8294    35.0840
  378.5000    78.1210    38.8424    34.1682
  379.0000    85.6343    38.8555    33.4700
  379.5000    89.2438    37.7861    33.0138
  380.0000    90.7511    37.0449    32.3391
  380.5000    90.1564    36.0449    31.4604
  381.0000    89.2613    33.8784    30.3949
  381.5000    88.0660    31.8420    29.3655
  382.0000    87.4234    30.5564    28.1602
  382.5000    86.5762    29.5264    26.4256
  383.0000    85.3823    28.1387    24.5454
  383.5000    83.2860    27.1827    23.3889
  384.0000    79.6868    25.6490    22.5968
  384.5000    83.2977    24.1887    21.9828
  385.0000    90.5108    23.2121    21.6828
  385.5000    92.9191    22.8986    21.6842
  386.0000    90.8188    22.9082    21.5364
  386.5000    91.4655    22.9159    21.5379
  387.0000    93.8390    21.9906    21.5394
  387.5000    92.9439    23.0906    21.5412
  388.0000    88.4453    23.0986    21.6919
  388.5000    83.3460    23.2687    21.8436
  389.0000    83.3519    22.9564    21.9964
  389.5000    85.4598    22.8037    21.9979
  390.0000    89.0693    23.1314    21.9994
  390.5000    89.3834    23.6250    22.0009
  391.0000    89.0571    23.9625    21.8510
  391.5000    89.6889    24.4738    22.5050
  392.0000    92.6977    25.0100    24.0722
  392.5000    91.5024    26.4309    25.7946
  393.0000    86.7034    29.7431    27.8319
  393.5000    82.8054    31.2309    31.5170
  394.0000    81.0094    31.6771    33.5398
  394.5000    78.6129    31.6877    35.2029
  395.0000    75.0151    31.4770    31.9616
  395.5000    70.5045    31.2729    29.2140
  396.0000    71.2552    30.0020    26.8103
  396.5000    79.5386    28.3094    24.5913
  397.0000    84.3493    25.4341    23.7584
  397.5000    87.9587    23.7404    22.9538
  398.0000    94.2709    22.1594    20.9847
  398.5000    99.9825    21.4125    19.8584
  399.0000    98.1865    20.8328    19.4523
  399.5000    94.2884    20.8415    19.1871
  400.0000    93.0931    20.7046    19.0564
  400.5000    90.3323    20.4100    18.9265
  401.0000    88.3015    20.1542    18.9281
  401.5000    88.0055    20.1610    19.3256
  402.0000    90.4153    20.1678    19.8681
  402.5000    94.6257    20.3148    20.0071
  403.0000    94.3313    20.3216    20.1470
  403.5000    93.4349    20.3284    20.1880
  404.0000    92.2396    20.3352    20.2484
  404.5000    93.7485    20.4836    20.3037
  405.0000    96.4571    20.6345    20.0273
  405.5000    98.5652    20.7848    19.7553
  406.0000    99.4720    20.9363    19.6221
  406.5000    98.5770    20.9433    19.7614
  407.0000    94.3788    21.3902    19.9010
  407.5000    91.6820    21.6958    20.6028
  408.0000    93.4897    22.6239    21.4771
  408.5000    93.4956    22.7888    22.2386
  409.0000    90.7989    22.7977    22.7198
  409.5000    87.8028    22.6461    22.8640
  410.0000    84.8057    22.2202    22.0912
  410.5000    85.1119    22.0684    21.0518
  411.0000    86.9197    21.6161    20.2002
  411.5000    86.3235    21.0270    19.2498
  412.0000    86.9315    19.4861    18.0925
  412.5000    91.1416    18.5653    16.7715
  413.0000    94.4509    17.3243    15.9824
  413.5000    94.7571    16.3917    15.7653
  414.0000    94.7630    16.0558    15.5512
  414.5000    96.8710    15.8360    15.4464
  415.0000    99.5797    15.6085    15.4485
  415.5000   100.7868    15.4944    15.3442
  416.0000   100.7928    15.3002    15.3468
  416.5000   100.7707    15.0910    15.3489
  417.0000    99.5595    15.0921    15.2449
  417.5000    95.7069    15.0931    15.2474
  418.0000    93.3104    15.0941    15.2495
  418.5000    92.7143    14.9907    15.2516
  419.0000    93.3223    14.8883    15.1482
  419.5000    94.8297    15.0972    15.0460
  420.0000    96.3371    15.2032    14.8421
  420.5000    96.9436    15.0993    14.7420
  421.0000    95.7484    14.8926    14.3398
  421.5000    94.5531    14.5853    14.0400
  422.0000    93.3578    14.2884    13.6699
  422.5000    91.8623    14.2894    13.5772
  423.0000    90.0664    13.9002    13.4856
  423.5000    89.7718    13.8050    13.3029
  424.0000    93.3815    13.7106    13.2127
  424.5000   100.2944    13.5230    13.1881
  425.0000   105.1051    13.3381    13.0355
  425.5000   107.2452    13.2467    13.0373
  426.0000   108.1201    13.1562    13.0390
  426.5000   108.1261    13.2488    13.0408
  427.0000   107.2324    13.2497    13.1329
  427.5000   105.7368    13.4354    13.2257
  428.0000   104.2412    13.5296    13.3192
  428.5000   103.6451    13.5306    13.5066
  429.0000   103.9513    13.6255    13.6020
  429.5000   101.2560    13.6388    13.6039
  430.0000    97.6583    13.8177    13.6057
  430.5000    98.2649    13.8186    13.6076
  431.0000   101.2738    13.8195    13.5153
  431.5000   101.8789    13.8205    13.3318
  432.0000    97.0815    13.8214    13.1512
  432.5000    96.1850    13.7270    12.7947
  433.0000    98.5948    13.5389    12.3622
  433.5000   101.9040    13.1699    12.1921
  434.0000   102.5106    12.9002    12.0287
  434.5000   103.4174    12.6358    11.9476
  435.0000   104.9851    12.3768    11.7857
  435.5000   108.2703    12.2074    11.7058
  436.0000   108.5403    12.1207    11.6268
  436.5000   104.9441    12.0412    11.6286
  437.0000   102.2473    12.0420    11.6304
  437.5000   101.3509    12.1267    11.6320
  438.0000   101.0565    12.1275    11.7953
  438.5000   101.0639    12.2126    11.9609
  439.0000   101.3701    12.4698    12.2975
  439.5000   103.4781    13.0901    12.9082
  440.0000   104.9856    13.9329    13.7504
  440.5000   105.2903    14.7275    15.6376
  441.0000   102.2947    16.0048    17.8621
  441.5000    97.4958    18.2567    20.0866
  442.0000    91.7961    21.5592    22.3110
  442.5000    84.2945    25.2834    25.5905
  443.0000    79.1953    28.2676    30.8209
  443.5000    77.3994    33.9300    36.4020
  444.0000    75.9039    39.0690    39.0094
  444.5000    75.9099    42.2199    40.3850
  445.0000    77.7978    42.2227    40.1126
  445.5000    79.5255    41.0720    38.4901
  446.0000    77.4306    39.9526    35.6669
  446.5000    78.0371    38.8638    33.2555
  447.0000    78.6436    36.7718    31.0875
  447.5000    80.7516    34.5522    29.2185
  448.0000    81.9588    32.4667    28.2309
  448.5000    81.6629    31.3639    27.2767
  449.0000    81.3685    30.0895    26.5372
  449.5000    83.1777    28.8668    25.9968
  450.0000    85.2858    28.0801    26.1910
  450.5000    85.5920    27.8882    26.0061
  451.0000    86.1985    27.6710    25.8235
  451.5000    86.5048    27.1300    25.8203
  452.0000    87.1246    27.1323    25.8167
  452.5000    85.9322    26.9464    25.8130
  453.0000    86.5416    26.9487    25.6317
  453.5000    90.4544    26.9505    25.6282
  454.0000    92.8656    26.9524    25.6246
  454.5000    92.2738    27.1415    25.4439
  455.0000    91.3818    27.1434    25.0911
  455.5000    90.4895    27.1452    24.9148
  456.0000    88.9970    26.3834    24.7398
  456.5000    85.6777    26.2013    24.3967
