~VERSION INFORMATION
 VERS.                2.0:   CWLS LOG ASCII STANDARD - VERSION 2.0
 WRAP.                 NO:   ONE LINE PER DEPTH STEP
~WELL INFORMATION
#MNEM.UNIT      DATA TYPE    INFORMATION
#----------   ------------   ------------------------------
 STRT.F           30.0000:   START DEPTH
 STOP.F          759.0000:   STOP DEPTH
 STEP.F            0.5000:   STEP LENGTH
 NULL.          -999.2500:   NO VALUE
 COMP. FENIX & SCISSON INC:   COMPANY
 WELL.    NPR ##3 15-S-14:   WELL
 FLD .             TEAPOT:   FIELD
 LOC .      S14 T38N R78W:   LOCATION
 CNTY.            NATRONA:   COUNTY
 STAT.            WYOMING:   STATE
 CTRY. UNITED STATES OF AMERICA:   COUNTRY
 SRVC.              Welex:   SERVICE COMPANY
 DATE.        23-FEB-1977:   LOGDATE
 API .       490251027600:   API NUMBER
~CURVE INFORMATION
#MNEM.UNIT       API CODE    CURVE DESCRIPTION
#----------   ------------   ------------------------------
 DEPT.F                  :   
 GURD.OHMM   07 220 05 00:   SHALLOW SHORT GUARD RESISTIVITY
 ILD .OHMM   07 120 46 00:   INDUCTION LOG DEEP
 ILM .OHMM   07 120 44 00:   INDUCTION LOG MEDIUM
 SPR .MV     07 010 01 00:   SPONTANEOUS POTENTIAL
 CALD.IN     45 280 60 00:   CALIPER FROM DENSITY LOG
 CORR.G/C3   45 356 01 00:   DENSITY CORRECTION
 DPHI.DEC    45 890 12 00:   DENSITY POROSITY SANDSTONE
 GRD .GAPI   45 310 01 00:   GAMMA RAY FROM DENSITY LOG
 RHOB.G/C3   45 350 01 00:   BULK DENSITY
~PARAMETER INFORMATION
#MNEM.UNIT          VALUE    DESCRIPTION
#----------   ------------   ------------------------------
 PD  .                 GL:   PERMANENT DATUM
 EPD .F            5229.2:   ELEVATION PERMANENT DATUM
 LMF .                 GL:   LOG MEASURED FROM
 DMF .                 GL:   DRILLING MEASURED FROM
 EGL .F            5229.2:   GROUND LEVEL
 DATE.        23-FEB-1977:   RUN DATE
 RUN .                  1:   RUN NUMBER
 DD  .F               764:   DEPTH DRILLER
 DL  .F               762:   DEPTH LOGGER
 BLI .F               760:   BOTTOM LOG INTERVAL
 TLI .F                40:   TOP LOG INTERVAL
 CS  .IN            8.625:   CASING SIZE
 CBD .F                40:   CASING BOTTOM DRILLER
 CBL .F                40:   CASING BOTTOM LOGGER
 BS  .IN            7.875:   BIT SIZE
 BSD .F               764:   BIT SIZE AT DEPTH
 DFT .           CHEM/GEL:   DRILLING FLUID TYPE
 DFD .                9.4:   DRILLING FLUID DENSITY
 DFV .                 50:   DRILLING FLUID VISCOSITY
 DFPH.               11.0:   DRILLING FLUID PH
 DFL .               12.2:   DRILLING FLUID LOSS
 MSS .           FLOWLINE:   MUD SAMPLE SOURCE
 RMS .OHMM           0.23:   RESISTIVITY MUD SAMPLE
 MST .F                38:   MUD SAMPLE TEMPERATURE
 RMF .OHMM           0.15:   RESISTIVITY MUD FILTRATE SAMPLE
 MFST.F                38:   MUD FILTRATE SAMPLE TEMPERATURE
 RMC .OHMM           0.54:   RESISTIVITY MUD CAKE
 MCST.F                38:   MUD CAKE SAMPLE TEMPERATURE
 MFSS.               MEAS:   MUD FILTRATE SAMPLE SOURCE
 MCSS.               MEAS:   MUD CAKE SAMPLE SOURCE
 RMB .OHMM           .148:   RESISTIVITY MUD AT BHT
 BHT .F                59:   BOTTOM HOLE TEMPERATURE
 TCS .HRS               2:   TIME CURCULATED STOPPED
 MRT .F                59:   MAXIMUM RECORDED TEMPERATURE
 LUN .               8611:   LOGGING UNIT NUMBER
 LUL .           GILLETTE:   LOGGING UNIT LOCATION
 ENGI.             C.DOAK:   RECORDING ENGINEER
 WITN.         STUEBINGER:   WITNESSED BY
 CLNT.            A2DTECH:   CLIENT CODE
 ORIG.           5" PRINT:   ORIGIN OF DATA
 UWI .       490251027600:   UNIQUE WELL ID
 DICO. A2D Technologies, Inc.:   DIGITIZING COMPANY
~OTHER INFORMATION
~A   DEPT     GURD        ILD        ILM        SPR         CALD      CORR      DPHI         GRD        RHOB 
# ...
  723.5000    16.0830    10.4925    13.8304   -40.8955     8.0487     0.1259     0.0754   102.8706     2.5266
  724.0000    15.0031    10.4204    12.5519   -40.9174     8.0480     0.1288     0.0772   104.6581     2.5184
  724.5000    14.6065    10.2069    11.7107   -41.1940     8.0472     0.1288     0.0787   106.7450     2.5124
  725.0000    14.6045     9.9978    11.2321   -41.3433     8.0465     0.1287     0.0799   108.3829     2.5079
  725.5000    14.4021     9.8608    11.8673   -41.4925     8.0457     0.1272     0.0773   109.7213     2.5101
  726.0000    13.9112     9.7239    12.3731   -41.7910     8.0450     0.1272     0.0728   111.0597     2.5236
  726.5000    13.6239     9.5184    12.7975   -42.0895     8.0442     0.1272     0.0719   111.2006     2.5235
  727.0000    13.5283     9.2035    13.0612   -42.2388     8.0585     0.1286     0.0731   110.8872     2.5228
  727.5000    13.5265     8.9530    13.0576   -42.3881     8.0576     0.1286     0.0710   110.9207     2.5304
  728.0000    13.4315     8.7696    13.0541   -42.4716     8.0720     0.1286     0.0680   112.7106     2.5356
  728.5000    13.4297     8.6494    13.0506   -42.6866     8.0561     0.1270     0.0763   112.5519     2.5317
  729.0000    13.4205     8.5899    13.0471   -42.8358     8.0554     0.1195     0.0804   110.5552     2.5227
  729.5000    13.2418     8.5899    12.8646   -42.8358     8.0547     0.1135     0.0789   112.9415     2.5100
  730.0000    13.0579     8.5899    12.7725   -42.9851     8.0539     0.1120     0.0714   115.1782     2.5120
  730.5000    12.7883     8.6494    12.6812   -42.9851     8.0531     0.1149     0.0672   115.0196     2.5288
  731.0000    12.6985     8.6494    12.6713   -43.1343     8.0524     0.1164     0.0684   114.4119     2.5394
  731.5000    12.5225     8.6440    12.5003   -43.2836     8.0517     0.1164     0.0702   116.0498     2.5354
  732.0000    12.4346     8.5309    12.4962   -43.2836     8.0359     0.1178     0.0741   117.8373     2.5271
  732.5000    12.2623     8.4722    12.4068   -43.4403     8.0351     0.1173     0.0783   119.0260     2.5211
  733.0000    12.1763     8.4140    12.4035   -43.6050     8.0345     0.1163     0.0804   119.6182     2.5166
  733.5000    12.3440     8.3561    12.4861   -43.8806     8.0337     0.1148     0.0816   115.8646     2.5121
  734.0000    12.5141     8.2987    12.4827   -43.8806     8.0330     0.1147     0.0826   111.0653     2.5076
  734.5000    12.6865     8.2416    12.3934   -44.0298     8.0322     0.1147     0.0823   113.3019     2.5046
  735.0000    12.5103     8.1849    12.3048   -44.0298     8.0305     0.1132     0.0811   116.5865     2.5061
  735.5000    12.2520     8.1287    12.1327   -44.1791     8.0139     0.1116     0.0802   118.8231     2.5120
  736.0000    11.8343     8.1287    11.9453   -44.1791     7.9974     0.1101     0.0799   119.7622     2.5180
  736.5000    11.5102     8.0728    11.5528   -44.3284     7.9841     0.1121     0.0787   117.3083     2.5173
  737.0000    11.3507     8.0173    11.3127   -44.4776     7.9684     0.1146     0.0760   118.8065     2.5164
  737.5000    11.1934     8.0173    11.0777   -44.6393     7.9676     0.1191     0.0734   119.7106     2.5225
  738.0000    11.1148     7.9074    10.8475   -44.9254     7.9669     0.1235     0.0707   116.9919     2.5284
  738.5000    11.1133     7.7990    10.5490   -45.0746     7.9662     0.1249     0.0686   112.6167     2.5337
  739.0000    11.1889     7.6393    10.4014   -45.2239     7.9655     0.1219     0.0747   104.5372     2.5359
  739.5000    11.2680     7.5346    10.1853   -45.2239     7.9799     0.1189     0.0788    73.8397     2.5236
  740.0000    11.3415     7.4313    10.0428   -45.2239     7.9789     0.1144     0.0788    50.1298     2.5172
  740.5000    11.1069     7.1794     9.8998   -45.2239     7.9783     0.1113     0.0785  -999.2500     2.5179
  741.0000    10.8776     6.9840     9.8313   -45.2239     7.9625     0.1083     0.0836  -999.2500     2.5186
  741.5000    10.8013     6.7928     9.7605   -45.2239     7.9617     0.1068     0.0905  -999.2500     2.5134
  742.0000    10.9505     6.6492     9.6906   -45.2239     7.9610     0.1053     0.0920  -999.2500     2.5029
  742.5000    11.0249     6.4735     9.4893   -45.3731     7.9752     0.1048     0.0926  -999.2500     2.4939
  743.0000    11.0998     6.3409     9.2921   -45.3731     7.9745     0.1052     0.0938  -999.2500     2.4878
  743.5000    10.4288     6.2540     8.9741   -45.3731     7.9738     0.1082     0.0945  -999.2500     2.4878
  744.0000     9.4660     6.1259     8.9099   -45.2239     7.9730     0.1111     0.0921  -999.2500     2.4901
  744.5000     8.6516     6.0004     8.9075   -45.0344     7.9723     0.1131     0.0909  -999.2500     2.4945
  745.0000     9.8190     5.9592     8.9051   -44.5262     7.9565     0.1171     0.0909  -999.2500     2.4960
  745.5000    10.6533     6.0004     8.9027   -44.0180     7.9558     0.1215     0.0912  -999.2500     2.4953
  746.0000    11.0141     6.1259     9.0349   -43.5098     7.9549     0.1260     0.0882  -999.2500     2.4982
  746.5000    11.2429     6.3409     9.4030   -42.9851     7.9693     0.1304     0.0790  -999.2500     2.5110
  747.0000    11.3978     6.6587     9.7984   -42.3881     7.9834     0.1349     0.0724  -999.2500     2.5244
  747.5000    12.1274     7.0323    10.2104   -41.6418     7.9826     0.1409     0.0760  -999.2500     2.5289
  748.0000    12.5520     7.3803    10.4937   -40.5970     7.9819     0.1453     0.0718  -999.2500     2.5222
  748.5000    12.8132     7.7990    10.7848   -38.8060     7.9812     0.1483     0.0649  -999.2500     2.5416
  749.0000    12.9902     9.2672    11.0078   -36.5672     7.9504     0.1513     0.0631  -999.2500     2.5379
  749.5000    13.0781    10.4925    11.2353   -25.5797     7.9197     0.1557     0.0668  -999.2500     2.5371
  750.0000    13.0763    11.0117    11.5470    -8.0597     7.8740     0.1602     0.0701  -999.2500     2.5303
  750.5000    13.0660    11.3982    11.8758    -2.0895     7.8433     0.1647     0.0713  -999.2500     2.5198
  751.0000    12.8929    11.7868    12.2804    -1.9403     7.8126     0.1707     0.0716  -999.2500     2.5183
  751.5000    12.8024  -999.2500    12.6212    -1.9198     7.7668     0.1751     0.0738  -999.2500     2.5243
  752.0000    12.9788  -999.2500    12.7061    -1.8986     7.6911     0.1767     0.0808  -999.2500     2.5228
  752.5000    13.8096  -999.2500    12.5275    -1.8774     7.5854     0.1780  -999.2500  -999.2500     2.5093
  753.0000    14.1952  -999.2500    12.2151    -1.8562     7.4798     0.1780  -999.2500  -999.2500     2.4950
  753.5000    12.3610  -999.2500  -999.2500    -1.8350     7.3273     0.1764  -999.2500  -999.2500     2.4815
  754.0000    12.0228  -999.2500  -999.2500    -1.8138     7.1292     0.1764  -999.2500  -999.2500     2.4493
  754.5000    12.5296  -999.2500  -999.2500    -1.7926     6.9140     0.1749  -999.2500  -999.2500     2.4178
  755.0000    12.7023  -999.2500  -999.2500    -1.7714     6.5321     0.1748  -999.2500  -999.2500     2.3871
  755.5000    12.5194  -999.2500  -999.2500    -1.7502     6.3664     0.1748  -999.2500  -999.2500     2.3691
  756.0000    11.6078  -999.2500  -999.2500    -1.7290     6.2907     0.1716  -999.2500  -999.2500     2.3293
  756.5000    12.0139  -999.2500  -999.2500    -1.7238     6.2129     0.1739  -999.2500  -999.2500     2.3029
  757.0000    11.7658  -999.2500  -999.2500    -1.7238     6.2253     0.1762  -999.2500  -999.2500     2.2953
  757.5000    10.9788  -999.2500  -999.2500    -1.7238  -999.2500  -999.2500  -999.2500  -999.2500  -999.2500
  758.0000    10.6781  -999.2500  -999.2500    -1.7238  -999.2500  -999.2500  -999.2500  -999.2500  -999.2500
  758.5000    10.3141  -999.2500  -999.2500    -1.7238  -999.2500  -999.2500  -999.2500  -999.2500  -999.2500
  759.0000    10.0801  -999.2500  -999.2500    -1.7238  -999.2500  -999.2500  -999.2500  -999.2500  -999.2500
