~VERSION INFORMATION
 VERS.                2.0:   CWLS LOG ASCII STANDARD - VERSION 2.0
 WRAP.                 NO:   ONE LINE PER DEPTH STEP
~WELL INFORMATION
#MNEM.UNIT      DATA TYPE    INFORMATION
#----------   ------------   ------------------------------
 STRT.F            2.0000:   START DEPTH
 STOP.F          500.0000:   STOP DEPTH
 STEP.F            0.5000:   STEP LENGTH
 NULL.          -999.2500:   NO VALUE
 COMP. BROWN JOHN E&C INC:   COMPANY
 WELL. NAVAL PETROLEUM RESERVE 3 SHX- #65-1-3:   WELL
 FLD .             TEAPOT:   FIELD
 LOC .       S3 T38N R78W:   LOCATION
 CNTY.            NATRONA:   COUNTY
 STAT.            WYOMING:   STATE
 CTRY. UNITED STATES OF AMERICA:   COUNTRY
 SRVC.     Atlas Wireline:   SERVICE COMPANY
 DATE.        13-DEC-1991:   LOGDATE
 API .       490252247400:   API NUMBER
~CURVE INFORMATION
#MNEM.UNIT       API CODE    CURVE DESCRIPTION
#----------   ------------   ------------------------------
 DEPT.F                  :   
 RILD.OHMM   07 120 46 00:   RESISTIVITY INDUCTION LOG DEEP
 RILM.OHMM   07 120 44 00:   RESISTIVITY INDUCTION LOG MEDIUM
 GRR .GAPI   07 310 01 00:   GAMMA RAY FROM RESISTIVITY
~PARAMETER INFORMATION
#MNEM.UNIT          VALUE    DESCRIPTION
#----------   ------------   ------------------------------
 PD  .                 GL:   PERMANENT DATUM
 EPD .F              5148:   ELEVATION PERMANENT DATUM
 LMF .                 KB:   LOG MEASURED FROM
 DAPD.F                10:   FEET ABOVE PERMANENT DATUM
 DMF .                 KB:   DRILLING MEASURED FROM
 EKB .F              5150:   KELLING BUSHING
 EDF .F              5149:   DRILLING FLOOR
 EGL .F              5148:   GROUND LEVEL
 DATE.        13-DEC-1991:   RUN DATE
 RUN .                  1:   RUN NUMBER
 DD  .F               510:   DEPTH DRILLER
 DL  .F               510:   DEPTH LOGGER
 BLI .F               508:   BOTTOM LOG INTERVAL
 CS  .IN            9.625:   CASING SIZE
 CBD .F                51:   CASING BOTTOM DRILLER
 CBL .F                50:   CASING BOTTOM LOGGER
 BS  .IN             8.75:   BIT SIZE
 BSD .F               510:   BIT SIZE AT DEPTH
 DFT .                AIR:   DRILLING FLUID TYPE
 MRT .F                95:   MAXIMUM RECORDED TEMPERATURE
 LUN .            HL-6274:   LOGGING UNIT NUMBER
 LUL .             CASPER:   LOGGING UNIT LOCATION
 ENGI.             RAUTIO:   RECORDING ENGINEER
 WITN.        GARY STRONG:   WITNESSED BY
 CLNT.            A2DTECH:   CLIENT CODE
 ORIG.           5" PRINT:   ORIGIN OF DATA
 UWI .       490252247400:   UNIQUE WELL ID
 DICO. A2D Technologies, Inc.:   DIGITIZING COMPANY
~OTHER INFORMATION
~A    DEPT    RILD       RILM         GRR  
# ...
  184.0000     8.5387     8.5388   130.1259
  184.5000     8.5959     8.5360   126.7898
  185.0000     8.5931     8.5338   124.4139
  185.5000     8.5909     8.5316   123.8113
  186.0000     8.5288     8.5289   124.4084
  186.5000     8.4679     8.4678   126.5070
  187.0000     8.4070     8.4656   128.3060
  187.5000     8.3462     8.4629   130.4053
  188.0000     8.3441     8.4022   130.4024
  188.5000     8.2842     8.2843   130.0987
  189.0000     8.2248     8.2244   130.3962
  189.5000     8.1654     8.2223   131.6046
  190.0000     8.1069     8.1634   132.7930
  190.5000     8.0462     8.1043   133.9907
  191.0000     7.8805     7.9906   133.9879
  191.5000     7.7700     7.9886   132.1826
  192.0000     7.6610     7.8714   128.5762
  192.5000     7.5008     7.6585   126.1711
  193.0000     7.3444     7.4989   125.8680
  193.5000     7.1417     7.2905   129.1678
  194.0000     6.8484     6.8484   133.9698
  194.5000     6.5222     6.4771   136.9900
  195.0000     6.1685     6.0836   139.3689
  195.5000     5.4807     5.6349   137.5643
  196.0000     4.9038     5.2197   135.1591
  196.5000     4.4182     4.7355   133.9544
  197.0000     3.9401     4.0081   133.6520
  197.5000     3.4162     3.2998   134.8497
  198.0000     3.0566     2.9118   136.3884
  198.5000     2.8083     2.6927   137.8465
  199.0000     2.6044     2.5332   137.2431
  199.5000     2.5150     2.4978   131.1241
  200.0000     2.5851     2.6212   117.3557
  200.5000     2.6949     2.6578   111.1140
  201.0000     2.9904     3.0169   113.5200
  201.5000     3.4353     3.6062   123.7331
  202.0000     3.8173     4.1142   132.1443
  202.5000     4.3188     4.5970   135.7508
  203.0000     4.8257     5.0307   135.7297
  203.5000     5.4296     5.5069   133.6545
  204.0000     5.8600     5.9418   136.3608
  204.5000     6.1515     6.1943   140.2675
  205.0000     6.4129     6.3686   141.4716
  205.5000     6.5477     6.4575   140.2733
  206.0000     6.6854     6.4575   139.6756
  206.5000     6.6854     6.5025   140.5801
  207.0000     6.6854     6.5025   141.7841
  207.5000     6.5439     6.4129   142.9882
  208.0000     6.1515     6.2374   142.6907
  208.5000     5.6997     5.8195   144.2312
  209.0000     5.2445     5.2703   145.3999
  209.5000     4.8931     4.8931   145.1018
  210.0000     4.7592     4.7263   146.9072
  210.5000     4.7263     4.6612   148.7119
  211.0000     4.6937     4.5970   149.0150
  211.5000     4.6937     4.5970   147.6907
  212.0000     4.6937     4.5970   142.4149
  212.5000     4.6937     4.6290   139.4148
  213.0000     4.8999     4.8257   137.9162
  213.5000     5.2445     5.1010   141.8229
  214.0000     5.5823     5.4326   146.9670
  214.5000     5.9418     5.7793   149.6372
  215.0000     6.2808     6.1090   150.2407
  215.5000     6.5948     6.4575   146.3396
  216.0000     6.9213     6.7788   142.1383
  216.5000     7.2154     7.0714   144.2433
  217.0000     7.4700     7.3671   143.5736
  217.5000     7.5220     7.5743   139.7452
  218.0000     7.5220     7.6270   138.5469
  218.5000     7.5220     7.5743   139.1504
  219.0000     7.4700     7.5213   139.1533
  219.5000     7.3671     7.3162   138.5495
  220.0000     7.2656     7.1655   137.0576
  220.5000     7.1160     6.9695   136.7602
  221.0000     7.0163     6.8259   137.3637
  221.5000     6.8259     6.6392   140.0693
  222.0000     6.5933     6.4129   143.6757
  222.5000     6.3686     6.1090   147.7027
  223.0000     6.0668     5.8195   152.0906
  223.5000     5.7393     5.5823   153.5950
  224.0000     5.5335     5.3178   150.2946
  224.5000     5.2083     5.1365   146.0932
  225.0000     4.9960     4.9960   144.8949
  225.5000     4.8931     4.9272   150.6042
  226.0000     4.9614     5.0658   154.5110
  226.5000     5.1028     5.2445   156.0153
  227.0000     5.3548     5.4377   156.3185
  227.5000     5.5823     5.7393   155.4205
  228.0000     5.8600     5.9832   153.8499
  228.5000     6.1515     6.2374   148.8204
  229.0000     6.3686     6.4575   145.5199
  229.5000     6.6531     6.7353   143.7210
  230.0000     6.9213     7.0180   144.3245
  230.5000     7.0668     7.1655   147.0300
  231.0000     7.2154     7.3671   150.3844
  231.5000     7.3162     7.4183   151.8413
  232.0000     7.3196     7.5220   146.7391
  232.5000     7.4183     7.5743   141.3365
  233.0000     7.5220     7.5743   140.7387
  233.5000     7.5220     7.5743   140.7417
  234.0000     7.5743     7.5743   140.7453
  234.5000     7.5743     7.5743   142.2497
  235.0000     7.5743     7.5743   145.5558
  235.5000     7.5220     7.5743   149.1623
  236.0000     7.5220     7.5743   150.3664
  236.5000     7.4700     7.4700   149.1261
  237.0000     7.4183     7.4183   148.8706
  237.5000     7.4183     7.3671   149.4748
  238.0000     7.4183     7.3671   148.8771
  238.5000     7.4183     7.3671   147.0782
  239.0000     7.4700     7.4183   145.5676
  239.5000     7.5220     7.4183   146.7843
  240.0000     7.5220     7.4183   151.2917
  240.5000     7.4700     7.4183   154.8982
  241.0000     7.3671     7.2656   156.4026
  241.5000     7.2154     7.1160   156.4055
  242.0000     7.1160     6.9695   154.8348
  242.5000     6.9213     6.8212   153.1086
  243.0000     6.7273     6.6392   152.5109
  243.5000     6.5025     6.5025   156.4177
  244.0000     6.3686     6.3686   161.2253
  244.5000     6.2374     6.2374   163.6306
  245.0000     6.1943     6.2374   161.5321
  245.5000     6.2374     6.2374   154.6281
  246.0000     6.1943     6.1515   147.7240
  246.5000     6.1090     5.9832   144.4236
  247.0000     5.7393     5.7393   143.8258
  247.5000     5.3548     5.4648   144.4294
  248.0000     5.1010     5.1365   146.5350
  248.5000     5.1010     5.1365   150.4418
  249.0000     5.1723     5.1365   153.7480
  249.5000     5.2445     5.2083   156.4536
  250.0000     5.3548     5.2810   157.3573
  250.5000     5.5042     5.5818   153.7538
  251.0000     5.8573     5.8999   149.5495
  251.5000     6.1475     6.2361   145.2432
  252.0000     6.4075     6.5483   140.8408
  252.5000     6.6323     6.8235   139.0390
  253.0000     6.8172     6.9666   141.7417
  253.5000     6.9114     6.9661   144.4444
  254.0000     6.8145     6.8646   146.5465
  254.5000     6.5346     6.6350   146.8468
  255.0000     6.0121     6.2765   143.2432
  255.5000     5.5694     5.8963   139.6396
  256.0000     5.2678     5.3502   137.8378
  256.5000     5.1210     5.1676   140.8408
  257.0000     5.0860     5.0960   145.9460
  257.5000     5.0850     5.0605   150.1501
  258.0000     5.0840     5.1308   151.3513
  258.5000     5.2291     5.3484   148.9489
  259.0000     5.5613     5.5754   147.7477
  259.5000     5.8774     5.8933   147.7477
  260.0000     6.2115     6.2721   146.2462
  260.5000     6.5762     6.7221   144.4444
  261.0000     7.0343     7.1546   144.4765
  261.5000     7.3828     7.5713   146.2462
  262.0000     7.6950     7.9930   146.5465
  262.5000     7.9646     8.1606   144.7448
  263.0000     8.0746     8.2170   142.8869
  263.5000     8.1293     8.2163   141.4414
  264.0000     8.0711     8.2156   142.0420
  264.5000     8.0691     8.1583   142.9429
  265.0000     8.0118     8.1014   144.1441
  265.5000     8.0102     8.1007   142.6426
  266.0000     8.0087     8.0442   139.6396
  266.5000     7.9514     8.0437   138.4384
  267.0000     7.9498     7.9876   140.2402
  267.5000     7.9483     7.9869   142.6426
  268.0000     7.9467     7.9312   144.7448
  268.5000     7.9448     7.9307   145.3594
  269.0000     7.8883     7.9854   142.6426
  269.5000     7.8868     7.9847   139.9399
  270.0000     7.9401     8.0753   138.1381
  270.5000     7.9934     8.2084   139.9399
  271.0000     8.0479     8.2683   143.8438
  271.5000     8.1023     8.4379   146.2462
  272.0000     8.2767     8.4374   147.7477
  272.5000     8.3266     8.4957   145.6154
  273.0000     7.8208     8.0177   140.2402
  273.5000     7.1451     7.0928   135.4354
  274.0000     6.3677     6.2167   132.1321
  274.5000     5.6810     5.4111   130.6086
