~VERSION INFORMATION
 VERS.                2.0:   CWLS LOG ASCII STANDARD - VERSION 2.0
 WRAP.                 NO:   ONE LINE PER DEPTH STEP
~WELL INFORMATION
#MNEM.UNIT      DATA TYPE    INFORMATION
#----------   ------------   ------------------------------
 STRT.F           80.0000:   START DEPTH
 STOP.F          930.0000:   STOP DEPTH
 STEP.F            0.5000:   STEP LENGTH
 NULL.          -999.2500:   NO VALUE
 COMP. U S NAVY-INTEX OIL:   COMPANY
 WELL. RES 3 TEAPOT DOM #56-S-2:   WELL
 FLD .             TEAPOT:   FIELD
 LOC .       S2 T38N R78W:   LOCATION
 CNTY.            NATRONA:   COUNTY
 STAT.            WYOMING:   STATE
 CTRY. UNITED STATES OF AMERICA:   COUNTRY
 SRVC.       Schlumberger:   SERVICE COMPANY
 DATE.        24-JUN-1962:   LOGDATE
 API .       490250641900:   API NUMBER
~CURVE INFORMATION
#MNEM.UNIT       API CODE    CURVE DESCRIPTION
#----------   ------------   ------------------------------
 DEPT.F                  :   
 ASN .OHMM   05 041 16 00:   AMPLIFIED SHORT NORMAL 16"
 ILD .OHMM   05 120 46 00:   INDUCTION LOG DEEP
 CILD.MMHO   05 110 46 00:   CONDUCTIVITY INDUCTION LOG DEEP
 SPR .MV     05 010 01 00:   SPONTANEOUS POTENTIAL FROM RES.
 GR  .GAPI   30 310 01 00:   GAMMA RAY
~PARAMETER INFORMATION
#MNEM.UNIT          VALUE    DESCRIPTION
#----------   ------------   ------------------------------
 PD  .                 KB:   PERMANENT DATUM
 LMF .                 KB:   LOG MEASURED FROM
 DMF .                 KB:   DRILLING MEASURED FROM
 EKB .F              5179:   KELLING BUSHING
 EGL .F              5174:   GROUND LEVEL
 DATE.        24-JUN-1962:   RUN DATE
 RUN .                  1:   RUN NUMBER
 DD  .F               942:   DEPTH DRILLER
 DL  .F               931:   DEPTH LOGGER
 BLI .F               930:   BOTTOM LOG INTERVAL
 TLI .F                80:   TOP LOG INTERVAL
 BS  .IN             6.75:   BIT SIZE
 BSD .F               942:   BIT SIZE AT DEPTH
 DFT .       OIL EMULSION:   DRILLING FLUID TYPE
 DFD .                9.9:   DRILLING FLUID DENSITY
 DFV .                 55:   DRILLING FLUID VISCOSITY
 DFL .                3.7:   DRILLING FLUID LOSS
 RMS .OHMM            4.2:   RESISTIVITY MUD SAMPLE
 MST .F                79:   MUD SAMPLE TEMPERATURE
 RMF .OHMM            3.7:   RESISTIVITY MUD FILTRATE SAMPLE
 MFST.F                79:   MUD FILTRATE SAMPLE TEMPERATURE
 RMC .OHMM            4.0:   RESISTIVITY MUD CAKE
 MCST.F                79:   MUD CAKE SAMPLE TEMPERATURE
 TCS .HRS               1:   TIME CURCULATED STOPPED
 LUN .               2503:   LOGGING UNIT NUMBER
 LUL .               CSPR:   LOGGING UNIT LOCATION
 ENGI.             DANNER:   RECORDING ENGINEER
 WITN.          JORGENSEN:   WITNESSED BY
 CLNT.            A2DTECH:   CLIENT CODE
 ORIG.           5" PRINT:   ORIGIN OF DATA
 UWI .       490250641900:   UNIQUE WELL ID
 DICO. A2D Technologies, Inc.:   DIGITIZING COMPANY
~OTHER INFORMATION
~A   DEPT        ASN        ILD      CILD       SPR         GR   
# ...
  568.0000     7.8813     8.1892   131.3926   -58.1222  -999.2500
  568.5000     7.8222     8.1915   131.3776   -57.9638  -999.2500
  569.0000     7.6883     8.1186   132.1160   -57.9548  -999.2500
  569.5000     7.6738     8.1209   132.8506   -57.9458  -999.2500
  570.0000     7.7494     8.1232   132.8318   -57.9368  -999.2500
  570.5000     7.7650     8.1254   133.5690   -58.0773  -999.2500
  571.0000     7.7355     8.1277   133.5532   -58.2200  -999.2500
  571.5000     7.7363     8.1299   134.4298   -58.2087  -999.2500
  572.0000     7.7669     8.1322   135.1622   -57.9008  -999.2500
  572.5000     7.7526     8.1345   135.7578   -57.7423  -999.2500
  573.0000     7.7084     8.1367   136.4924   -57.7333  -999.2500
  573.5000     7.6640     8.0638   137.2271   -57.8738  -999.2500
  574.0000     7.6050     7.9910   137.9617   -57.8648  -999.2500
  574.5000     7.5457     7.9182   138.6963   -57.8558  -999.2500
  575.0000     7.5314     7.9205   138.6807   -57.8468  -999.2500
  575.5000     7.5472     7.9228   137.9161   -57.8378  -999.2500
  576.0000     7.5478     7.9250   137.0313   -57.9805  -999.2500
  576.5000     7.5783     8.0024   135.5198   -57.9693  -999.2500
  577.0000     7.6687     8.0797   133.2581   -57.9603  -999.2500
  577.5000     7.7739     8.1570   130.3598   -57.9513  -999.2500
  578.0000     7.8941     8.3094   128.8456   -57.9423  -999.2500
  578.5000     8.0293     8.3868   128.0809   -57.7838  -999.2500
  579.0000     8.0748     8.4641   126.5667   -57.7748  -999.2500
  579.5000     8.1202     8.6165   124.9501   -57.6163  -999.2500
  580.0000     8.1807     8.6938   123.5382   -57.3084  -999.2500
  580.5000     8.2561     8.6961   123.5232   -57.7478  -999.2500
  581.0000     8.2269     8.6227   123.6036   -57.8905  -999.2500
  581.5000     8.2125     8.6255   124.9930   -57.8793  -999.2500
  582.0000     8.1981     8.5522   125.8171   -57.8703  -999.2500
  582.5000     8.1690     8.4793   127.2988   -57.8613  -999.2500
  583.0000     8.1248     8.4822   128.0311   -57.8523  -999.2500
  583.5000     8.0242     8.4844   129.4307   -57.8433  -999.2500
  584.0000     7.9139     8.4110   130.2446   -57.8343  -999.2500
  584.5000     7.8404     8.3388   130.9767   -57.8253  -999.2500
  585.0000     7.7643     8.3410   132.4588   -57.8163  -999.2500
  585.5000     7.6795     8.1932   133.9405   -57.8073  -999.2500
  586.0000     7.6950     8.1198   135.3527   -57.7983  -999.2500
  586.5000     7.6807     8.0470   136.1543   -57.4903  -999.2500
  587.0000     7.6497     7.9741   137.6359   -57.1824  -999.2500
  587.5000     7.5607     7.9770   139.1177   -57.0239  -999.2500
  588.0000     7.4849     7.9036   141.3494   -57.0149  -999.2500
  588.5000     7.3977     7.7557   143.5807   -57.1554  -999.2500
  589.0000     7.3087     7.6084   145.0627   -57.1464  -999.2500
  589.5000     7.2197     7.4605   147.2391   -57.2869  -999.2500
  590.0000     7.1906     7.3877   147.2241   -57.2779  -999.2500
  590.5000     7.1776     7.3899   144.9603   -57.2689  -999.2500
  591.0000     7.2108     7.3922   143.4460   -57.2599  -999.2500
  591.5000     7.3009     7.5446   141.9317   -57.2509  -999.2500
  592.0000     7.3911     7.8471   139.6679   -57.2419  -999.2500
  592.5000     7.4941     7.9995   137.4040   -57.2347  -999.2500
  593.0000     7.5257     8.0769   135.8897   -57.2257  -999.2500
  593.5000     7.5860     8.1542   134.3755   -57.0673  -999.2500
  594.0000     7.7087     8.2315   133.6109   -57.2317  -999.2500
  594.5000     7.7956     8.3089   131.3470   -57.4981  -999.2500
  595.0000     7.7813     8.3862   129.8327   -57.6386  -999.2500
  595.5000     7.7975     8.3885   128.3185   -57.6293  -999.2500
  596.0000     7.8884     8.3907   126.0546   -57.6204  -999.2500
  596.5000     8.0090     8.5431   124.5403   -57.6114  -999.2500
  597.0000     8.1879     8.6205   124.5253   -57.4529  -999.2500
  597.5000     8.2334     8.6227   124.5103   -57.4439  -999.2500
  598.0000     8.2635     8.7001   125.2449   -57.4350  -999.2500
  598.5000     8.2342     8.7023   125.2299   -57.2765  -999.2500
  599.0000     8.2050     8.7046   125.2149   -57.2675  -999.2500
  599.5000     8.1756     8.6312   126.6992   -57.1091  -999.2500
  600.0000     8.1465     8.6246   127.5913   -56.8012  -999.2500
  600.5000     8.0579     8.5193   129.4364   -56.8677  -999.2500
  601.0000     7.9702     8.4140   131.2815   -56.9442  -999.2500
  601.5000     7.8970     8.2627   132.5993   -56.9413  -999.2500
  602.0000     7.9134     8.1891   134.0688   -57.0885  -999.2500
  602.5000     7.9448     8.1156   134.0316   -57.0848  -999.2500
  603.0000     7.9310     8.1925   133.2522   -57.0819  -999.2500
  603.5000     7.9328     8.1940   131.7232   -57.0789  -999.2500
  604.0000     7.9343     8.2705   130.1942   -57.0759  -999.2500
  604.5000     7.9358     8.4222   128.6652   -57.0730  -999.2500
  605.0000     7.9821     8.4987   127.1362   -57.0700  -999.2500
  605.5000     8.0733     8.5753   126.3568   -57.0670  -999.2500
  606.0000     8.2392     8.6519   124.8077   -57.0640  -999.2500
  606.5000     8.4201     8.8035   123.2556   -57.0611  -999.2500
  607.0000     8.6009     9.0302   120.2046   -57.0581  -999.2500
  607.5000     8.7818     9.2569   117.2413   -57.2054  -999.2500
  608.0000     8.9627     9.5587   114.8526   -57.5006  -999.2500
  608.5000     9.1884     9.7104   111.0520   -57.4976  -999.2500
  609.0000     9.3543     9.7869   107.4004   -57.4947  -999.2500
  609.5000     9.4903     9.8635   105.1218   -57.6413  -999.2500
  610.0000     9.5964     9.8650   104.3424   -57.9372  -999.2500
  610.5000     9.7329    10.0166   103.5630   -57.9342  -999.2500
  611.0000     9.9143    10.1683   102.0340   -57.9312  -999.2500
  611.5000    10.3162    10.3950    99.7553   -57.9283  -999.2500
  612.0000    10.6804    10.5466    98.2263   -58.0748  -999.2500
  612.5000    10.9770    10.6983    96.6973   -58.3708  -999.2500
  613.0000    11.1246    11.0000    93.6691   -58.6668  -999.2500
  613.5000    11.2722    11.1517    89.1415   -58.9627  -999.2500
  614.0000    11.4198    11.3033    88.3622   -58.6607  -999.2500
  614.5000    11.5679    11.5300    88.3324   -58.6571  -999.2500
  615.0000    11.7155    11.6817    88.3026   -58.8036  -999.2500
  615.5000    11.7884    11.7582    88.2729   -58.9509  -999.2500
  616.0000    11.6366    11.6847    88.2431   -59.6945  -999.2500
  616.5000    11.5600    11.5360    88.9704   -59.9905  -999.2500
  617.0000    11.3339    11.3774    89.6903   -59.9876  -999.2500
  617.5000    11.1078    11.1512    91.9094   -59.6856  -999.2500
  618.0000    11.0312    10.9399    94.8781   -59.3837  -999.2500
  618.5000    10.9546    10.8667    97.0972   -59.2313  -999.2500
  619.0000    10.8780    10.7931    97.8097   -59.2283  -999.2500
  619.5000    10.8013    10.7195    97.7799   -59.3756  -999.2500
  620.0000    10.7247    10.5708    98.4998   -59.3719  -999.2500
  620.5000    10.4986    10.4969    98.4700   -59.3689  -999.2500
  621.0000    10.2726    10.2735    99.1904   -59.2164  -999.2500
  621.5000    10.1959    10.1248   100.6593   -59.2135  -999.2500
  622.0000    10.1941    10.1263   101.3792   -59.3600  -999.2500
  622.5000    10.1922    10.1278   101.3493   -59.3570  -999.2500
  623.0000    10.1903    10.1293   101.3194   -59.3540  -999.2500
  623.5000    10.1885    10.1308   100.5397   -59.3511  -999.2500
  624.0000    10.1118    10.1323   100.5097   -59.4983  -999.2500
  624.5000    10.1100    10.1338   100.4798   -59.4946  -999.2500
  625.0000    10.1081    10.1353   101.2006   -59.4917  -999.2500
  625.5000    10.1814    10.1367   101.9205   -59.6383  -999.2500
  626.0000     9.9097    10.0628   102.6404   -59.4857  -999.2500
  626.5000     9.7233     9.9892   104.8520   -58.8848  -999.2500
  627.0000     9.5152     9.8409   105.5793   -58.2840  -999.2500
  627.5000     9.3518     9.6923   106.2992   -58.4305  -999.2500
  628.0000     9.3081     9.5436   108.5109   -58.5770  -999.2500
  628.5000     9.2940     9.4700   110.7300   -58.5804  -999.2500
