~VERSION INFORMATION
 VERS.                2.0:   CWLS LOG ASCII STANDARD - VERSION 2.0
 WRAP.                 NO:   ONE LINE PER DEPTH STEP
~WELL INFORMATION
#MNEM.UNIT      DATA TYPE    INFORMATION
#----------   ------------   ------------------------------
 STRT.F          376.0000:   START DEPTH
 STOP.F         2400.0000:   STOP DEPTH
 STEP.F            0.5000:   STEP LENGTH
 NULL.          -999.2500:   NO VALUE
 COMP. LAWRENCE/ALLISON INC:   COMPANY
 WELL.        55 X #15-15:   WELL
 FLD .            WILDCAT:   FIELD
 LOC .      S15 T38N R78W:   LOCATION
 CNTY.            NATRONA:   COUNTY
 STAT.            WYOMING:   STATE
 CTRY. UNITED STATES OF AMERICA:   COUNTRY
 SRVC.            Unknown:   SERVICE COMPANY
 DATE.        12-APR-1988:   LOGDATE
 API .       490251119800:   API NUMBER
~CURVE INFORMATION
#MNEM.UNIT       API CODE    CURVE DESCRIPTION
#----------   ------------   ------------------------------
 DEPT.F                  :   
 GR  .GAPI   30 310 01 00:   GAMMA RAY
 TGAS.UNITS  91 830 01 00:   TOTAL GAS UNIT
 ROP .FT/HR  91 810 01 00:   RATE OF DRILLING PENETRATION
~PARAMETER INFORMATION
#MNEM.UNIT          VALUE    DESCRIPTION
#----------   ------------   ------------------------------
 PD  .                 GL:   PERMANENT DATUM
 EPD .F              5293:   ELEVATION PERMANENT DATUM
 LMF .                 GL:   LOG MEASURED FROM
 DMF .                 KB:   DRILLING MEASURED FROM
 EKB .F              5304:   KELLING BUSHING
 EGL .F              5293:   GROUND LEVEL
 DATE.        12-APR-1988:   RUN DATE
 RUN .                  1:   RUN NUMBER
 DD  .F              2400:   DEPTH DRILLER
 DL  .F               851:   DEPTH LOGGER
 BLI .F               846:   BOTTOM LOG INTERVAL
 TLI .F               372:   TOP LOG INTERVAL
 CS  .IN                7:   CASING SIZE
 CBL .F               890:   CASING BOTTOM LOGGER
 BSD .F              2400:   BIT SIZE AT DEPTH
 DFT .              WATER:   DRILLING FLUID TYPE
 TCS .HRS               1:   TIME CURCULATED STOPPED
 ENGI.          BANGERTER:   RECORDING ENGINEER
 WITN.             NORHAN:   WITNESSED BY
 CLNT.            A2DTECH:   CLIENT CODE
 ORIG.           5" PRINT:   ORIGIN OF DATA
 UWI .       490251119800:   UNIQUE WELL ID
 DICO. A2D Technologies, Inc.:   DIGITIZING COMPANY
~OTHER INFORMATION
~A   DEPT        GR      TGAS        ROP   
# ...
 2196.0000  -999.2500     0.0000     0.3284
 2196.5000  -999.2500     0.0000     0.3286
 2197.0000  -999.2500     0.0000     0.3287
 2197.5000  -999.2500     0.0000     0.3289
 2198.0000  -999.2500     0.0000     0.3290
 2198.5000  -999.2500     0.0000     0.3291
 2199.0000  -999.2500     0.0000     0.3293
 2199.5000  -999.2500     0.0000     0.3294
 2200.0000  -999.2500     0.0000     0.3296
 2200.5000  -999.2500     0.0227     0.3297
 2201.0000  -999.2500     0.0455     0.3298
 2201.5000  -999.2500     0.0725     0.3303
 2202.0000  -999.2500     0.0949     0.3305
 2202.5000  -999.2500     0.1172     0.3307
 2203.0000  -999.2500     0.1395     0.3404
 2203.5000  -999.2500     0.1152     0.3406
 2204.0000  -999.2500     0.0000     0.3409
 2204.5000  -999.2500     0.0000     0.3506
 2205.0000  -999.2500     0.0000     0.3414
 2205.5000  -999.2500     0.0000     0.3416
 2206.0000  -999.2500     0.0000     0.3418
 2206.5000  -999.2500     0.0000     0.3421
 2207.0000  -999.2500     0.0000     0.3423
 2207.5000  -999.2500     0.0000     0.3425
 2208.0000  -999.2500     0.0000     0.3427
 2208.5000  -999.2500     0.0000     0.3430
 2209.0000  -999.2500     0.0000     0.3432
 2209.5000  -999.2500     0.0000     0.3435
 2210.0000  -999.2500     0.0000     0.3531
 2210.5000  -999.2500     0.0000     0.3533
 2211.0000  -999.2500     0.0000     0.3536
 2211.5000  -999.2500     0.0000     0.3538
 2212.0000  -999.2500     0.0000     0.3540
 2212.5000  -999.2500     0.0000     0.3543
 2213.0000  -999.2500     0.0000     0.3434
 2213.5000  -999.2500     0.0000     0.3359
 2214.0000  -999.2500     0.0000     0.3174
 2214.5000  -999.2500     0.0000     0.2988
 2215.0000  -999.2500     0.0000     0.2801
 2215.5000  -999.2500     0.0000     0.2615
 2216.0000  -999.2500     0.0000     0.2618
 2216.5000  -999.2500     0.0000     0.2526
 2217.0000  -999.2500     0.0000     0.2528
 2217.5000  -999.2500     0.0000     0.2531
 2218.0000  -999.2500     0.0606     0.2627
 2218.5000  -999.2500     0.0846     0.2629
 2219.0000  -999.2500     0.1069     0.2632
 2219.5000  -999.2500     0.1293     0.2634
 2220.0000  -999.2500     0.1516     0.2731
 2220.5000  -999.2500     0.5533     0.2733
 2221.0000  -999.2500     0.5760     0.2735
 2221.5000  -999.2500     0.6031     0.2738
 2222.0000  -999.2500     0.6784     0.2740
 2222.5000  -999.2500     1.0232     0.2742
 2223.0000  -999.2500     1.0490     0.2745
 2223.5000  -999.2500     1.0686     0.2748
 2224.0000  -999.2500     1.4726     0.2750
 2224.5000  -999.2500     1.4967     0.2752
 2225.0000  -999.2500     1.5158     0.2849
 2225.5000  -999.2500     1.5385     0.2851
 2226.0000  -999.2500     1.1829     0.2853
 2226.5000  -999.2500     1.2052     0.2950
 2227.0000  -999.2500     1.2278     0.2952
 2227.5000  -999.2500     1.2505     0.2954
 2228.0000  -999.2500     1.2777     0.3051
 2228.5000  -999.2500     1.3000     0.3100
 2229.0000  -999.2500     1.3224     0.3152
 2229.5000  -999.2500     1.3447     0.3246
 2230.0000  -999.2500     1.3642     0.3249
 2230.5000  -999.2500     1.3893     0.3251
 2231.0000  -999.2500     1.4116     0.3159
 2231.5000  -999.2500     1.4340     0.3162
 2232.0000  -999.2500     1.4563     0.3164
 2232.5000  -999.2500     1.4786     0.3072
 2233.0000  -999.2500     1.8799     0.2981
 2233.5000  -999.2500     1.9114     0.2888
 2234.0000  -999.2500     2.7206     0.2891
 2234.5000  -999.2500     3.4636     0.2893
 2235.0000  -999.2500     3.8695     0.2895
 2235.5000  -999.2500     4.2707     0.2898
 2236.0000  -999.2500     4.6720     0.2900
 2236.5000  -999.2500     4.6943     0.2903
 2237.0000  -999.2500     5.0956     0.2905
 2237.5000  -999.2500     5.1179     0.2907
 2238.0000  -999.2500     5.1402     0.2910
 2238.5000  -999.2500     5.1625     0.2912
 2239.0000  -999.2500     5.1848     0.2915
 2239.5000  -999.2500     5.2072     0.2917
 2240.0000  -999.2500     5.2295     0.2919
 2240.5000  -999.2500     5.2522     0.2827
 2241.0000  -999.2500     5.2749     0.2736
 2241.5000  -999.2500     5.3020     0.2738
 2242.0000  -999.2500     5.3243     0.2646
 2242.5000  -999.2500     5.3466     0.2554
 2243.0000  -999.2500     5.3690     0.2557
 2243.5000  -999.2500     5.3913     0.2559
 2244.0000  -999.2500     5.4136     0.2561
 2244.5000  -999.2500     5.5619     0.2564
 2245.0000  -999.2500     5.8372     0.2754
 2245.5000  -999.2500     5.8595     0.3039
 2246.0000  -999.2500     5.8818     0.3421
 2246.5000  -999.2500     6.2831     0.3712
 2247.0000  -999.2500     6.6846     0.3988
 2247.5000  -999.2500     6.7074     0.4085
 2248.0000  -999.2500     7.1135     0.4087
 2248.5000  -999.2500     7.1358     0.4089
 2249.0000  -999.2500     7.1582     0.4092
 2249.5000  -999.2500     6.7959     0.4188
 2250.0000  -999.2500     6.8238     0.4190
 2250.5000  -999.2500     6.8462     0.4193
 2251.0000  -999.2500     6.4840     0.4195
 2251.5000  -999.2500     6.5119     0.4197
 2252.0000  -999.2500     6.5342     0.4200
 2252.5000  -999.2500     6.5565     0.4202
 2253.0000  -999.2500     6.5788     0.4299
 2253.5000  -999.2500     6.6013     0.4301
 2254.0000  -999.2500     6.6234     0.4397
 2254.5000  -999.2500     6.2668     0.4400
 2255.0000  -999.2500     6.2947     0.4453
 2255.5000  -999.2500     6.3170     0.4499
 2256.0000  -999.2500     5.9548     0.4501
 2256.5000  -999.2500     5.9827     0.4504
 2257.0000  -999.2500     6.0050     0.4506
 2257.5000  -999.2500     6.0274     0.4508
 2258.0000  -999.2500     6.0497     0.4510
 2258.5000  -999.2500     6.0707     0.4513
 2259.0000  -999.2500     6.0943     0.4515
 2259.5000  -999.2500     6.1166     0.4518
 2260.0000  -999.2500     6.1389     0.4520
 2260.5000  -999.2500     6.1617     0.4522
 2261.0000  -999.2500     6.1844     0.4619
 2261.5000  -999.2500     6.2115     0.4621
 2262.0000  -999.2500     5.8493     0.4623
 2262.5000  -999.2500     5.8772     0.4626
 2263.0000  -999.2500     5.8995     0.4628
 2263.5000  -999.2500     5.9218     0.4630
 2264.0000  -999.2500     5.9441     0.4633
 2264.5000  -999.2500     5.9664     0.4636
 2265.0000  -999.2500     5.6042     0.4645
 2265.5000  -999.2500     5.6321     0.4734
 2266.0000  -999.2500     5.2749     0.4736
 2266.5000  -999.2500     5.2978     0.4739
 2267.0000  -999.2500     5.3204     0.4741
 2267.5000  -999.2500     4.9635     0.4650
 2268.0000  -999.2500     4.6069     0.4652
 2268.5000  -999.2500     4.2503     0.4654
 2269.0000  -999.2500     4.2781     0.4656
 2269.5000  -999.2500     4.3005     0.4659
 2270.0000  -999.2500     4.7017     0.4661
 2270.5000  -999.2500     4.3395     0.4569
 2271.0000  -999.2500     4.7464     0.4572
 2271.5000  -999.2500     4.7687     0.4574
 2272.0000  -999.2500     4.7910     0.4482
 2272.5000  -999.2500     4.4337     0.4484
 2273.0000  -999.2500     4.4567     0.4487
 2273.5000  -999.2500     4.4792     0.4395
 2274.0000  -999.2500     4.5019     0.4398
 2274.5000  -999.2500     4.5246     0.4400
 2275.0000  -999.2500     4.5516     0.4308
 2275.5000  -999.2500     4.5739     0.4311
 2276.0000  -999.2500     4.5962     0.4218
 2276.5000  -999.2500     4.6185     0.4221
 2277.0000  -999.2500     5.0198     0.4129
 2277.5000  -999.2500     5.0421     0.4037
 2278.0000  -999.2500     5.0644     0.4040
 2278.5000  -999.2500     5.0867     0.3948
 2279.0000  -999.2500     5.1090     0.3950
 2279.5000  -999.2500     5.1314     0.3952
 2280.0000  -999.2500     5.1537     0.3955
 2280.5000  -999.2500     5.1764     0.3957
 2281.0000  -999.2500     5.1992     0.3960
 2281.5000  -999.2500     5.2262     0.4056
 2282.0000  -999.2500     5.2485     0.4059
 2282.5000  -999.2500     5.2709     0.4155
 2283.0000  -999.2500     5.2932     0.4158
 2283.5000  -999.2500     5.3155     0.4160
 2284.0000  -999.2500     5.3378     0.4162
 2284.5000  -999.2500     5.3601     0.4165
 2285.0000  -999.2500     5.3825     0.4261
 2285.5000  -999.2500     5.4048     0.4263
 2286.0000  -999.2500     5.4271     0.4266
 2286.5000  -999.2500     5.0705     0.4173
