~VERSION INFORMATION
 VERS.                2.0:   CWLS LOG ASCII STANDARD - VERSION 2.0
 WRAP.                 NO:   ONE LINE PER DEPTH STEP
~WELL INFORMATION
#MNEM.UNIT      DATA TYPE    INFORMATION
#----------   ------------   ------------------------------
 STRT.F           14.0000:   START DEPTH
 STOP.F          549.0000:   STOP DEPTH
 STEP.F            0.5000:   STEP LENGTH
 NULL.          -999.2500:   NO VALUE
 COMP.   LAWRENCE-ALLISON:   COMPANY
 WELL.    NPR 3 #58-64SX3:   WELL
 FLD .           NPR NO 3:   FIELD
 LOC .       S3 T38N R78W:   LOCATION
 CNTY.            NATRONA:   COUNTY
 STAT.            WYOMING:   STATE
 CTRY. UNITED STATES OF AMERICA:   COUNTRY
 SRVC.      Dresser Atlas:   SERVICE COMPANY
 DATE.        05-DEC-1984:   LOGDATE
 API .       490251099700:   API NUMBER
~CURVE INFORMATION
#MNEM.UNIT       API CODE    CURVE DESCRIPTION
#----------   ------------   ------------------------------
 DEPT.F                  :   
 RFOC.OHMM   07 220 04 00:   RESISTIVITY FOCUSED LOG
 RILD.OHMM   07 120 46 00:   INDUCTION LOG DEEP RESISTIVITY
 RILM.OHMM   07 120 44 00:   INDUCTION LOG MEDIUM RESISTIVITY
 SPR .MV     07 010 01 00:   SPONTANEOUS POTENTIAL
 DT  .US/F   60 520 00 00:   INTERVAL TRANSIT TIME
 CALD.IN     45 280 60 00:   CALIPER FROM DENSITY LOG
 CORR.G/C3   45 356 01 00:   DENSITY CORRECTION
 CNC .DEC    42 890 03 00:   NEUTRON POROSITY SANDSTONE
 DEN .G/C3   45 350 01 00:   COMPENSATED BULK DENSTIY
 GRD .GAPI   45 310 01 00:   GAMMA RAY FROM DENSITY LOG
 PORD.DEC    45 890 12 00:   POROSITY DENSITY SANDSTONE
~PARAMETER INFORMATION
#MNEM.UNIT          VALUE    DESCRIPTION
#----------   ------------   ------------------------------
 PD  .                 GL:   PERMANENT DATUM
 EPD .F              5188:   ELEVATION PERMANENT DATUM
 LMF .                 KB:   LOG MEASURED FROM
 DMF .                 KB:   DRILLING MEASURED FROM
 EGL .F              5188:   GROUND LEVEL
 DATE.        05-DEC-1984:   RUN DATE
 RUN .                  1:   RUN NUMBER
 DD  .F               556:   DEPTH DRILLER
 DL  .F               551:   DEPTH LOGGER
 BLI .F               548:   BOTTOM LOG INTERVAL
 CS  .IN            8.625:   CASING SIZE
 CBD .F                20:   CASING BOTTOM DRILLER
 CBL .F                20:   CASING BOTTOM LOGGER
 BS  .IN            7.875:   BIT SIZE
 BSD .F               556:   BIT SIZE AT DEPTH
 DFT .          KCL WATER:   DRILLING FLUID TYPE
 MSS .           FLOWLINE:   MUD SAMPLE SOURCE
 RMS .OHMM            .36:   RESISTIVITY MUD SAMPLE
 MST .F                70:   MUD SAMPLE TEMPERATURE
 RMF .OHMM            .26:   RESISTIVITY MUD FILTRATE SAMPLE
 MFST.F                70:   MUD FILTRATE SAMPLE TEMPERATURE
 RMC .OHMM            .46:   RESISTIVITY MUD CAKE
 MCST.F                70:   MUD CAKE SAMPLE TEMPERATURE
 MFSS.               CALC:   MUD FILTRATE SAMPLE SOURCE
 MCSS.               CALC:   MUD CAKE SAMPLE SOURCE
 RMB .OHMM            .29:   RESISTIVITY MUD AT BHT
 BHT .F                85:   BOTTOM HOLE TEMPERATURE
 TCS .HRS               3:   TIME CURCULATED STOPPED
 MRT .F               100:   MAXIMUM RECORDED TEMPERATURE
 LUN .               6274:   LOGGING UNIT NUMBER
 LUL .               GLTE:   LOGGING UNIT LOCATION
 ENGI.             PAUTIO:   RECORDING ENGINEER
 WITN.       GROONS/LUERS:   WITNESSED BY
 CLNT.            A2DTECH:   CLIENT CODE
 ORIG.           5" PRINT:   ORIGIN OF DATA
 UWI .       490251099700:   UNIQUE WELL ID
 DICO. A2D Technologies, Inc.:   DIGITIZING COMPANY
~OTHER INFORMATION
~A   DEPT     RFOC       RILD       RILM        SPR         DT       CALD       CORR          CNC      DEN         GRD      PORD   
# ...
  166.5000     9.0176     9.0888     8.9679   -68.1498   102.1672     8.1743     0.0404     0.2661     2.4971   112.5552     0.1081
  167.0000     9.0098     8.9504     9.0288   -68.1680   101.9333     8.1578     0.0371     0.2658     2.4978   112.2343     0.1091
  167.5000     9.0701     8.9440     9.0884   -68.0277   101.7778     8.1568     0.0353     0.2684     2.4994   111.9135     0.1088
  168.0000     9.0603     8.9376     8.9486   -67.8921   101.7016     8.1557     0.0368     0.2722     2.4993   111.8971     0.1076
  168.5000     9.0524     8.9968     8.9422   -67.7564   101.6255     8.1546     0.0415     0.2774     2.4976   111.5617     0.1089
  169.0000     9.0446     9.0563     8.9358   -67.9329   101.3112     8.1536     0.0413     0.2825     2.4968   111.2596     0.1092
  169.5000     9.0368     9.1241     8.8644   -68.1049   101.3937     8.1525     0.0428     0.2848     2.5015   111.6029     0.1071
  170.0000     8.9631     9.3119     8.8580   -68.1231   101.7938     8.1514     0.0459     0.2921     2.5062   113.0840     0.1039
  170.5000     8.9552     9.3035     8.7873   -68.1415   102.0350     8.1349     0.0489     0.2994     2.5093   115.2323     0.1004
  171.0000     8.8822     9.0950     8.8453   -68.3138   102.3557     8.1338     0.0520     0.2951     2.5077   116.4577     0.1011
  171.5000     8.8084     8.8912     8.7744   -68.4898   102.2795     8.1328     0.0518     0.2840     2.5060   116.4424     0.1028
  172.0000     8.7367     8.6286     8.7668   -68.5079   102.2827     8.1317     0.0517     0.2751     2.5044   116.4302     0.1041
  172.5000     8.4158     8.3738     8.5083   -68.5261   102.2859     8.1461     0.0532     0.2761     2.5035   115.1543     0.1057
  173.0000     8.1663     8.2462     8.1973   -68.3859   102.2097     8.1450     0.0529     0.2782     2.5003   113.2757     0.1067
  173.5000     7.9241     8.0027     7.8976   -68.4086   102.2923     8.1439     0.0445     0.2790     2.4978   110.8370     0.1083
  174.0000     7.6891     7.8331     7.6090   -68.5806   102.6129     8.1426     0.0337     0.2794     2.4977   108.9730     0.1087
  174.5000     7.4611     7.5369     7.3846   -68.7526   103.5685     8.1261     0.0272     0.2871     2.4977   109.2725     0.1074
  175.0000     7.1871     7.2081     7.1147   -69.2323   104.8415     8.1250     0.0414     0.2881     2.4985   110.8004     0.1056
  175.5000     6.9740     6.8816     6.8047   -69.5581   105.7177     8.1239     0.0572     0.2942     2.4999   112.6401     0.1052
  176.0000     6.7672     6.3803     6.5083   -70.0378   106.3559     8.1229     0.0411     0.2988     2.4951   113.2482     0.1165
  176.5000     6.3773     5.7322     6.2247   -70.5175   108.5019     8.1373     0.0267     0.3054     2.4855   111.6898     0.1222
  177.0000     6.0983     5.1704     5.9972   -70.9972   109.2987     8.1519     0.0202     0.3032     2.4751   111.3689     0.1255
  177.5000     5.8316     4.4962     5.7766   -71.6308   110.3337     8.1506     0.0216     0.2943     2.4671   111.9740     0.1328
  178.0000     5.6565     3.9676     5.6032   -72.2749   111.9242     8.1495     0.0311     0.2899     2.4607   114.1223     0.1383
  178.5000     5.4908     3.5268     5.4315   -72.5908   114.1496     8.1485     0.0405     0.2970     2.4495   116.8909     0.1457
  179.0000     5.0724     3.2518     4.9089   -72.7667   117.5655     8.1628     0.0452     0.3005     2.4176   113.4806     0.1546
  179.5000     4.2743     2.9982     4.2078   -72.7849   120.9814     8.1618     0.0387     0.3174     2.3937   110.6906     0.1727
  180.0000     3.8551     2.8052     3.5806   -72.8030   126.5401     8.1762     0.0242     0.3400     2.3507   109.7525     0.2071
  180.5000     3.3769     2.6438     3.2539   -72.8212   131.4631     8.1751     0.0097     0.3981     2.2918   108.1971     0.2320
  181.0000     3.0682     2.5470     3.0447   -72.8393   135.6735     8.1740     0.0114     0.4221     2.2663   105.7157     0.2642
  181.5000     3.0438     2.5266     3.0648   -72.3960   136.2314     8.1575     0.0242     0.4329     2.2345   103.8517     0.2833
  182.0000     3.1769     2.5665     3.2233   -71.9526   132.9814     8.1410     0.0269     0.4225     2.1923   101.3703     0.2913
  182.5000     3.3164     2.8566     3.5418   -71.6585   128.5402     8.1378     0.0235     0.3784     2.1986   102.6235     0.2783
  183.0000     3.6706     3.4274     4.1865   -71.0658   121.4799     8.1079     0.0250     0.3272     2.2295   106.9753     0.2475
  183.5000     4.2139     4.1425     5.1704   -70.6224   116.3243     8.0911     0.0328     0.3177     2.2996   110.1317     0.2036
  184.0000     4.8375     4.8624     5.6400   -70.1785   111.8037     8.0746     0.0550     0.3044     2.3816   113.4650     0.1718
  184.5000     5.5943     5.3829     5.9751   -69.8892   109.6641     8.0736     0.0485     0.2876     2.4214   117.3556     0.1547
  185.0000     6.1019     5.8726     6.2840   -69.7538   107.4450     8.0725     0.0229     0.2892     2.4374   117.6551     0.1448
  185.5000     6.3699     6.3138     6.5131   -69.6182   107.6863     8.0714     0.0196     0.2928     2.4565   117.9516     0.1363
  186.0000     6.5533     6.7386     6.8000   -69.4825   108.0863     8.0703     0.0211     0.2957     2.4636   118.5567     0.1277
  186.5000     6.6462     6.7835     6.7447   -69.3468   108.4070     8.0693     0.0146     0.2983     2.4675   118.5414     0.1262
  187.0000     6.7360     6.7290     6.6917   -69.0573   108.5831     8.0682     0.0097     0.2986     2.4698   118.5292     0.1249
  187.5000     6.8293     6.6752     6.6868   -69.0799   108.6508     8.0671     0.0111     0.3036     2.4706   116.3565     0.1234
  188.0000     6.8720     6.5734     6.7805   -68.9397   108.4949     8.0662     0.0174     0.3042     2.4721   114.8011     0.1218
  188.5000     6.9180     6.3643     6.9753   -68.8040   108.0227     8.0650     0.0300     0.3003     2.4744   113.8630     0.1197
  189.0000     7.1171     6.0113     6.9196   -69.1344   107.7877     8.0639     0.0394     0.2880     2.4775   114.7767     0.1175
  189.5000     6.7056     5.7490     6.5700   -69.1526   107.5520     8.0629     0.0507     0.2870     2.4823   115.9990     0.1142
  190.0000     6.1371     5.5386     6.0143   -69.4784   110.0957     8.0618     0.0631     0.2898     2.4878   118.1473     0.1118
  190.5000     5.6169     5.3358     5.5057   -69.3940   111.9243     8.0607     0.0374     0.3088     2.4813   120.9129     0.1176
  191.0000     5.3321     5.1782     5.3433   -69.3594   113.9116     8.0597     0.0293     0.3257     2.4701   125.2217     0.1316
  191.5000     5.2887     5.0994     5.2620   -69.6898   115.1846     8.0586     0.0340     0.3317     2.4319   128.2959     0.1533
  192.0000     5.2841     5.0586     5.2583   -69.8618   115.5045     8.0730     0.0371     0.3315     2.4135   128.6420     0.1578
  192.5000     5.2795     5.0930     5.2930   -70.1876   114.7942     8.0717     0.0337     0.3267     2.4191   124.5678     0.1534
  193.0000     5.3529     5.1635     5.3670   -70.5135   113.8450     8.0863     0.0305     0.3198     2.4262   120.2181     0.1463
  193.5000     5.4269     5.2358     5.4439   -70.8393   113.0546     8.0852     0.0415     0.3093     2.4341   113.9753     0.1423
  194.0000     5.5830     5.3496     5.5684   -70.8575   112.3435     8.0685     0.0525     0.3105     2.4453   107.8645     0.1392
  194.5000     5.7439     5.5530     5.8450   -70.5680   111.5530     8.0674     0.0476     0.3174     2.4573   110.4157     0.1303
  195.0000     5.9147     5.8294     6.1025   -70.2784   110.9524     8.0663     0.0443     0.3186     2.4692   114.6272     0.1198
  195.5000     6.1741     6.1763     6.4180   -69.9844   110.2968     8.0498     0.0425     0.3120     2.4791   117.7014     0.1180
  196.0000     6.4012     6.5438     6.7499   -69.6994   108.8794     8.0642     0.0424     0.3057     2.4830   122.3188     0.1161
  196.5000     6.7210     6.8827     7.0472   -69.4098   107.4397     8.0631     0.0407     0.2746     2.4893   121.0721     0.1129
