~VERSION INFORMATION
 VERS.                2.0:   CWLS LOG ASCII STANDARD - VERSION 2.0
 WRAP.                 NO:   ONE LINE PER DEPTH STEP
~WELL INFORMATION
#MNEM.UNIT      DATA TYPE    INFORMATION
#----------   ------------   ------------------------------
 STRT.F           32.0000:   START DEPTH
 STOP.F          501.0000:   STOP DEPTH
 STEP.F            0.5000:   STEP LENGTH
 NULL.          -999.2500:   NO VALUE
 COMP. FENIX & SCISSON, INC., U.S. NAVY:   COMPANY
 WELL.     NPR-3 #82-S-10:   WELL
 FLD .             TEAPOT:   FIELD
 LOC .      S10 T38N R78W:   LOCATION
 CNTY.            NATRONA:   COUNTY
 STAT.            WYOMING:   STATE
 CTRY. UNITED STATES OF AMERICA:   COUNTRY
 SRVC.              Welex:   SERVICE COMPANY
 DATE.        10-MAY-1977:   LOGDATE
 API .       490251035300:   API NUMBER
~CURVE INFORMATION
#MNEM.UNIT       API CODE    CURVE DESCRIPTION
#----------   ------------   ------------------------------
 DEPT.F                  :   
 GURD.OHMM   07 220 05 00:   SHALLOW SHORT GUARD RESISTIVITY
 ILD .OHMM   07 120 46 00:   INDUCTION LOG DEEP
 ILM .OHMM   07 120 44 00:   INDUCTION LOG MEDIUM
 SPR .MV     07 010 01 00:   SPONTANEOUS POTENTIAL
 CALD.IN     45 280 60 00:   CALIPER FROM DENSITY LOG
 CORR.G/C3   45 356 01 00:   DENSITY CORRECTION
 DPHI.DEC    45 890 12 00:   DENSITY POROSITY SANDSTONE
 GRD .GAPI   45 310 01 00:   GAMMA RAY FROM DENSITY LOG
 RHOB.G/C3   45 350 01 00:   BULK DENSITY
~PARAMETER INFORMATION
#MNEM.UNIT          VALUE    DESCRIPTION
#----------   ------------   ------------------------------
 PD  .                 GL:   PERMANENT DATUM
 EPD .F              5134:   ELEVATION PERMANENT DATUM
 LMF .                 GL:   LOG MEASURED FROM
 DMF .                 GL:   DRILLING MEASURED FROM
 EGL .F              5134:   GROUND LEVEL
 DATE.        10-MAY-1977:   RUN DATE
 RUN .                  1:   RUN NUMBER
 DD  .F               505:   DEPTH DRILLER
 DL  .F               504:   DEPTH LOGGER
 BLI .F               502:   BOTTOM LOG INTERVAL
 TLI .F                30:   TOP LOG INTERVAL
 CS  .IN            8.625:   CASING SIZE
 CBD .F                40:   CASING BOTTOM DRILLER
 CBL .F                41:   CASING BOTTOM LOGGER
 BS  .IN            7.875:   BIT SIZE
 BSD .F               505:   BIT SIZE AT DEPTH
 DFT .            KCL MUD:   DRILLING FLUID TYPE
 DFD .                8.7:   DRILLING FLUID DENSITY
 DFV .                 29:   DRILLING FLUID VISCOSITY
 DFPH.                7.5:   DRILLING FLUID PH
 DFL .                6.6:   DRILLING FLUID LOSS
 MSS .           FLOWLINE:   MUD SAMPLE SOURCE
 RMS .OHMM           0.26:   RESISTIVITY MUD SAMPLE
 MST .F                72:   MUD SAMPLE TEMPERATURE
 RMF .OHMM           0.22:   RESISTIVITY MUD FILTRATE SAMPLE
 MFST.F                72:   MUD FILTRATE SAMPLE TEMPERATURE
 RMC .OHMM           0.42:   RESISTIVITY MUD CAKE
 MCST.F                72:   MUD CAKE SAMPLE TEMPERATURE
 MFSS.           FANN KIT:   MUD FILTRATE SAMPLE SOURCE
 MCSS.           FANN KIT:   MUD CAKE SAMPLE SOURCE
 RMB .OHMM           0.24:   RESISTIVITY MUD AT BHT
 BHT .F                78:   BOTTOM HOLE TEMPERATURE
 TCS .HRS               1:   TIME CURCULATED STOPPED
 MRT .F                78:   MAXIMUM RECORDED TEMPERATURE
 LUN .               8611:   LOGGING UNIT NUMBER
 LUL .             CASPER:   LOGGING UNIT LOCATION
 ENGI.            C. DOAK:   RECORDING ENGINEER
 WITN.         D. RHOADES:   WITNESSED BY
 CLNT.            A2DTECH:   CLIENT CODE
 ORIG.           5" PRINT:   ORIGIN OF DATA
 UWI .       490251035300:   UNIQUE WELL ID
 DICO. A2D Technologies, Inc.:   DIGITIZING COMPANY
~OTHER INFORMATION
~A   DEPT     GURD        ILD        ILM         SPR      CALD       CORR       DPHI        GRD       RHOB   
# ...
  324.0000    36.4586    30.3622    20.3333   -33.6124     7.9097     0.0049     0.2125    84.9880     2.3237
  324.5000    35.7226    29.9559    20.3416   -33.4938     7.9139     0.0066     0.2083    83.6673     2.3297
  325.0000    36.9911    29.9737    20.6330   -33.2589     7.9272     0.0110     0.2077    81.0113     2.3320
  325.5000    36.2280    29.1699    20.9286   -33.1726     7.9285     0.0144     0.2101    80.4288     2.3268
  326.0000    34.7212    27.0463    21.5239   -33.1592     7.9298     0.0161     0.1969    80.8922     2.3463
  326.5000    32.9279    24.5625    22.1361   -33.1475     7.9312     0.0163     0.1873    82.6872     2.3621
  327.0000    32.0412    23.4103    22.4532   -32.9870     7.9326     0.0164     0.1804    84.7790     2.3809
  327.5000    30.5387    23.2601    22.7749   -32.9762     7.9189     0.0166     0.1759    87.0191     2.3884
  328.0000    29.1067    23.4354    22.7842   -32.9636     7.9127     0.0168     0.1719    88.3691     2.3930
  328.5000    29.1166    22.9652    22.1722   -32.9524     7.9067     0.0215     0.1713    89.8674     2.3946
  329.0000    29.3815    22.5044    21.8768   -32.9405     7.9007     0.0246     0.1722    91.2173     2.3924
  329.5000    29.5418    22.0529    22.4990   -32.9286     7.8944     0.0263     0.1743    92.4189     2.3857
  330.0000    29.3484    21.6104    23.1715   -32.9167     7.8961     0.0249     0.1763    93.7688     2.3828
  330.5000    29.1562    21.3141    24.5119   -32.9048     7.8972     0.0206     0.1787    94.8220     2.3761
  331.0000    28.5678    21.0409    24.9865   -32.8906     7.8985     0.0162     0.1836    94.8366     2.3665
  331.5000    27.4170    20.8920    24.3177   -32.8810     7.8999     0.0134     0.1882    90.4002     2.3598
  332.0000    27.8079    20.6286    24.1576   -32.8690     7.9014     0.0151     0.1853    94.0535     2.3628
  332.5000    28.7952    20.6409    24.1699   -32.8555     7.8878     0.0243     0.1792    96.0711     2.3734
  333.0000    29.2059    20.5060    23.8479   -32.8452     7.8590     0.0319     0.1732    94.7504     2.3841
  333.5000    29.4186    20.3768    23.6910   -32.6833     7.8309     0.0336     0.1686    91.6492     2.3918
  334.0000    29.4308    20.6704    23.0569   -32.6706     7.8117     0.0308     0.1665    88.9932     2.3990
  334.5000    29.0343    21.1137    22.2830   -32.6607     7.7886     0.0279     0.1725    86.6340     2.3939
  335.0000    28.2548    21.7162    21.3868   -32.6488     7.7902     0.0249     0.1713    84.5714     2.3895
  335.5000    27.8741    23.6062    20.6690   -32.6365     7.7766     0.0205     0.1679    83.1024     2.3993
  336.0000    27.6916    26.5634    22.9354   -32.6250     7.7631     0.0164     0.1622    81.6333     2.4113
  336.5000    29.0762    29.4805    24.9423   -32.6131     7.7644     0.0135     0.1538    79.8675     2.4263
  337.0000    36.7884    33.1736    27.1477   -32.6012     7.7658     0.0122     0.1454    76.9148     2.4369
  337.5000    55.7062    38.9107    29.3484   -32.5893     7.7522     0.0079     0.1212    72.3300     2.4542
  338.0000    82.6216    40.8791    32.4561   -32.5752     7.7536     0.0051     0.0981    69.9707     2.4961
  338.5000    98.9147    41.7368    35.0333   -32.5655     7.7551     0.0022     0.0858    68.3533     2.5389
  339.0000    99.0386    40.3419    38.0774   -32.5536     7.7565     0.0129     0.0753    66.7339     2.5629
  339.5000    92.3737    37.6646    38.6190   -32.5401     7.7578     0.0206     0.0609    66.4431     2.5839
  340.0000    76.1509    34.9226    36.0591   -32.5298     7.7442     0.0267     0.0566    67.3293     2.6022
  340.5000    62.1768    33.5193    30.5614   -32.5167     7.7455     0.0329     0.0728    74.0534     2.5661
  341.0000    48.3419    32.1724    25.1959   -32.5050     7.7469     0.0331     0.0872    78.3707     2.5295
  341.5000    29.7888    29.8303    23.2005   -32.4940     7.7482     0.0332     0.1012    81.9461     2.4964
  342.0000    25.5967    27.2788    22.1141   -32.4816     7.7644     0.0334     0.1122    87.0053     2.4699
  342.5000    24.3964    24.7737    21.6690   -32.4702     7.7657     0.0321     0.1520    90.5807     2.4348
  343.0000    24.4047    23.2900    21.3805   -32.4583     7.7880     0.0259     0.1684    92.8208     2.3920
  343.5000    24.5823    22.2001    21.0890   -32.2976     7.8130     0.0076     0.1738    95.0610     2.3846
  344.0000    24.2531    21.3081    20.8146   -32.2024     7.8143     0.0086     0.1747    95.8174     2.3914
  344.5000    23.7616    20.8804    20.5394   -31.9738     7.8156     0.0177     0.1719    91.6778     2.3960
  345.0000    24.2696    20.4616    20.1263   -31.9544     7.8249     0.0254     0.1677    87.5381     2.4035
  345.5000    24.4462    20.3303    19.9938   -31.8016     7.8388     0.0304     0.1641    85.4719     2.4088
  346.0000    23.9528    20.1998    19.5936   -31.5728     7.8657     0.0347     0.1605    87.4189     2.4134
  346.5000    24.2944    19.9319    19.3306   -31.4684     7.8808     0.0349     0.1575    89.0656     2.4172
  347.0000    24.8117    19.6698    19.0730   -31.3201     7.8970     0.0351     0.1557    87.7449     2.4158
  347.5000    24.9922    19.5413    18.5626   -31.3085     7.8983     0.0352     0.1568    85.2373     2.4098
  348.0000    24.8285    19.5529    18.1892   -31.2976     7.9145     0.0354     0.1599    86.3461     2.4039
  348.5000    24.6660    19.6979    17.5787   -31.1369     7.9156     0.0355     0.1646    88.4510     2.4010
  349.0000    24.5044    19.8441    17.1062   -31.1246     7.9320     0.0357     0.1669    90.0325     2.3981
  349.5000    24.3440    19.9889    16.7623   -30.9643     7.9334     0.0359     0.1693    88.1184     2.3974
  350.0000    23.8547    19.7238    17.1204   -30.9524     7.9345     0.0360     0.1713    87.2391     2.3945
  350.5000    23.6965    19.7349    17.3658   -30.9405     7.9460     0.0331     0.1743    89.4829     2.3892
  351.0000    23.3792    19.6065    17.3730   -30.9286     7.9522     0.0287     0.1779    90.0910     2.3800
  351.5000    22.9093    19.4827    17.0250   -31.0632     7.9535     0.0231     0.1817    86.6932     2.3715
  352.0000    22.4450    19.3578    16.3403   -31.4979     7.9399     0.0262     0.1757    89.0817     2.3828
  352.5000    22.2981    18.9695    16.4603   -31.9327     7.9561     0.0294     0.1700    90.7283     2.3918
  353.0000    22.6160    18.1991    16.9284   -32.3703     7.9574     0.0310     0.1763    91.1844     2.3814
  353.5000    21.8573    17.8259    17.2900   -32.9510     7.9439     0.0282     0.1825    89.7190     2.3717
  354.0000    21.4160    17.6074    17.6594   -33.5345     7.9452     0.0239     0.1860    87.6565     2.3658
  354.5000    22.3592    17.2542    17.9124   -33.9692     7.9617     0.0195     0.1804    88.1162     2.3749
  355.0000    22.5249    17.0253    18.1690   -34.1093     7.9616     0.0152     0.1810    89.6145     2.3704
  355.5000    21.9214    16.7975    17.1990   -34.0947     7.9614     0.0138     0.1896    91.5579     2.3593
  356.0000    21.1871    16.3490    16.0573   -34.2321     7.9619     0.0170     0.1895    92.0178     2.3668
  356.5000    20.3364    15.9105    15.3053   -34.3690     7.9480     0.0217     0.1832    91.7191     2.3736
  357.0000    19.7914    15.5895    14.7890   -34.6548     7.9640     0.0263     0.1803    90.6350     2.3812
  357.5000    19.2611    15.3845    14.1871   -34.8066     7.9650     0.0310     0.1718    87.7624     2.3880
  358.0000    19.2703    15.1804    15.3597   -34.9544     7.9663     0.0327     0.1616    89.0391     2.4015
  358.5000    19.2795    15.1877    15.4725   -35.0662     7.9522     0.0328     0.1604    91.2749     2.4062
  359.0000    19.4226    15.1949    15.0610   -35.2033     7.9683     0.0313     0.1765    91.8787     2.3881
  359.5000    19.4508    15.2021    14.9634   -35.1887     7.9542     0.0242     0.1843    87.8830     2.3714
  360.0000    19.5780    15.2094    15.0774   -35.3287     7.9555     0.0198     0.1918    88.3384     2.3569
