~VERSION INFORMATION
 VERS.                2.0:   CWLS LOG ASCII STANDARD - VERSION 2.0
 WRAP.                 NO:   ONE LINE PER DEPTH STEP
~WELL INFORMATION
#MNEM.UNIT      DATA TYPE    INFORMATION
#----------   ------------   ------------------------------
 STRT.F           34.0000:   START DEPTH
 STOP.F          576.0000:   STOP DEPTH
 STEP.F            0.5000:   STEP LENGTH
 NULL.          -999.2500:   NO VALUE
 COMP. FENIX & SCISSON INC:   COMPANY
 WELL.   NPR-3 #22 SX 3-3:   WELL
 FLD .             TEAPOT:   FIELD
 LOC .       S3 T38N R78W:   LOCATION
 CNTY.            NATRONA:   COUNTY
 STAT.            WYOMING:   STATE
 CTRY. UNITED STATES OF AMERICA:   COUNTRY
 SRVC.            Unknown:   SERVICE COMPANY
 DATE.        17-JUL-1978:   LOGDATE
 API .       490251066700:   API NUMBER
~CURVE INFORMATION
#MNEM.UNIT       API CODE    CURVE DESCRIPTION
#----------   ------------   ------------------------------
 DEPT.F                  :   
 SN  .OHMM   05 040 16 00:   SHORT NORMAL 16"
 ILD .OHMM   05 120 46 00:   INDUCTION LOG DEEP
 SPR .MV     05 010 01 00:   SPONTANEOUS POTENTIAL FROM RES.
 CALD.IN     45 280 60 00:   CALIPER FROM DENSITY LOG
 GRD .GAPI   45 310 01 00:   GAMMA RAY FROM DENSITY LOG
 CORR.G/C3   45 356 01 00:   DENSITY CORRECTION
 DPHI.DEC    45 890 12 00:   DENSITY POROSITY SANDSTONE
 DEN .G/C3   45 350 01 00:   COMPENSATED BULK DENSITY
~PARAMETER INFORMATION
#MNEM.UNIT          VALUE    DESCRIPTION
#----------   ------------   ------------------------------
 PD  .                 GL:   PERMANENT DATUM
 EPD .F              5193:   ELEVATION PERMANENT DATUM
 LMF .                 KB:   LOG MEASURED FROM
 DAPD.F                 4:   FEET ABOVE PERMANENT DATUM
 DMF .                 KB:   DRILLING MEASURED FROM
 EKB .F              5197:   KELLING BUSHING
 EGL .F              5193:   GROUND LEVEL
 DATE.        17-JUL-1978:   RUN DATE
 RUN .                  1:   RUN NUMBER
 DD  .F               570:   DEPTH DRILLER
 DL  .F               576:   DEPTH LOGGER
 BLI .F               576:   BOTTOM LOG INTERVAL
 CS  .IN            8.625:   CASING SIZE
 CBD .F                30:   CASING BOTTOM DRILLER
 BS  .IN            7.875:   BIT SIZE
 BSD .F               570:   BIT SIZE AT DEPTH
 DFT .            MUD KCL:   DRILLING FLUID TYPE
 DFD .                8.6:   DRILLING FLUID DENSITY
 DFV .                 32:   DRILLING FLUID VISCOSITY
 DFL .                 15:   DRILLING FLUID LOSS
 MSS .           FLOWLINE:   MUD SAMPLE SOURCE
 RMS .OHMM            .18:   RESISTIVITY MUD SAMPLE
 MST .F                86:   MUD SAMPLE TEMPERATURE
 RMF .OHMM            .17:   RESISTIVITY MUD FILTRATE SAMPLE
 MFST.F                94:   MUD FILTRATE SAMPLE TEMPERATURE
 RMC .OHMM            .34:   RESISTIVITY MUD CAKE
 MCST.F                94:   MUD CAKE SAMPLE TEMPERATURE
 MFSS.               MEAS:   MUD FILTRATE SAMPLE SOURCE
 TCS .HRS            0300:   TIME CURCULATED STOPPED
 LUN .               2958:   LOGGING UNIT NUMBER
 LUL .               CASP:   LOGGING UNIT LOCATION
 ENGI.             MILLER:   RECORDING ENGINEER
 WITN.           MCGINLEY:   WITNESSED BY
 CLNT.            A2DTECH:   CLIENT CODE
 ORIG.           5" PRINT:   ORIGIN OF DATA
 UWI .       490251066700:   UNIQUE WELL ID
 DICO. A2D Technologies, Inc.:   DIGITIZING COMPANY
~OTHER INFORMATION
~A   DEPT       SN        ILD        SPR       CALD         GRD      CORR       DPHI        DEN   
# ...
  358.0000    12.1111    15.4270   -42.3925     7.9535    47.1771     0.0035     0.2441     2.3041
  358.5000    12.7149    17.7135   -41.7872     7.9551    44.5664    -0.0070     0.2349     2.2994
  359.0000    13.2573    20.6209   -41.1627     7.9577    45.8760    -0.0100     0.2411     2.2900
  359.5000    13.8228    21.9618   -40.2764     7.9603    49.3584     0.0005     0.2459     2.2736
  360.0000    14.5119    21.5162   -39.3735     7.9628    51.3905     0.0034     0.2396     2.2558
  360.5000    15.0271    20.9430   -38.3218     7.9654    49.9465    -0.0026     0.2366     2.2721
  361.0000    15.3607    20.5259   -37.7164     7.9680    49.6608    -0.0055     0.2360     2.2840
  361.5000    15.7855    20.5369   -37.1111     7.9706    50.1008    -0.0070     0.2340     2.2855
  362.0000    16.0118    21.1215   -36.3570     7.9731    50.6847     0.0168     0.2304     2.2892
  362.5000    16.3535    22.6387   -36.0367     7.9747    50.8339     0.0123     0.2114     2.3011
  363.0000    16.5880    24.6013   -35.8879     7.9899    50.9819     0.0126     0.1754     2.3175
  363.5000    16.8258    25.6523   -36.0292     8.0051    50.4064     0.0182     0.1662     2.3933
  364.0000    17.0670    25.1414   -36.1654     8.0058    49.6870     0.0003     0.1421     2.4543
  364.5000    17.3117    24.4749   -36.3066     8.0210    48.6604    -0.0235     0.1388     2.4907
  365.0000    17.4557    23.9875   -36.7405     8.0217    48.8269    -0.0235     0.1377     2.4813
  365.5000    17.6915    25.1851   -36.5816     8.0226    49.8455    -0.0191     0.1879     2.4320
  366.0000    17.6997    26.6251   -36.4166     8.0233    51.1541     0.0008     0.1980     2.3770
  366.5000    17.7080    26.4566   -36.2613     8.0240    52.1727     0.0077     0.1971     2.3494
  367.0000    17.7163    25.5751   -36.4001     8.0392    51.4523     0.0002     0.1992     2.3457
  367.5000    17.6009    24.1849   -36.5413     8.0252    51.1666    -0.0057     0.2101     2.3435
  368.0000    17.4902    22.7781   -36.3799     8.0406    51.1719    -0.0043     0.2163     2.3398
  368.5000    17.3785    22.0192   -35.7746     8.0413    51.6108     0.0002     0.2306     2.3241
  369.0000    17.3869    21.7268   -35.0205     8.0422    52.0498     0.0034     0.2327     2.2952
  369.5000    17.3968    25.1227   -34.5640     8.0429    52.4888     0.0061     0.2333     2.2900
  370.0000    17.4049    27.1133   -34.0873     8.0436    52.9277     0.0091     0.2312     2.2892
  370.5000    17.4130    28.6636   -33.6485     8.0443    53.2218     0.0001     0.1965     2.3160
  371.0000    17.4212    29.0765   -33.4896     8.0450    53.3710     0.0001     0.1926     2.3539
  371.5000    17.4293    29.4958   -33.3307     8.0457    53.2302     0.0061     0.1920     2.3591
  372.0000    17.4375    29.7149   -33.6208     8.0464    52.2209     0.0029     0.1938     2.3483
  372.5000    17.4457    29.5268   -33.6082     8.0326    50.3410     0.0001     0.2116     2.3353
  373.0000    17.4541    30.1630   -33.4493     8.0335    47.5916     0.0030     0.2202     2.3242
  373.5000    17.3421    30.3876   -33.1146     8.0487    43.3929     0.0120     0.2214     2.3078
  374.0000    16.8810    28.7748   -32.5338     8.0349    43.2521     0.0060     0.2214     2.2974
  374.5000    16.5417    27.2475   -32.6750     8.0356    44.7067     0.0000     0.2211     2.2973
  375.0000    16.1019    26.8893   -32.8138     8.0218    47.6094     0.0015     0.2134     2.3063
  375.5000    16.1094    26.1057   -33.0988     8.0080    54.4252     0.0074     0.2053     2.3202
  376.0000    16.0062    24.1140   -33.2375     8.0087    59.6468     0.0104     0.2086     2.3361
  376.5000    15.6865    22.9919   -33.3763     8.0096    62.1147     0.0074     0.2077     2.3279
  377.0000    15.4612    23.1630   -33.5150     8.0247    63.7131     0.0044     0.2092     2.3271
  377.5000    15.1700    22.8555   -33.3536     8.0254    64.1667    -0.0061     0.2074     2.3323
  378.0000    14.8686    22.0970   -33.0459     8.0261    64.0124    -0.0150     0.2006     2.3465
  378.5000    14.6721    21.6565   -32.8895     8.0268    63.5818    -0.0061     0.1994     2.3509
  379.0000    14.4766    21.5198   -33.4722     8.0275    60.5425    -0.0016     0.1991     2.3517
  379.5000    14.2870    21.2169   -34.2062     8.0282    56.9235     0.0028     0.1979     2.3517
  380.0000    14.0981    20.9577   -34.7913     8.0291    56.7826    -0.0240     0.1958     2.3487
  380.5000    14.0081    20.5430   -35.0789     8.0298    57.5232    -0.0224     0.2065     2.3420
  381.0000    14.0162    20.5540   -35.0685     8.0159    59.8356    -0.0121     0.2098     2.3309
  381.5000    13.9250    20.4212   -35.0562     8.0021    60.7084    -0.0017     0.2083     2.3242
  382.0000    14.0293    20.4348   -34.8973     8.0029    59.8430     0.0058     0.2074     2.3361
  382.5000    14.0359    20.4457   -34.8873     7.9892    59.5573     0.0102     0.2065     2.3316
  383.0000    13.9445    20.5980   -34.8772     7.9899    59.7075     0.0132     0.1961     2.3309
  383.5000    13.9526    20.6312   -34.8671     7.9883    60.5812     0.0161     0.1907     2.3375
  384.0000    13.9592    21.1984   -34.4106     7.9623    61.0203     0.0191     0.1869     2.3576
  384.5000    13.9658    21.6523   -33.8051     7.9487    60.8795     0.0295     0.1895     2.3725
  385.0000    13.8764    22.2686   -33.3463     7.9494    60.3050     0.0444     0.1907     2.3636
  385.5000    13.8845    22.9025   -33.1874     7.9501    59.1497     0.0578     0.1681     2.3450
  386.0000    13.8909    23.3929   -33.3287     7.9508    54.3713     0.0220     0.1530     2.4305
  386.5000    13.8974    23.7299   -33.6137     7.9515    49.7378     0.0010     0.1500     2.4364
  387.0000    13.9039    23.7425   -34.0500     7.9522    48.1459     0.0011     0.1683     2.4134
  387.5000    13.9104    23.0841   -34.1890     7.9530    47.5483    -0.0004     0.1974     2.3829
  388.0000    13.8214    22.6498   -34.1786     7.9537    48.4471    -0.0093     0.2148     2.3383
  388.5000    13.7331    22.8214   -34.3149     7.9544    52.3643    -0.0123     0.2139     2.3219
  389.0000    13.6452    22.5214   -34.4537     7.9696    55.2671    -0.0079     0.2124     2.3212
  389.5000    13.2824    21.7711   -34.4436     7.9848    56.7205    -0.0033     0.2109     2.3279
  390.0000    12.7494    21.4849   -34.8799     8.0000    58.1740     0.0025     0.2107     2.3264
  390.5000    12.7569    21.3489   -35.3163     8.0007    59.2178     0.0040     0.2151     2.3212
  391.0000    12.7628    20.0699   -35.6038     8.0016    60.5022     0.0040     0.2095     2.3182
  391.5000    12.7688    19.5449   -35.7426     8.0168    62.2456     0.0025     0.1993     2.3227
  392.0000    12.7748    19.2879   -35.5833     8.0175    63.4092     0.0010     0.1975     2.3487
  392.5000    12.5889    19.1633   -35.7224     8.0182    63.4134    -0.0005     0.2014     2.3486
  393.0000    12.1030    18.9139   -36.0100     8.0189    63.4175    -0.0005     0.2052     2.3450
  393.5000    12.0256    18.5372   -35.2533     8.0196    63.5667     0.0009     0.2085     2.3375
  394.0000    12.0312    18.1656   -35.0970     8.0203    63.5245     0.0009     0.2064     2.3309
  394.5000    12.1200    17.6840   -35.6796     8.0210    61.9819     0.0024     0.2045     2.3331
  395.0000    12.1256    17.6936   -36.1161     8.0219    61.1165     0.0024     0.2014     2.3375
  395.5000    12.1313    17.7053   -36.1057     8.0226    60.9747     0.0022     0.1990     2.3457
  396.0000    12.1370    17.5932   -35.9445     8.0233    61.5597     0.0009     0.1981     2.3526
  396.5000    12.1428    17.6026   -35.7856     8.0240    61.7088     0.0008     0.2002     2.3546
  397.0000    12.1497    17.6120   -36.2220     8.0247    60.9652     0.0008     0.2049     2.3509
  397.5000    12.1554    17.6214   -36.8072     8.0254    58.6747     0.0008     0.2109     2.3294
  398.0000    12.0762    17.6308   -37.0972     8.0261    55.2006     0.0008     0.2105     2.3204
