~VERSION INFORMATION
 VERS.                2.0:   CWLS LOG ASCII STANDARD - VERSION 2.0
 WRAP.                 NO:   ONE LINE PER DEPTH STEP
~WELL INFORMATION
#MNEM.UNIT      DATA TYPE    INFORMATION
#----------   ------------   ------------------------------
 STRT.F           70.0000:   START DEPTH
 STOP.F         1043.0000:   STOP DEPTH
 STEP.F            0.5000:   STEP LENGTH
 NULL.          -999.2500:   NO VALUE
 COMP. U S NAVY/INTEX OIL CO:   COMPANY
 WELL.       NPR 3 #54S-2:   WELL
 FLD .             TEAPOT:   FIELD
 LOC .       S2 T38N R78W:   LOCATION
 CNTY.            NATRONA:   COUNTY
 STAT.            WYOMING:   STATE
 CTRY. UNITED STATES OF AMERICA:   COUNTRY
 SRVC.         Lane Wells:   SERVICE COMPANY
 DATE.        14-JUN-1960:   LOGDATE
 API .       490250643300:   API NUMBER
~CURVE INFORMATION
#MNEM.UNIT       API CODE    CURVE DESCRIPTION
#----------   ------------   ------------------------------
 DEPT.F                  :   
 CILD.MMHO   05 110 46 00:   CONDUCTIVITY INDUCTION LOG DEEP
 ILD .OHMM   05 120 46 00:   INDUCTION LOG DEEP
 ASN .OHMM   05 041 16 00:   AMPLIFIED SHORT NORMAL 16"
 SPR .MV     05 010 01 00:   SPONTANEOUS POTENTIAL FROM RES.
~PARAMETER INFORMATION
#MNEM.UNIT          VALUE    DESCRIPTION
#----------   ------------   ------------------------------
 PD  .                 GL:   PERMANENT DATUM
 EPD .F              6164:   ELEVATION PERMANENT DATUM
 LMF .                 KB:   LOG MEASURED FROM
 DAPD.F                 5:   FEET ABOVE PERMANENT DATUM
 DMF .                 KB:   DRILLING MEASURED FROM
 EKB .F              6169:   KELLING BUSHING
 EGL .F              6164:   GROUND LEVEL
 DATE.            6-14-60:   RUN DATE
 RUN .                  1:   RUN NUMBER
 DD  .F              1045:   DEPTH DRILLER
 DL  .F              1045:   DEPTH LOGGER
 BLI .F              1043:   BOTTOM LOG INTERVAL
 TLI .F                70:   TOP LOG INTERVAL
 CS  .IN            8.625:   CASING SIZE
 CBD .F                12:   CASING BOTTOM DRILLER
 BS  .IN            7.875:   BIT SIZE
 BSD .F              1045:   BIT SIZE AT DEPTH
 DFT .   GEL/OIL EMULSION:   DRILLING FLUID TYPE
 DFD .                9.7:   DRILLING FLUID DENSITY
 DFV .                 45:   DRILLING FLUID VISCOSITY
 DFPH.                  8:   DRILLING FLUID PH
 DFL .               11.6:   DRILLING FLUID LOSS
 MSS .          FLOW LINE:   MUD SAMPLE SOURCE
 RMS .OHMM            1.6:   RESISTIVITY MUD SAMPLE
 MST .F                62:   MUD SAMPLE TEMPERATURE
 RMF .OHMM            1.4:   RESISTIVITY MUD FILTRATE SAMPLE
 MFST.F                60:   MUD FILTRATE SAMPLE TEMPERATURE
 RMC .OHMM           1.75:   RESISTIVITY MUD CAKE
 MCST.F                60:   MUD CAKE SAMPLE TEMPERATURE
 MFSS.                MUD:   MUD FILTRATE SAMPLE SOURCE
 MCSS.              PRESS:   MUD CAKE SAMPLE SOURCE
 RMB .OHMM            1.4:   RESISTIVITY MUD AT BHT
 BHT .F                72:   BOTTOM HOLE TEMPERATURE
 MRT .F                72:   MAXIMUM RECORDED TEMPERATURE
 LUN .             C-4474:   LOGGING UNIT NUMBER
 LUL .             CASPER:   LOGGING UNIT LOCATION
 ENGI.      NELSON/GRIGGS:   RECORDING ENGINEER
 WITN.   JORGENSEN/HUDSON:   WITNESSED BY
 CLNT.            A2DTECH:   CLIENT CODE
 ORIG.       2", 5" PRINT:   ORIGIN OF DATA
 UWI .       490250643300:   UNIQUE WELL ID
 DICO. A2D Technologies, Inc.:   DIGITIZING COMPANY
~OTHER INFORMATION
~A   DEPT     CILD          ILD        ASN      SPR   
# ...
  289.0000   179.2888     6.1694     6.5081   -45.2824
  289.5000   178.5722     6.2138     6.6091   -45.3572
  290.0000   176.5457     6.2640     6.7446   -45.5094
  290.5000   173.4225     6.3605     6.8897   -46.0828
  291.0000   170.2735     6.4594     7.0302   -46.6564
  291.5000   167.1612     6.5570     7.1731   -47.1932
  292.0000   164.0489     6.6559     7.3150   -47.7878
  292.5000   160.9366     6.7530     7.4570   -47.7594
  293.0000   157.8243     6.8522     7.5996   -47.3288
  293.5000   157.4584     6.8960     7.7405   -47.0025
  294.0000   158.8200     6.8599     7.8827   -46.6217
  294.5000   160.1817     6.8042     7.9585   -46.2805
  295.0000   161.5433     6.7547     7.9520   -45.8951
  295.5000   164.3879     6.6961     7.7456   -45.6508
  296.0000   168.0189     6.5320     7.5006   -45.6995
  296.5000   171.6499     6.3799     7.2803   -45.8042
  297.0000   175.2810     6.2451     7.0481   -45.5803
  297.5000   178.1930     6.0930     6.8262   -45.1781
  298.0000   178.4337     5.9968     6.5906   -44.8298
  298.5000   178.6346     5.9244     6.4022   -44.8250
  299.0000   178.8354     5.9318     6.4385   -45.0596
  299.5000   179.0363     5.9733     6.6585   -44.9609
  300.0000   179.2372     6.0030     6.8815   -44.6785
  300.5000   179.4381     6.0369     7.1288   -44.5830
  301.0000   179.6390     6.0754     7.2486   -44.9590
  301.5000   179.8399     6.0691     7.1473   -45.2383
  302.0000   179.9905     5.9835     7.0030   -45.6184
  302.5000   182.9864     5.9109     6.8507   -45.7640
  303.0000   185.3832     5.8327     6.7111   -45.2655
  303.5000   187.7799     5.7621     6.5629   -44.8626
  304.0000   190.1766     5.6760     6.4089   -44.4234
  304.5000   192.5733     5.6231     6.3342   -44.0172
  305.0000   194.3709     5.6299     6.2552   -43.5262
  305.5000   194.6705     5.6264     6.1891   -43.5950
  306.0000   195.0699     5.6287     6.1048   -43.8377
  306.5000   195.4694     5.6272     6.0611   -44.0200
  307.0000   195.8688     5.6291     6.1173   -44.2309
  307.5000   196.2683     5.6231     6.1574   -44.4679
  308.0000   196.6677     5.5851     6.1576   -45.0310
  308.5000   197.0672     5.5511     6.1096   -45.6273
  309.0000   197.4666     5.5165     6.0414   -46.0679
  309.5000   197.8661     5.4824     5.9825   -46.1415
  310.0000   198.2655     5.4478     5.9204   -45.9455
  310.5000   198.6650     5.4140     5.8506   -45.4485
  311.0000   199.0644     5.3784     5.8073   -44.8489
  311.5000   199.4639     5.3463     5.8335   -44.3472
  312.0000   199.8633     5.3078     5.8819   -43.7161
  312.5000   200.2628     5.2784     5.9164   -43.8119
  313.0000   200.6622     5.2216     5.9706   -44.1173
  313.5000   201.0617     5.1720     5.9154   -44.3698
  314.0000   201.5610     5.1801     5.8139   -44.5954
  314.5000   204.2573     5.1761     5.7320   -44.3398
  315.0000   207.8524     5.1783     5.6413   -44.0240
  315.5000   211.4475     5.1772     5.5556   -43.6780
  316.0000   215.0426     5.1778     5.4663   -43.4786
  316.5000   219.5364     5.1776     5.3806   -43.6403
  317.0000   220.0757     5.1777     5.2898   -43.7455
  317.5000   220.7947     5.1777     5.2078   -43.8685
  318.0000   221.3340     5.1777     5.1064   -44.0034
  318.5000   221.3340     5.1777     5.0499   -43.9733
  319.0000   221.3340     5.1777     5.0895   -43.8906
  319.5000   221.3340     5.1778     5.1151   -43.8177
  320.0000   221.3340     5.1778     5.1448   -43.7582
  320.5000   221.3340     5.1779     5.1764   -43.6494
  321.0000   221.3340     5.1776     5.1981   -43.8848
  321.5000   221.3340     5.1781     5.2003   -44.3022
  322.0000   220.3192     5.1772     5.2063   -44.6316
  322.5000   219.5074     5.1792     5.2101   -45.0518
  323.0000   218.6956     5.1696     5.2147   -44.9422
  323.5000   217.8839     5.0954     5.2116   -44.5500
  324.0000   217.0721     5.0911     5.2219   -44.8962
  324.5000   216.2603     5.1022     5.2869   -45.5745
  325.0000   215.4485     5.1086     5.3450   -45.5616
  325.5000   214.6359     5.1172     5.4041   -45.3433
  326.0000   213.8219     5.1246     5.4620   -44.6178
  326.5000   213.0076     5.1327     5.5217   -43.9579
  327.0000   212.1860     5.1405     5.5787   -43.2130
  327.5000   211.3632     5.1484     5.6428   -43.1791
  328.0000   210.5437     5.1564     5.7037   -43.3484
  328.5000   209.7475     5.1640     5.7299   -43.4360
  329.0000   208.7682     5.1726     5.7529   -43.5915
  329.5000   210.3690     5.1789     5.7645   -43.6394
  330.0000   212.5260     5.1751     5.7970   -43.4836
  330.5000   214.1438     5.1554     5.7083   -43.3119
  331.0000   222.4895     5.1373     5.5619   -43.3670
  331.5000   229.1661     5.1192     5.4366   -43.4473
  332.0000   237.5118     5.1013     5.3105   -43.7687
  332.5000   244.9267     5.0831     5.1706   -44.2814
  333.0000   257.2848     5.0653     5.0547   -44.7035
  333.5000   271.6651     5.0467     4.8017   -45.2073
  334.0000   290.8388     5.0297     4.4588   -45.2916
  334.5000   314.8061     5.0091     4.1311   -45.2155
  335.0000   327.7484     4.9964     3.8192   -44.8253
  335.5000   345.0047     4.9981     3.5058   -44.4655
  336.0000   357.9470     4.9973     3.1774   -44.1097
  336.5000   367.8335     4.9977     2.8392   -43.7473
  337.0000   377.7200     4.9975     2.6000   -43.3946
  337.5000   376.8212     4.9976     2.5378   -42.9890
  338.0000   375.9224     4.9976     2.5215   -42.9905
  338.5000   363.3925     4.9975     2.6370   -43.1185
  339.0000   346.6860     4.9976     3.0221   -43.0244
  339.5000   329.9794     4.9971     3.3315   -42.7498
  340.0000   313.2729     4.9980     3.6694   -43.1466
  340.5000   296.5663     4.9963     3.9855   -43.8333
  341.0000   279.8598     4.9992     4.3220   -44.4627
  341.5000   263.1532     4.9930     4.6271   -44.7669
  342.0000   246.4467     5.0413     5.0151   -44.4900
  342.5000   233.9167     5.1199     5.1682   -44.1111
  343.0000   221.9331     5.1847     5.3711   -43.7184
  343.5000   212.3463     5.2556     5.6177   -43.4897
  344.0000   205.1561     5.3229     5.5749   -44.0201
  344.5000   202.1602     5.3928     5.6288   -43.7449
  345.0000   199.7635     5.4601     5.7090   -43.4730
  345.5000   197.3668     5.5311     5.7706   -43.6642
  346.0000   194.3709     5.5956     5.8878   -43.8337
  346.5000   194.6160     5.6751     6.0728   -43.6095
  347.0000   194.9428     5.7204     6.1964   -43.2114
  347.5000   195.2696     5.6968     6.1998   -42.7946
  348.0000   195.5965     5.6821     6.1710   -43.0459
  348.5000   195.9233     5.6667     6.0708   -43.5538
  349.0000   196.1684     5.6463     5.9228   -44.0138
  349.5000   197.6664     5.6381     5.8037   -44.4325
  350.0000   198.8647     5.5530     5.6560   -44.9228
  350.5000   199.7635     5.4195     5.4626   -44.8109
  351.0000   209.0722     5.3086     5.2941   -44.0235
  351.5000   216.5191     5.1879     5.1158   -44.8816
  352.0000   223.9661     5.0727     4.9426   -45.4703
  352.5000   231.4130     4.9539     4.7666   -45.8742
  353.0000   238.8600     4.8383     4.5921   -45.8521
  353.5000   246.3069     4.7185     4.4168   -45.4562
  354.0000   251.8922     4.6056     4.2418   -45.9610
  354.5000   251.8922     4.4630     4.0490   -45.9624
  355.0000   251.3529     4.3798     3.9835   -45.8700
  355.5000   250.6339     4.4417     3.9836   -45.7314
  356.0000   250.0946     4.5013     4.0497   -45.6862
  356.5000   244.3752     4.5622     4.2440   -45.2113
  357.0000   239.7996     4.6219     4.4211   -44.5629
  357.5000   235.2240     4.6827     4.5970   -43.8638
  358.0000   230.6485     4.7422     4.7988   -43.5226
  358.5000   224.9290     4.8097     4.9522   -44.1527
  359.0000   226.2772     4.8178     5.0157   -44.7310
  359.5000   228.0747     4.7984     4.9918   -45.1452
  360.0000   229.8723     4.7855     4.9524   -45.3195
  360.5000   231.4896     4.7683     4.8615   -45.4409
  361.0000   233.7543     4.7567     4.7812   -45.2152
  361.5000   237.3222     4.7357     4.6965   -45.0488
