~VERSION INFORMATION
 VERS.                2.0:   CWLS LOG ASCII STANDARD - VERSION 2.0
 WRAP.                 NO:   ONE LINE PER DEPTH STEP
~WELL INFORMATION
#MNEM.UNIT      DATA TYPE    INFORMATION
#----------   ------------   ------------------------------
 STRT.F            0.0000:   START DEPTH
 STOP.F          601.0000:   STOP DEPTH
 STEP.F            0.5000:   STEP LENGTH
 NULL.          -999.2500:   NO VALUE
 COMP. Fluor Daniel (NPOSR) Inc:   COMPANY
 WELL.  NPR ##3 84-STX-33:   WELL
 FLD .          N.P.R. #3:   FIELD
 LOC .      S33 T39N R78W:   LOCATION
 CNTY.            NATRONA:   COUNTY
 STAT.            WYOMING:   STATE
 CTRY. UNITED STATES OF AMERICA:   COUNTRY
 SRVC.      Western Atlas:   SERVICE COMPANY
 DATE.        31-JAN-1995:   LOGDATE
 API .       490252269500:   API NUMBER
~CURVE INFORMATION
#MNEM.UNIT       API CODE    CURVE DESCRIPTION
#----------   ------------   ------------------------------
 DEPT.F                  :   
 GRR .GAPI   07 310 01 00:   GAMMA RAY FROM RES. LOG.
 RILD.OHMM   07 120 46 00:   INDUCTION LOG DEEP RESISTIVITY
 RILM.OHMM   07 120 44 00:   INDUCTION LOG MEDIUM RESISTIVITY
 RFOC.OHMM   07 220 04 00:   RESISTIVITY FOCUSED LOG
~PARAMETER INFORMATION
#MNEM.UNIT          VALUE    DESCRIPTION
#----------   ------------   ------------------------------
 PD  .                 GL:   PERMANENT DATUM
 EPD .F              5105:   ELEVATION PERMANENT DATUM
 LMF .                 KB:   LOG MEASURED FROM
 DAPD.F                10:   FEET ABOVE PERMANENT DATUM
 DMF .                 KB:   DRILLING MEASURED FROM
 EKB .F              5115:   KELLING BUSHING
 EDF .F              5114:   DRILLING FLOOR
 EGL .F              5105:   GROUND LEVEL
 DATE.        31-JAN-1995:   RUN DATE
 RUN .                  1:   RUN NUMBER
 DD  .F               615:   DEPTH DRILLER
 DL  .F               609:   DEPTH LOGGER
 BLI .F               601:   BOTTOM LOG INTERVAL
 CS  .IN            9.625:   CASING SIZE
 CBD .F                54:   CASING BOTTOM DRILLER
 CBL .F                52:   CASING BOTTOM LOGGER
 BS  .IN             8.75:   BIT SIZE
 BSD .F               615:   BIT SIZE AT DEPTH
 DFT .              WATER:   DRILLING FLUID TYPE
 MRT .F                92:   MAXIMUM RECORDED TEMPERATURE
 LUN .            HL-6274:   LOGGING UNIT NUMBER
 LUL .             CASPER:   LOGGING UNIT LOCATION
 ENGI.             RAUTIO:   RECORDING ENGINEER
 WITN.             STRONG:   WITNESSED BY
 CLNT.            A2DTECH:   CLIENT CODE
 ORIG.       2", 5" PRINT:   ORIGIN OF DATA
 UWI .       490252269500:   UNIQUE WELL ID
 DICO. A2D Technologies, Inc.:   DIGITIZING COMPANY
~OTHER INFORMATION
~A    DEPT      GRR      RILD       RILM       RFOC   
# ...
  511.0000    62.6733    10.1382     9.9255    10.3850
  511.5000    65.7212    10.3884    10.1325    10.5899
  512.0000    67.3226    10.6189    10.1681    10.8200
  512.5000    65.0822    10.6189    10.2081    10.7635
  513.0000    62.8541    10.6189    10.2480    10.7200
  513.5000    63.0561    10.6189    10.2879    10.7199
  514.0000    65.5977    10.6755    10.3243    10.6730
  514.5000    66.5988    10.7377    10.3243    10.6314
  515.0000    65.6259    10.8207    10.3243    10.5899
  515.5000    64.6819    10.8109    10.3251    10.5486
  516.0000    64.6303    10.7979    10.2876    10.5075
  516.5000    68.5927    10.7849    10.2544    10.4665
  517.0000    69.4591    10.7720    10.2213    10.4257
  517.5000    69.4584    10.7590    10.1883    10.3850
  518.0000    68.8750    10.7462    10.1554    10.3445
  518.5000    67.9754    10.7333    10.1332    10.3243
  519.0000    67.0593    10.7197    10.1495    10.3573
  519.5000    66.2731    10.7385    10.1686    10.3830
  520.0000    67.9043    10.7605    10.1877    10.4087
  520.5000    69.6188    10.7825    10.2068    10.4345
  521.0000    70.9057    10.8050    10.2260    10.4603
  521.5000    72.6480    10.8345    10.2452    10.4860
  522.0000    75.0054    10.8864    10.2645    10.5129
  522.5000    74.3827    10.9374    10.2837    10.5199
  523.0000    72.5177    10.9891    10.3030    10.5197
  523.5000    70.6018    11.0249    10.3256    10.5198
  524.0000    70.1167    10.9690    10.2972    10.5198
  524.5000    69.9208    10.9262    10.2585    10.5199
  525.0000    70.3992    10.8836    10.2203    10.5198
  525.5000    72.3752    10.8412    10.1821    10.5217
  526.0000    75.1908    10.7878    10.1318    10.4847
  526.5000    77.9141    10.7238    10.1330    10.4146
  527.0000    77.9109    10.6598    10.0999    10.3451
  527.5000    76.4988    10.5963    10.0751    10.2760
  528.0000    74.6502    10.5333    10.0503    10.2080
  528.5000    73.1765    10.4706    10.0053    10.1417
  529.0000    75.6742    10.4083     9.8976    10.0758
  529.5000    80.3259    10.3463     9.7911    10.0104
  530.0000    82.9454    10.2847     9.7593     9.9454
  530.5000    82.6618    10.2233     9.7377     9.8809
  531.0000    81.4793    10.1632     9.7137     9.8167
  531.5000    80.1909    10.1317     9.6897     9.7593
  532.0000    78.1562    10.1324     9.6683     9.8154
  532.5000    75.6436    10.1325     9.7937     9.9441
  533.0000    75.2244    10.1325     9.9092     9.9441
  533.5000    77.1016    10.1323     9.9441     9.9441
  534.0000    79.8530    10.1332     9.8447     9.9426
  534.5000    80.5020    10.1060     9.7790     9.8935
  535.0000    79.4830    10.0761     9.7137     9.8483
  535.5000    78.8133    10.0467     9.6476     9.8030
  536.0000    78.8222    10.0173     9.5733     9.7578
  536.5000    78.6127     9.9880     9.5015     9.7129
  537.0000    77.1991     9.9587     9.4299     9.6683
  537.5000    75.7780     9.8915     9.3588     9.6237
  538.0000    75.2929     9.7902     9.2888     9.5795
  538.5000    77.6951     9.6879     9.2243     9.5354
  539.0000    80.6111     9.5780     9.2003     9.4915
  539.5000    81.9209     9.5637     9.1776     9.4478
  540.0000    80.6989     9.5433     9.1550     9.4000
  540.5000    79.5952     9.5230     9.0964     9.3180
  541.0000    78.5014     9.5028     8.9738     9.2292
  541.5000    77.9815     9.4410     8.8856     9.1405
  542.0000    79.7004     9.2842     8.7983     9.0526
  542.5000    82.7359     9.1300     8.7205     8.9656
  543.0000    82.6397     8.9962     8.5504     8.8795
  543.5000    82.3329     8.8818     8.3653     8.8027
  544.0000    82.2646     8.7307     8.1664     8.5891
  544.5000    83.8319     8.4951     8.0664     8.3994
  545.0000    85.5779     8.2433     7.9258     8.2126
  545.5000    86.8327     8.0287     7.7877     8.0164
  546.0000    86.4409     7.6744     7.3658     7.9852
  546.5000    85.7164     7.0697     6.7064     7.9580
  547.0000    84.9620     6.4594     6.0490     7.7996
  547.5000    84.6415     5.8811     5.4432     7.5361
  548.0000    85.3123     5.3546     4.8472     6.9554
  548.5000    91.0115     4.9212     4.4756     6.9785
  549.0000    97.1897     4.7400     4.3200     4.7913
  549.5000   102.2550     4.5654     4.1129     3.9663
  550.0000   103.9209     4.7343     4.1214     3.9663
  550.5000    94.6584     5.0196     5.0254     5.5318
  551.0000    87.1028     5.3187     5.8536     7.8413
  551.5000    82.6420     5.8193     6.7119     8.9693
  552.0000    81.2634     6.5538     7.4050     8.8298
  552.5000    81.4454     7.3864     8.0266     8.7205
  553.0000    80.2654     8.2460     8.3329     8.6391
  553.5000    77.7780     8.4341     8.5957     8.8408
  554.0000    76.6979     8.6088     8.7270     9.0539
  554.5000    80.4490     8.7917     8.8603     8.9776
  555.0000    84.4036     8.9778     8.9957     8.8856
  555.5000    83.7001     9.1677     9.1331     8.9388
  556.0000    81.5730     9.3617     9.2726     9.0175
  556.5000    81.8889     9.5598     9.4143     9.0948
  557.0000    82.4817     9.7620     9.5581     9.2866
  557.5000    82.4977     9.9691     9.7041     9.5780
  558.0000    82.6310    10.0902     9.8524     9.7432
  558.5000    85.6854    10.1704    10.0029     9.9002
  559.0000    86.1484    10.2857    10.1557    10.0597
  559.5000    85.6342    10.5068    10.3109    10.2217
  560.0000    84.2629    10.7190    10.4684    10.3864
  560.5000    83.5954    10.7634    10.6189    10.5537
  561.0000    83.3968    10.8055    10.7069    10.7237
  561.5000    81.8339    11.0435    10.7908    10.9220
  562.0000    79.3155    11.4464    10.8201    10.8805
  562.5000    77.1715    11.2765    10.8203    10.8321
  563.0000    77.6178    11.1288    10.8769    10.7839
  563.5000    80.0436    11.2221    10.9318    10.7197
  564.0000    82.7257    11.2973    10.9868    10.8080
  564.5000    82.8618    11.3731    11.0420    10.9509
  565.0000    81.6535    11.4501    11.0987    11.0940
  565.5000    79.0276    11.5534    11.1282    11.2337
  566.0000    76.4223    11.4416    10.9508    11.1059
  566.5000    75.7857    11.2628    10.8280    10.9557
  567.0000    77.7865    11.0885    10.7071    10.8066
  567.5000    79.5353    10.9220    10.5875    10.6589
  568.0000    80.5356    11.1288    10.4910    10.5211
  568.5000    82.6509    10.9521    10.4243    10.7055
  569.0000    85.5105    10.9061    10.3580    10.9220
  569.5000    87.3362    10.8860    10.2921    10.5198
  570.0000    84.9670    10.8667    10.2280    10.5494
  570.5000    82.0816    10.8476    10.1905    10.5785
  571.0000    81.3093    10.8268    10.1552    10.6189
  571.5000    82.5775    10.6756    10.0346    10.4973
  572.0000    83.8736    10.4450     9.8025    10.3026
  572.5000    82.5133    10.2193     9.5757    10.1116
  573.0000    82.1502    10.0329     9.3543     9.9240
  573.5000    83.7996     9.8717     9.2771     9.7400
  574.0000    85.5229     9.7131     9.2338     9.6464
  574.5000    86.5514     9.5570     9.1175     9.6103
  575.0000    85.2856     9.4034     8.9851     9.5744
  575.5000    83.3366     9.2722     8.8547     9.5386
  576.0000    82.9289     9.1726     8.7689     9.5029
  576.5000    83.9219     9.0741     8.6844     9.4394
  577.0000    83.8785     8.9616     8.6007     9.3568
  577.5000    83.9651     8.8466     8.5178     9.2749
  578.0000    85.3442     8.7331     8.4357     9.1974
  578.5000    90.0863     8.6211     8.3546     9.0711
  579.0000    91.8279     8.5100     8.2433     8.7144
  579.5000    92.5227     8.3985     8.2675     8.6391
  580.0000    93.6509     8.4107     8.2985     8.6391
  580.5000    93.4604     8.4263     8.3297     8.6391
  581.0000    91.0119     8.4416     8.3609     8.7329
  581.5000    89.5114     8.4570     8.3994     8.8980
  582.0000    88.8773     8.4785     8.3237     8.9691
  582.5000    88.7184     8.4374     8.2269     8.9706
  583.0000    88.9259     8.3659     8.1312     8.9707
  583.5000    89.5303     8.2951     8.0189     8.7275
