~VERSION INFORMATION
 VERS.                2.0:   CWLS LOG ASCII STANDARD - VERSION 2.0
 WRAP.                 NO:   ONE LINE PER DEPTH STEP
~WELL INFORMATION
#MNEM.UNIT      DATA TYPE    INFORMATION
#----------   ------------   ------------------------------
 STRT.F           20.0000:   START DEPTH
 STOP.F          964.0000:   STOP DEPTH
 STEP.F            0.5000:   STEP LENGTH
 NULL.          -999.2500:   NO VALUE
 COMP. FENIX & SCISSON INC:   COMPANY
 WELL.    NPR-3 SX #58-11:   WELL
 FLD .             TEAPOT:   FIELD
 LOC .      S11 T38N R78W:   LOCATION
 CNTY.            NATRONA:   COUNTY
 STAT.            WYOMING:   STATE
 CTRY. UNITED STATES OF AMERICA:   COUNTRY
 SRVC.            Unknown:   SERVICE COMPANY
 DATE.        09-MAR-1978:   LOGDATE
 API .       490251060100:   API NUMBER
~CURVE INFORMATION
#MNEM.UNIT       API CODE    CURVE DESCRIPTION
#----------   ------------   ------------------------------
 DEPT.F                  :   
 SPR .MV     05 010 01 00:   SPONTANEOUS POTENTIAL FROM RES.
 SN  .OHMM   05 040 16 00:   SHORT NORMAL 16"
 ILD .OHMM   05 120 46 00:   INDUCTION LOG DEEP
 CALD.IN     45 280 60 00:   CALIPER
 GRD .GAPI   45 310 01 00:   GAMMA RAY FROM DENSITY LOG
 CORR.G/C3   45 356 01 00:   DENSITY CORRECTION
 RHOB.G/C3   45 350 01 00:   BULK DENSITY
 DPHI.DEC    45 890 12 00:   DENSITY POROSITY SANDSTONE
~PARAMETER INFORMATION
#MNEM.UNIT          VALUE    DESCRIPTION
#----------   ------------   ------------------------------
 PD  .                 GL:   PERMANENT DATUM
 EPD .F              5219:   ELEVATION PERMANENT DATUM
 LMF .                 KB:   LOG MEASURED FROM
 DAPD.F                 4:   FEET ABOVE PERMANENT DATUM
 DMF .                 KB:   DRILLING MEASURED FROM
 EKB .F              5223:   KELLING BUSHING
 EGL .F              5219:   GROUND LEVEL
 DATE.           3-9-1978:   RUN DATE
 RUN .                  1:   RUN NUMBER
 DD  .F               963:   DEPTH DRILLER
 DL  .F               966:   DEPTH LOGGER
 BLI .F               960:   BOTTOM LOG INTERVAL
 TLI .F                80:   TOP LOG INTERVAL
 CS  .IN            8.625:   CASING SIZE
 CBD .F                40:   CASING BOTTOM DRILLER
 BS  .IN            7.875:   BIT SIZE
 BSD .F               963:   BIT SIZE AT DEPTH
 DFT .         LIGNO SULF:   DRILLING FLUID TYPE
 DFD .                8.6:   DRILLING FLUID DENSITY
 DFV .                 30:   DRILLING FLUID VISCOSITY
 DFPH.               10.5:   DRILLING FLUID PH
 DFL .                4.8:   DRILLING FLUID LOSS
 MSS .          FLOW LINE:   MUD SAMPLE SOURCE
 RMS .OHMM            1.7:   RESISTIVITY MUD SAMPLE
 MST .F                60:   MUD SAMPLE TEMPERATURE
 RMF .OHMM            1.5:   RESISTIVITY MUD FILTRATE SAMPLE
 MFST.F                74:   MUD FILTRATE SAMPLE TEMPERATURE
 RMC .OHMM            2.8:   RESISTIVITY MUD CAKE
 MCST.F                68:   MUD CAKE SAMPLE TEMPERATURE
 MFSS.               MEAS:   MUD FILTRATE SAMPLE SOURCE
 MCSS.               MEAS:   MUD CAKE SAMPLE SOURCE
 RMB .OHMM           1.38:   RESISTIVITY MUD AT BHT
 BHT .F                74:   BOTTOM HOLE TEMPERATURE
 TCS .HRS               4:   TIME CURCULATED STOPPED
 MRT .F                74:   MAXIMUM RECORDED TEMPERATURE
 LUN .               2958:   LOGGING UNIT NUMBER
 LUL .               CASP:   LOGGING UNIT LOCATION
 ENGI.             MILLER:   RECORDING ENGINEER
 WITN.         HARRINGTON:   WITNESSED BY
 CLNT.            A2DTECH:   CLIENT CODE
 ORIG.      2" , 5" PRINT:   ORIGIN OF DATA
 UWI .       490251060100:   UNIQUE WELL ID
 DICO. A2D Technologies, Inc.:   DIGITIZING COMPANY
~OTHER INFORMATION
~A   DEPT      SPR         SN        ILD       CALD         GRD      CORR       RHOB       DPHI   
# ...
  749.0000   -25.0877     7.0059     6.1007     7.9594    94.3165     0.0129     2.5018     0.0956
  749.5000   -24.6000     7.0979     6.2447     7.9588    93.9025     0.0119     2.4980     0.0976
  750.0000   -24.2850     7.1911     6.2602     7.9583    94.3210     0.0108     2.4930     0.0996
  750.5000   -24.4488     7.2857     6.2772     7.9577    95.3922     0.0098     2.4882     0.1016
  751.0000   -24.6063     7.3818     6.2943     7.9572    96.4429     0.0093     2.4833     0.1011
  751.5000   -24.6494     7.5129     6.3115     7.9566    95.7304     0.0144     2.4852     0.1006
  752.0000   -24.6511     7.5114     6.3286     7.9561    93.1886     0.0187     2.4895     0.1001
  752.5000   -24.6509     7.5126     6.3459     7.9555    90.8234     0.0232     2.4938     0.0970
  753.0000   -24.6507     7.5121     6.3632     7.9550    89.6108     0.0277     2.4978     0.0930
  753.5000   -24.6507     7.5121     6.3805     7.9544    92.1470     0.0278     2.5023     0.0913
  754.0000   -24.6507     7.5120     6.3979     7.9539    94.3861     0.0263     2.5031     0.0905
  754.5000   -24.6507     7.5125     6.4153     7.9533    96.6835     0.0247     2.5007     0.0960
  755.0000   -24.6507     7.4729     6.4328     7.9528    98.3431     0.0233     2.4986     0.1008
  755.5000   -24.6507     7.4330     6.4503     7.9522    95.8158     0.0218     2.4929     0.1057
  756.0000   -24.6507     7.3932     6.4679     7.9517    93.6496     0.0203     2.4854     0.1105
  756.5000   -24.6507     7.2665     6.4798     7.9511    91.1626     0.0189     2.4774     0.1127
  757.0000   -24.6507     7.1435     6.4251     7.9506    90.1590     0.0172     2.4739     0.1152
  757.5000   -24.6507     7.0219     6.3765     7.9500    90.0696     0.0191     2.4718     0.1177
  758.0000   -24.6507     6.9128     6.3282     7.9495    91.6877     0.0231     2.4691     0.1200
  758.5000   -24.6507     6.7875     6.1655     7.9489    94.8240     0.0274     2.4532     0.1296
  759.0000   -24.6507     6.9284     5.8761     7.9484    97.3013     0.0253     2.4374     0.1344
  759.5000   -24.6507     6.9768     5.6003     7.9478    97.3260     0.0168     2.4453     0.1278
  760.0000   -24.6507     6.5329     5.3374     7.9472    94.7616     0.0095     2.4624     0.1216
  760.5000   -24.6506     6.1948     5.2299     7.9467    88.7098     0.0125     2.4721     0.1150
  761.0000   -24.6508     6.0413     5.1848     7.9461    90.2865     0.0155     2.4713     0.1171
  761.5000   -24.6545     5.8596     5.1400     7.9456    94.5163     0.0171     2.4635     0.1213
  762.0000   -24.5280     5.5894     5.0956     7.9450    95.1973     0.0163     2.4562     0.1255
  762.5000   -24.3717     5.8537     5.0494     7.9445    94.5474     0.0136     2.4479     0.1327
  763.0000   -24.2141     6.0780     4.8799     7.9439    93.9348     0.0170     2.4350     0.1400
  763.5000   -24.0565     6.0780     4.7076     7.9434    94.0279     0.0309     2.4236     0.1517
  764.0000   -23.8932     5.8273     4.5413     7.9428    94.4997     0.0312     2.4122     0.1446
  764.5000   -23.8941     5.6390     4.3955     7.9423    94.3771     0.0107     2.4307     0.1259
  765.0000   -23.9500     4.7771     4.3959     7.9417    93.9040     0.0011     2.4511     0.1109
  765.5000   -24.0094     4.8810     4.3959     7.9412    94.0652     0.0055     2.4654     0.1057
  766.0000   -24.1077     5.0494     4.3958     7.9406    95.0960     0.0081     2.4735     0.1073
  766.5000   -24.3460     4.9113     4.3951     7.9400    96.1708     0.0112     2.4750     0.1088
  767.0000   -24.5810     5.2136     4.3940     7.9400    97.9100     0.0143     2.4765     0.1075
  767.5000   -24.8171     5.7299     4.3937     7.9400    99.6734     0.0165     2.4796     0.1063
  768.0000   -25.0400     6.3004     4.7546     7.9400    98.2907     0.0135     2.4841     0.1056
  768.5000   -24.9123     6.3643     5.1363     7.9400    94.4921     0.0106     2.4817     0.1078
  769.0000   -24.7700     6.3612     5.5497     7.9400    90.8501     0.0077     2.4767     0.1102
  769.5000   -24.6287     6.3612     6.0182     7.9400    88.3941     0.0052     2.4718     0.1126
  770.0000   -24.4811     6.3612     5.9140     7.9400    88.6320     0.0100     2.4664     0.1164
  770.5000   -24.5886     6.3612     5.7308     7.9400    89.1798     0.0132     2.4630     0.1240
  771.0000   -24.7704     6.3612     5.5347     7.9400    90.3900     0.0218     2.4521     0.1326
  771.5000   -24.9561     6.2092     5.1990     7.9400    97.1904     0.0492     2.4315     0.1343
  772.0000   -25.0473     6.0007     4.8841     7.9400   100.7631     0.0349     2.4442     0.1322
  772.5000   -24.7151     5.6917     4.5879     7.9400    96.7604     0.0140     2.4744     0.1179
  773.0000   -24.3399     5.1374     4.4368     7.9400    92.4591     0.0132     2.4732     0.1119
  773.5000   -24.0438     4.9113     4.4266     7.9400    90.9771     0.0091     2.4837     0.1018
  774.0000   -24.0517     5.0494     4.4170     7.9400    89.7529     0.0048     2.4903     0.0983
  774.5000   -24.0521     4.8662     4.4075     7.9400    88.6322     0.0051     2.4928     0.0954
  775.0000   -24.0515     4.8662     4.3979     7.9400    87.4640     0.0050     2.4964     0.0961
  775.5000   -24.0518     5.6316     4.3556     7.9400    87.6559     0.0052     2.4996     0.0967
  776.0000   -24.0537     6.0982     4.6464     7.9400    87.8880     0.0107     2.4985     0.0975
  776.5000   -24.1865     6.1886     5.0462     7.9400    88.1282     0.0161     2.4948     0.0930
  777.0000   -24.5664     6.7934     5.4804     7.9400    88.4077     0.0207     2.5079     0.0870
  777.5000   -24.9358     7.1244     5.8006     7.9400    88.7201     0.0192     2.5181     0.0812
  778.0000   -25.2177     7.2703     6.0049     7.9400    90.4177     0.0181     2.5248     0.0761
  778.5000   -24.9731     7.4187     6.2165     7.9400    91.8081     0.0167     2.5312     0.0755
  779.0000   -24.7214     7.5649     6.4349     7.9400    93.3827     0.0154     2.5308     0.0766
  779.5000   -24.6103     7.7140     6.6610     7.9400    92.1674     0.0141     2.5297     0.0803
  780.0000   -24.5469     7.8098     6.7851     7.9400    89.6938     0.0128     2.5237     0.0840
  780.5000   -24.4865     7.8422     6.7952     7.9400    91.4850     0.0115     2.5171     0.0881
  781.0000   -24.4481     7.8748     6.8067     7.9400    93.1494     0.0101     2.5133     0.0902
  781.5000   -24.3621     7.9074     6.8178     7.9400    93.7401     0.0088     2.5118     0.0928
  782.0000   -24.2700     7.9401     6.8288     7.9400    93.2472     0.0075     2.5023     0.0932
  782.5000   -24.5412     7.9885     6.8400     7.9400    92.8122     0.0062     2.5045     0.0938
  783.0000   -25.2895     8.0494     6.8511     7.9400    90.3195     0.0050     2.5086     0.0944
  783.5000   -25.3820     8.1108     6.8622     7.9400    88.0640     0.0049     2.5107     0.0936
  784.0000   -25.3008     8.1632     6.8734     7.9400    86.8085     0.0051     2.5113     0.0928
  784.5000   -25.1008     8.1442     6.8846     7.9400    86.1900     0.0051     2.5019     0.0958
  785.0000   -24.6515     8.1271     6.8958     7.9400    85.7570     0.0118     2.4931     0.0986
  785.5000   -24.6478     8.1102     6.9070     7.9400    85.3415     0.0206     2.4832     0.1008
  786.0000   -24.6497     8.0874     6.9373     7.9400    84.9477     0.0250     2.4817     0.0972
  786.5000   -24.5377     8.0872     7.0209     7.9400    84.5954     0.0238     2.4963     0.0930
  787.0000   -24.3061     8.1624     7.1055     7.9400    84.6156     0.0232     2.5110     0.0905
  787.5000   -24.0746     8.2730     7.1912     7.9400    84.5618     0.0227     2.5107     0.0921
  788.0000   -23.8570     8.4420     7.3257     7.9400    84.6036     0.0219     2.5067     0.0936
  788.5000   -23.9187     8.6147     7.5246     7.9400    84.7518     0.0211     2.4979     0.1054
  789.0000   -24.0116     8.7894     7.7290     7.9401    85.4888     0.0219     2.4850     0.1207
