~VERSION INFORMATION
 VERS.                2.0:   CWLS LOG ASCII STANDARD - VERSION 2.0
 WRAP.                 NO:   ONE LINE PER DEPTH STEP
~WELL INFORMATION
#MNEM.UNIT      DATA TYPE    INFORMATION
#----------   ------------   ------------------------------
 STRT.F            0.0000:   START DEPTH
 STOP.F          700.0000:   STOP DEPTH
 STEP.F            0.5000:   STEP LENGTH
 NULL.          -999.2500:   NO VALUE
 COMP. FENIX & SCISSON INC:   COMPANY
 WELL. 37-11 SX 11 WP #11-11:   WELL
 FLD .             TEAPOT:   FIELD
 LOC .      S11 T38N R78W:   LOCATION
 CNTY.            NATRONA:   COUNTY
 STAT.            WYOMING:   STATE
 CTRY. UNITED STATES OF AMERICA:   COUNTRY
 SRVC.      Dresser Atlas:   SERVICE COMPANY
 DATE.        21-AUG-1980:   LOGDATE
 API .       490251084200:   API NUMBER
~CURVE INFORMATION
#MNEM.UNIT       API CODE    CURVE DESCRIPTION
#----------   ------------   ------------------------------
 DEPT.F                  :   
 SPR .MV     07 010 01 00:   SPONTANEOUS POTENTIAL
 RFOC.OHMM   07 220 04 00:   RESISTIVITY FOCUSED LOG
 RILD.OHMM   07 120 46 00:   INDUCTION LOG DEEP RESISTIVITY
 RILM.OHMM   07 120 44 00:   INDUCTION LOG MEDIUM RESISTIVITY
 GRD .GAPI   45 310 01 00:   GAMMA RAY FROM DENSITY LOG
 CALD.IN     45 280 60 00:   CALIPER
 RHOB.G/C3   45 350 01 00:   BULK DENSITY
 CORR.G/C3   45 356 01 00:   DENSITY CORRECTION
 CNC .DEC    42 890 03 00:   NEUTRON POROSITY SANDSTONE
 PORD.DEC    45 890 12 00:   POROSITY DENSITY SANDSTONE
~PARAMETER INFORMATION
#MNEM.UNIT          VALUE    DESCRIPTION
#----------   ------------   ------------------------------
 PD  .                 GL:   PERMANENT DATUM
 EPD .F              5194:   ELEVATION PERMANENT DATUM
 LMF .                 KB:   LOG MEASURED FROM
 DAPD.F                 5:   FEET ABOVE PERMANENT DATUM
 DMF .                 KB:   DRILLING MEASURED FROM
 EKB .F              5199:   KELLING BUSHING
 EDF .F              5198:   DRILLING FLOOR
 EGL .F              5194:   GROUND LEVEL
 DATE.            8-21-80:   RUN DATE
 RUN .                  1:   RUN NUMBER
 DD  .F               695:   DEPTH DRILLER
 DL  .F               700:   DEPTH LOGGER
 BLI .F               699:   BOTTOM LOG INTERVAL
 BS  .IN            7.875:   BIT SIZE
 BSD .F               695:   BIT SIZE AT DEPTH
 DFT .      DISPERSED KCL:   DRILLING FLUID TYPE
 DFD .               2.68:   DRILLING FLUID DENSITY
 DFV .                 50:   DRILLING FLUID VISCOSITY
 DFPH.                 14:   DRILLING FLUID PH
 DFL .                 18:   DRILLING FLUID LOSS
 MSS .           FLOWLINE:   MUD SAMPLE SOURCE
 RMS .OHMM           .256:   RESISTIVITY MUD SAMPLE
 MST .F                70:   MUD SAMPLE TEMPERATURE
 RMF .OHMM           .393:   RESISTIVITY MUD FILTRATE SAMPLE
 MFST.F                66:   MUD FILTRATE SAMPLE TEMPERATURE
 RMC .OHMM           .858:   RESISTIVITY MUD CAKE
 MCST.F                66:   MUD CAKE SAMPLE TEMPERATURE
 MFSS.               MEAS:   MUD FILTRATE SAMPLE SOURCE
 MCSS.               MEAS:   MUD CAKE SAMPLE SOURCE
 RMB .OHMM            .53:   RESISTIVITY MUD AT BHT
 BHT .F                99:   BOTTOM HOLE TEMPERATURE
 TCS .HRS               3:   TIME CURCULATED STOPPED
 MRT .F                99:   MAXIMUM RECORDED TEMPERATURE
 LUN .               9369:   LOGGING UNIT NUMBER
 LUL .       ROCK SPRINGS:   LOGGING UNIT LOCATION
 ENGI.            PAULSON:   RECORDING ENGINEER
 WITN.              SCOTT:   WITNESSED BY
 CLNT.            A2DTECH:   CLIENT CODE
 ORIG.       2", 5" PRINT:   ORIGIN OF DATA
 UWI .       490251084200:   UNIQUE WELL ID
 DICO. A2D Technologies, Inc.:   DIGITIZING COMPANY
~OTHER INFORMATION
~A    DEPT     SPR       RFOC       RILD       RILM        GRD       CALD       RHOB       CORR        CNC         PORD 
# ...
  368.5000   -17.2626     7.8757     7.0989     7.2084    92.4665     8.0060     2.4786    -0.0009     0.2479     0.1242
  369.0000   -17.5285     7.9106     7.0767     7.1433    92.7049     8.0107     2.4653    -0.0018     0.2459     0.1305
  369.5000   -20.5872     7.7747     7.0545     7.1433    92.6559     8.0179     2.4570    -0.0025     0.2652     0.1351
  370.0000   -31.9374     7.6658     7.0324     7.1433    93.6579     8.0253     2.4634    -0.0039     0.2817     0.1224
  370.5000   -53.2269     7.5584     7.0120     7.1432    94.1988     8.0207     2.4695    -0.0080     0.2906     0.1036
  371.0000   -74.0240     7.4824     6.9338     7.1432    93.0925     8.0126     2.4580    -0.0121     0.2819     0.1021
  371.5000   -86.5915     7.5328     6.8618     7.1436    93.3911     8.0044     2.4514    -0.0104     0.2717     0.0997
  372.0000   -89.8115     7.5722     6.7911     7.0260    95.4513     7.9962     2.4783     0.0040     0.2648     0.0967
  372.5000   -90.7270     7.6225     6.7559     6.8612    97.7459     7.9877     2.5027     0.0173     0.2608     0.1045
  373.0000   -91.2935     7.5220     6.6651     6.7552    98.4435     7.9890     2.5102     0.0231     0.2634     0.1106
  373.5000   -91.5632     7.3872     6.5676     6.7574    98.2715     7.9932     2.5156     0.0285     0.2716     0.1111
  374.0000   -91.2726     7.2771     6.4718     6.7566    99.1151     7.9975     2.5133     0.0333     0.2769     0.1093
  374.5000   -90.7592     7.4241     6.3049     6.6011    99.6803     8.0018     2.4992     0.0291     0.2664     0.1198
  375.0000   -90.2434     7.5521     6.0607     6.3403    98.4674     8.0061     2.4908     0.0213     0.2555     0.1194
  375.5000   -89.9069     7.6225     5.8259     6.0898    97.9198     8.0124     2.4942     0.0233     0.2555     0.1109
  376.0000   -91.0131     7.2958     5.6003     5.8492    97.5232     8.0188     2.4885     0.0246     0.2791     0.1065
  376.5000   -92.3286     7.0366     5.3834     5.6181    96.4805     8.0253     2.4787     0.0170     0.2950     0.1192
  377.0000   -93.6460     6.4832     5.3088     5.3962    95.5078     8.0262     2.4810     0.0201     0.2903     0.1271
  377.5000   -94.7323     5.8260     5.3261     5.1830    96.9824     8.0262     2.4970     0.0294     0.2849     0.1271
  378.0000   -95.1518     5.5095     5.3378     5.1155    98.4845     8.0262     2.4991     0.0391     0.2795     0.1169
  378.5000   -95.5743     5.4586     5.3497     5.5047    98.8697     8.0262     2.4813     0.0480     0.2769     0.1129
  379.0000   -96.0237     5.9825     5.4079     5.7848    98.0740     8.0262     2.4658     0.0559     0.2817     0.1164
  379.5000   -97.0941     6.9473     5.5742     6.1013    97.2764     8.0262     2.4727     0.0557     0.2882     0.1181
  380.0000   -98.2523     6.9157     5.7453     6.1837    97.1120     8.0262     2.4844     0.0506     0.2897     0.1110
  380.5000   -99.4175     6.8569     5.9219     6.2738    96.7788     8.0295     2.4903     0.0412     0.2680     0.1055
  381.0000  -100.3893     6.8196     6.1035     6.3418    95.4099     8.0356     2.4832     0.0318     0.2648     0.1040
  381.5000  -100.7251     6.9520     6.2909     6.4017    93.5587     8.0415     2.4815     0.0335     0.2659     0.1069
  382.0000  -100.0687     7.0196     6.3319     6.4510    92.9031     8.0413     2.4915     0.0359     0.2720     0.1132
  382.5000   -98.2813     7.0391     6.3319     6.4822    92.6506     8.0111     2.5021     0.0376     0.2882     0.1202
  383.0000   -94.6772     7.0586     6.3320     6.5145    93.0233     8.0060     2.5027     0.0371     0.3004     0.1163
  383.5000   -93.2131     7.0775     6.3319     6.5468    94.0384     8.0060     2.4977     0.0213     0.2999     0.1076
  384.0000   -93.1809     7.1010     6.3319     6.5716    95.9864     8.0060     2.4870     0.0102     0.2949     0.1041
  384.5000   -93.3219     7.1384     6.3319     6.5717    97.0375     8.0061     2.4782    -0.0005     0.2799     0.1024
  385.0000   -93.8546     7.1758     6.3320     6.5369    96.7455     8.0075     2.4848     0.0055     0.2623     0.0998
  385.5000   -95.0738     7.2099     6.3323     6.5045    95.7361     8.0137     2.4963     0.0131     0.2543     0.0976
  386.0000   -96.3855     7.1328     6.3320     6.4720    93.6541     8.0198     2.5033     0.0242     0.2688     0.0972
  386.5000   -97.4874     7.0629     6.2612     6.4418    90.1371     8.0259     2.5050     0.0354     0.2805     0.1081
  387.0000   -97.3030     6.9937     6.1842     6.3661    90.8260     8.0263     2.5117     0.0368     0.2807     0.1236
  387.5000   -95.3682     6.9252     6.1080     6.2916    92.6769     8.0262     2.5154     0.0361     0.2820     0.1323
  388.0000   -92.2950     6.8574     6.0258     6.2155    94.5520     8.0262     2.5135     0.0356     0.2864     0.1265
  388.5000   -89.9582     6.7901     5.9089     6.0636    96.3742     8.0261     2.4964     0.0266     0.2853     0.1202
  389.0000   -90.5089     6.7237     5.7961     5.9101    96.5376     8.0217     2.4774     0.0157     0.2829     0.1204
  389.5000   -92.0387     6.6579     5.4780     5.5481    94.9926     8.0170     2.4564     0.0084     0.2808     0.1246
  390.0000   -93.5528     6.6325     5.1312     5.1581    93.0605     8.0124     2.4627     0.0168     0.2789     0.1352
  390.5000   -95.0496     6.8567     4.8056     4.7955    93.2646     8.0077     2.4719     0.0248     0.2801     0.1452
  391.0000   -96.6102     7.0198     4.5009     4.4584    97.0520     8.0061     2.4771     0.0291     0.2945     0.1337
  391.5000   -97.5485     7.0774     4.2156     4.3865    99.3819     8.0060     2.4736     0.0224     0.3285     0.1186
  392.0000   -97.9351     5.1874     4.0193     4.3591    99.9781     8.0061     2.4581     0.0154     0.3465     0.1183
  392.5000   -98.2452     4.0525     3.9822     4.3289    98.3739     8.0061     2.4354     0.0103     0.3157     0.1161
  393.0000   -98.2726     3.9454     3.9822     4.5145    92.5514     8.0061     2.4516     0.0368     0.2918     0.1113
  393.5000   -97.1893     4.8354     4.3348     4.7970    88.9218     8.0061     2.4775     0.0637     0.2724     0.1105
  394.0000   -93.9629     5.8151     4.5891     5.1135    90.0165     8.0061     2.4803     0.0786     0.2591     0.1217
  394.5000   -88.0163     6.3909     4.8568     5.3258    91.9506     8.0061     2.4827     0.0644     0.2730     0.1246
  395.0000   -83.7862     6.2886     5.1416     5.5581    92.1643     8.0061     2.4904     0.0512     0.2829     0.1160
  395.5000   -81.9034     6.2155     5.3786     5.8020    90.6180     8.0061     2.4923     0.0507     0.2825     0.1064
  396.0000   -82.2232     6.5676     5.6875     6.0565    88.9742     8.0061     2.4767     0.0501     0.2691     0.1007
  396.5000   -83.0268     6.8838     6.0142     6.2343    88.0646     8.0060     2.4668     0.0538     0.2628     0.1065
  397.0000   -83.8351     7.0774     6.2734     6.3296    88.9436     8.0060     2.4803     0.0630     0.2628     0.1186
  397.5000   -84.2445     6.8920     6.2734     6.4264    90.4860     8.0062     2.4967     0.0699     0.2628     0.1283
  398.0000   -84.3676     6.7566     6.2727     6.5246    93.7541     8.0115     2.5119     0.0757     0.2628     0.1154
  398.5000   -84.5158     6.8674     6.2724     6.6243    95.3867     8.0170     2.5005     0.0751     0.2701     0.1057
  399.0000   -85.0293     6.9764     6.4192     6.7256    92.0226     8.0223     2.4796     0.0538     0.2773     0.1038
  399.5000   -85.8224     7.0875     6.5371     6.8196    90.3308     8.0263     2.4625     0.0424     0.2801     0.0959
  400.0000   -87.1137     7.2099     6.6581     6.8694    92.1979     8.0262     2.4778     0.0398     0.2738     0.0792
  400.5000   -88.5730     7.2494     6.7189     6.9156    95.7519     8.0262     2.4962     0.0480     0.2616     0.0788
  401.0000   -90.0598     7.2934     6.7540     6.9622    99.1778     8.0262     2.5042     0.0535     0.2544     0.0940
  401.5000   -90.7522     7.3377     6.7893     7.0091   101.4228     8.0262     2.5196     0.0534     0.2550     0.1088
