~VERSION INFORMATION
 VERS.                2.0:   CWLS LOG ASCII STANDARD - VERSION 2.0
 WRAP.                 NO:   ONE LINE PER DEPTH STEP
~WELL INFORMATION
#MNEM.UNIT      DATA TYPE    INFORMATION
#----------   ------------   ------------------------------
 STRT.F           12.5000:   START DEPTH
 STOP.F          688.0000:   STOP DEPTH
 STEP.F            0.5000:   STEP LENGTH
 NULL.          -999.2500:   NO VALUE
 COMP. FENIX & SCISSON INC:   COMPANY
 WELL. 26-66 SX 11 WO #26-11:   WELL
 FLD .             TEAPOT:   FIELD
 LOC .      S11 T38N R78W:   LOCATION
 CNTY.            NATRONA:   COUNTY
 STAT.            WYOMING:   STATE
 CTRY. UNITED STATES OF AMERICA:   COUNTRY
 SRVC.      Dresser Atlas:   SERVICE COMPANY
 DATE.        28-AUG-1980:   LOGDATE
 API .       490251084700:   API NUMBER
~CURVE INFORMATION
#MNEM.UNIT       API CODE    CURVE DESCRIPTION
#----------   ------------   ------------------------------
 DEPT.F                  :   
 SFL .OHMM   07 220 01 00:   SHALLOW FOCUSED LOG RESISTIVITY
 ILD .OHMM   07 120 46 00:   INDUCTION LOG DEEP
 ILM .OHMM   07 120 44 00:   INDUCTION LOG MEDIUM
 SPR .MV     07 010 01 00:   SPONTANEOUS POTENTIAL
 CORR.G/C3   45 356 01 00:   DENSITY CORRECTION
 RHOB.G/C3   45 350 01 00:   BULK DENSITY
 DPOR.DEC    45 890 12 00:   DENSITY POROSITY SANDSTONE
 NPOR.DEC    42 890 03 00:   NEUTRON POROSITY SANDSTONE
 GRD .GAPI   45 310 01 00:   GAMMA RAY FROM DENSITY LOG
~PARAMETER INFORMATION
#MNEM.UNIT          VALUE    DESCRIPTION
#----------   ------------   ------------------------------
 PD  .                 GL:   PERMANENT DATUM
 EPD .F              5194:   ELEVATION PERMANENT DATUM
 LMF .                 KB:   LOG MEASURED FROM
 DAPD.F                 5:   FEET ABOVE PERMANENT DATUM
 DMF .                 KB:   DRILLING MEASURED FROM
 EKB .F              5199:   KELLING BUSHING
 EGL .F              5194:   GROUND LEVEL
 DATE.          8-28-1980:   RUN DATE
 RUN .                  1:   RUN NUMBER
 DD  .F               700:   DEPTH DRILLER
 DL  .F               689:   DEPTH LOGGER
 BLI .F               688:   BOTTOM LOG INTERVAL
 TLI .F                14:   TOP LOG INTERVAL
 BS  .IN             8.75:   BIT SIZE
 BSD .F               700:   BIT SIZE AT DEPTH
 DFT .                KCL:   DRILLING FLUID TYPE
 DFD .                8.8:   DRILLING FLUID DENSITY
 DFV .                 55:   DRILLING FLUID VISCOSITY
 DFPH.                 11:   DRILLING FLUID PH
 DFL .                  8:   DRILLING FLUID LOSS
 MSS .           FLOWLINE:   MUD SAMPLE SOURCE
 RMS .OHMM            .72:   RESISTIVITY MUD SAMPLE
 MST .F                66:   MUD SAMPLE TEMPERATURE
 RMF .OHMM            .21:   RESISTIVITY MUD FILTRATE SAMPLE
 MFST.F                66:   MUD FILTRATE SAMPLE TEMPERATURE
 RMC .OHMM           1.24:   RESISTIVITY MUD CAKE
 MCST.F                66:   MUD CAKE SAMPLE TEMPERATURE
 MFSS.               MEAS:   MUD FILTRATE SAMPLE SOURCE
 MCSS.               MEAS:   MUD CAKE SAMPLE SOURCE
 BHT .F               100:   BOTTOM HOLE TEMPERATURE
 TCS .HRS               2:   TIME CURCULATED STOPPED
 MRT .F               100:   MAXIMUM RECORDED TEMPERATURE
 LUN .               6240:   LOGGING UNIT NUMBER
 LUL .               RYTN:   LOGGING UNIT LOCATION
 ENGI.           J. GETTY:   RECORDING ENGINEER
 WITN.              FIVAS:   WITNESSED BY
 CLNT.            A2DTECH:   CLIENT CODE
 ORIG.      1" 2.5" PRINT:   ORIGIN OF DATA
 UWI .       490251084700:   UNIQUE WELL ID
 DICO. A2D Technologies, Inc.:   DIGITIZING COMPANY
~OTHER INFORMATION
~A   DEPT      SFL        ILD        ILM        SPR       CORR       RHOB       DPOR         NPOR      GRD   
# ...
  596.5000    13.7017    12.9606    11.9974   -70.2859     0.0448     2.4205     0.1557     0.2598   108.9886
  597.0000    13.4485    12.8907    12.0233   -69.8542     0.0261     2.4224     0.1764     0.2439   103.3765
  597.5000    13.2906    12.8211    12.0493   -69.4236     0.0068     2.3952     0.1901     0.2507   100.2922
  598.0000    13.2641    12.7520    12.0753   -68.9968     0.0004     2.3599     0.1811     0.2675   101.5273
  598.5000    13.2380    12.6832    12.1014   -68.5587     0.0204     2.3647     0.1654     0.2866   103.6859
  599.0000    13.2119    12.6147    12.1262   -68.1186     0.0499     2.3919     0.1497     0.2971   104.1410
  599.5000    13.1858    12.5466    11.9971   -67.8434     0.0556     2.4199     0.1339     0.2984   104.5535
  600.0000    13.1595    12.4788    11.8771   -67.8575     0.0565     2.4537     0.1339     0.2989   105.6252
  600.5000    13.1329    12.4114    11.7583   -68.7282     0.0505     2.4458     0.1500     0.2908   107.2046
  601.0000    13.1064    12.3444    11.6409   -69.8252     0.0436     2.4176     0.1581     0.2933   105.0849
  601.5000    13.0799    12.2777    11.5246   -69.9131     0.0364     2.4154     0.1594     0.2941   100.6907
  602.0000    13.0580    12.2114    11.4709   -69.9930     0.0293     2.4049     0.1745     0.2917    95.3889
  602.5000    12.9424    12.1454    11.5394   -70.0381     0.0223     2.3705     0.1987     0.2808    96.9906
  603.0000    12.8444    12.0779    11.5984   -70.0873     0.0149     2.3476     0.1965     0.2679   100.5466
  603.5000    12.7472    12.0099    11.6850   -70.1424     0.0082     2.3525     0.1952     0.2551   104.1777
  604.0000    12.6508    11.9424    11.6467   -70.1994     0.0007     2.3427     0.2047     0.2487   106.7204
  604.5000    12.5550    11.8752    11.5730   -70.2601    -0.0005     2.3185     0.2134     0.2494   104.6757
  605.0000    12.4599    11.8084    11.4997   -70.1760     0.0059     2.3109     0.2181     0.2629   102.3988
  605.5000    12.3654    11.7419    11.4270   -69.8485     0.0169     2.3177     0.2140     0.2751   101.3910
  606.0000    12.2716    11.6759    11.3547   -69.5259     0.0278     2.3368     0.1970     0.2981    97.5193
  606.5000    12.1785    11.6102    11.2828   -69.5123     0.0286     2.3635     0.1757     0.3163    96.1236
  607.0000    12.0861    11.5449    11.2114   -69.6100     0.0187     2.3913     0.1724     0.3328    94.9706
  607.5000    11.9944    11.4799    11.1408   -69.7195     0.0103     2.3895     0.1745     0.3241    97.4195
  608.0000    11.9034    11.4153    11.0705   -69.8404     0.0011     2.3839     0.1737     0.2925   101.8274
  608.5000    11.8131    11.3511    11.0006   -69.6672     0.0203     2.4070     0.1533     0.2687   106.1864
  609.0000    11.6850    11.2872    10.9311   -69.1454     0.0410     2.4500     0.1331     0.2614   108.9851
  609.5000    11.6937    11.2238    10.8509   -68.6434     0.0636     2.4719     0.1132     0.2517   108.2850
  610.0000    11.7084    11.1606    10.8142   -68.2464     0.0736     2.4911     0.1124     0.2446   107.5117
  610.5000    11.7238    11.0978    10.7706   -68.2444     0.0663     2.4823     0.1213     0.2518   106.5599
  611.0000    11.7392    11.0354    10.7267   -68.2366     0.0543     2.4678     0.1300     0.2613   102.1738
  611.5000    11.7546    10.9733    10.6836   -68.2358     0.0429     2.4560     0.1363     0.2670    97.9697
  612.0000    11.7700    10.9116    10.6406   -68.2374     0.0314     2.4381     0.1495     0.2587    94.7054
  612.5000    11.7854    10.8502    10.5978   -68.1155     0.0201     2.4152     0.1602     0.2504    96.9857
  613.0000    11.8008    10.7891    10.5552   -67.9665     0.0082     2.4164     0.1559     0.2433   102.9672
  613.5000    11.8161    10.7284    10.5127   -67.8153     0.0030     2.4163     0.1563     0.2553   108.7398
  614.0000    11.8316    10.6684    10.4705   -67.6615    -0.0009     2.4125     0.1587     0.2661   109.2155
  614.5000    11.8470    10.7091    10.4284   -67.5128     0.0050     2.4133     0.1571     0.2697   107.2494
  615.0000    11.8625    10.7910    10.3864   -67.4216     0.0118     2.4173     0.1546     0.2624   105.2498
  615.5000    11.8779    10.8735    10.3446   -67.7472     0.0185     2.4179     0.1554     0.2504   104.6347
  616.0000    11.8934    10.9566    10.3030   -68.0766     0.0246     2.4189     0.1471     0.2490   105.2287
  616.5000    11.9225    11.0404    10.2616   -68.2157     0.0315     2.4403     0.1385     0.2475   105.8104
  617.0000    11.9775    11.1248    10.2203   -68.1249     0.0298     2.4426     0.1404     0.2454   107.4946
  617.5000    12.0327    11.2099    10.1792   -68.0433     0.0283     2.4363     0.1423     0.2407   111.6083
  618.0000    12.0882    11.2599    10.1383   -67.9697     0.0278     2.4515     0.1218     0.2404   112.5977
  618.5000    12.1437    11.2129    10.0976   -67.8914     0.0318     2.4778     0.1105     0.2401   112.1581
  619.0000    12.1988    11.1448    10.0569   -67.8130     0.0381     2.4899     0.1128     0.2398   113.1913
  619.5000    12.2535    11.0771    10.0164   -67.7367     0.0442     2.4843     0.1148     0.2374   116.2761
  620.0000    12.3486    11.0098     9.9762   -67.6587     0.0497     2.4914     0.1068     0.2342   117.4370
  620.5000    12.3067    10.9429     9.9360   -67.5807     0.0556     2.5064     0.0958     0.2263   116.5748
  621.0000    12.1356    10.8764     9.8900   -67.5079     0.0487     2.5191     0.0966     0.2199   113.4387
  621.5000    12.3531    10.8104     9.9179   -67.4275     0.0410     2.5116     0.1105     0.2231   109.0204
  622.0000    12.1545    10.7447     9.9762   -67.5264     0.0330     2.4644     0.1260     0.2495   106.6550
  622.5000    11.9795    10.6514    10.0348   -67.6312     0.0247     2.4460     0.1394     0.2606   107.2043
  623.0000    11.8069    10.6596    10.0938   -67.7423     0.0174     2.4509     0.1355     0.2606   110.7953
  623.5000    11.6369    10.7049    10.1531   -67.9844     0.0051     2.4449     0.1409     0.2526   113.9567
  624.0000    11.4705    10.7503    10.2127   -68.5477     0.0038     2.4294     0.1466     0.2442   117.3527
  624.5000    11.7300    10.7960    10.2727   -69.1062     0.0075     2.4341     0.1490     0.2358   119.8541
  625.0000    11.9935    10.8420    10.3331   -69.6750     0.0183     2.4756     0.1179     0.2274   120.6142
  625.5000    12.2630    10.8881    10.3938   -69.9240     0.0281     2.5201     0.0964     0.2207   118.1814
  626.0000    12.5384    10.9345    10.4551   -69.9796     0.0385     2.5107     0.1009     0.2217   113.7709
  626.5000    12.8201    10.9803    10.4221   -70.0388     0.0470     2.5018     0.1092     0.2239   109.0405
  627.0000    13.0593    11.0531    10.3694   -70.1040     0.0480     2.5005     0.1083     0.2261   109.4530
  627.5000    13.0593    11.0122    10.3168   -70.1668     0.0471     2.5019     0.1076     0.2283   113.2618
  628.0000    13.0593    10.9194    10.2644   -70.2290     0.0286     2.4919     0.1183     0.2382   116.9943
  628.5000    13.0593    10.8274    10.2123   -70.2924     0.0108     2.4687     0.1323     0.2587   121.1748
  629.0000    12.6746    10.7362    10.1604   -70.3559     0.0040     2.4562     0.1323     0.2595   119.7487
  629.5000    12.1713    10.6457    10.1089   -70.4185     0.0259     2.4764     0.1179     0.2569   117.0470
  630.0000    11.6670    10.5560    10.0505   -70.4807     0.0520     2.5022     0.1048     0.2484   112.8345
  630.5000    11.1836    10.4670     9.9783   -70.5468     0.0636     2.5104     0.1012     0.2398   107.2906
  631.0000    10.7203    10.3788     9.9062   -70.6098     0.0321     2.4709     0.1250     0.2358   107.0682
  631.5000    10.4554    10.2912     9.8346   -70.6592     0.0201     2.4277     0.1505     0.2390   109.9868
  632.0000    10.4554    10.2042     9.7635   -70.8594     0.0318     2.4095     0.1618     0.2414   112.8802
  632.5000    10.4554    10.1174     9.6930   -71.2073     0.0396     2.4333     0.1511     0.2391   116.1253
