~VERSION INFORMATION
 VERS.                2.0:   CWLS LOG ASCII STANDARD - VERSION 2.0
 WRAP.                 NO:   ONE LINE PER DEPTH STEP
~WELL INFORMATION
#MNEM.UNIT      DATA TYPE    INFORMATION
#----------   ------------   ------------------------------
 STRT.F           36.0000:   START DEPTH
 STOP.F          564.0000:   STOP DEPTH
 STEP.F            0.5000:   STEP LENGTH
 NULL.          -999.2500:   NO VALUE
 COMP.    FENIX & SCISSON:   COMPANY
 WELL.        NPR #73-S-3:   WELL
 FLD .             TEAPOT:   FIELD
 LOC .       S3 T38N R78W:   LOCATION
 CNTY.            NATRONA:   COUNTY
 STAT.            WYOMING:   STATE
 CTRY. UNITED STATES OF AMERICA:   COUNTRY
 SRVC.       Schlumberger:   SERVICE COMPANY
 DATE.        19-FEB-1977:   LOGDATE
 API .       490251027900:   API NUMBER
~CURVE INFORMATION
#MNEM.UNIT       API CODE    CURVE DESCRIPTION
#----------   ------------   ------------------------------
 DEPT.F                  :   
 SPR .MV     07 010 01 00:   SPONTANEOUS POTENTIAL
 ILD .OHMM   07 120 46 00:   INDUCTION LOG DEEP
 ILM .OHMM   07 120 44 00:   INDUCTION LOG MEDIUM
 LL8 .OHMM   07 220 08 00:   LATEROLOG-8 RES.
 CALD.IN     45 280 60 00:   CALIPER FROM DENSITY LOG
 CORR.G/C3   45 356 01 00:   DENSITY CORRECTION
 RHOB.G/C3   45 350 01 00:   BULK DENSITY
 DPHI.DEC    45 890 12 00:   DENSITY POROSITY SANDSTONE
 GRD .GAPI   45 310 01 00:   GAMMA RAY FROM DENSITY LOG
~PARAMETER INFORMATION
#MNEM.UNIT          VALUE    DESCRIPTION
#----------   ------------   ------------------------------
 PD  .                 GL:   PERMANENT DATUM
 EPD .F              5128:   ELEVATION PERMANENT DATUM
 LMF .                 GL:   LOG MEASURED FROM
 DAPD.F                 5:   FEET ABOVE PERMANENT DATUM
 DMF .                 KB:   DRILLING MEASURED FROM
 EKB .F              5133:   KELLING BUSHING
 EGL .F              5128:   GROUND LEVEL
 DATE.        19-FEB-1977:   RUN DATE
 RUN .                  1:   RUN NUMBER
 DD  .F               570:   DEPTH DRILLER
 DL  .F               565:   DEPTH LOGGER
 BLI .F               564:   BOTTOM LOG INTERVAL
 TLI .F                36:   TOP LOG INTERVAL
 CS  .IN            8.625:   CASING SIZE
 CBD .F                40:   CASING BOTTOM DRILLER
 CBL .F                41:   CASING BOTTOM LOGGER
 BS  .IN            7.875:   BIT SIZE
 BSD .F               570:   BIT SIZE AT DEPTH
 DFT .                FGM:   DRILLING FLUID TYPE
 DFD .                8.9:   DRILLING FLUID DENSITY
 DFV .                 31:   DRILLING FLUID VISCOSITY
 DFPH.                8.2:   DRILLING FLUID PH
 DFL .                9.2:   DRILLING FLUID LOSS
 MSS .            MUD PIT:   MUD SAMPLE SOURCE
 RMS .OHMM           .244:   RESISTIVITY MUD SAMPLE
 MST .F                78:   MUD SAMPLE TEMPERATURE
 RMF .OHMM           .233:   RESISTIVITY MUD FILTRATE SAMPLE
 MFST.F                68:   MUD FILTRATE SAMPLE TEMPERATURE
 RMC .OHMM            .36:   RESISTIVITY MUD CAKE
 MCST.F                78:   MUD CAKE SAMPLE TEMPERATURE
 MFSS.               MEAS:   MUD FILTRATE SAMPLE SOURCE
 MCSS.               CALC:   MUD CAKE SAMPLE SOURCE
 RMB .OHMM            .35:   RESISTIVITY MUD AT BHT
 BHT .F                55:   BOTTOM HOLE TEMPERATURE
 TCS .HRS               2:   TIME CURCULATED STOPPED
 MRT .F                55:   MAXIMUM RECORDED TEMPERATURE
 LUN .               7711:   LOGGING UNIT NUMBER
 LUL .               CSPR:   LOGGING UNIT LOCATION
 ENGI.                FIX:   RECORDING ENGINEER
 WITN.           VOORHEES:   WITNESSED BY
 CLNT.            A2DTECH:   CLIENT CODE
 ORIG.           5" PRINT:   ORIGIN OF DATA
 UWI .       490251027900:   UNIQUE WELL ID
 DICO. A2D Technologies, Inc.:   DIGITIZING COMPANY
~OTHER INFORMATION
~A   DEPT      SPR        ILD        ILM        LL8       CALD       CORR       RHOB       DPHI        GRD   
# ...
  364.5000   -49.7465     5.8577     6.6461     6.5060     8.7194     0.0454     2.4262     0.1371   125.4719
  365.0000   -49.5809     6.1507     7.2219     7.0698     8.7947     0.0342     2.4436     0.1217   123.9794
  365.5000   -49.7134     6.5479     7.5304     7.4229     8.8403     0.0267     2.4414     0.1229   122.5011
  366.0000   -49.8500     7.0189     7.6389     7.6345     8.7816     0.0305     2.4625     0.1144   121.0227
  366.5000   -50.2764     7.3699     7.5897     7.6389     8.6039     0.0314     2.4633     0.1135   121.7798
  367.0000   -50.5580     7.6855     7.5949     7.6436     8.4858     0.0336     2.4506     0.1180   122.2388
  367.5000   -50.8436     7.7969     7.6088     7.8077     8.4269     0.0274     2.4386     0.1285   122.1017
  368.0000   -51.1210     7.8018     7.7078     7.9207     8.3981     0.0286     2.4462     0.1249   119.2820
  368.5000   -51.4066     7.9148     7.7653     7.8714     8.4289     0.0344     2.4568     0.1119   116.1643
  369.0000   -51.3860     8.0296     7.8232     7.9853     8.4894     0.0345     2.4681     0.1089   113.3446
  369.5000   -50.9223     8.0901     7.9907     8.1567     8.5795     0.0244     2.4554     0.1185   112.6114
  370.0000   -50.7302     8.2061     8.1618     7.8861     8.6995     0.0112     2.4517     0.1188   113.3685
  370.5000   -50.2722     7.9334     7.9993     7.6770     8.8194     0.0113     2.4495     0.1196   114.5727
  371.0000   -49.6841     7.8839     8.0651     7.5250     8.8798     0.0129     2.4406     0.1238   114.8827
  371.5000   -49.5052     8.0546     8.1753     7.4781     8.8656     0.0190     2.4376     0.1241   114.0004
  372.0000   -49.0551     8.2278     8.2362     7.7443     9.0453     0.0265     2.4482     0.1199   113.6920
  372.5000   -48.8872     8.3471     8.3549     8.1311     9.1950     0.0348     2.4445     0.1216   114.3223
  373.0000   -48.5752     8.2937     8.2423     8.2488     9.2554     0.0454     2.4228     0.1288   114.4833
  373.5000   -48.4096     8.0747     7.8556     8.1412     9.2712     0.0635     2.4266     0.1369   113.6011
  374.0000   -48.3931     7.8064     7.3408     8.0351     8.9744     0.0937     2.4108     0.1453   113.1654
  374.5000   -48.3765     7.7045     7.0984     7.8220     8.7372     0.1240     2.4147     0.1435   113.1778
  375.0000   -48.2109     7.6552     7.0059     7.6672     8.6042     0.1483     2.4125     0.1399   113.1898
  375.5000   -47.8963     7.7674     6.9614     7.7248     8.4860     0.1738     2.4005     0.1356   113.3507
  376.0000   -47.4327     7.9344     7.5138     7.8907     8.4423     0.1589     2.3856     0.1621   115.4491
  376.5000   -47.2671     7.9934     7.9981     5.5228     8.6515     0.1739     2.4036     0.1546   118.2926
  377.0000   -47.2506     8.1134     8.3397     4.8996     8.9054     0.1717     2.3977     0.1509   118.6289
  377.5000   -47.5321     8.3437     8.5182     6.1279     9.0997     0.1304     2.3970     0.1530   116.0810
  378.0000   -48.2607     8.5217     8.7006     9.8577     8.9667     0.1598     2.4564     0.1331   114.1555
  378.5000   -49.2874     8.7035     8.8870    10.1019     8.5807     0.1778     2.5384     0.0672   113.7198
  379.0000   -49.8670     9.0760     9.2665     9.9359     8.5220     0.1516     2.5309     0.0708   114.1794
  379.5000   -49.8504     9.7960     9.7290     9.7392     8.5229     0.0938     2.4897     0.1023   114.4894
  380.0000   -49.3868    10.4286     9.9362     9.6786     8.5387     0.0601     2.4717     0.1083   114.3523
  380.5000   -48.7741    10.7264     9.9417     9.4543     8.5247     0.0548     2.4695     0.1077   113.4701
  381.0000   -48.4595    10.7331    10.1667     9.2353     8.4512     0.0654     2.4733     0.1065   112.5878
  381.5000   -47.9958    10.7398    10.6117     9.0837     8.4521     0.0752     2.4689     0.1089   111.7056
  382.0000   -47.5322    10.9707    11.1392     8.9954     8.4827     0.0980     2.4667     0.1106   109.7801
  382.5000   -47.2176    11.2840    11.5332     9.0010     8.4539     0.1287     2.4945     0.1034   107.2585
  383.0000   -46.7540    11.6062    12.0236     9.2576     8.4101     0.1466     2.4698     0.1028   102.3524
  383.5000   -46.1413    12.5270    12.7179    10.1991     8.3961     0.0498     2.4188     0.1331    93.5021
  384.0000   -45.6552    13.7082    13.9982    12.8038     8.3970     0.0483     2.4008     0.1494    83.9581
  384.5000   -45.0482    15.3139    15.8940    13.8179     8.3979     0.0619     2.3986     0.1512    74.1796
  385.0000   -44.4411    17.9521    18.3272    14.3100     8.4137     0.0785     2.3829     0.1605    68.6885
  385.5000   -43.8341    20.6146    19.7731    14.7180     8.4295     0.0680     2.3672     0.1749    68.4319
  386.0000   -43.2310    21.9459    21.1751    15.2421     8.4304     0.0492     2.3484     0.1824    70.7351
  386.5000   -42.7675    22.4177    21.7717    16.4494     8.3391     0.0816     2.3410     0.1839    72.0462
  387.0000   -42.3038    22.5866    22.3935    18.3731     8.1461     0.0756     2.2607     0.2085    71.8569
  387.5000   -41.9878    22.6007    23.0287    18.0093     8.0151     0.0591     2.2449     0.2479    70.5661
  388.0000   -41.8236    23.2462    23.2005    14.4625     7.9875     0.0607     2.2796     0.2362    72.7720
  388.5000   -41.6581    24.5775    22.8961    13.3258     8.0823     0.0993     2.3217     0.2079    78.1104
  389.0000   -41.6415    25.4540    22.2870    13.1520     8.3200     0.1541     2.3428     0.1880    80.7907
  389.5000   -41.6250    25.1216    21.8439    15.0996     8.3771     0.1636     2.3128     0.2047    82.5574
  390.0000   -41.9106    23.4651    21.5572    16.5212     8.4266     0.0368     2.2918     0.2177    83.1446
  390.5000   -42.3370    21.3226    21.2743    16.7603     8.6617     0.0166     2.3460     0.1900    83.3149
  391.0000   -42.7717    20.3322    20.8516    16.7707     8.9650     0.0197     2.3798     0.1659    83.7735
  391.5000   -43.3472    20.2022    20.4370    16.7811     9.2885     0.0282     2.3837     0.1617    84.0745
  392.0000   -43.7777    20.7823    19.6215    16.6765     9.0513     0.0379     2.3747     0.1680    84.7064
  392.5000   -44.0634    21.3758    19.0992    16.5726     8.6653     0.0361     2.3695     0.1691    86.3636
  393.0000   -44.3449    21.8355    19.5085    16.3565     8.5323     0.0379     2.3801     0.1628    87.5450
  393.5000   -44.7754    21.4025    20.0638    16.1432     8.4588     0.0393     2.3824     0.1619    87.6990
  394.0000   -45.2019    20.9748    20.4935    15.9327     8.3999     0.0331     2.3757     0.1651    86.9656
  394.5000   -45.3385    20.4211    20.5048    15.6173     8.3564     0.0273     2.3720     0.1645    87.5737
  395.0000   -45.3178    19.8789    20.2352    15.2032     8.3273     0.0198     2.3683     0.1699    87.4366
  395.5000   -45.1522    19.4816    19.8335    15.0049     8.3133     0.0124     2.3751     0.1675    89.0924
  396.0000   -44.8376    19.7901    19.5706    15.1178     8.3144     0.0264     2.3932     0.1578    89.2488
  396.5000   -44.6720    20.7766    19.4472    15.2316     8.3153     0.0388     2.3918     0.1557    88.0651
  397.0000   -44.3574    21.5140    19.4606    15.5586     8.3311     0.0372     2.3768     0.1677    87.6333
  397.5000   -44.1679    21.6550    19.3379    16.3356     8.3319     0.0290     2.3611     0.1749    86.5922
  398.0000   -43.8589    21.0530    18.3126    17.1514     8.3477     0.0194     2.3657     0.1710    84.3745
  398.5000   -43.5663    19.8164    17.4614    16.4687     8.3486     0.0119     2.3627     0.1722    83.6453
  399.0000   -43.4009    19.2993    16.8804    14.6617     8.3344     0.0149     2.3688     0.1712    84.1053
  399.5000   -43.5337    19.0443    16.5447    13.4168     8.3355     0.0202     2.3764     0.1655    84.8624
  400.0000   -43.8152    18.6696    16.2158    13.1511     8.3513     0.0218     2.3824     0.1625    86.2146
  400.5000   -44.7676    18.0182    15.5576    13.1576     8.3670     0.0256     2.3790     0.1645    86.6221
