~VERSION INFORMATION
 VERS.                2.0:   CWLS LOG ASCII STANDARD - VERSION 2.0
 WRAP.                 NO:   ONE LINE PER DEPTH STEP
~WELL INFORMATION
#MNEM.UNIT      DATA TYPE    INFORMATION
#----------   ------------   ------------------------------
 STRT.F           20.0000:   START DEPTH
 STOP.F          610.0000:   STOP DEPTH
 STEP.F            0.5000:   STEP LENGTH
 NULL.          -999.2500:   NO VALUE
 COMP. LAWRENCE/ALLISON INC:   COMPANY
 WELL.    44-55 SX #10-10:   WELL
 FLD .             TEAPOT:   FIELD
 LOC .      S10 T38N R78W:   LOCATION
 CNTY.            NATRONA:   COUNTY
 STAT.            WYOMING:   STATE
 CTRY. UNITED STATES OF AMERICA:   COUNTRY
 SRVC.            Unknown:   SERVICE COMPANY
 DATE.        29-AUG-1984:   LOGDATE
 API .       490251098300:   API NUMBER
~CURVE INFORMATION
#MNEM.UNIT       API CODE    CURVE DESCRIPTION
#----------   ------------   ------------------------------
 DEPT.F                  :   
 AC  .US/F   60 520 00 00:   ACOUSTIC SONIC
 SPR .MV     07 010 01 00:   SPONTANEOUS POTENTIAL
 RILD.OHMM   07 120 46 00:   INDUCTION LOG DEEP RESISTIVITY
 RILM.OHMM   07 120 44 00:   INDUCTION LOG MEDIUM RESISTIVITY
 RFOC.OHMM   07 220 04 00:   RESISTIVITY FOCUSED LOG
 GRD .GAPI   45 310 01 00:   GAMMA RAY FROM DENSITY LOG
 CALD.IN     45 280 60 00:   CALIPER
 DEN .G/C3   45 350 01 00:   COMPENSATED BULK DENSTIY
 CNC .DEC    42 890 03 00:   NEUTRON POROSITY SANDSTONE
 PORD.DEC    45 890 12 00:   DENSITY POROSITY SANDSTONE
 CORR.G/C3   45 356 01 00:   DENSITY CORRECTION
~PARAMETER INFORMATION
#MNEM.UNIT          VALUE    DESCRIPTION
#----------   ------------   ------------------------------
 PD  .                 GL:   PERMANENT DATUM
 EPD .F              5247:   ELEVATION PERMANENT DATUM
 LMF .                 KB:   LOG MEASURED FROM
 DAPD.F                13:   FEET ABOVE PERMANENT DATUM
 DMF .                 KB:   DRILLING MEASURED FROM
 EKB .F              5260:   KELLING BUSHING
 EGL .F              5247:   GROUND LEVEL
 DATE.        29-AUG-1984:   RUN DATE
 RUN .                  1:   RUN NUMBER
 DD  .F               613:   DEPTH DRILLER
 DL  .F               607:   DEPTH LOGGER
 BLI .F               607:   BOTTOM LOG INTERVAL
 TLI .F                42:   TOP LOG INTERVAL
 CBL .F                42:   CASING BOTTOM LOGGER
 BS  .IN            7.875:   BIT SIZE
 BSD .F               613:   BIT SIZE AT DEPTH
 DFT .          KCL WATER:   DRILLING FLUID TYPE
 MSS .               TANK:   MUD SAMPLE SOURCE
 RMS .OHMM           .295:   RESISTIVITY MUD SAMPLE
 MST .F                75:   MUD SAMPLE TEMPERATURE
 TCS .HRS               3:   TIME CURCULATED STOPPED
 MRT .F               100:   MAXIMUM RECORDED TEMPERATURE
 LUN .               4082:   LOGGING UNIT NUMBER
 LUL .               ROOS:   LOGGING UNIT LOCATION
 ENGI.             MILLER:   RECORDING ENGINEER
 WITN.            JOHNSON:   WITNESSED BY
 CLNT.            A2DTECH:   CLIENT CODE
 ORIG.       2", 5" PRINT:   ORIGIN OF DATA
 UWI .       490251098300:   UNIQUE WELL ID
 DICO. A2D Technologies, Inc.:   DIGITIZING COMPANY
~OTHER INFORMATION
~A   DEPT       AC        SPR       RILD       RILM       RFOC         GRD      CALD        DEN        CNC       PORD       CORR   
# ...
  203.0000   102.7513   -50.1408     7.7884     8.1021     8.2553    93.1279     8.0328     2.4884     0.3474     0.1140     0.0193
  203.5000   103.3327   -49.7908     7.7297     8.0514     8.1622    90.5612     8.0323     2.4820     0.3335     0.1172     0.0104
  204.0000   103.4171   -49.4468     7.6708     8.0010     8.1296    87.8923     8.0318     2.4757     0.3170     0.1205     0.0027
  204.5000   103.5012   -49.2004     7.6116     7.9510     8.0940    85.8982     8.0313     2.4756     0.3181     0.1220     0.0194
  205.0000   103.6527   -49.2051     7.3701     7.9012     8.0586    85.5259     8.0308     2.4924     0.3165     0.1139     0.0383
  205.5000   104.1697   -49.2013     6.9757     7.8298     8.0233    87.6959     8.0303     2.5021     0.3093     0.1088     0.0529
  206.0000   104.8363   -49.3652     6.6023     7.7108     7.9367    91.9390     8.0298     2.4932     0.3066     0.1106     0.0432
  206.5000   106.0550   -49.5856     6.2490     7.4378     7.6796    93.5224     8.0293     2.4810     0.3254     0.1173     0.0423
  207.0000   107.6409   -49.8077     5.9145     6.8238     7.3340    90.9191     8.0288     2.4731     0.3494     0.1245     0.0447
  207.5000   109.5500   -50.0295     5.5980     6.0919     6.8687    88.0188     8.0283     2.4585     0.3734     0.1328     0.0470
  208.0000   111.2570   -50.2462     5.2984     5.6501     6.1824    86.8374     8.0278     2.4455     0.3847     0.1417     0.0493
  208.5000   111.4237   -50.2780     5.1076     5.4474     5.5647    85.9700     8.0273     2.4361     0.3651     0.1464     0.0517
  209.0000   109.8774   -49.8914     5.3377     5.6851     5.2989    83.6733     8.0268     2.4427     0.3394     0.1401     0.0523
  209.5000   107.9376   -49.5125     5.5955     6.0536     6.0475    82.7458     8.0264     2.4554     0.3264     0.1319     0.0509
  210.0000   105.9971   -49.1328     5.8658     6.4039     7.0019    86.0189     8.0259     2.4660     0.3142     0.1275     0.0493
  210.5000   104.5210   -48.7534     6.1492     6.6885     8.0135    89.5015     8.0254     2.4688     0.3126     0.1260     0.0465
  211.0000   103.9691   -48.3740     6.4462     6.9858     7.9660    92.1004     8.0249     2.4703     0.3150     0.1247     0.0482
  211.5000   103.6115   -47.9944     6.7576     7.2964     7.8791    93.6609     8.0244     2.4716     0.3298     0.1235     0.0379
  212.0000   103.3884   -47.6135     7.0840     7.4781     7.7932    92.0723     8.0239     2.4746     0.3596     0.1213     0.0221
  212.5000   103.2111   -47.2281     7.4262     7.6153     7.7082    89.7071     8.0234     2.4786     0.3775     0.1189     0.0065
  213.0000   103.0239   -46.9674     7.5455     7.7550     7.6536    92.2648     8.0229     2.4772     0.3455     0.1209    -0.0037
  213.5000   102.6669   -46.7078     7.6027     7.8972     7.8131    95.3008     8.0224     2.4750     0.3058     0.1228     0.0056
  214.0000   102.2919   -46.4472     7.6603     8.0421     7.8911    93.2289     8.0219     2.4735     0.2982     0.1181     0.0100
  214.5000   102.0462   -46.1863     7.7183     8.1897     7.9699    89.6238     8.0214     2.4851     0.2910     0.1110    -0.0022
  215.0000   101.9033   -45.9254     7.7768     8.3394     8.0494    87.7551     8.0209     2.4969     0.2818     0.1040     0.0221
  215.5000   101.7605   -45.6643     7.8357     8.4769     8.1298    85.9878     8.0204     2.5078     0.2830     0.1032     0.0502
  216.0000   101.6176   -45.4042     7.8951     8.5329     8.2109    84.1501     8.0199     2.5053     0.2994     0.1046     0.0632
  216.5000   101.5576   -45.1410     7.9549     8.5892     8.2929    84.9398     8.0194     2.5010     0.3036     0.1072     0.0342
  217.0000   101.6270   -45.0931     8.0152     8.6459     8.3757    86.1651     8.0189     2.4969     0.3087     0.1103     0.0081
  217.5000   101.5896   -45.1984     8.0760     8.7030     8.4593    87.2981     8.0184     2.4914     0.3138     0.1134     0.0155
  218.0000   101.5509   -45.3060     8.1372     8.7604     8.5461    88.0713     8.0179     2.4860     0.3188     0.1166     0.0224
  218.5000   101.5415   -45.4139     8.1988     8.8182     8.5907    88.8483     8.0174     2.4805     0.3214     0.1197     0.0256
  219.0000   101.6259   -45.5219     8.2413     8.8764     8.6368    90.0225     8.0169     2.4749     0.3233     0.1212     0.0239
  219.5000   101.7100   -45.6308     8.2510     8.9350     8.6832    91.8544     8.0163     2.4782     0.3252     0.1192     0.0221
  220.0000   101.5549   -45.7320     8.2607     8.9940     8.7298    93.6787     8.0158     2.4830     0.3226     0.1174     0.0207
  220.5000   101.3273   -45.6868     8.2705     9.0534     8.7767    94.0092     8.0153     2.4858     0.3173     0.1159     0.0264
  221.0000   100.7709   -45.2685     8.2803     9.1134     8.8238    93.3062     8.0148     2.4854     0.3035     0.1156     0.0322
  221.5000   100.2042   -44.8190     8.2901     9.1982     8.8712    92.0929     8.0142     2.4913     0.2986     0.1089     0.0383
  222.0000    99.6307   -44.3665     8.2998     9.1619     8.9188    88.6846     8.0137     2.5061     0.2987     0.0956     0.0295
  222.5000    99.8777   -43.9158     8.3125     9.1004     8.9480    85.8395     8.0132     2.5177     0.2987     0.0989     0.0119
  223.0000   100.1277   -43.5683     8.2952     9.0393     8.8609    87.0107     8.0126     2.5113     0.2885     0.1055    -0.0054
  223.5000   100.3777   -43.3975     8.2641     8.9786     8.7884    88.6233     8.0121     2.4945     0.2893     0.1124    -0.0073
  224.0000   100.5289   -43.2238     8.2331     8.9183     8.7164    87.4622     8.0116     2.4851     0.2910     0.1168     0.0149
  224.5000   100.5289   -43.0497     8.2022     8.8583     8.6450    86.3835     8.0110     2.4801     0.2927     0.1200     0.0574
  225.0000   100.6825   -42.8694     8.1714     8.7989     8.5742    86.7723     8.0105     2.4750     0.2943     0.1228     0.0443
  225.5000   100.8748   -43.0222     8.1407     8.7398     8.5205    89.3623     8.0100     2.4737     0.2958     0.1217     0.0332
  226.0000   101.1007   -43.2454     8.1102     8.6484     8.4572    91.7265     8.0094     2.4771     0.2973     0.1180     0.0497
  226.5000   101.4578   -43.4704     8.0799     8.5114     8.3942    94.0790     8.0089     2.4789     0.2990     0.1214     0.0391
  227.0000   101.6200   -43.6946     8.0494     8.3762     8.3318    94.0204     8.0084     2.4723     0.2999     0.1256     0.0204
  227.5000   101.7354   -43.9187     8.0192     8.2429     8.2698    91.2840     8.0078     2.4700     0.3000     0.1231     0.0111
  228.0000   101.9209   -44.1429     7.8838     8.1119     8.2083    88.3269     8.0073     2.4807     0.3000     0.1150     0.0110
  228.5000   102.3767   -44.3671     7.7265     7.7802     8.1472    85.2935     8.0068     2.4913     0.3001     0.1092     0.0235
  229.0000   102.8329   -44.5907     7.5720     7.4178     8.0870    85.3774     8.0063     2.5019     0.3002     0.1093     0.0300
  229.5000   103.7176   -44.7845     7.3340     7.0723     7.8752    88.6571     8.0057     2.5029     0.3114     0.1094     0.0326
  230.0000   104.7027   -44.9696     7.0249     6.7429     7.6692    92.9671     8.0052     2.4976     0.3324     0.1101     0.0353
  230.5000   105.6818   -45.1728     6.6371     6.4288     7.4360    95.8252     8.0047     2.4919     0.3382     0.1137     0.0362
  231.0000   106.6610   -45.0157     6.2704     6.0510     7.0839    94.7326     8.0041     2.4863     0.3259     0.1173     0.0356
  231.5000   107.6148   -45.0321     5.7124     5.4465     6.7507    93.7292     8.0036     2.4807     0.3146     0.1217     0.0349
  232.0000   109.1537   -45.0276     5.0912     4.7969     6.4336    93.7250     8.0031     2.4722     0.3288     0.1294     0.0321
  232.5000   110.7252   -45.2111     4.5375     4.2055     6.1384    95.6870     8.0025     2.4501     0.3587     0.1426     0.0183
  233.0000   113.7481   -45.4939     4.0441     3.6870     5.7292    97.4978     8.0020     2.4278     0.3804     0.1577     0.0043
