~VERSION INFORMATION
 VERS.                2.0:   CWLS LOG ASCII STANDARD - VERSION 2.0
 WRAP.                 NO:   ONE LINE PER DEPTH STEP
~WELL INFORMATION
#MNEM.UNIT      DATA TYPE    INFORMATION
#----------   ------------   ------------------------------
 STRT.F           84.0000:   START DEPTH
 STOP.F          849.5000:   STOP DEPTH
 STEP.F            0.5000:   STEP LENGTH
 NULL.          -999.2500:   NO VALUE
 COMP. U S NAVY/INTEX OIL CO:   COMPANY
 WELL.     NPR 3 #81-S-34:   WELL
 FLD .        TEAPOT DOME:   FIELD
 LOC .      S34 T39N R78W:   LOCATION
 CNTY.            NATRONA:   COUNTY
 STAT.            WYOMING:   STATE
 CTRY. UNITED STATES OF AMERICA:   COUNTRY
 SRVC.       Schlumberger:   SERVICE COMPANY
 DATE.        29-JUL-1963:   LOGDATE
 API .       490250656700:   API NUMBER
~CURVE INFORMATION
#MNEM.UNIT       API CODE    CURVE DESCRIPTION
#----------   ------------   ------------------------------
 DEPT.F                  :   
 CALS.IN     60 280 50 00:   CALIPER FROM SONIC LOG
 DT  .US/F   60 520 33 00:   INTERVAL TRANSIT TIME
 SPR .MV     05 010 01 00:   SPONTANEOUS POTENTIAL FROM RES.
 ILD .OHMM   05 120 46 00:   INDUCTION LOG DEEP
 ASN .OHMM   05 041 16 00:   AMPLIFIED SHORT NORMAL 16"
 CILD.MMHO   05 110 46 00:   CONDUCTIVITY INDUCTION LOG DEEP
 GR  .GAPI   30 310 01 00:   GAMMA RAY FROM RES.
~PARAMETER INFORMATION
#MNEM.UNIT          VALUE    DESCRIPTION
#----------   ------------   ------------------------------
 PD  .                 GL:   PERMANENT DATUM
 EPD .F              5067:   ELEVATION PERMANENT DATUM
 LMF .                 KB:   LOG MEASURED FROM
 DAPD.F                 5:   FEET ABOVE PERMANENT DATUM
 DMF .                 KB:   DRILLING MEASURED FROM
 EKB .F              5072:   KELLING BUSHING
 EGL .F              5067:   GROUND LEVEL
 DATE.          7-29-1963:   RUN DATE
 RUN .                  1:   RUN NUMBER
 DD  .F               850:   DEPTH DRILLER
 DL  .F               850:   DEPTH LOGGER
 BLI .F               849:   BOTTOM LOG INTERVAL
 TLI .F                90:   TOP LOG INTERVAL
 CS  .IN            8.625:   CASING SIZE
 CBD .F                10:   CASING BOTTOM DRILLER
 BS  .IN            7.875:   BIT SIZE
 BSD .F               850:   BIT SIZE AT DEPTH
 DFT .            GEL-OIL:   DRILLING FLUID TYPE
 DFD .                9.4:   DRILLING FLUID DENSITY
 DFV .                 40:   DRILLING FLUID VISCOSITY
 DFPH.                  9:   DRILLING FLUID PH
 DFL .                8.4:   DRILLING FLUID LOSS
 MSS .           FLOWLINE:   MUD SAMPLE SOURCE
 RMS .OHMM           3.08:   RESISTIVITY MUD SAMPLE
 MST .F                79:   MUD SAMPLE TEMPERATURE
 RMF .OHMM           2.39:   RESISTIVITY MUD FILTRATE SAMPLE
 MFST.F                79:   MUD FILTRATE SAMPLE TEMPERATURE
 RMC .OHMM           3.29:   RESISTIVITY MUD CAKE
 MCST.F                79:   MUD CAKE SAMPLE TEMPERATURE
 MFSS.                 MP:   MUD FILTRATE SAMPLE SOURCE
 MCSS.                 MP:   MUD CAKE SAMPLE SOURCE
 TCS .HRS               1:   TIME CURCULATED STOPPED
 LUN .               4507:   LOGGING UNIT NUMBER
 LUL .              CSPR.:   LOGGING UNIT LOCATION
 ENGI.             KNOBEL:   RECORDING ENGINEER
 WITN.          JORGENSON:   WITNESSED BY
 CLNT.            A2DTECH:   CLIENT CODE
 ORIG.           5" PRINT:   ORIGIN OF DATA
 UWI .       490250656700:   UNIQUE WELL ID
 DICO. A2D Technologies, Inc.:   DIGITIZING COMPANY
~OTHER INFORMATION
~A   DEPT     CALS         DT        SPR        ILD        ASN       CILD         GR   
# ...
  721.0000     7.9817    98.4836   -21.0554     7.1902     8.4957   145.6147    77.7986
  721.5000     8.0390    97.7499   -21.2700     7.2333     8.6857   143.5911    70.9617
  722.0000     8.0520    97.0114   -21.6493     7.1867     8.8748   141.5674    69.5814
  722.5000     8.0266    96.7599   -22.0328     7.1858     8.9431   140.6904    71.0327
  723.0000     8.0140    97.2951   -22.4117     7.2200     9.0042   140.6904    71.5250
  723.5000     8.0135    97.7997   -22.6405     7.2550     9.0064   140.6904    72.0971
  724.0000     8.0215    98.2988   -22.5506     7.2719     9.0074   139.9742    73.3035
  724.5000     8.0316    98.4562   -22.4659     7.3515     9.0460   138.1172    73.6253
  725.0000     8.0326    98.4562   -22.3805     7.4352     9.0870   136.2601    70.2220
  725.5000     8.0037    97.9588   -22.2954     7.5181     9.1433   134.4142    71.9845
  726.0000     7.9751    97.4076   -22.2102     7.5771     9.2247   133.8849    73.4156
  726.5000     7.9742    96.8573   -22.1255     7.5310     9.3061   133.3682    74.4255
  727.0000     7.9853    96.2688   -22.0437     7.4872     9.3446   134.7964    71.5286
  727.5000     8.0127    96.6160   -21.8394     7.4713     9.3628   136.1994    69.2233
  728.0000     8.0102    96.9925   -21.6147     7.2930     9.3393   137.5523    69.8768
  728.5000     8.0063    97.0550   -21.3971     7.4419     9.2757   134.7184    76.4319
  729.0000     8.0025    96.3681   -21.2424     7.6474     9.1786   131.9824    75.6927
  729.5000     7.9988    95.6812   -21.0923     7.8551     9.0841   129.2464    77.2371
  730.0000     7.9950    94.9942   -20.9421     8.0590     9.1676   126.5105    76.4627
  730.5000     7.9943    94.0564   -20.7905     8.1378     9.3864   123.9540    76.2982
  731.0000     8.0187    92.7178   -20.8513     7.8036     9.6054   128.5063    76.8996
  731.5000     8.0465    92.0817   -20.9668     7.0073     9.8013   146.2826    76.0376
  732.0000     8.0529    94.6203   -21.0840     6.0422     9.8240   166.5191    76.4783
  732.5000     8.0488   100.4239   -21.1893     5.3479     9.3683   186.7557    76.8518
  733.0000     8.0442   106.9223   -21.1905     4.7199     8.6619   201.8320    75.1258
  733.5000     8.0403   105.7204   -21.1903     4.7424     7.6951   211.4390    74.9446
  734.0000     8.0359   104.6500   -21.0484     4.8433     6.7043   207.6808    81.1648
  734.5000     8.1159   105.7437   -20.7684     4.9445     6.5764   207.0049    84.3903
  735.0000     8.2099   101.4317   -20.4872     5.0470     6.6922   207.6360    76.3289
  735.5000     8.1345    95.2787   -20.4039     5.1305     6.7183   205.5272    69.9111
  736.0000     7.9942    89.1932   -20.7759     5.4887     6.9519   187.6203    66.0514
  736.5000     7.9743    90.8899   -21.1478     6.4723     9.1961   162.6281    64.2283
  737.0000     7.9925    91.3845   -21.4028     7.4461     9.9869   137.6360    63.2411
  737.5000     8.0129    89.6912   -21.3980     8.4129    10.3345   119.4430    63.9245
  738.0000     7.9678    90.3096   -21.3979     9.3793    10.5802   110.2354    64.8027
  738.5000     7.9550    91.5367   -21.4021     9.6989    10.8296   103.0335    63.2858
  739.0000     7.9565    91.4768   -21.5596     9.4747    11.0411   103.3264    64.9084
  739.5000     7.9938    91.3001   -21.7282     9.2157    11.0468   107.4198    67.5429
  740.0000     7.9840    93.6985   -21.8967     9.1067    11.1128   108.5890    66.4247
  740.5000     7.8695    95.4942   -22.0655     9.2754    11.1793   109.3096    67.0520
  741.0000     7.7582    96.1468   -22.2285     9.4361    11.2333   107.4059    68.4140
  741.5000     7.6453    96.8659   -22.2348     9.5587    11.3680   102.5202    65.0734
  742.0000     7.7183    97.6594   -22.2328    10.0360    11.7497    97.6345    64.4391
  742.5000     7.8643    95.1693   -22.2237    11.6084    12.1621    92.7488    63.5826
  743.0000     8.0091    97.0328   -22.5880    11.6762    12.8202    87.8631    61.6099
  743.5000     8.0264   100.2273   -23.0351    11.9356    13.8619    82.9774    54.3780
  744.0000     8.0368   102.2410   -23.9970    12.5798    14.8979    77.4731    48.8996
  744.5000     8.0474   100.3272   -25.7134    13.7136    15.9346    71.8358    49.3804
  745.0000     7.9367   102.8254   -27.4147    14.9191    16.9710    66.4226    50.3270
  745.5000     7.6188   106.3589   -28.9573    15.6320    18.0072    61.8637    46.4265
  746.0000     7.7222   108.1835   -29.6472    16.2459    19.0467    60.1440    44.7415
  746.5000     7.8386   108.0401   -30.1003    16.6768    19.3400    58.9013    44.8103
  747.0000     7.8254   109.3017   -31.2658    16.8894    18.9952    57.6749    47.2395
  747.5000     7.6856   111.7204   -32.5851    17.2166    20.6789    56.3589    47.7546
  748.0000     7.5782   113.8964   -33.9178    17.6876    21.9199    54.9945    46.3420
  748.5000     7.5784   115.8865   -35.0101    18.0141    22.3165    53.6220    46.5842
  749.0000     7.6064   112.4004   -35.9804    18.2767    22.7094    52.2494    46.8028
  749.5000     7.7459   116.8924   -36.9343    18.5430    23.0670    50.8768    45.4357
  750.0000     7.8134   118.1021   -37.6271    18.7998    23.1614    51.1402    44.2286
  750.5000     7.8008   118.3765   -38.2739    18.9396    23.2486    51.5963    46.7696
  751.0000     7.7977   119.5817   -38.1421    18.4791    23.3360    52.0523    48.1338
  751.5000     7.7972   119.0750   -37.9342    18.1232    23.4183    52.5084    47.7902
  752.0000     7.7553   114.5598   -38.2097    18.0563    23.2771    52.6095    51.1379
  752.5000     7.6771   115.8347   -38.5176    18.2858    22.7215    51.9107    49.9754
  753.0000     7.6406   116.8068   -38.1852    18.6235    22.6667    51.2066    50.2738
  753.5000     7.6853   117.2841   -37.1267    18.9577    22.7144    50.6869    54.3004
  754.0000     7.7561   115.8432   -36.3829    19.0376    23.2702    50.5216    54.2037
  754.5000     7.8373   112.5000   -37.8503    18.7730    23.9866    50.3648    47.2037
  755.0000     7.7373   115.6872   -39.3198    19.0291    24.7025    50.2060    47.8633
  755.5000     7.6073   114.8845   -39.7090    19.3221    25.1615    50.0472    44.7459
  756.0000     7.5885   113.7102   -39.2446    19.6177    24.2546    49.8884    46.6451
  756.5000     7.5987   111.7032   -38.5741    19.9120    23.6820    49.7296    43.4563
  757.0000     7.6100   106.0442   -37.5175    19.7677    24.1184    50.1621    43.4260
  757.5000     7.6205   111.6581   -36.4838    19.3383    23.7777    50.8172    45.4462
  758.0000     7.6194   110.6118   -35.9588    18.8975    23.7155    51.4723    45.7163
  758.5000     7.6622   109.8108   -36.5741    18.6181    24.0420    51.7782    46.9232
  759.0000     7.7108   110.9502   -37.5951    18.3393    24.2081    51.7782    46.5804
  759.5000     7.7334   112.9502   -39.5858    18.0535    23.5633    51.7782    47.2131
  760.0000     7.7504   114.2928   -39.7198    17.8404    22.8630    51.7782    43.8225
  760.5000     7.7674   109.4124   -39.1657    17.6256    22.1710    52.4043    43.5431
  761.0000     7.7843   105.1481   -39.3417    17.4099    21.7102    54.2385    51.9944
  761.5000     7.8013   103.6907   -37.9040    17.1941    21.7560    56.0727    51.9936
  762.0000     7.8185   102.2590   -35.8076    16.9777    21.7944    57.9069    50.7278
  762.5000     7.8362    99.3725   -33.6580    16.7620    21.5406    59.1004    49.8595
  763.0000     7.8309    98.9225   -33.1922    16.5722    21.0558    58.2218    52.6891
  763.5000     7.8237    98.4562   -34.6924    16.6860    20.4469    57.2970    52.5660
  764.0000     7.8063   100.2490   -36.3181    16.8317    20.7442    56.3721    50.1918
  764.5000     7.7207    98.7311   -37.2226    16.7007    21.1270    56.8962    47.7091
  765.0000     7.7915    97.4189   -35.7709    16.3614    20.6719    58.5732    48.6358
  765.5000     7.8562    96.7760   -34.4109    16.0196    20.2249    60.2502    49.4585
  766.0000     7.7850    96.4984   -35.0597    15.6763    19.8490    61.9272    47.5588
