~VERSION INFORMATION
 VERS.                2.0:   CWLS LOG ASCII STANDARD - VERSION 2.0
 WRAP.                 NO:   ONE LINE PER DEPTH STEP
~WELL INFORMATION
#MNEM.UNIT      DATA TYPE    INFORMATION
#----------   ------------   ------------------------------
 STRT.F            1.0000:   START DEPTH
 STOP.F          708.0000:   STOP DEPTH
 STEP.F            0.5000:   STEP LENGTH
 NULL.          -999.2500:   NO VALUE
 COMP. LAWRENCE/ALLISON INC:   COMPANY
 WELL. NPR 3 68-61 SX #34-34:   WELL
 FLD .             TEAPOT:   FIELD
 LOC .      S34 T39N R78W:   LOCATION
 CNTY.            NATRONA:   COUNTY
 STAT.            WYOMING:   STATE
 CTRY. UNITED STATES OF AMERICA:   COUNTRY
 SRVC.           Gearhart:   SERVICE COMPANY
 DATE.        22-SEP-1988:   LOGDATE
 API .       490251125200:   API NUMBER
~CURVE INFORMATION
#MNEM.UNIT       API CODE    CURVE DESCRIPTION
#----------   ------------   ------------------------------
 DEPT.F                  :   
 GRR .GAPI   07 310 01 00:   GAMMA RAY
 RILD.OHMM   07 120 46 00:   INDUCTION LOG DEEP RESISTIVITY
 RILM.OHMM   07 120 44 00:   INDUCTION LOG MEDIUM RESISTIVITY
~PARAMETER INFORMATION
#MNEM.UNIT          VALUE    DESCRIPTION
#----------   ------------   ------------------------------
 PD  .                 GL:   PERMANENT DATUM
 EPD .F              5067:   ELEVATION PERMANENT DATUM
 LMF .                 KB:   LOG MEASURED FROM
 DAPD.F                10:   FEET ABOVE PERMANENT DATUM
 DMF .                 KB:   DRILLING MEASURED FROM
 EKB .F              5077:   KELLING BUSHING
 EGL .F              5067:   GROUND LEVEL
 DATE.        22-SEP-1988:   RUN DATE
 RUN .                  1:   RUN NUMBER
 DD  .F               705:   DEPTH DRILLER
 DL  .F               716:   DEPTH LOGGER
 BLI .F             707.5:   BOTTOM LOG INTERVAL
 TLI .F                50:   TOP LOG INTERVAL
 CS  .IN            9.625:   CASING SIZE
 CBD .F                50:   CASING BOTTOM DRILLER
 CBL .F                50:   CASING BOTTOM LOGGER
 BS  .IN             8.75:   BIT SIZE
 BSD .F               705:   BIT SIZE AT DEPTH
 DFT .                AIR:   DRILLING FLUID TYPE
 TCS .HRS            2400:   TIME CURCULATED STOPPED
 TLAB.HRS            0251:   TIME LOGGER AT BOTTOM
 MRT .F                70:   MAXIMUM RECORDED TEMPERATURE
 LUN .               7597:   LOGGING UNIT NUMBER
 LUL .           GILLETTE:   LOGGING UNIT LOCATION
 ENGI.          HUCKFRIDT:   RECORDING ENGINEER
 WITN.             STRONG:   WITNESSED BY
 CLNT.            A2DTECH:   CLIENT CODE
 ORIG.           5" PRINT:   ORIGIN OF DATA
 UWI .       490251125200:   UNIQUE WELL ID
 DICO. A2D Technologies, Inc.:   DIGITIZING COMPANY
~OTHER INFORMATION
~A    DEPT      GRR      RILD       RILM   
    1.0000    17.1884  -999.2500  -999.2500
    1.5000    19.9003  -999.2500  -999.2500
    2.0000    24.4223  -999.2500  -999.2500
    2.5000    25.3243  -999.2500  -999.2500
    3.0000    25.0196  -999.2500  -999.2500
    3.5000    26.5511  -999.2500  -999.2500
    4.0000    28.3761  -999.2500  -999.2500
    4.5000    28.6306  -999.2500  -999.2500
    5.0000    28.6269  -999.2500  -999.2500
    5.5000    30.4339  -999.2500  -999.2500
    6.0000    30.4309  -999.2500  -999.2500
    6.5000    31.6353  -999.2500  -999.2500
    7.0000    31.9340  -999.2500  -999.2500
    7.5000    34.6452  -999.2500  -999.2500
    8.0000    42.1837  -999.2500  -999.2500
    8.5000    48.8173  -999.2500  -999.2500
    9.0000    56.3558  -999.2500  -999.2500
    9.5000    62.9893  -999.2500  -999.2500
   10.0000    65.0980  -999.2500  -999.2500
   10.5000    65.0950  -999.2500  -999.2500
   11.0000    64.1870  -999.2500  -999.2500
   11.5000    61.4272  -999.2500  -999.2500
   12.0000    55.6061  -999.2500  -999.2500
   12.5000    53.3183  -999.2500  -999.2500
   13.0000    53.3147  -999.2500  -999.2500
   13.5000    55.4233  -999.2500  -999.2500
   14.0000    56.9294  -999.2500  -999.2500
   14.5000    55.1157  -999.2500  -999.2500
   15.0000    53.3028  -999.2500  -999.2500
   15.5000    52.0932  -999.2500  -999.2500
   16.0000    50.8836  -999.2500  -999.2500
   16.5000    50.8806  -999.2500  -999.2500
   17.0000    52.3859  -999.2500  -999.2500
   17.5000    54.1929  -999.2500  -999.2500
   18.0000    54.4917  -999.2500  -999.2500
   18.5000    54.4886  -999.2500  -999.2500
   19.0000    54.4856  -999.2500  -999.2500
   19.5000    56.9037  -999.2500  -999.2500
   20.0000    59.3062  -999.2500  -999.2500
   20.5000    59.0015  -999.2500  -999.2500
   21.0000    58.0936  -999.2500  -999.2500
   21.5000    58.3916  -999.2500  -999.2500
   22.0000    59.5953  -999.2500  -999.2500
   22.5000    60.7989  -999.2500  -999.2500
   23.0000    61.0984  -999.2500  -999.2500
   23.5000    60.7930  -999.2500  -999.2500
   24.0000    60.4883  -999.2500  -999.2500
   24.5000    59.2787  -999.2500  -999.2500
   25.0000    58.9741  -999.2500  -999.2500
   25.5000    59.2728  -999.2500  -999.2500
   26.0000    60.1748  -999.2500  -999.2500
   26.5000    61.3785  -999.2500  -999.2500
   27.0000    63.4871  -999.2500  -999.2500
   27.5000    66.5007  -999.2500  -999.2500
   28.0000    68.9110  -999.2500  -999.2500
   28.5000    67.9768  -999.2500  -999.2500
   29.0000    66.7491  -999.2500  -999.2500
   29.5000    65.2815  -999.2500  -999.2500
   30.0000    64.6752  -999.2500  -999.2500
   30.5000    64.9746  -999.2500  -999.2500
   31.0000    65.2733  -999.2500  -999.2500
   31.5000    64.9679  -999.2500  -999.2500
   32.0000    64.0600  -999.2500  -999.2500
   32.5000    63.1520  -999.2500  -999.2500
   33.0000    63.7524  -999.2500  -999.2500
   33.5000    65.8610  -999.2500  -999.2500
   34.0000    69.1763  -999.2500  -999.2500
   34.5000    70.9833  -999.2500  -999.2500
   35.0000    71.8854  -999.2500  -999.2500
   35.5000    71.8823  -999.2500  -999.2500
   36.0000    71.2760  -999.2500  -999.2500
   36.5000    70.3541  -999.2500  -999.2500
   37.0000    69.1262  -999.2500  -999.2500
   37.5000    67.6471  -999.2500  -999.2500
   38.0000    67.9459  -999.2500  -999.2500
   38.5000    66.7355  -999.2500  -999.2500
   39.0000    65.8276  -999.2500  -999.2500
   39.5000    65.2220  -999.2500  -999.2500
   40.0000    66.7266  -999.2500  -999.2500
   40.5000    67.6294  -999.2500  -999.2500
   41.0000    68.2297  -999.2500  -999.2500
   41.5000    68.5276  -999.2500  -999.2500
   42.0000    68.8271  -999.2500  -999.2500
   42.5000    69.7291  -999.2500  -999.2500
   43.0000    70.6303  -999.2500  -999.2500
   43.5000    71.2308  -999.2500  -999.2500
   44.0000    74.2443  -999.2500  -999.2500
   44.5000    74.2413  -999.2500  -999.2500
   45.0000    74.2585  -999.2500  -999.2500
   45.5000    74.5751  -999.2500  -999.2500
   46.0000    74.8919  -999.2500  -999.2500
   46.5000    75.4361  -999.2500  -999.2500
   47.0000    75.4324  -999.2500  -999.2500
   47.5000    76.0327  -999.2500  -999.2500
   48.0000    80.5546  -999.2500  -999.2500
   48.5000    89.2998  -999.2500  -999.2500
   49.0000    96.2350  -999.2500  -999.2500
   49.5000   101.3602  -999.2500  -999.2500
   50.0000   103.9093     3.0744     2.2079
   50.5000   104.6757     4.5010     2.5363
   51.0000   103.4691     7.1119     2.8170
   51.5000   102.2624    14.8302     3.4893
   52.0000   101.3414    13.6433     4.8011
   52.5000    99.8492     9.9816     6.2060
   53.0000    99.2458     7.9928     7.2792
   53.5000   100.1508     6.5804     8.8394
   54.0000   100.1508     5.6870     7.9792
   54.5000    99.2458     4.7076     6.4662
   55.0000    97.9991     4.1028     5.0710
   55.5000    97.4359     3.7625     3.6845
   56.0000    97.7376     3.1070     2.9915
   56.5000    99.2458     2.7038     2.5668
   57.0000   107.0890     2.4192     2.2499
   57.5000   117.1547     2.2254     1.7523
   58.0000   129.1101     2.0896     1.6345
   58.5000   131.2217     2.0465     1.6007
   59.0000   127.6018     2.1035     1.6116
   59.5000   123.3786     2.2540     1.6947
   60.0000   121.8703     2.4831     1.9841
   60.5000   120.2592     2.8518     2.2478
   61.0000   113.4238     3.8682     2.6548
   61.5000   105.8824     4.9297     3.5283
   62.0000    98.9442     5.6617     4.7879
   62.5000    94.1176     6.5024     6.3189
   63.0000    93.2127     7.6779     7.2589
   63.5000    93.5143     8.7282     8.7538
   64.0000    91.1011     9.7140     9.5792
   64.5000    87.1795     9.9162     9.8475
   65.0000    86.8778     9.9129     9.9838
   65.5000    88.0845     9.3754     9.5750
   66.0000    89.4040     8.5461     8.5082
   66.5000    94.1176     7.2491     7.2519
   67.0000    95.3243     6.4860     6.4888
   67.5000    96.5309     6.1770     5.8872
   68.0000    99.5475     5.9649     4.3631
   68.5000   109.2006     5.9633     4.2768
   69.0000   121.8703     6.0032     4.4581
   69.5000   122.7753     6.1274     4.8446
   70.0000   117.6471     6.3420     5.1921
   70.5000   107.3906     6.7956     5.8861
   71.0000   100.1508     7.4348     6.4815
   71.5000    96.5309     8.3624     7.1917
   72.0000    96.5309     9.0858     7.8697
   72.5000    96.2293     9.8034     8.5521
   73.0000    95.6259    10.2173     9.2294
   73.5000    95.3243    10.6486     9.6376
   74.0000    94.7210    11.1166    10.0979
   74.5000    94.1176    11.6464    10.3093
   75.0000    92.9110    11.9716    10.5245
   75.5000    92.6094    12.4762    10.6702
   76.0000    91.7044    12.6472    10.9691
   76.5000    91.7044    12.9158    11.2764
   77.0000    91.8174    13.1766    11.5919
   77.5000    95.6259    13.2657    11.9167
   78.0000    96.5309    13.3545    12.2505
   78.5000    94.4193    13.3501    12.4201
   79.0000    90.4977    13.6271    12.5050
   79.5000    89.5787    13.7183    12.5904
   80.0000    91.8254    13.7138    12.5883
   80.5000    94.1176    13.8065    12.5866
   81.0000    96.8326    13.8989    12.5850
   81.5000    99.8492    13.8943    12.7598
   82.0000   100.7983    13.8905    12.9358
   82.5000    99.5273    14.0800    13.2058
   83.0000    97.7376    14.3722    13.2964
   83.5000    96.2293    14.5691    13.3868
   84.0000    94.1176    14.7688    13.5722
   84.5000    92.9110    14.8675    13.7683
   85.0000    94.1176    15.1751    14.0477
   85.5000    95.6940    15.2776    14.0454
   86.0000    96.5309    15.5937    14.2398
   86.5000    94.7210    15.6981    14.3376
   87.0000    92.9110    15.6939    14.4350
   87.5000    90.4977    16.0196    14.6344
   88.0000    91.4067    16.1268    14.8369
   88.5000    94.1176    16.4615    15.0423
   89.0000    93.8160    16.9190    15.2506
   89.5000    91.7044    17.1532    15.5694
   90.0000    89.2911    17.7501    16.0130
   90.5000    90.1961    18.4994    16.5686
   91.0000    91.7326    19.4145    17.2703
   91.5000    91.7044    20.0942    18.0023
