~VERSION INFORMATION
 VERS.                2.0:   CWLS LOG ASCII STANDARD - VERSION 2.0
 WRAP.                 NO:   ONE LINE PER DEPTH STEP
~WELL INFORMATION
#MNEM.UNIT      DATA TYPE    INFORMATION
#----------   ------------   ------------------------------
 STRT.F            3.0000:   START DEPTH
 STOP.F          600.0000:   STOP DEPTH
 STEP.F            0.5000:   STEP LENGTH
 NULL.          -999.2500:   NO VALUE
 COMP. FENIX & SCISSON INC:   COMPANY
 WELL.     NPR-3 #83SX4-4:   WELL
 FLD .             TEAPOT:   FIELD
 LOC .       S4 T38N R78W:   LOCATION
 CNTY.            NATRONA:   COUNTY
 STAT.            WYOMING:   STATE
 CTRY. UNITED STATES OF AMERICA:   COUNTRY
 SRVC.           BIRDWELL:   SERVICE COMPANY
 DATE.        02-AUG-1978:   LOGDATE
 API .       490251067700:   API NUMBER
~CURVE INFORMATION
#MNEM.UNIT       API CODE    CURVE DESCRIPTION
#----------   ------------   ------------------------------
 DEPT.F                  :   
 GRD .GAPI   45 310 01 00:   GAMMA RAY FROM DENSITY LOG
 CORR.G/C3   45 356 01 00:   DENSITY CORRECTION
 RHOB.G/C3   45 350 01 00:   BULK DENSITY
 DPHI.DEC    45 890 12 00:   DENSITY POROSITY SANDSTONE
 SPR .MV     05 010 01 00:   SPONTANEOUS POTENTIAL
 ILD .OHMM   05 120 46 00:   INDUCTION LOG DEEP
 SN  .OHMM   05 040 00 00:   SHORT NORMAL
~PARAMETER INFORMATION
#MNEM.UNIT          VALUE    DESCRIPTION
#----------   ------------   ------------------------------
 PD  .                 GL:   PERMANENT DATUM
 EPD .F              5204:   ELEVATION PERMANENT DATUM
 LMF .                 KB:   LOG MEASURED FROM
 DAPD.F                 4:   FEET ABOVE PERMANENT DATUM
 DMF .                 KB:   DRILLING MEASURED FROM
 EKB .F              5204:   KELLING BUSHING
 EGL .F              5200:   GROUND LEVEL
 DATE.        02-AUG-1978:   RUN DATE
 RUN .                  1:   RUN NUMBER
 DD  .F               590:   DEPTH DRILLER
 DL  .F               606:   DEPTH LOGGER
 BLI .F               590:   BOTTOM LOG INTERVAL
 TLI .F                30:   TOP LOG INTERVAL
 CS  .IN            8.625:   CASING SIZE
 CBD .F                40:   CASING BOTTOM DRILLER
 BS  .IN            7.875:   BIT SIZE
 BSD .F               590:   BIT SIZE AT DEPTH
 DFT .                KCL:   DRILLING FLUID TYPE
 DFD .                8.7:   DRILLING FLUID DENSITY
 DFV .                 32:   DRILLING FLUID VISCOSITY
 DFPH.                  9:   DRILLING FLUID PH
 DFL .                 12:   DRILLING FLUID LOSS
 MSS .           FLOWLINE:   MUD SAMPLE SOURCE
 RMS .OHMM             .4:   RESISTIVITY MUD SAMPLE
 MST .F                61:   MUD SAMPLE TEMPERATURE
 RMF .OHMM             .5:   RESISTIVITY MUD FILTRATE SAMPLE
 MFST.F                50:   MUD FILTRATE SAMPLE TEMPERATURE
 RMC .OHMM            .65:   RESISTIVITY MUD CAKE
 MCST.F                66:   MUD CAKE SAMPLE TEMPERATURE
 MFSS.               MEAS:   MUD FILTRATE SAMPLE SOURCE
 BHT .F                78:   BOTTOM HOLE TEMPERATURE
 TCS .HRS            0300:   TIME CURCULATED STOPPED
 MRT .F                78:   MAXIMUM RECORDED TEMPERATURE
 LUN .               3006:   LOGGING UNIT NUMBER
 LUL .               CASP:   LOGGING UNIT LOCATION
 ENGI.             MILLER:   RECORDING ENGINEER
 WITN.              AMEND:   WITNESSED BY
 CLNT.            A2DTECH:   CLIENT CODE
 ORIG.           5" PRINT:   ORIGIN OF DATA
 UWI .       490251067700:   UNIQUE WELL ID
 DICO. A2D Technologies, Inc.:   DIGITIZING COMPANY
~OTHER INFORMATION
~A    DEPT     GRD       CORR       RHOB       DPHI        SPR        ILD         SN   
# ...
  139.5000    78.2514     0.0404     2.4967     0.1136   -12.8188     8.6408     8.8612
  140.0000    68.7251     0.0403     2.4960     0.1142   -12.8055     8.8176     8.9260
  140.5000    60.4764     0.0418     2.4959     0.1154   -12.7923     8.8828     8.9914
  141.0000    59.2741     0.0448     2.4974     0.1153   -12.7790     8.9484     9.0572
  141.5000    59.1213     0.0462     2.4974     0.1124   -12.7657     9.0769     9.0617
  142.0000    59.5682     0.0416     2.4959     0.1139   -12.7522     9.0812     9.0654
  142.5000    64.5376     0.0400     2.4929     0.1136   -12.7388     9.0855     9.1317
  143.0000    69.7566     0.0400     2.4883     0.1139   -12.7227     9.0898     9.1985
  143.5000    70.9531     0.0429     2.4884     0.1187   -12.5602     9.1570     9.3298
  144.0000    72.8993     0.0414     2.4935     0.1154   -12.5470     9.2247     9.5283
  144.5000    73.6467     0.0383     2.4958     0.1140   -12.2352     9.2291     9.7311
  145.0000    73.0435     0.0382     2.4965     0.1149   -11.9235     9.1690     9.8023
  145.5000    69.7281     0.0397     2.4942     0.1155   -11.6117     9.1115     9.8740
  146.0000    64.0415     0.0426     2.4949     0.1152   -11.5985     9.1158     9.8780
  146.5000    60.5903     0.0441     2.4988     0.1122   -11.5853     9.1201     9.8821
  147.0000    57.8888     0.0440     2.5129     0.1059   -11.7213     9.1875     9.8861
  147.5000    56.8365     0.0439     2.5233     0.0985   -11.7080     9.1920     9.8901
  148.0000    57.7331     0.0439     2.5158     0.1018   -11.8440     9.3309     9.9625
  148.5000    63.4977     0.0453     2.5128     0.1021   -12.1293     9.5340    10.0447
  149.0000    64.4740     0.0453     2.5135     0.1024   -12.5638     9.8627    10.1796
  149.5000    64.1706     0.0452     2.5127     0.1033   -12.7000    10.0734    10.3249
  150.0000    61.4685     0.0451     2.5120     0.1054   -12.6866    10.2874    10.4870
  150.5000    59.5152     0.0421     2.5127     0.1057   -12.7973    10.2987    10.6784
  151.0000    57.7118     0.0435     2.5142     0.1048   -12.8152    10.5142    10.7714
  151.5000    55.4586     0.0450     2.5201     0.1036   -12.8045    10.5939    10.9252
  152.0000    53.1974     0.0464     2.5216     0.0997   -12.9439    10.7467    11.0804
  152.5000    52.4504     0.0493     2.5156     0.0955   -13.2321    10.8268    11.1607
  153.0000    52.7460     0.0553     2.5261     0.0916   -13.2192    10.9829    11.2416
  153.5000    55.2904     0.0629     2.5388     0.0874   -13.5075    11.1413    11.3231
  154.0000    59.7838     0.0671     2.5486     0.0830   -13.4972    11.2244    11.3269
  154.5000    60.2294     0.0655     2.5687     0.0761   -13.3376    11.2305    11.2521
  155.0000    60.2149     0.0610     2.5806     0.0566   -13.3273    11.3143    11.2568
  155.5000    59.6199     0.0535     2.5873     0.0629   -13.4689    11.3204    11.1824
  156.0000    59.4656     0.0474     2.5798     0.0836   -13.4560    11.1715    11.1095
  156.5000    60.0610     0.0698     2.5304     0.0961   -13.4457    11.1008    11.0378
  157.0000    61.2561     0.0757     2.5273     0.0950   -13.4354    10.9529    10.7418
  157.5000    63.0509     0.0667     2.5229     0.0962   -13.4251    10.6557    10.5258
  158.0000    64.2460     0.0487     2.5086     0.1159   -13.4148    10.3075    10.2434
  158.5000    63.0412     0.0426     2.4734     0.1270   -13.4045    10.1035    10.1068
  159.0000    63.0369     0.0396     2.4697     0.1252   -13.3940    10.0382     9.9720
  159.5000    63.4824     0.0380     2.4779     0.1177   -13.3836     9.9075     9.9762
  160.0000    64.3776     0.0410     2.4891     0.1201   -13.5229     9.7772     9.9103
  160.5000    67.0719     0.0424     2.4816     0.1204   -13.5100     9.7154     9.7789
  161.0000    67.0675     0.0423     2.4853     0.1201   -13.6516     9.6526     9.7143
  161.5000    67.2132     0.0423     2.4890     0.1156   -13.6387     9.4616     9.7184
  162.0000    67.9575     0.0422     2.4882     0.1174   -13.6284     9.3359     9.6542
  162.5000    70.0521     0.0406     2.4867     0.1180   -13.6181     9.3422     9.6583
  163.0000    72.1468     0.0406     2.4874     0.1174   -13.7571     9.2830     9.6615
  163.5000    72.1404     0.0405     2.4882     0.1171   -13.7468     9.0357     9.6648
  164.0000    70.1880     0.0405     2.4859     0.1181   -13.7365     9.0406     9.6016
  164.5000    67.1852     0.0389     2.4844     0.1192   -13.7262     9.1081     9.6050
  165.0000    67.4808     0.0389     2.4851     0.1181   -13.5666     9.1141     9.6083
  165.5000    70.3250     0.0373     2.4896     0.1166   -13.5564     9.1191     9.6116
  166.0000    73.4691     0.0372     2.4871     0.1199   -13.5461     9.1240     9.6149
  166.5000    78.1763     0.0402     2.4813     0.1223   -13.5358     9.1290     9.6188
  167.0000    83.3545     0.0416     2.4783     0.1238   -13.5254     9.1339     9.6885
  167.5000    82.3007     0.0445     2.4760     0.1241   -13.5149     9.1388     9.6918
  168.0000    81.6967     0.0445     2.4842     0.1193   -13.5045     9.1438     9.5112
  168.5000    81.5425     0.0444     2.4894     0.1145   -13.4920     9.1487     9.1070
  169.0000    81.6881     0.0443     2.4878     0.1190   -13.4817     9.0896     8.9937
  169.5000    82.6252     0.0458     2.4782     0.1226   -13.4714     9.0958     8.8737
  170.0000    86.4760     0.0457     2.4722     0.1244   -13.4611     8.9762     8.8158
  170.5000    88.2708     0.0472     2.4841     0.1211   -13.4508     8.8581     8.8196
  171.0000    88.5674     0.0471     2.4736     0.1244   -13.5924     8.8629     8.8835
  171.5000    86.4630     0.0500     2.4713     0.1265   -13.7313     8.7464     8.9479
  172.0000    79.2623     0.0515     2.4850     0.1190   -13.8703     8.6314     9.0127
  172.5000    72.5612     0.0469     2.4878     0.1169   -13.8574     8.4594     9.0158
  173.0000    70.1072     0.0409     2.4877     0.1153   -13.8471     8.2920     9.0188
  173.5000    69.9530     0.0393     2.4885     0.1157   -13.8369     8.1268     8.9592
  174.0000    72.6473     0.0393     2.4802     0.1166   -13.5280     7.9102     8.7196
  174.5000    73.2438     0.0392     2.4697     0.1256   -12.9207     7.6465     8.5442
  175.0000    73.2384     0.0421     2.4682     0.1304   -12.9104     7.5449     8.4885
  175.5000    71.8837     0.0451     2.4794     0.1289   -12.9000     7.4972     8.4332
  176.0000    69.3306     0.0480     2.4786     0.1226   -12.8896     7.5541     8.3781
  176.5000    66.3278     0.0509     2.4853     0.1130   -13.0288     7.7160     8.4396
  177.0000    62.8752     0.0509     2.5010     0.1088   -13.0160     7.8814     8.5008
  177.5000    57.3237     0.0508     2.5018     0.1118   -13.1575     8.0522     8.6215
  178.0000    54.3088     0.0523     2.4950     0.1133   -13.4431     8.2291     8.7440
  178.5000    53.2660     0.0522     2.4935     0.1127   -13.7313     8.4785     8.8074
  179.0000    53.1118     0.0521     2.4964     0.1092   -13.7211     8.8810     8.9942
  179.5000    52.9575     0.0476     2.5054     0.1065   -13.5615     9.0091     9.1220
  180.0000    53.1042     0.0415     2.4994     0.1065   -13.4020     9.0763     9.1881
  180.5000    53.2489     0.0400     2.4926     0.1155   -13.2424     9.1440     9.1912
  181.0000    53.0704     0.0399     2.4836     0.1214   -13.3814     9.0849     9.1943
  181.5000    51.7398     0.0414     2.4829     0.1235   -13.8214     9.0274     9.1974
  182.0000    51.5856     0.0473     2.4873     0.1214   -13.8085     8.9703     9.2005
  182.5000    52.1810     0.0532     2.5023     0.1131   -13.7982     8.8535     9.2672
  183.0000    56.9743     0.0472     2.5172     0.1011   -13.7880     8.7369     9.2704
  183.5000    61.6176     0.0394     2.5163     0.1017   -13.7776     8.6817     9.2736
  184.0000    61.1274     0.0321     2.5075     0.1110   -13.7672     8.6865     9.2774
  184.5000    59.2091     0.0275     2.5007     0.1134   -13.7567     8.6913     9.2806
