~VERSION INFORMATION
 VERS.                2.0:   CWLS LOG ASCII STANDARD - VERSION 2.0
 WRAP.                 NO:   ONE LINE PER DEPTH STEP
~WELL INFORMATION
#MNEM.UNIT      DATA TYPE    INFORMATION
#----------   ------------   ------------------------------
 STRT.F           84.0000:   START DEPTH
 STOP.F          849.5000:   STOP DEPTH
 STEP.F            0.5000:   STEP LENGTH
 NULL.          -999.2500:   NO VALUE
 COMP. U S NAVY/INTEX OIL CO:   COMPANY
 WELL.     NPR 3 #81-S-34:   WELL
 FLD .        TEAPOT DOME:   FIELD
 LOC .      S34 T39N R78W:   LOCATION
 CNTY.            NATRONA:   COUNTY
 STAT.            WYOMING:   STATE
 CTRY. UNITED STATES OF AMERICA:   COUNTRY
 SRVC.       Schlumberger:   SERVICE COMPANY
 DATE.        29-JUL-1963:   LOGDATE
 API .       490250656700:   API NUMBER
~CURVE INFORMATION
#MNEM.UNIT       API CODE    CURVE DESCRIPTION
#----------   ------------   ------------------------------
 DEPT.F                  :   
 CALS.IN     60 280 50 00:   CALIPER FROM SONIC LOG
 DT  .US/F   60 520 33 00:   INTERVAL TRANSIT TIME
 SPR .MV     05 010 01 00:   SPONTANEOUS POTENTIAL FROM RES.
 ILD .OHMM   05 120 46 00:   INDUCTION LOG DEEP
 ASN .OHMM   05 041 16 00:   AMPLIFIED SHORT NORMAL 16"
 CILD.MMHO   05 110 46 00:   CONDUCTIVITY INDUCTION LOG DEEP
 GR  .GAPI   30 310 01 00:   GAMMA RAY FROM RES.
~PARAMETER INFORMATION
#MNEM.UNIT          VALUE    DESCRIPTION
#----------   ------------   ------------------------------
 PD  .                 GL:   PERMANENT DATUM
 EPD .F              5067:   ELEVATION PERMANENT DATUM
 LMF .                 KB:   LOG MEASURED FROM
 DAPD.F                 5:   FEET ABOVE PERMANENT DATUM
 DMF .                 KB:   DRILLING MEASURED FROM
 EKB .F              5072:   KELLING BUSHING
 EGL .F              5067:   GROUND LEVEL
 DATE.          7-29-1963:   RUN DATE
 RUN .                  1:   RUN NUMBER
 DD  .F               850:   DEPTH DRILLER
 DL  .F               850:   DEPTH LOGGER
 BLI .F               849:   BOTTOM LOG INTERVAL
 TLI .F                90:   TOP LOG INTERVAL
 CS  .IN            8.625:   CASING SIZE
 CBD .F                10:   CASING BOTTOM DRILLER
 BS  .IN            7.875:   BIT SIZE
 BSD .F               850:   BIT SIZE AT DEPTH
 DFT .            GEL-OIL:   DRILLING FLUID TYPE
 DFD .                9.4:   DRILLING FLUID DENSITY
 DFV .                 40:   DRILLING FLUID VISCOSITY
 DFPH.                  9:   DRILLING FLUID PH
 DFL .                8.4:   DRILLING FLUID LOSS
 MSS .           FLOWLINE:   MUD SAMPLE SOURCE
 RMS .OHMM           3.08:   RESISTIVITY MUD SAMPLE
 MST .F                79:   MUD SAMPLE TEMPERATURE
 RMF .OHMM           2.39:   RESISTIVITY MUD FILTRATE SAMPLE
 MFST.F                79:   MUD FILTRATE SAMPLE TEMPERATURE
 RMC .OHMM           3.29:   RESISTIVITY MUD CAKE
 MCST.F                79:   MUD CAKE SAMPLE TEMPERATURE
 MFSS.                 MP:   MUD FILTRATE SAMPLE SOURCE
 MCSS.                 MP:   MUD CAKE SAMPLE SOURCE
 TCS .HRS               1:   TIME CURCULATED STOPPED
 LUN .               4507:   LOGGING UNIT NUMBER
 LUL .              CSPR.:   LOGGING UNIT LOCATION
 ENGI.             KNOBEL:   RECORDING ENGINEER
 WITN.          JORGENSON:   WITNESSED BY
 CLNT.            A2DTECH:   CLIENT CODE
 ORIG.           5" PRINT:   ORIGIN OF DATA
 UWI .       490250656700:   UNIQUE WELL ID
 DICO. A2D Technologies, Inc.:   DIGITIZING COMPANY
~OTHER INFORMATION
~A   DEPT     CALS         DT        SPR        ILD        ASN       CILD         GR   
# ...
  311.5000     7.8443   108.1175   -36.8476     5.8136     6.7840   179.4966  -999.2500
  312.0000     7.8371   107.1215   -36.8476     5.7259     6.7997   179.9253  -999.2500
  312.5000     7.8369   108.0117   -36.8476     5.6483     6.7971   180.3539  -999.2500
  313.0000     7.8368   109.2947   -36.8479     5.5689     6.7644   179.5983  -999.2500
  313.5000     7.8398   108.7151   -36.8489     5.4909     6.7321   177.3532  -999.2500
  314.0000     7.8433   109.4124   -36.8421     5.6029     6.6972   174.8182  -999.2500
  314.5000     7.8470   107.1870   -36.6861     5.7410     6.6860   172.2832  -999.2500
  315.0000     7.8506   106.6235   -36.4908     5.8787     6.7862   169.7482  -999.2500
  315.5000     7.8541   105.2961   -36.3497     6.0210     7.0356   167.2132  -999.2500
  316.0000     7.8533   103.9687   -36.2079     6.2905     7.2837   164.7489  -999.2500
  316.5000     7.8412   103.0453   -36.0635     6.5620     7.4378   157.7640  -999.2500
  317.0000     7.8296   102.7988   -36.0136     6.8327     7.5664   150.9685  -999.2500
  317.5000     7.8179   102.5523   -36.0097     7.1034     7.6272   144.1730  -999.2500
  318.0000     7.8063   102.0368   -36.1943     7.3738     7.7009   138.7050  -999.2500
  318.5000     7.7939   101.2973   -36.4710     7.6424     7.7844   133.9791  -999.2500
  319.0000     7.7790   100.5578   -36.7528     7.7331     7.8687   131.7022  -999.2500
  319.5000     7.7636   100.0222   -36.8872     7.5950     7.9536   130.7474  -999.2500
  320.0000     7.7563    99.5671   -36.9499     7.4595     7.9595   131.2612  -999.2500
  320.5000     7.7850    99.1534   -37.0112     7.3234     7.8240   133.5117  -999.2500
  321.0000     7.7961    99.8984   -37.0574     7.1884     7.6921   135.7621  -999.2500
  321.5000     7.8078   100.9831   -37.0575     7.0524     7.5091   139.4491  -999.2500
  322.0000     7.8177   102.0677   -37.0628     6.8036     7.2680   145.9205  -999.2500
  322.5000     7.8174   102.4502   -36.8353     5.9490     6.8805   172.2803  -999.2500
  323.0000     7.8148   102.8356   -36.5824     5.0361     6.4865   208.2337  -999.2500
  323.5000     7.8116   105.7968   -36.3287     4.1225     6.0877   259.4314  -999.2500
  324.0000     7.8084   109.7276   -36.0760     3.3132     5.3923   323.5817  -999.2500
  324.5000     7.8053   117.1979   -35.8252     2.8738     4.7146   388.4576  -999.2500
  325.0000     7.8017   124.5365   -35.5740     2.4093     4.0392   453.2776  -999.2500
  325.5000     7.7965   131.8750   -35.1493     2.3359     3.3987   498.4310  -999.2500
  326.0000     7.8125   139.2135   -34.7405     2.1873     3.1615   567.1804  -999.2500
  326.5000     7.8025   146.5521   -34.3310     2.0403     3.0361   610.2162  -999.2500
  327.0000     7.7932   148.3566   -34.1730     1.9827     2.9134   614.5397  -999.2500
  327.5000     7.7837   141.0234   -34.2393     2.1502     2.8536   580.0209  -999.2500
  328.0000     7.7780   133.2242   -34.3077     2.3137     3.0015   530.7113  -999.2500
  328.5000     7.7768   125.1245   -34.4986     2.5454     3.2916   463.9121  -999.2500
  329.0000     7.8127   117.0248   -34.8655     3.2084     3.6058   399.5528  -999.2500
  329.5000     7.8546   108.9250   -35.6244     3.9101     3.9398   322.7563  -999.2500
  330.0000     7.8984   101.3695   -36.4021     5.1733     4.7200   245.9597  -999.2500
  330.5000     7.9332   100.5349   -36.8300     6.5100     5.8773   182.3222  -999.2500
  331.0000     7.8682   100.7470   -37.2517     7.8450     7.1716   127.0920  -999.2500
  331.5000     7.7803    99.3466   -37.4810     9.1889     8.1771   108.8354  -999.2500
  332.0000     7.7880    97.5717   -37.7035     9.9806     8.6062    99.8954  -999.2500
  332.5000     7.8761    96.6272   -37.8719    10.3210     9.0417   100.6127  -999.2500
  333.0000     7.9510    96.7048   -37.7010     9.9929     9.2546   103.2608  -999.2500
  333.5000     7.9243    97.0798   -37.5344     9.0395     9.1890   112.7098  -999.2500
  334.0000     7.8967    96.9200   -37.3680     7.9347     8.9807   127.9671  -999.2500
  334.5000     7.8779    97.9552   -37.1295     6.8240     8.6906   151.6263  -999.2500
  335.0000     7.8558   104.2200   -36.7611     5.7185     8.1122   175.3422  -999.2500
  335.5000     7.8409   110.8102   -36.3944     5.0788     7.1899   199.1904  -999.2500
  336.0000     7.8364   113.2159   -36.0257     4.9537     6.2621   205.4812  -999.2500
  336.5000     7.8370   111.6127   -35.5596     4.8660     5.8377   209.4275  -999.2500
  337.0000     7.8571   112.4966   -34.9303     4.9077     5.9516   211.3370  -999.2500
  337.5000     7.9054   111.8958   -34.5238     4.9449     6.0921   212.9015  -999.2500
  338.0000     7.9538   106.7893   -35.4668     4.9894     6.1219   201.8394  -999.2500
  338.5000     7.9082   101.4098   -36.6126     5.5267     7.0186   187.4767  -999.2500
  339.0000     7.8011    98.8546   -37.3076     6.2720     7.9144   166.5423  -999.2500
  339.5000     7.8109   100.1050   -37.7334     7.0145     8.5124   144.1922  -999.2500
  340.0000     7.8261   101.0481   -38.0207     7.7481     8.7985   128.5381  -999.2500
  340.5000     7.8409   101.8109   -38.2307     8.3587     8.9863   121.9665  -999.2500
  341.0000     7.8561   102.5518   -38.4407     8.4679     9.1232   118.1021  -999.2500
  341.5000     7.8529   102.2480   -38.6497     8.5784     9.3069   116.6434  -999.2500
  342.0000     7.8474   102.1688   -38.8593     8.6859     9.5160   115.1848  -999.2500
  342.5000     7.8419   102.4900   -39.0701     8.7940     9.7262   113.7262  -999.2500
  343.0000     7.8370   102.3354   -39.1976     8.9021     9.9270   112.2675  -999.2500
  343.5000     7.8383   102.7246   -39.2818     9.0113    10.0336   110.8064  -999.2500
  344.0000     7.8441   103.1129   -39.3655     9.0476    10.1257   109.3512  -999.2500
  344.5000     7.8499   103.5017   -39.4498     9.0482    10.2157   108.4246  -999.2500
  345.0000     7.8557   103.8318   -39.5310     9.0482    10.2957   109.1232  -999.2500
  345.5000     7.8566   103.9293   -39.7490     9.0479    10.3486   109.8086  -999.2500
  346.0000     7.8509   103.9343   -40.0259     9.0471    10.4011   110.4988  -999.2500
  346.5000     7.8196   103.5965   -40.3073     9.0543    10.4547   111.1779  -999.2500
  347.0000     7.7887   102.7897   -40.4541     9.1875    10.5105   110.3618  -999.2500
  347.5000     7.7578   101.9422   -40.5456     9.3195    10.3055   108.8174  -999.2500
  348.0000     7.7256   101.3181   -40.7378     9.4508    10.1338   107.2729  -999.2500
  348.5000     7.7416   100.6391   -41.2115     9.5818    10.4637   105.7903  -999.2500
  349.0000     7.7711    99.9301   -40.9105     9.7129    10.6211   104.4075  -999.2500
  349.5000     7.7933    99.3230   -40.6086     9.8439    10.7480   103.0430  -999.2500
  350.0000     7.7584    98.6569   -40.4263     9.9751    10.8420   101.6751  -999.2500
  350.5000     7.7237    98.5575   -40.5694    10.1061    10.9287   100.3060  -999.2500
  351.0000     7.7547    98.5153   -40.7030    10.2368    11.0060    99.8921  -999.2500
  351.5000     7.7160    99.0455   -40.8363    10.2819    11.0856    99.8954  -999.2500
  352.0000     7.5212    99.5748   -40.9696    10.2380    11.2065    99.8954  -999.2500
  352.5000     7.5513   100.1491   -41.1029    10.1991    11.4569    99.8954  -999.2500
  353.0000     7.6490   100.1523   -41.2361    10.1982    11.5579    99.8954  -999.2500
  353.5000     7.7458    99.9460   -41.3695    10.2011    11.6524    99.8954  -999.2500
  354.0000     7.7193    99.3051   -41.5049    10.2506    11.7479   100.2667  -999.2500
  354.5000     7.7366    98.7008   -41.6480    10.2940    11.8389    99.4860  -999.2500
  355.0000     7.8168    98.2298   -41.4488    10.5103    12.1219    96.5320  -999.2500
  355.5000     7.8767    97.3250   -41.2246    10.8038    12.4760    93.5430  -999.2500
  356.0000     7.8521    96.3701   -41.0194    11.0910    12.8366    90.5529  -999.2500
  356.5000     7.8292    94.9427   -41.1527    11.5576    13.5171    86.8605  -999.2500
