~VERSION INFORMATION
 VERS.                2.0:   CWLS LOG ASCII STANDARD - VERSION 2.0
 WRAP.                 NO:   ONE LINE PER DEPTH STEP
~WELL INFORMATION
#MNEM.UNIT      DATA TYPE    INFORMATION
#----------   ------------   ------------------------------
 STRT.F           30.0000:   START DEPTH
 STOP.F          480.0000:   STOP DEPTH
 STEP.F            0.5000:   STEP LENGTH
 NULL.          -999.2500:   NO VALUE
 COMP. FENIX & SCISSON INC:   COMPANY
 WELL.   51-SX-10 #NPR-10:   WELL
 FLD .             TEAPOT:   FIELD
 LOC .      S10 T38N R78W:   LOCATION
 CNTY.            NATRONA:   COUNTY
 STAT.            WYOMING:   STATE
 CTRY. UNITED STATES OF AMERICA:   COUNTRY
 SRVC.              Welex:   SERVICE COMPANY
 DATE.        13-MAR-1977:   LOGDATE
 API .       490251031000:   API NUMBER
~CURVE INFORMATION
#MNEM.UNIT       API CODE    CURVE DESCRIPTION
#----------   ------------   ------------------------------
 DEPT.F                  :   
 SGRD.OHMM   07 220 05 00:   SHALLOW GUARD RESISTIVITY
 ILD .OHMM   07 120 46 00:   INDUCTION LOG DEEP
 ILM .OHMM   07 120 44 00:   INDUCTION LOG MEDIUM
 SPR .MV     07 010 01 00:   SPONTANEOUS POTENTIAL
 RHOB.G/C3   45 350 01 00:   BULK DENSITY
 DPOR.DEC    45 890 12 00:   DENSITY POROSITY SANDSTONE
 CORR.G/C3   45 356 01 00:   DENSITY CORRECTION
 GRD .GAPI   45 310 01 00:   GAMMA RAY FROM DENSITY LOG
 CALD.IN     45 280 60 00:   CALIPER FROM DENSITY LOG
~PARAMETER INFORMATION
#MNEM.UNIT          VALUE    DESCRIPTION
#----------   ------------   ------------------------------
 PD  .                 GL:   PERMANENT DATUM
 EPD .F              5216:   ELEVATION PERMANENT DATUM
 LMF .                 GL:   LOG MEASURED FROM
 DMF .                 GL:   DRILLING MEASURED FROM
 EGL .F              5216:   GROUND LEVEL
 DATE.            3-13-77:   RUN DATE
 RUN .                  1:   RUN NUMBER
 DD  .F               490:   DEPTH DRILLER
 DL  .F               485:   DEPTH LOGGER
 BLI .F               483:   BOTTOM LOG INTERVAL
 TLI .F                35:   TOP LOG INTERVAL
 CS  .IN            8.625:   CASING SIZE
 CBD .F                40:   CASING BOTTOM DRILLER
 CBL .F                36:   CASING BOTTOM LOGGER
 BS  .IN            7.875:   BIT SIZE
 BSD .F               490:   BIT SIZE AT DEPTH
 DFT .            KCL MUD:   DRILLING FLUID TYPE
 DFD .                8.9:   DRILLING FLUID DENSITY
 DFV .                 34:   DRILLING FLUID VISCOSITY
 MSS .            MUD PIT:   MUD SAMPLE SOURCE
 RMS .OHMM            .43:   RESISTIVITY MUD SAMPLE
 MST .F                60:   MUD SAMPLE TEMPERATURE
 RMF .OHMM            .37:   RESISTIVITY MUD FILTRATE SAMPLE
 MFST.F                60:   MUD FILTRATE SAMPLE TEMPERATURE
 RMC .OHMM            .47:   RESISTIVITY MUD CAKE
 MCST.F                60:   MUD CAKE SAMPLE TEMPERATURE
 MFSS.           FANN KIT:   MUD FILTRATE SAMPLE SOURCE
 MCSS.           FANN KIT:   MUD CAKE SAMPLE SOURCE
 RMB .OHMM            .40:   RESISTIVITY MUD AT BHT
 BHT .F                63:   BOTTOM HOLE TEMPERATURE
 TCS .HRS             1.5:   TIME CURCULATED STOPPED
 MRT .F                63:   MAXIMUM RECORDED TEMPERATURE
 LUN .               8611:   LOGGING UNIT NUMBER
 LUL .             CASPER:   LOGGING UNIT LOCATION
 ENGI.               DOAK:   RECORDING ENGINEER
 WITN.         STUEBINGER:   WITNESSED BY
 CLNT.            A2DTECH:   CLIENT CODE
 ORIG.       2", 5" PRINT:   ORIGIN OF DATA
 UWI .       490251031000:   UNIQUE WELL ID
 DICO. A2D Technologies, Inc.:   DIGITIZING COMPANY
~OTHER INFORMATION
~A   DEPT     SGRD        ILD        ILM        SPR       RHOB       DPOR        CORR       GRD       CALD   
# ...
  358.5000    18.6625    13.1450    15.3745   -32.8102     2.4757     0.1019     0.0872    98.2967     7.9295
  359.0000    19.3639    13.2348    15.8895   -32.7972     2.4842     0.0977     0.0897    97.6264     7.9281
  359.5000    19.9051    13.3252    16.2499   -32.7844     2.4924     0.0935     0.0924    97.0195     7.9267
  360.0000    19.6046    13.4165    15.5028   -32.7716     2.4979     0.0906     0.0904    96.4052     7.9254
  360.5000    19.3607    13.5086    15.0719   -32.7588     2.4787     0.1009     0.0868    96.1035     7.9240
  361.0000    19.1192    13.6355    15.0207   -32.7461     2.4634     0.1088     0.0832    96.0872     7.9226
  361.5000    18.8355    13.5130    14.9696   -32.7332     2.4484     0.1167     0.0796    96.5300     7.9213
  362.0000    18.9526    13.3089    14.9187   -32.7205     2.4384     0.1217     0.0769    97.0104     7.9199
  362.5000    19.1845    13.1092    14.8680   -32.7077     2.4433     0.1202     0.0771    97.4921     7.9186
  363.0000    18.9006    12.9128    14.8173   -32.6949     2.4478     0.1187     0.0782    97.9663     7.9172
  363.5000    18.5515    12.7192    14.0056   -32.6821     2.4522     0.1158     0.0804    98.4120     7.9159
  364.0000    18.2068    12.5286    13.2354   -32.6694     2.4639     0.1110     0.0858   100.5663     7.9145
  364.5000    17.8690    12.3408    12.7920   -32.6570     2.4787     0.1061     0.0911   102.8652     7.9131
  365.0000    17.5375    12.1559    12.8713   -32.6433     2.4775     0.1018     0.0964   105.1972     7.9118
  365.5000    17.2881    11.9737    12.7658   -32.5868     2.4744     0.1025     0.0991   107.6120     7.9104
  366.0000    17.1663    11.7942    12.7045   -32.3918     2.4778     0.1030     0.0996   106.4631     7.9090
  366.5000    17.0173    11.6175    12.5321   -32.2072     2.4863     0.0988     0.0999   105.0478     7.9077
  367.0000    17.2184    11.4429    12.1772   -32.0067     2.4866     0.0966     0.1003   103.6352     7.9063
  367.5000    17.4842    11.2718    12.0946   -31.5516     2.4819     0.1005     0.1007   102.2274     7.9050
  368.0000    17.7542    11.1029    12.6444   -31.1059     2.4672     0.1061     0.1009   100.4152     7.9036
  368.5000    18.0282    11.0284    13.1381   -30.6543     2.4539     0.1117     0.0984    98.4675     7.9022
  369.0000    18.3047    12.7071    13.7185   -30.1021     2.4487     0.1220     0.0960    94.9783     7.9009
  369.5000    18.5807    14.1094    14.3480   -29.4134     2.4333     0.1343     0.0936    91.6820     7.8995
  370.0000    20.6133    15.6665    15.0064   -28.7305     2.4064     0.1466     0.0911    89.5879     7.8982
  370.5000    23.5957    16.9250    15.6950   -28.0253     2.3790     0.1589     0.0934    88.4159     7.8968
  371.0000    26.2048    18.1256    16.4152   -27.4785     2.3757     0.1631     0.0961    86.1123     7.8954
  371.5000    27.5953    19.4020    17.1684   -26.9655     2.3740     0.1638     0.0990    82.5177     7.8941
  372.0000    28.3464    20.7684    17.9559   -26.4507     2.3730     0.1622     0.0948    78.7961     7.8927
  372.5000    28.5324    22.2318    18.7870   -25.9340     2.3824     0.1600     0.0901    75.0313     7.8914
  373.0000    28.1721    23.3696    19.4762   -25.4139     2.3917     0.1577     0.0852    73.9406     7.8900
  373.5000    27.6785    23.6287    19.8607   -24.8819     2.4011     0.1526     0.0867    79.4422     7.8886
  374.0000    27.2457    23.8836    20.2699   -24.7311     2.4074     0.1464     0.0891    83.6078     7.8873
  374.5000    29.4093    24.1686    21.1498   -24.6060     2.4127     0.1401     0.0915    87.8704     7.8859
  375.0000    31.5083    24.1640    23.3315   -24.4782     2.4290     0.1339     0.0939    88.2954     7.8846
  375.5000    40.6502    24.1685    26.3490   -24.3499     2.4407     0.1270     0.0964    88.4742     7.8832
  376.0000    51.5053    24.1710    28.0617   -24.2216     2.4413     0.1266     0.0989    87.8926     7.8818
  376.5000    29.3064    23.7447    28.1535   -24.0932     2.4219     0.1390     0.0988    86.8362     7.8805
  377.0000    25.7781    23.2816    28.2426   -23.9649     2.4238     0.1318     0.0985    85.4755     7.8791
  377.5000    27.6510    22.8275    28.3336   -23.8366     2.4265     0.1344     0.0982    84.1291     7.8778
  378.0000    29.9356    22.2393    28.4269   -23.7083     2.4216     0.1381     0.0980    82.7687     7.8764
  378.5000    31.0035    22.2777    28.5204   -23.5800     2.4157     0.1414     0.0977    81.3666     7.8750
  379.0000    29.5010    22.3347    28.8196   -23.4517     2.4229     0.1369     0.0975    81.1989     7.8737
  379.5000    28.5233    22.3918    29.1526   -23.3232     2.4332     0.1328     0.0972    84.2452     7.8723
  380.0000    28.0106    22.4490    29.4895   -23.1935     2.4429     0.1287     0.0962    88.6029     7.8710
  380.5000    28.4851    22.5064    29.8303   -23.0589     2.4390     0.1266     0.0931    91.1356     7.8700
  381.0000    28.8142    22.5639    30.1750   -23.1204     2.4311     0.1313     0.0901    91.5662     7.8714
  381.5000    29.1472    22.6216    30.4365   -23.1965     2.4227     0.1342     0.0871    88.9524     7.8728
  382.0000    29.6533    22.6794    32.3610   -23.2723     2.4146     0.1401     0.0841    86.3016     7.8741
  382.5000    30.3837    22.7374    34.6343   -23.3476     2.4065     0.1455     0.0811    83.4329     7.8754
  383.0000    31.1320    22.7956    34.0039   -23.4230     2.3982     0.1509     0.0783    80.8127     7.8767
  383.5000    31.8739    22.8538    33.2678   -23.4983     2.3897     0.1563     0.0755    80.8228     7.8780
  384.0000    30.9104    22.9123    32.5476   -23.5736     2.3870     0.1585     0.0729    83.0640     7.8794
  384.5000    30.0047    22.9708    31.5708   -23.6489     2.3878     0.1565     0.0710    85.4686     7.8807
  385.0000    28.7970    23.0296    32.1531   -23.7243     2.3888     0.1547     0.0710    87.8899     7.8820
  385.5000    29.3876    23.0884    33.5454   -23.7996     2.3930     0.1526     0.0710    89.4059     7.8833
  386.0000    30.1464    23.1474    34.9982   -23.8749     2.3843     0.1579     0.0711    88.5161     7.8846
  386.5000    29.1234    23.2068    35.6066   -23.9502     2.3665     0.1656     0.0684    87.1503     7.8860
  387.0000    28.7962    23.2852    33.8272   -24.0255     2.3591     0.1732     0.0656    88.0247     7.8873
  387.5000    29.6007    23.1380    29.8110   -24.1008     2.3514     0.1808     0.0627    89.3108     7.8886
  388.0000    29.0901    22.1067    26.2716   -24.1762     2.3433     0.1862     0.0598    90.6151     7.8899
  388.5000    28.2306    20.9548    23.7235   -24.2515     2.3467     0.1803     0.0615    91.9186     7.8912
  389.0000    27.4059    19.8596    23.5082   -24.3268     2.3538     0.1757     0.0665    93.2209     7.8925
  389.5000    26.7504    18.8228    23.2931   -24.4021     2.3610     0.1711     0.0715    94.5233     7.8939
  390.0000    26.9426    17.8209    23.0799   -24.4774     2.3683     0.1666     0.0765    95.8289     7.8952
  390.5000    27.1080    18.1238    22.8637   -24.5531     2.3756     0.1619     0.0814    97.1335     7.8965
  391.0000    27.2778    18.5200    22.5603   -24.6294     2.3830     0.1585     0.0851    98.4287     7.8978
  391.5000    27.4641    18.9249    22.1748   -24.7585     2.3886     0.1553     0.0850    98.7008     7.8991
  392.0000    27.6518    19.1864    21.7959   -24.9084     2.3936     0.1518     0.0849    98.0976     7.9005
  392.5000    27.8407    16.2499    21.4235   -25.0599     2.3935     0.1510     0.0830    95.6445     7.9018
  393.0000    28.0309    16.9606    21.0414   -25.2116     2.3936     0.1510     0.0811    93.2759     7.9031
  393.5000    28.2719    17.5016    20.9578   -25.3632     2.3893     0.1541     0.0793    92.1185     7.9044
  394.0000    27.7281    18.0588    20.8736   -25.5148     2.3846     0.1570     0.0774    92.1230     7.9057
  394.5000    26.7580    18.3203    20.7888   -25.6664     2.3807     0.1590     0.0755    92.5473     7.9070
