~VERSION INFORMATION
 VERS.                2.0:   CWLS LOG ASCII STANDARD - VERSION 2.0
 WRAP.                 NO:   ONE LINE PER DEPTH STEP
~WELL INFORMATION
#MNEM.UNIT      DATA TYPE    INFORMATION
#----------   ------------   ------------------------------
 STRT.F           88.0000:   START DEPTH
 STOP.F          919.0000:   STOP DEPTH
 STEP.F            0.5000:   STEP LENGTH
 NULL.          -999.2500:   NO VALUE
 COMP. U S NAVY-INTEX OIL:   COMPANY
 WELL. RES 3 TEAPOT DOM #51S-11:   WELL
 FLD .             TEAPOT:   FIELD
 LOC .      S11 T38N R78W:   LOCATION
 CNTY.            NATRONA:   COUNTY
 STAT.            WYOMING:   STATE
 CTRY. UNITED STATES OF AMERICA:   COUNTRY
 SRVC.      NL McCullough:   SERVICE COMPANY
 DATE.        08-AUG-1961:   LOGDATE
 API .       490250638400:   API NUMBER
~CURVE INFORMATION
#MNEM.UNIT       API CODE    CURVE DESCRIPTION
#----------   ------------   ------------------------------
 DEPT.F                  :   
 NEUT.CPS    35 330 30 00:   NEUTRON
 GRN .MG/TON 35 310 01 00:   GAMMA RAY
~PARAMETER INFORMATION
#MNEM.UNIT          VALUE    DESCRIPTION
#----------   ------------   ------------------------------
 PD  .                 GL:   PERMANENT DATUM
 EPD .F              5176:   ELEVATION PERMANENT DATUM
 LMF .                 KB:   LOG MEASURED FROM
 DAPD.F                 6:   FEET ABOVE PERMANENT DATUM
 DMF .                 KB:   DRILLING MEASURED FROM
 EKB .F              5182:   KELLING BUSHING
 EGL .F              5176:   GROUND LEVEL
 DATE.           8-8-1961:   RUN DATE
 RUN .                  1:   RUN NUMBER
 DD  .F               920:   DEPTH DRILLER
 DL  .F             920.5:   DEPTH LOGGER
 BLI .F               919:   BOTTOM LOG INTERVAL
 TLI .F                90:   TOP LOG INTERVAL
 BSD .F               920:   BIT SIZE AT DEPTH
 DFT .       OIL EMULSION:   DRILLING FLUID TYPE
 DFD .                  9:   DRILLING FLUID DENSITY
 TCS .HRS               2:   TIME CURCULATED STOPPED
 ENGI.            JACKSON:   RECORDING ENGINEER
 WITN.          JORGENSEN:   WITNESSED BY
 CLNT.            A2DTECH:   CLIENT CODE
 ORIG.      2" & 5" PRINT:   ORIGIN OF DATA
 UWI .       490250638400:   UNIQUE WELL ID
 DICO. A2D Technologies, Inc.:   DIGITIZING COMPANY
~OTHER INFORMATION
~A   DEPT     NEUT          GRN 
# ...
  209.5000   278.0003     6.1188
  210.0000   275.2517     6.0000
  210.5000   285.2401     5.9998
  211.0000   296.0748     5.9972
  211.5000   300.8846     5.9766
  212.0000   310.3631     5.8886
  212.5000   324.7234     5.7358
  213.0000   337.5334     5.5889
  213.5000   350.3717     5.5771
  214.0000   352.0116     5.8245
  214.5000   344.6692     5.8685
  215.0000   334.4583     6.0367
  215.5000   325.3524     6.2630
  216.0000   317.4171     6.3428
  216.5000   307.9709     6.3612
  217.0000   313.9846     6.2396
  217.5000   327.5769     5.9369
  218.0000   329.0710     5.7612
  218.5000   324.8262     5.6683
  219.0000   322.9929     5.6827
  219.5000   322.6422     5.8439
  220.0000   319.6918     5.8801
  220.5000   291.2184     6.0447
  221.0000   287.9480     6.1239
  221.5000   288.1659     6.1515
  222.0000   289.7457     6.1690
  222.5000   298.9334     6.1688
  223.0000   337.2072     6.1657
  223.5000   338.8175     6.0848
  224.0000   332.4670     6.0716
  224.5000   328.8501     6.1877
  225.0000   342.0509     6.3624
  225.5000   349.9632     6.4450
  226.0000   347.9205     6.5087
  226.5000   329.2762     6.6877
  227.0000   304.5936     6.6509
  227.5000   306.7308     6.4473
  228.0000   321.1785     6.4208
  228.5000   316.4829     6.7525
  229.0000   308.3044     7.1040
  229.5000   322.6367     7.1368
  230.0000   343.1651     6.9544
  230.5000   351.7252     6.5038
  231.0000   357.3275     6.1013
  231.5000   359.5789     5.9219
  232.0000   359.5620     5.8364
  232.5000   360.7754     5.6630
  233.0000   386.9407     5.7053
  233.5000   410.1139     5.7996
  234.0000   414.6201     5.8260
  234.5000   416.1247     5.7999
  235.0000   411.3544     5.7078
  235.5000   418.7701     5.6590
  236.0000   425.1358     5.6240
  236.5000   432.2803     5.6162
  237.0000   438.6961     5.6160
  237.5000   440.9774     5.7750
  238.0000   443.1964     5.8686
  238.5000   439.3990     5.8965
  239.0000   432.0879     5.9109
  239.5000   411.9912     6.0982
  240.0000   386.1780     6.4002
  240.5000   373.9750     6.4271
  241.0000   370.5841     6.4135
  241.5000   370.9466     6.1369
  242.0000   372.1550     6.1079
  242.5000   373.5529     6.0824
  243.0000   372.2270     6.0015
  243.5000   343.3100     5.8660
  244.0000   326.1136     5.8192
  244.5000   310.5705     6.0319
  245.0000   294.1639     6.1386
  245.5000   292.2747     6.2083
  246.0000   291.8666     6.1687
  246.5000   319.7913     5.8557
  247.0000   329.3667     5.5000
  247.5000   333.3551     5.3301
  248.0000   347.5226     5.2037
  248.5000   324.8941     5.3177
  249.0000   317.4417     5.5248
  249.5000   317.7151     5.4068
  250.0000   331.7602     5.4341
  250.5000   353.6431     5.7044
  251.0000   363.9326     5.8572
  251.5000   370.9832     5.7985
  252.0000   383.5952     5.7034
  252.5000   385.7437     5.5836
  253.0000   391.3236     5.4789
  253.5000   396.5061     5.4084
  254.0000   374.1402     5.3763
  254.5000   329.3377     5.3592
  255.0000   299.1126     5.2873
  255.5000   298.3395     5.1576
  256.0000   296.7321     5.0762
  256.5000   259.9013     4.9985
  257.0000   222.7585     4.9568
  257.5000   231.4619     4.9377
  258.0000   262.1430     5.0921
  258.5000   292.8241     5.2507
  259.0000   323.5051     5.2535
  259.5000   362.2945     5.0534
  260.0000   407.7025     4.9529
  260.5000   410.6756     5.0289
  261.0000   413.7134     5.1108
  261.5000   407.6502     5.1961
  262.0000   406.1253     5.2175
  262.5000   406.1082     5.1636
  263.0000   391.5547     5.1340
  263.5000   374.6777     5.2583
  264.0000   366.7809     5.2948
  264.5000   363.7444     5.2037
  265.0000   363.6582     5.1808
  265.5000   362.1968     5.2492
  266.0000   360.9188     5.3162
  266.5000   358.3889     5.3790
  267.0000   354.9808     5.4392
  267.5000   340.4743     5.5304
  268.0000   317.5511     5.5877
  268.5000   295.0598     5.6368
  269.0000   254.2344     5.5805
  269.5000   229.8854     5.4752
  270.0000   218.3031     5.3950
  270.5000   217.7694     5.3882
  271.0000   225.6266     5.3550
  271.5000   278.1013     5.2740
  272.0000   345.6612     5.4241
  272.5000   395.4839     5.5520
  273.0000   398.9510     5.5768
  273.5000   383.3870     5.6120
  274.0000   349.8259     5.7357
  274.5000   348.7413     5.5381
  275.0000   355.1423     5.4848
  275.5000   364.8793     5.6742
  276.0000   368.1571     6.0556
  276.5000   357.7053     6.0774
  277.0000   347.4553     6.1213
  277.5000   340.4577     6.2252
  278.0000   324.0100     6.2498
  278.5000   302.5762     6.2598
  279.0000   287.1010     6.3358
  279.5000   269.5769     6.4463
  280.0000   261.2286     6.4578
  280.5000   258.2162     6.5147
  281.0000   260.4611     6.5747
  281.5000   266.2686     6.5473
  282.0000   284.5989     6.5057
  282.5000   313.6982     6.4184
  283.0000   319.4362     6.0860
  283.5000   320.0472     5.9968
  284.0000   339.9630     5.8760
  284.5000   372.8837     5.7721
  285.0000   367.6356     5.7230
  285.5000   355.9281     5.7577
  286.0000   347.1516     5.9654
  286.5000   321.2219     6.0031
  287.0000   316.1534     5.9823
  287.5000   346.3439     5.8585
  288.0000   346.3293     5.7080
  288.5000   346.3605     5.5459
  289.0000   351.7265     5.5771
  289.5000   355.5388     5.6826
  290.0000   294.9006     5.7132
  290.5000   283.9287     5.7164
  291.0000   292.0787     5.6884
  291.5000   309.1987     5.3635
  292.0000   302.1232     5.0744
  292.5000   281.9769     5.0290
  293.0000   274.2282     5.0412
  293.5000   283.5675     5.0971
  294.0000   343.8581     4.9071
  294.5000   347.6190     4.8347
  295.0000   342.4346     4.8485
  295.5000   319.6365     5.0658
  296.0000   285.6312     5.1584
  296.5000   279.1627     5.2323
  297.0000   267.4728     5.6802
  297.5000   254.3710     5.9644
  298.0000   251.4452     6.0586
  298.5000   250.0489     6.0883
  299.0000   246.8127     6.0378
  299.5000   253.8935     5.9679
  300.0000   260.9915     6.1659
  300.5000   273.3944     6.2420
  301.0000   318.4656     6.2364
  301.5000   361.5620     6.1721
  302.0000   383.1573     6.0746
  302.5000   345.3184     5.9294
  303.0000   293.4666     5.7572
  303.5000   285.8949     5.6840
  304.0000   284.5952     6.0828
  304.5000   295.1459     6.2267
  305.0000   301.5482     6.3102
  305.5000   300.3965     6.4171
  306.0000   301.8851     6.2116
  306.5000   302.0961     6.1748
  307.0000   282.9679     6.1343
  307.5000   243.9252     6.0849
  308.0000   233.9876     6.0399
  308.5000   230.0394     6.0137
  309.0000   229.2674     5.9905
  309.5000   230.0794     6.1045
  310.0000   233.5097     6.2039
  310.5000   239.2306     6.1798
  311.0000   252.6046     6.1348
  311.5000   272.4755     6.0580
  312.0000   294.9667     6.0942
  312.5000   324.2984     6.1887
  313.0000   340.8483     6.0249
  313.5000   345.4114     5.7560
  314.0000   346.1480     5.7150
  314.5000   347.9669     5.8782
  315.0000   334.0237     5.9376
  315.5000   340.6158     6.0326
  316.0000   369.8378     6.0934
  316.5000   398.9200     6.0442
  317.0000   406.6089     5.8300
  317.5000   411.7249     5.7702
  318.0000   399.5725     5.8234
  318.5000   384.4995     5.6847
  319.0000   399.5819     5.4810
  319.5000   404.5005     5.5325
  320.0000   399.5468     5.8685
  320.5000   364.0295     6.0822
  321.0000   368.1660     6.1712
  321.5000   393.4461     6.2431
  322.0000   406.8229     6.2039
  322.5000   413.0486     6.1163
  323.0000   400.9406     6.0289
  323.5000   368.2087     6.0018
  324.0000   372.9599     6.1057
  324.5000   386.1591     6.1507
  325.0000   400.1130     5.9768
  325.5000   405.3789     5.9094
  326.0000   394.4891     5.7599
  326.5000   372.8029     5.8360
  327.0000   367.6359     6.0289
  327.5000   361.4999     6.1213
  328.0000   354.6812     6.0715
  328.5000   362.0661     5.9604
  329.0000   377.6806     5.9954
  329.5000   401.4506     6.1773
  330.0000   409.4913     6.1795
  330.5000   414.2555     6.1353
