~VERSION INFORMATION
 VERS.                2.0:   CWLS LOG ASCII STANDARD - VERSION 2.0
 WRAP.                 NO:   ONE LINE PER DEPTH STEP
~WELL INFORMATION
#MNEM.UNIT      DATA TYPE    INFORMATION
#----------   ------------   ------------------------------
 STRT.F           70.0000:   START DEPTH
 STOP.F          960.0000:   STOP DEPTH
 STEP.F            0.5000:   STEP LENGTH
 NULL.          -999.2500:   NO VALUE
 COMP. U S NAVY/INTEX OIL CO:   COMPANY
 WELL.      NPR 3 #26S-35:   WELL
 FLD .             TEAPOT:   FIELD
 LOC .      S35 T39N R78W:   LOCATION
 CNTY.            NATRONA:   COUNTY
 STAT.            WYOMING:   STATE
 CTRY. UNITED STATES OF AMERICA:   COUNTRY
 SRVC.         Lane Wells:   SERVICE COMPANY
 DATE.        19-MAR-1960:   LOGDATE
 API .       490250651600:   API NUMBER
~CURVE INFORMATION
#MNEM.UNIT       API CODE    CURVE DESCRIPTION
#----------   ------------   ------------------------------
 DEPT.F                  :   
 ASN .OHMM   05 041 16 00:   AMPLIFIED SHORT NORMAL 16"
 ILD .OHMM   05 120 46 00:   INDUCTION LOG DEEP
 CILD.MMHO   05 110 00 00:   CONDUCTIVITY INDUCTION LOG
 SPR .MV     05 010 01 00:   SPONTANEOUS POTENTIAL FROM RES.
~PARAMETER INFORMATION
#MNEM.UNIT          VALUE    DESCRIPTION
#----------   ------------   ------------------------------
 PD  .                 GL:   PERMANENT DATUM
 EPD .F              5095:   ELEVATION PERMANENT DATUM
 LMF .                 KB:   LOG MEASURED FROM
 DAPD.F                 5:   FEET ABOVE PERMANENT DATUM
 DMF .                 KB:   DRILLING MEASURED FROM
 EKB .F              5101:   KELLING BUSHING
 EGL .F              9096:   GROUND LEVEL
 DATE.          3-19-1960:   RUN DATE
 RUN .                  1:   RUN NUMBER
 DD  .F               977:   DEPTH DRILLER
 DL  .F               959:   DEPTH LOGGER
 BLI .F               957:   BOTTOM LOG INTERVAL
 TLI .F                70:   TOP LOG INTERVAL
 CS  .IN            8.625:   CASING SIZE
 CBD .F                12:   CASING BOTTOM DRILLER
 BS  .IN            7.875:   BIT SIZE
 BSD .F               977:   BIT SIZE AT DEPTH
 DFT .   GEL-OIL EMULSION:   DRILLING FLUID TYPE
 DFD .                9.4:   DRILLING FLUID DENSITY
 DFV .                 40:   DRILLING FLUID VISCOSITY
 DFPH.                7.5:   DRILLING FLUID PH
 DFL .                8.2:   DRILLING FLUID LOSS
 MSS .           FLOWLINE:   MUD SAMPLE SOURCE
 RMS .OHMM            2.2:   RESISTIVITY MUD SAMPLE
 MST .F                64:   MUD SAMPLE TEMPERATURE
 RMF .OHMM            1.5:   RESISTIVITY MUD FILTRATE SAMPLE
 MFST.F                64:   MUD FILTRATE SAMPLE TEMPERATURE
 RMC .OHMM            3.1:   RESISTIVITY MUD CAKE
 MCST.F                64:   MUD CAKE SAMPLE TEMPERATURE
 MFSS.                MUD:   MUD FILTRATE SAMPLE SOURCE
 MCSS.              PRESS:   MUD CAKE SAMPLE SOURCE
 RMB .OHMM            2.0:   RESISTIVITY MUD AT BHT
 BHT .F                71:   BOTTOM HOLE TEMPERATURE
 MRT .F                71:   MAXIMUM RECORDED TEMPERATURE
 LUN .             L-4474:   LOGGING UNIT NUMBER
 LUL .             CASPER:   LOGGING UNIT LOCATION
 ENGI.             NELSON:   RECORDING ENGINEER
 WITN.          JORGENSBN:   WITNESSED BY
 CLNT.            A2DTECH:   CLIENT CODE
 ORIG.      2" & 5" PRINT:   ORIGIN OF DATA
 UWI .       490250651600:   UNIQUE WELL ID
 DICO. A2D Technologies, Inc.:   DIGITIZING COMPANY
~OTHER INFORMATION
~A   DEPT        ASN        ILD      CILD       SPR   
# ...
  800.0000     7.7517     6.1548   188.2892   -36.6869
  800.5000     7.6674     6.1632   187.5251   -36.3456
  801.0000     7.5926     6.1704   187.0811   -36.2600
  801.5000     7.5078     6.1802   187.4350   -36.1040
  802.0000     7.5617     6.1849   187.7888   -36.0669
  802.5000     7.7221     6.1994   188.1427   -36.1120
  803.0000     7.8556     6.1815   188.4966   -36.1529
  803.5000     8.0133     6.1470   188.7634   -36.1888
  804.0000     8.0329     5.9822   198.9381   -36.2574
  804.5000     7.7464     5.6746   207.1042   -36.5234
  805.0000     7.1964     5.3703   223.4364   -36.8228
  805.5000     6.5047     5.0810   241.5755   -37.0810
  806.0000     5.9544     4.7449   250.5533   -37.4095
  806.5000     5.3167     4.6308   248.9921   -37.2753
  807.0000     5.5181     4.8208   247.4309   -36.9510
  807.5000     5.7631     4.9499   245.8383   -37.0283
  808.0000     5.9177     5.1663   238.7039   -37.0706
  808.5000     7.3597     5.6983   212.0112   -37.1369
  809.0000     8.1533     6.3777   189.2628   -37.1888
  809.5000     8.7628     6.9055   171.0809   -37.2492
  810.0000     9.1589     7.3521   161.3496   -37.2909
  810.5000    10.1221     7.7271   153.6767   -37.1500
  811.0000    10.0707     7.9101   150.0960   -37.0018
  811.5000    10.1348     8.1432   146.3687   -36.8216
  812.0000    10.2454     8.3708   142.8655   -36.8168
  812.5000    10.3560     8.5739   139.3351   -36.8837
  813.0000    10.4786     8.9689   135.7876   -37.1876
  813.5000    10.8011     9.4032   132.2204   -37.6207
  814.0000    11.1630     9.8161   128.6586   -37.8544
  814.5000    11.8174    10.2914   124.6262   -38.2021
  815.0000    12.6136    11.0420   118.9053   -38.2707
  815.5000    13.3832    11.9265   112.1671   -38.9092
  816.0000    14.1759    12.7903   105.5321   -40.1502
  816.5000    15.1669    13.6642    97.4792   -41.2135
  817.0000    16.2720    14.5331    88.6326   -42.5012
  817.5000    17.5830    15.4734    83.9328   -43.4511
  818.0000    18.0810    16.0855    81.7212   -43.9087
  818.5000    18.6907    16.7032    79.5095   -44.1671
  819.0000    19.3004    17.3717    77.2979   -44.6637
  819.5000    19.8895    18.3316    75.0862   -45.3712
  820.0000    20.3775    19.2823    72.8745   -46.0202
  820.5000    21.7916    20.2927    71.0464   -46.6936
  821.0000    22.9885    21.1640    66.9683   -47.3749
  821.5000    24.4798    22.3628    63.4929   -48.4365
  822.0000    25.1469    23.4108    60.0174   -49.5483
  822.5000    25.9965    24.5015    56.5420   -50.2987
  823.0000    26.7791    25.5788    53.0665   -50.4573
  823.5000    27.5641    26.4425    51.8942   -50.1118
  824.0000    28.0037    27.0726    52.7788   -49.8938
  824.5000    28.3097    27.7380    53.2105   -48.8572
  825.0000    28.5859    28.0743    53.2105   -48.3121
  825.5000    28.9322    28.3824    53.2105   -48.3585
  826.0000    29.2475    28.7038    53.2105   -48.2486
  826.5000    29.5623    29.0057    52.8796   -48.2689
  827.0000    29.8807    29.2654    52.5745   -48.6708
  827.5000    30.1628    29.5255    52.2695   -49.1710
  828.0000    30.3487    29.7295    51.9644   -49.6020
  828.5000    30.5340    30.0204    51.6594   -49.5992
  829.0000    30.7222    30.3088    51.4269   -49.5114
  829.5000    30.9122    30.6518    52.4600   -49.4616
  830.0000    31.0965    30.3190    53.2946   -49.3669
  830.5000    31.2826    29.3424    54.1292   -49.3483
  831.0000    31.5149    28.8693    54.9638   -48.9808
  831.5000    31.2355    28.7613    55.7984   -48.4163
  832.0000    30.7051    28.5669    56.6329   -48.5310
  832.5000    29.8440    27.5999    57.4675   -48.4827
  833.0000    28.7488    26.2428    58.3021   -48.1879
  833.5000    27.6152    24.9718    59.1367   -48.1441
  834.0000    26.0511    23.7000    59.9713   -48.1247
  834.5000    24.4315    21.8074    62.3498   -47.9774
  835.0000    22.7943    20.3287    65.9791   -47.7755
  835.5000    21.1724    19.0826    69.6085   -46.6654
  836.0000    19.7120    17.8239    73.2379   -45.0307
  836.5000    18.3112    16.4462    76.8673   -43.6235
  837.0000    17.1447    15.6189    80.4967   -42.6429
  837.5000    16.4982    15.2719    84.1260   -42.4265
  838.0000    15.8517    14.8774    87.7554   -42.5400
  838.5000    15.4895    14.5960    89.3515   -43.0133
  839.0000    15.2443    14.2680    90.0320   -42.8882
  839.5000    15.0102    14.1172    90.7125   -42.7711
  840.0000    14.8533    14.1380    91.3930   -42.6782
  840.5000    14.9160    14.1265    92.0735   -42.7265
  841.0000    14.9788    14.1468    91.7895   -42.7678
  841.5000    15.1938    14.2580    90.3151   -42.8114
  842.0000    15.6039    14.3888    88.8407   -42.8526
  842.5000    16.0821    14.5032    87.1329   -42.8954
  843.0000    16.4494    14.7416    87.1233   -42.9356
  843.5000    16.9007    15.1646    87.1107   -42.9839
  844.0000    17.5286    15.4594    87.0967   -43.0095
  844.5000    18.2536    15.4372    87.0835   -42.8085
  845.0000    18.5749    15.4196    87.0749   -42.4199
  845.5000    18.3161    15.3368    87.0710   -42.5306
  846.0000    17.5057    14.9024    87.7176   -43.0081
  846.5000    16.6907    14.4946    88.8777   -43.1297
  847.0000    15.8666    14.0757    90.0119   -43.1708
  847.5000    15.2321    13.6768    91.1461   -42.9060
  848.0000    14.9431    13.2410    92.2803   -43.3231
  848.5000    14.6032    13.0548    93.4144   -43.6445
  849.0000    14.4308    13.1032    94.5486   -43.6778
  849.5000    14.2545    13.1089    95.6828   -43.9045
  850.0000    14.0901    13.1402    96.2848   -44.1795
  850.5000    13.9216    13.1386    96.6641   -44.7234
  851.0000    13.8403    13.0204    97.0446   -44.9680
  851.5000    13.8018    12.8987    97.4249   -45.0678
  852.0000    13.7638    12.7744    97.8046   -45.2225
  852.5000    13.7189    12.6620    98.1842   -45.3319
  853.0000    13.6800    12.5469    98.5639   -45.2097
  853.5000    13.4697    12.4258    98.9439   -45.0256
  854.0000    13.2782    12.3171    99.3242   -44.8633
  854.5000    13.0759    12.2038    99.9383   -44.6844
  855.0000    12.8804    12.0924   101.0553   -44.6822
  855.5000    12.6629    11.9810   102.1723   -44.7653
  856.0000    12.4617    11.8676   103.2892   -44.8322
  856.5000    12.4351    11.7623   104.4062   -44.8966
  857.0000    12.4427    11.6850   105.5232   -44.9808
  857.5000    12.4275    11.6244   106.6402   -44.9076
  858.0000    12.3931    11.5627   107.7571   -44.6944
  858.5000    12.3580    11.5728   108.5018   -44.5102
  859.0000    12.3222    11.6250   108.5018   -44.3136
  859.5000    12.2887    11.6626   108.5018   -44.1201
  860.0000    12.2507    11.7102   108.5018   -43.9457
  860.5000    12.2205    11.7236   108.5018   -43.9808
  861.0000    12.1760    11.7065   108.2679   -44.0438
  861.5000    12.2369    11.6929   108.0197   -44.1256
  862.0000    12.3425    11.6772   107.7715   -44.5086
  862.5000    12.2961    11.6629   107.5233   -44.8051
  863.0000    12.2369    11.6472   107.2751   -44.7436
  863.5000    12.1776    11.6299   107.0268   -44.6673
  864.0000    12.1184    11.6092   106.7182   -44.5866
  864.5000    12.0596    11.5876   106.7182   -44.5113
  865.0000    11.9997    11.5661   106.7182   -44.3976
  865.5000    11.9419    11.5450   106.7182   -44.2389
  866.0000    11.8800    11.5231   106.7223   -44.0793
  866.5000    11.8256    11.5026   106.7250   -43.9304
  867.0000    11.7557    11.4790   106.7291   -43.8457
  867.5000    11.7564    11.4708   106.7336   -43.7694
  868.0000    11.8612    11.5962   106.7371   -43.6924
  868.5000    11.9484    11.7424   106.1811   -43.6157
  869.0000    12.0619    11.8868   104.6840   -43.5388
  869.5000    12.1905    12.0282   103.1843   -43.4616
  870.0000    12.3109    12.1807   101.6944   -43.4092
  870.5000    12.4385    12.3033   100.2051   -43.6425
  871.0000    12.5561    12.3741    98.7158   -43.7532
  871.5000    12.7027    12.4716    97.0353   -43.7609
  872.0000    12.6404    12.5053    95.0495   -43.5757
  872.5000    12.4838    12.3271    96.2919   -43.1344
