~VERSION INFORMATION
 VERS.                2.0:   CWLS LOG ASCII STANDARD - VERSION 2.0
 WRAP.                 NO:   ONE LINE PER DEPTH STEP
~WELL INFORMATION
#MNEM.UNIT      DATA TYPE    INFORMATION
#----------   ------------   ------------------------------
 STRT.F           32.0000:   START DEPTH
 STOP.F          501.0000:   STOP DEPTH
 STEP.F            0.5000:   STEP LENGTH
 NULL.          -999.2500:   NO VALUE
 COMP. FENIX & SCISSON, INC., U.S. NAVY:   COMPANY
 WELL.     NPR-3 #82-S-10:   WELL
 FLD .             TEAPOT:   FIELD
 LOC .      S10 T38N R78W:   LOCATION
 CNTY.            NATRONA:   COUNTY
 STAT.            WYOMING:   STATE
 CTRY. UNITED STATES OF AMERICA:   COUNTRY
 SRVC.              Welex:   SERVICE COMPANY
 DATE.        10-MAY-1977:   LOGDATE
 API .       490251035300:   API NUMBER
~CURVE INFORMATION
#MNEM.UNIT       API CODE    CURVE DESCRIPTION
#----------   ------------   ------------------------------
 DEPT.F                  :   
 GURD.OHMM   07 220 05 00:   SHALLOW SHORT GUARD RESISTIVITY
 ILD .OHMM   07 120 46 00:   INDUCTION LOG DEEP
 ILM .OHMM   07 120 44 00:   INDUCTION LOG MEDIUM
 SPR .MV     07 010 01 00:   SPONTANEOUS POTENTIAL
 CALD.IN     45 280 60 00:   CALIPER FROM DENSITY LOG
 CORR.G/C3   45 356 01 00:   DENSITY CORRECTION
 DPHI.DEC    45 890 12 00:   DENSITY POROSITY SANDSTONE
 GRD .GAPI   45 310 01 00:   GAMMA RAY FROM DENSITY LOG
 RHOB.G/C3   45 350 01 00:   BULK DENSITY
~PARAMETER INFORMATION
#MNEM.UNIT          VALUE    DESCRIPTION
#----------   ------------   ------------------------------
 PD  .                 GL:   PERMANENT DATUM
 EPD .F              5134:   ELEVATION PERMANENT DATUM
 LMF .                 GL:   LOG MEASURED FROM
 DMF .                 GL:   DRILLING MEASURED FROM
 EGL .F              5134:   GROUND LEVEL
 DATE.        10-MAY-1977:   RUN DATE
 RUN .                  1:   RUN NUMBER
 DD  .F               505:   DEPTH DRILLER
 DL  .F               504:   DEPTH LOGGER
 BLI .F               502:   BOTTOM LOG INTERVAL
 TLI .F                30:   TOP LOG INTERVAL
 CS  .IN            8.625:   CASING SIZE
 CBD .F                40:   CASING BOTTOM DRILLER
 CBL .F                41:   CASING BOTTOM LOGGER
 BS  .IN            7.875:   BIT SIZE
 BSD .F               505:   BIT SIZE AT DEPTH
 DFT .            KCL MUD:   DRILLING FLUID TYPE
 DFD .                8.7:   DRILLING FLUID DENSITY
 DFV .                 29:   DRILLING FLUID VISCOSITY
 DFPH.                7.5:   DRILLING FLUID PH
 DFL .                6.6:   DRILLING FLUID LOSS
 MSS .           FLOWLINE:   MUD SAMPLE SOURCE
 RMS .OHMM           0.26:   RESISTIVITY MUD SAMPLE
 MST .F                72:   MUD SAMPLE TEMPERATURE
 RMF .OHMM           0.22:   RESISTIVITY MUD FILTRATE SAMPLE
 MFST.F                72:   MUD FILTRATE SAMPLE TEMPERATURE
 RMC .OHMM           0.42:   RESISTIVITY MUD CAKE
 MCST.F                72:   MUD CAKE SAMPLE TEMPERATURE
 MFSS.           FANN KIT:   MUD FILTRATE SAMPLE SOURCE
 MCSS.           FANN KIT:   MUD CAKE SAMPLE SOURCE
 RMB .OHMM           0.24:   RESISTIVITY MUD AT BHT
 BHT .F                78:   BOTTOM HOLE TEMPERATURE
 TCS .HRS               1:   TIME CURCULATED STOPPED
 MRT .F                78:   MAXIMUM RECORDED TEMPERATURE
 LUN .               8611:   LOGGING UNIT NUMBER
 LUL .             CASPER:   LOGGING UNIT LOCATION
 ENGI.            C. DOAK:   RECORDING ENGINEER
 WITN.         D. RHOADES:   WITNESSED BY
 CLNT.            A2DTECH:   CLIENT CODE
 ORIG.           5" PRINT:   ORIGIN OF DATA
 UWI .       490251035300:   UNIQUE WELL ID
 DICO. A2D Technologies, Inc.:   DIGITIZING COMPANY
~OTHER INFORMATION
~A   DEPT     GURD        ILD        ILM         SPR      CALD       CORR       DPHI        GRD       RHOB   
# ...
  105.0000    10.3174     8.2311     8.8052   -38.4377     7.6773     0.0342     0.1340   113.2213     2.4596
  105.5000    10.1807     7.7913     8.6850   -38.5763     7.6783     0.0344     0.1310   109.6766     2.4514
  106.0000     9.9764     6.5119     8.5074   -38.5635     7.6496     0.0315     0.1412   113.5055     2.4448
  106.5000     9.7765     6.6511     8.3405   -38.5764     7.6355     0.0255     0.1471   116.4771     2.4374
  107.0000    10.1269     6.9370     8.1252   -38.6944     7.6216     0.0212     0.1462   118.7143     2.4344
  107.5000    10.2709     7.1876     7.9080   -38.6816     7.6077     0.0198     0.1405   121.2482     2.4402
  108.0000    10.1346     7.4990     7.7500   -38.6714     7.6090     0.0200     0.1354   120.6664     2.4479
  108.5000    10.0696     7.6508     7.9070   -38.6622     7.6123     0.0201     0.1345   118.3013     2.4544
  109.0000    10.0981     7.4451     8.2455   -38.6518     7.6169     0.0196     0.1378   119.7996     2.4544
  109.5000    10.8017     7.3968     8.5394   -38.6407     7.6215     0.0182     0.1395   121.7400     2.4522
  110.0000    10.9559     7.4512     8.8479   -38.6310     7.6250     0.0168     0.1395   123.2354     2.4507
  110.5000    10.5901     7.5059     9.1739   -38.6202     7.6261     0.0169     0.1389   123.2471     2.4500
  111.0000    10.3063     7.4825     9.6185   -38.6100     7.6270     0.0170     0.1385   122.8136     2.4508
  111.5000    10.0289     7.5122    10.0304   -38.4509     7.6278     0.0171     0.1356   120.8965     2.4524
  112.0000    11.2079     7.7260    10.1748   -38.4407     7.6287     0.0172     0.1329   118.8311     2.4599
  112.5000    11.7689     7.8912    10.1083   -38.7281     7.6296     0.0173     0.1292   117.2107     2.4674
  113.0000    11.8561     8.0598    10.2551   -38.5685     7.6154     0.0189     0.1247   116.0158     2.4720
  113.5000    11.8617     8.2892    10.5474   -38.2587     7.6165     0.0189     0.1226   114.6924     2.4728
  114.0000    12.1999     8.5200    11.0754   -37.8020     7.6173     0.0191     0.1235   113.5394     2.4713
  114.5000    12.4686     8.8290    11.5496   -37.3453     7.6182     0.0191     0.1262   111.7707     2.4706
  115.0000    12.8317     9.0148    12.0442   -37.1863     7.6243     0.0192     0.1291   112.2275     2.4669
  115.5000    13.0026     9.2291    12.1395   -36.8785     7.6349     0.0193     0.1315   114.4647     2.4580
  116.0000    12.8303     9.5390    13.8837   -37.1658     7.6357     0.0194     0.1354   116.4051     2.4543
  116.5000    12.3136     9.7630    14.8412   -37.1556     7.6414     0.0225     0.1348   117.6037     2.4551
  117.0000    12.9315    10.1597    14.2453   -36.8478     7.6524     0.0241     0.1326   116.5768     2.4597
  117.5000    13.6729    10.4489    13.4840   -36.2423     7.6534     0.0242     0.1296   114.2146     2.4642
  118.0000    14.1602    10.8209    14.0631   -36.0833     7.6542     0.0243     0.1269   111.1106     2.4673
  118.5000    14.1669    11.1289    14.0697   -36.0729     7.6551     0.0259     0.1263   109.7840     2.4687
  119.0000    13.6923    11.4457    13.9778   -36.3780     7.6560     0.0259     0.1290   112.0241     2.4680
  119.5000    15.1948    11.6903    14.0830   -37.3893     7.6570     0.0245     0.1354   111.4423     2.4606
  120.0000    15.3074    11.9402    14.8905   -38.1231     7.6577     0.0246     0.1395   110.1187     2.4472
  120.5000    14.8888    12.1114    16.0739   -37.5177     7.6437     0.0217     0.1412   108.7656     2.4435
  121.0000    14.3819    12.1164    16.0845   -36.3170     7.6446     0.0203     0.1420   107.3037     2.4458
  121.5000    14.1094    12.0377    15.3233   -35.2651     7.6457     0.0187     0.1396   108.5246     2.4480
  122.0000    14.7154    12.0439    14.4831   -35.1060     7.6465     0.0145     0.1384   110.7618     2.4466
  122.5000    14.6210    12.0488    13.7397   -35.9886     7.6473     0.0131     0.1399   112.5539     2.4429
  123.0000    14.3278    11.9706    13.0070   -36.5762     7.6483     0.0116     0.1429   114.9394     2.4377
  123.5000    14.1362    11.8929    12.8346   -35.9682     7.6491     0.0118     0.1410   115.8413     2.4362
  124.0000    13.8544    11.7344    12.7508   -35.3627     7.6501     0.0118     0.1371   116.4465     2.4520
  124.5000    13.5750    11.6571    13.2068   -35.5013     7.6509     0.0141     0.1338   116.7520     2.4573
  125.0000    13.7720    11.5028    13.6775   -35.9375     7.6518     0.0165     0.1311   113.5025     2.4618
  125.5000    14.0671    11.5075    13.7772   -36.2356     7.6527     0.0181     0.1299   109.5082     2.4596
  126.0000    13.6902    11.5122    12.2576   -36.3635     7.6536     0.0182     0.1368   106.8493     2.4537
  126.5000    13.1256    11.5168    11.2099   -36.2019     7.6545     0.0188     0.1403   108.1982     2.4500
  127.0000    12.5986    11.5216    10.1793   -35.5964     7.6554     0.0199     0.1406   110.4354     2.4493
  127.5000    13.3375    11.6063     9.1582   -35.1398     7.6562     0.0200     0.1385   111.6340     2.4516
  128.0000    13.5295    11.5309     8.2269   -34.9821     7.6571     0.0140     0.1352   112.0908     2.4571
  128.5000    13.5359    11.4561     7.9503   -35.1193     7.6580     0.0172     0.1312   109.2835     2.4640
  129.0000    13.1716    11.3045     8.0657   -35.5555     7.6440     0.0217     0.1260   105.2892     2.4757
  129.5000    13.1794    11.1538     8.3532   -35.6966     7.6301     0.0263     0.1201   102.4819     2.4854
  130.0000    16.7930    11.0051     8.7713   -35.8352     7.6162     0.0302     0.1115   100.7863     2.4930
  130.5000    24.2311    10.8584     9.2742   -35.8224     7.6171     0.0325     0.1099    99.0937     2.4998
  131.0000    17.7642    10.7868     9.8739   -35.5982     7.6029     0.0311     0.1105    98.9541     2.5005
  131.5000    14.2471    10.4979    10.5124   -35.3555     7.6040     0.0312     0.1222   103.2714     2.4924
  132.0000    12.6742    10.2855    11.2697   -35.1964     7.5899     0.0313     0.1341   107.5857     2.4699
  132.5000    13.2401    10.0795    11.6714   -35.0372     7.5908     0.0299     0.1413   108.9327     2.4453
  133.0000    13.9911     9.8766    11.3504   -34.8780     7.5917     0.0240     0.1475   109.3866     2.4356
  133.5000    13.6961     9.6760    10.9781   -34.8656     7.6075     0.0166     0.1481   104.5050     2.4349
  134.0000    12.6123     9.4691    11.2924   -35.0068     7.6084     0.0197     0.1448   103.3298     2.4394
  134.5000    12.4436     9.1021    11.6144   -34.8452     7.6092     0.0257     0.1412   102.8963     2.4462
  135.0000    12.4510     8.9808    12.1117   -34.8349     7.6101     0.0333     0.1367   103.6499     2.4537
  135.5000    12.4569     8.9844    12.4570   -34.8259     7.6110     0.0364     0.1337   105.6202     2.4590
  136.0000    12.3770     8.9253    12.7240   -34.8145     7.6119     0.0350     0.1316   107.1256     2.4606
  136.5000    12.3829     8.8674    13.0867   -34.9556     7.6128     0.0321     0.1342   108.1388     2.4576
  137.0000    12.3887     8.8719    13.4598   -35.0916     7.6287     0.0302     0.1399   106.9636     2.4501
  137.5000    12.3946     8.9505    13.4815   -35.3790     7.6295     0.0278     0.1461   106.0850     2.4426
  138.0000    12.3151     9.0027    13.2876   -35.3968     7.6304     0.0234     0.1504   105.9454     2.4335
  138.5000    12.3210     9.0687    13.0207   -35.0610     7.6312     0.0190     0.1555   107.1470     2.4253
  139.0000    12.2419     9.1355    12.6562   -34.9018     7.6323     0.0160     0.1587   108.9390     2.4174
  139.5000    12.2491     9.1392    12.2329   -34.8914     7.6180     0.0116     0.1535   110.7311     2.4190
  140.0000    12.2549     9.1262    11.7574   -35.0277     7.6192     0.0087     0.1505   112.6716     2.4258
  140.5000    12.0092     9.0838    11.3635   -35.0397     7.6201     0.0073     0.1484   111.7931     2.4303
  141.0000    11.8500     9.0883    10.6834   -35.3237     7.6208     0.0074     0.1466   109.8760     2.4341
