~VERSION INFORMATION
 VERS.                2.0:   CWLS LOG ASCII STANDARD - VERSION 2.0
 WRAP.                 NO:   ONE LINE PER DEPTH STEP
~WELL INFORMATION
#MNEM.UNIT      DATA TYPE    INFORMATION
#----------   ------------   ------------------------------
 STRT.F           34.0000:   START DEPTH
 STOP.F          445.0000:   STOP DEPTH
 STEP.F            0.5000:   STEP LENGTH
 NULL.          -999.2500:   NO VALUE
 COMP. FENIX & SCISSON U.S. NAVY:   COMPANY
 WELL.       NPR #64-S-10:   WELL
 FLD .             TEAPOT:   FIELD
 LOC .      S10 T38N R78W:   LOCATION
 CNTY.            NATRONA:   COUNTY
 STAT.            WYOMING:   STATE
 CTRY. UNITED STATES OF AMERICA:   COUNTRY
 SRVC.              Welex:   SERVICE COMPANY
 DATE.        08-APR-1977:   LOGDATE
 API .       490251033400:   API NUMBER
~CURVE INFORMATION
#MNEM.UNIT       API CODE    CURVE DESCRIPTION
#----------   ------------   ------------------------------
 DEPT.F                  :   
 SPR .MV     07 010 01 00:   SPONTANEOUS POTENTIAL
 ILD .OHMM   07 120 46 00:   INDUCTION LOG DEEP
 ILM .OHMM   07 120 44 00:   INDUCTION LOG MEDIUM
 SGRD.OHMM   07 221 05 00:   SHALLOW SHORT GUARD RESISTIVITY
 CALD.IN     45 280 60 00:   CALIPER FROM DENSITY LOG
 GRD .GAPI   45 310 01 00:   GAMMA RAY FROM DENSITY LOG
 CORR.G/C3   45 356 01 00:   DENSITY CORRECTION
 RHOB.G/C3   45 350 01 00:   BULK DENSITY
 DPHI.DEC    45 890 12 00:   DENSITY POROSITY SANDSTONE
~PARAMETER INFORMATION
#MNEM.UNIT          VALUE    DESCRIPTION
#----------   ------------   ------------------------------
 PD  .                 GL:   PERMANENT DATUM
 EPD .F              5183:   ELEVATION PERMANENT DATUM
 LMF .                 GL:   LOG MEASURED FROM
 DMF .                 GL:   DRILLING MEASURED FROM
 EGL .F              5183:   GROUND LEVEL
 DATE.        08-APR-1977:   RUN DATE
 RUN .                  1:   RUN NUMBER
 DD  .F               455:   DEPTH DRILLER
 DL  .F               447:   DEPTH LOGGER
 BLI .F               445:   BOTTOM LOG INTERVAL
 TLI .F                34:   TOP LOG INTERVAL
 CS  .IN            8.625:   CASING SIZE
 BS  .IN            7.875:   BIT SIZE
 BSD .F               455:   BIT SIZE AT DEPTH
 DFT .           KCL- GEL:   DRILLING FLUID TYPE
 DFD .                8.3:   DRILLING FLUID DENSITY
 TCS .HRS            0100:   TIME CURCULATED STOPPED
 MRT .F                62:   MAXIMUM RECORDED TEMPERATURE
 ENGI.        E. CALLAHAN:   RECORDING ENGINEER
 WITN.            R. LYON:   WITNESSED BY
 CLNT.            A2DTECH:   CLIENT CODE
 ORIG.           5" PRINT:   ORIGIN OF DATA
 UWI .       490251033400:   UNIQUE WELL ID
 DICO. A2D Technologies, Inc.:   DIGITIZING COMPANY
~OTHER INFORMATION
~A   DEPT      SPR        ILD        ILM       SGRD       CALD        GRD        CORR        RHOB     DPHI   
# ...
  253.0000   -37.0476    23.5538    34.5191    46.6865     7.2215    67.7549     0.0497     2.2552     0.2367
  253.5000   -36.9059    23.5427    34.5075    41.2009     7.3290    67.4649     0.0528     2.2666     0.2364
  254.0000   -37.0650    23.6954    34.7389    45.3896     7.4218    67.0460     0.0575     2.2734     0.2303
  254.5000   -36.9233    23.6829    34.7244    42.3420     7.5435    67.5411     0.0666     2.2856     0.2219
  255.0000   -36.9323    23.6704    34.2345    38.4191     7.6338    68.8939     0.0704     2.3097     0.2077
  255.5000   -37.0933    23.6593    34.2226    36.3397     7.6789    70.1435     0.0741     2.3248     0.2005
  256.0000   -37.1020    23.6482    34.4497    41.8157     7.5892    71.9253     0.0777     2.3317     0.1921
  256.5000   -37.1107    23.6371    34.1973    42.8985     7.5928    72.9731     0.0814     2.3378     0.1875
  257.0000   -37.1194    23.4627    33.4819    39.1928     7.6266    72.8424     0.0851     2.3506     0.1794
  257.5000   -37.1479    23.2896    33.4707    39.7318     7.6712    72.7123     0.0887     2.3657     0.1688
  258.0000   -37.1368    23.2773    33.6927    43.4689     7.6880    72.7324     0.0924     2.3779     0.1613
  258.5000   -37.1459    23.1042    34.1515    44.0690     7.6898    72.9013     0.0961     2.3802     0.1658
  259.0000   -37.1564    22.9337    34.3776    37.5664     7.7065    73.0972     0.0997     2.3780     0.1630
  259.5000   -37.0147    22.7645    34.3632    35.7803     7.7083    73.4171     0.1034     2.3804     0.1615
  260.0000   -37.0234    22.2853    33.6443    37.2901     7.7101    74.6078     0.1071     2.3767     0.1639
  260.5000   -37.0321    21.9680    31.8178    37.5438     7.7119    76.2714     0.1107     2.3633     0.1710
  261.0000   -37.0408    21.6552    30.5107    36.0056     7.6987    77.1876     0.1144     2.3498     0.1812
  261.5000   -37.0495    21.1993    29.6659    33.8217     7.6706    78.1039     0.1152     2.3349     0.1884
  262.0000   -36.9079    20.7518    29.2475    32.4376     7.6126    79.0201     0.1138     2.3305     0.1923
  262.5000   -36.9187    20.3137    29.2206    32.6567     7.5396    79.4879     0.1124     2.3306     0.1935
  263.0000   -36.9274    20.0245    28.8228    33.1058     7.4816    78.1620     0.1095     2.3412     0.1886
  263.5000   -36.9362    19.7394    28.0248    31.7495     7.4535    77.5787     0.1037     2.3540     0.1790
  264.0000   -36.9449    19.4583    27.0606    30.0311     7.5151    79.0977     0.0978     2.3692     0.1717
  264.5000   -36.9536    19.3148    26.1295    28.6033     7.5618    79.5655     0.0934     2.3723     0.1672
  265.0000   -36.9624    19.0398    25.7609    28.4001     7.6084    79.8838     0.0875     2.3633     0.1720
  265.5000   -36.9731    18.7676    25.2220    28.3944     7.6401    80.0527     0.0862     2.3537     0.1777
  266.0000   -36.9818    18.6280    24.8592    28.1926     7.6718    79.9226     0.0863     2.3507     0.1812
  266.5000   -37.1409    18.3628    24.6840    28.1855     7.6885    78.5967     0.0940     2.3553     0.1800
  267.0000   -37.1496    18.2273    24.6757    27.7920     7.6903    77.8638     0.1046     2.3607     0.1764
  267.5000   -37.1583    17.9678    24.8391    27.4039     7.6921    78.9344     0.1032     2.3630     0.1733
  268.0000   -37.0167    17.8352    24.8308    27.2092     7.6789    79.4022     0.0959     2.3631     0.1706
  268.5000   -37.0256    17.7036    24.9973    27.2038     7.6658    78.8237     0.0945     2.3730     0.1655
  269.0000   -36.8837    17.6953    24.9869    27.5779     7.6213    77.1988     0.1082     2.3851     0.1600
  269.5000   -36.7420    17.8091    25.1523    27.9675     7.5041    75.4245     0.1158     2.3980     0.1483
  270.0000   -36.7529    17.9235    24.9698    28.5388     7.4609    73.0522     0.1084     2.4131     0.1404
  270.5000   -36.6090    18.1653    25.3083    28.3346     7.4487    70.6800     0.1010     2.4222     0.1365
  271.0000   -36.6199    18.5385    27.8795    27.1765     7.5103    70.0966     0.0937     2.4268     0.1334
  271.5000   -36.6286    19.0511    30.4998    27.7405     7.5570    70.7188     0.0938     2.4456     0.1205
  272.0000   -36.6195    19.4425    34.7840    32.8090     7.5753    71.7845     0.1015     2.4765     0.1093
  272.5000   -36.4957    19.9800    39.1236    56.4782     7.5904    73.1492     0.1136     2.4999     0.0931
  273.0000   -36.3562    20.2484    41.3418    72.6449     7.6221    76.0086     0.1228     2.5038     0.0907
  273.5000   -36.2123    20.3785    40.9661    73.1358     7.6069    78.5691     0.1319     2.4888     0.1087
  274.0000   -36.2232    20.3689    35.7116    66.1344     7.5808    81.5780     0.1381     2.4514     0.1221
  274.5000   -36.0812    20.3594    30.2256    42.7861     7.5504    83.6901     0.1322     2.4139     0.1362
  275.0000   -36.0902    20.0695    26.3019    26.0248     7.5072    85.0547     0.1143     2.3764     0.1582
  275.5000   -36.2496    19.7837    22.8876    25.1334     7.4640    85.9710     0.0949     2.3637     0.1710
  276.0000   -36.2602    19.3672    20.3353    25.1284     7.4235    86.5883     0.0740     2.3443     0.1791
  276.5000   -36.2689    19.0915    20.1880    24.9498     7.4254    87.0561     0.0621     2.3233     0.1992
  277.0000   -36.2776    18.6239    20.3282    24.7725     7.4575    87.0755     0.0547     2.3212     0.1986
  277.5000   -36.2863    18.1675    20.4562    24.7675     7.5190    85.6001     0.0488     2.3205     0.1977
  278.0000   -36.2950    17.7851    20.4477    24.4205     7.5956    84.4237     0.0444     2.3101     0.2003
  278.5000   -36.3038    17.2903    20.4408    24.2470     7.6721    81.7525     0.0416     2.3019     0.2063
  279.0000   -36.1620    17.0442    20.4340    24.0747     7.7337    80.7207     0.0432     2.3042     0.2078
  279.5000   -36.0204    16.8015    20.4271    23.5746     7.7500    81.1933     0.0478     2.3119     0.2066
  280.0000   -35.7283    16.6775    20.2791    23.7338     7.7219    81.9601     0.0540     2.3217     0.1975
  280.5000   -35.5866    16.5535    19.8549    23.4024     7.6643    82.1289     0.0601     2.3338     0.1891
  281.0000   -35.4471    16.4304    20.4066    22.9162     7.5914    81.9940     0.0633     2.3459     0.1839
  281.5000   -35.4558    16.5370    19.8399    23.0699     7.5483    81.2709     0.0634     2.3528     0.1788
  282.0000   -35.4645    16.6442    20.3912    23.5498     7.5202    80.6875     0.0606     2.3544     0.1782
  282.5000   -35.1747    16.6364    20.8147    24.0397     7.5220    80.5574     0.0592     2.3515     0.1811
  283.0000   -35.1834    16.7443    20.6621    24.2033     7.5686    80.8806     0.0593     2.3470     0.1832
  283.5000   -35.1921    16.7365    20.3707    24.3667     7.6152    81.7968     0.0595     2.3449     0.1850
  284.0000   -35.2008    16.8450    19.9445    23.8593     7.6619    83.0120     0.0611     2.3435     0.1841
  284.5000   -35.2095    16.7198    19.6630    23.5261     7.6786    84.6756     0.0627     2.3526     0.1780
  285.0000   -35.0678    16.7109    19.5191    23.3579     7.6954    85.7414     0.0689     2.3647     0.1714
  285.5000   -35.0767    16.7031    19.5126    23.1919     7.6971    84.2660     0.0735     2.3648     0.1698
  286.0000   -35.2378    16.6952    19.3712    23.0271     7.6690    81.5899     0.0782     2.3769     0.1659
  286.5000   -35.2465    16.5721    19.2309    22.3930     7.6260    84.0058     0.0723     2.3822     0.1626
  287.0000   -35.2552    16.4498    19.0916    21.9275     7.5829    84.9220     0.0664     2.3771     0.1631
  287.5000   -35.2639    16.4421    19.0852    22.3837     7.5693    85.0861     0.0635     2.3681     0.1706
  288.0000   -35.2726    16.4334    19.3523    22.5360     7.5562    83.9145     0.0622     2.3652     0.1709
  288.5000   -35.2813    16.4247    20.0195    21.4634     7.6331    83.3359     0.0608     2.3788     0.1655
  289.0000   -35.1396    16.1908    20.2940    21.6404     7.6648    82.4585     0.0594     2.3782     0.1642
