~VERSION INFORMATION
 VERS.                2.0:   CWLS LOG ASCII STANDARD - VERSION 2.0
 WRAP.                 NO:   ONE LINE PER DEPTH STEP
~WELL INFORMATION
#MNEM.UNIT      DATA TYPE    INFORMATION
#----------   ------------   ------------------------------
 STRT.F           80.0000:   START DEPTH
 STOP.F          718.5000:   STOP DEPTH
 STEP.F            0.5000:   STEP LENGTH
 NULL.          -999.2500:   NO VALUE
 COMP. U S NAVY-INTEX OIL:   COMPANY
 WELL. RES 3 TEAPOT DOM #21-S-2:   WELL
 FLD .        TEAPOT DOME:   FIELD
 LOC .       S2 T38N R78W:   LOCATION
 CNTY.            NATRONA:   COUNTY
 STAT.            WYOMING:   STATE
 CTRY. UNITED STATES OF AMERICA:   COUNTRY
 SRVC. Schlumberger Well Surveying Corp:   SERVICE COMPANY
 DATE.        18-JUL-1962:   LOGDATE
 API .       490250648100:   API NUMBER
~CURVE INFORMATION
#MNEM.UNIT       API CODE    CURVE DESCRIPTION
#----------   ------------   ------------------------------
 DEPT.F                  :   
 CALM.IN     15 280 01 00:   CALIPER FROM MICRO LOG
 SPR .MV     05 010 01 00:   SPONTANEOUS POTENTIAL FROM RES.
 ASN .OHMM   05 041 16 00:   AMPLIFIED SHORT NORMAL 16"
 ILD .OHMM   05 120 46 00:   INDUCTION LOG DEEP
 CILD.MMHO   05 110 46 00:   CONDUCTIVITY INDUCTION LOG DEEP
~PARAMETER INFORMATION
#MNEM.UNIT          VALUE    DESCRIPTION
#----------   ------------   ------------------------------
 LMF .                 KB:   LOG MEASURED FROM
 DMF .                 KB:   DRILLING MEASURED FROM
 EKB .F              5116:   KELLING BUSHING
 EGL .F              5111:   GROUND LEVEL
 DATE.          7-18-1962:   RUN DATE
 RUN .                  1:   RUN NUMBER
 DD  .F               719:   DEPTH DRILLER
 DL  .F               719:   DEPTH LOGGER
 BLI .F               718:   BOTTOM LOG INTERVAL
 TLI .F                90:   TOP LOG INTERVAL
 BS  .IN             6.75:   BIT SIZE
 BSD .F               719:   BIT SIZE AT DEPTH
 DFT .           OIL EMUL:   DRILLING FLUID TYPE
 DFD .                 10:   DRILLING FLUID DENSITY
 DFV .                 45:   DRILLING FLUID VISCOSITY
 DFL .                2.8:   DRILLING FLUID LOSS
 RMS .OHMM           3.87:   RESISTIVITY MUD SAMPLE
 MST .F                94:   MUD SAMPLE TEMPERATURE
 RMF .OHMM           2.93:   RESISTIVITY MUD FILTRATE SAMPLE
 MFST.F                94:   MUD FILTRATE SAMPLE TEMPERATURE
 RMC .OHMM           3.95:   RESISTIVITY MUD CAKE
 MCST.F                94:   MUD CAKE SAMPLE TEMPERATURE
 TCS .HRS              .5:   TIME CURCULATED STOPPED
 LUN .               2503:   LOGGING UNIT NUMBER
 LUL .              CSPR.:   LOGGING UNIT LOCATION
 ENGI.             DANNER:   RECORDING ENGINEER
 WITN.          JORGENSEN:   WITNESSED BY
 CLNT.            A2DTECH:   CLIENT CODE
 ORIG.      2" , 5" PRINT:   ORIGIN OF DATA
 UWI .       490250648100:   UNIQUE WELL ID
 DICO. A2D Technologies, Inc.:   DIGITIZING COMPANY
~OTHER INFORMATION
~A   DEPT     CALM        SPR          ASN        ILD      CILD  
# ...
  202.0000  -999.2500   -59.9743     3.1321     1.7218   499.0421
  202.5000  -999.2500   -60.1953     3.3217     1.9875   448.8482
  203.0000  -999.2500   -60.3742     3.6175     2.6011   383.6068
  203.5000  -999.2500   -60.2676     3.9530     3.3646   318.3654
  204.0000  -999.2500   -60.1644     4.6917     4.8174   253.1240
  204.5000  -999.2500   -60.0613     6.1246     6.3384   187.8826
  205.0000  -999.2500   -59.9853     7.3059     7.8596   130.0502
  205.5000  -999.2500   -60.2891     8.2639     9.3829    99.7286
  206.0000  -999.2500   -60.6097     8.9996    10.9003    85.0969
  206.5000  -999.2500   -60.9375     9.3865    12.2010    77.8895
  207.0000  -999.2500   -60.7836     9.5754    11.9443    79.8995
  207.5000  -999.2500   -60.5307     9.6507    10.7543    89.7236
  208.0000  -999.2500   -60.2737     9.3962     9.5805    99.4322
  208.5000  -999.2500   -60.1413     9.0945     8.4033   116.5980
  209.0000  -999.2500   -60.0755     8.7011     7.2255   138.1738
  209.5000  -999.2500   -60.0107     7.9865     6.0575   157.6682
  210.0000  -999.2500   -59.9459     7.2861     5.3672   171.4325
  210.5000  -999.2500   -59.8811     6.5890     5.1786   183.0231
  211.0000  -999.2500   -59.8162     6.0325     5.2029   187.8995
  211.5000  -999.2500   -59.7511     5.8650     5.2290   189.5879
  212.0000  -999.2500   -59.6857     5.8085     5.2582   189.4633
  212.5000  -999.2500   -59.6236     6.6911     5.4013   181.8467
  213.0000  -999.2500   -59.6945     7.4030     6.0460   167.3367
  213.5000  -999.2500   -60.1074     8.0831     6.9428   147.2971
  214.0000  -999.2500   -60.5141     8.7631     7.8385   125.5710
  214.5000  -999.2500   -60.9163     9.2865     8.7306   108.8548
  215.0000  -999.2500   -61.2073     9.5314     9.5556    98.6432
  215.5000  -999.2500   -61.2433     9.7691     9.8074    96.1105
  216.0000  -999.2500   -61.2847    10.0061    10.0753    93.7775
  216.5000  -999.2500   -61.3251    10.3015    10.3455    91.5477
  217.0000  -999.2500   -61.3659    11.1745    10.6163    89.0151
  217.5000  -999.2500   -61.4182    11.3533    10.8860    86.4824
  218.0000  -999.2500   -61.4911    11.4957    11.1109    84.6247
  218.5000  -999.2500   -61.5636    11.6410    11.1062    83.8454
  219.0000  -999.2500   -61.6362    11.7873    11.1350    83.0661
  219.5000  -999.2500   -61.7088    11.9336    11.3005    82.2868
  220.0000  -999.2500   -61.7814    12.0800    11.4633    81.5075
  220.5000  -999.2500   -61.8539    12.2263    11.6258    80.9045
  221.0000  -999.2500   -61.9259    12.3721    11.7883    80.9045
  221.5000  -999.2500   -62.0002    12.5166    11.9508    80.1608
  222.0000  -999.2500   -62.1409    12.6883    12.1132    78.4724
  222.5000  -999.2500   -62.2809    12.8576    12.2757    76.7839
  223.0000  -999.2500   -62.4205    13.0265    12.4382    75.0955
  223.5000  -999.2500   -62.5599    13.1955    12.6006    73.4070
  224.0000  -999.2500   -62.6994    13.3641    12.7653    71.7186
  224.5000  -999.2500   -62.8389    13.5207    12.8225    70.9367
  225.0000  -999.2500   -62.9783    13.6056    12.8610    71.1055
  225.5000  -999.2500   -63.1179    13.6862    12.8970    71.2744
  226.0000  -999.2500   -63.2582    13.7667    12.9329    71.4438
  226.5000  -999.2500   -63.4012    13.8473    12.9694    71.6142
  227.0000  -999.2500   -63.4668    13.9279    13.0060    71.7803
  227.5000  -999.2500   -63.5294    14.0083    13.1675    71.4070
  228.0000  -999.2500   -63.5922    14.0888    13.4507    70.5628
  228.5000  -999.2500   -63.7360    14.1702    13.7342    69.7186
  229.0000  -999.2500   -63.9051    14.3161    14.0180    68.8744
  229.5000  -999.2500   -64.0745    14.5861    14.3017    68.0302
  230.0000  -999.2500   -64.2440    14.8542    14.5853    66.3951
  230.5000  -999.2500   -64.4137    15.1224    14.8690    64.5290
  231.0000  -999.2500   -64.5862    15.3905    15.1526    62.6628
  231.5000  -999.2500   -64.6170    15.6590    15.4363    60.8040
  232.0000  -999.2500   -64.6174    15.9256    15.7200    58.9733
  232.5000  -999.2500   -64.6178    16.2987    16.0036    57.1497
  233.0000  -999.2500   -64.6229    16.7315    16.2873    55.3262
  233.5000  -999.2500   -64.3975    17.1656    16.5711    53.5027
  234.0000  -999.2500   -64.1326    17.5980    16.8555    51.7588
  234.5000  -999.2500   -63.8659    17.8139    17.1388    51.4945
  235.0000  -999.2500   -63.6021    17.7508    17.3457    51.2412
  235.5000  -999.2500   -63.4082    17.6908    17.2128    50.9879
  236.0000  -999.2500   -63.7026    17.6296    17.0678    50.7538
  236.5000  -999.2500   -64.3351    17.5672    16.9226    51.7442
  237.0000  -999.2500   -64.9630    17.4451    16.7779    52.6651
  237.5000  -999.2500   -65.5839    17.2546    16.6332    53.5861
  238.0000  -999.2500   -66.0484    17.0652    16.4884    54.5071
  238.5000  -999.2500   -66.0801    16.8751    16.3440    55.4281
  239.0000  -999.2500   -66.1225    16.6797    16.1990    56.3490
  239.5000  -999.2500   -66.1632    16.5463    16.0648    57.2700
  240.0000  -999.2500   -66.2012    16.4262    15.9372    58.1909
  240.5000  -999.2500   -66.1013    16.3067    15.8105    58.9958
  241.0000  -999.2500   -65.7113    16.1870    15.6839    59.5802
  241.5000  -999.2500   -65.3261    16.0673    15.5573    60.1647
  242.0000  -999.2500   -64.9404    15.9476    15.4306    60.7491
  242.5000  -999.2500   -64.5554    15.8279    15.3040    61.3336
  243.0000  -999.2500   -64.1680    15.7081    15.1775    61.8091
  243.5000  -999.2500   -63.9363    15.5888    15.0512    61.8091
  244.0000  -999.2500   -63.8032    15.4675    14.9230    61.8091
  244.5000  -999.2500   -63.6721    15.3536    14.7301    62.2231
  245.0000  -999.2500   -63.5415    14.8047    14.5282    64.4376
  245.5000  -999.2500   -63.4103    13.9723    13.9897    68.3340
  246.0000  -999.2500   -63.2769    13.1325    12.9551    72.1632
  246.5000  -999.2500   -63.0192    12.2939    11.9279    80.8409
  247.0000  -999.2500   -62.5721    11.4552    10.8984    90.3069
  247.5000  -999.2500   -61.7226    10.6158     9.8687    99.8116
  248.0000  -999.2500   -60.8787     9.9287     8.8402   109.3091
  248.5000  -999.2500   -60.0392     9.3745     7.8775   118.0904
  249.0000  -999.2500   -59.1982     8.7989     7.3774   128.3797
  249.5000  -999.2500   -58.6632     8.2564     6.8987   137.0094
  250.0000  -999.2500   -58.4458     7.8953     6.4076   143.3387
  250.5000  -999.2500   -58.2191     7.5687     6.4298   146.7466
  251.0000  -999.2500   -58.1657     7.4903     6.4908   147.9168
  251.5000  -999.2500   -58.1645     7.4661     6.5495   146.8709
  252.0000  -999.2500   -58.1700     7.4469     6.6073   145.8250
  252.5000  -999.2500   -58.2090     7.4792     6.6652   144.7791
  253.0000  -999.2500   -58.2481     7.5850     6.7236   143.7332
  253.5000  -999.2500   -58.2871     7.6167     6.7806   142.6872
  254.0000  -999.2500   -58.3260     7.6268     6.7336   142.6517
  254.5000  -999.2500   -58.3669     7.5603     6.6789   143.4605
  255.0000  -999.2500   -58.4415     7.4679     6.6245   144.2693
  255.5000  -999.2500   -58.5182     7.3599     6.5702   145.0782
  256.0000  -999.2500   -58.5360     7.2513     6.5171   145.8870
  256.5000  -999.2500   -58.4421     7.1914     6.5179   145.8513
  257.0000  -999.2500   -58.3499     7.1689     6.6171   144.8402
  257.5000  -999.2500   -58.2564     7.2535     6.7148   143.8291
  258.0000  -999.2500   -58.1720     7.3440     6.8128   142.8181
  258.5000  -999.2500   -58.3016     7.4339     6.9110   141.8070
  259.0000  -999.2500   -58.4411     7.5083     7.0084   140.7960
  259.5000  -999.2500   -58.5796     7.5582     7.0724   139.7849
  260.0000  -999.2500   -58.7197     7.5847     6.9897   138.7578
  260.5000  -999.2500   -58.7721     7.5748     6.9100   138.8738
  261.0000  -999.2500   -58.7563     7.5521     6.8307   140.4567
  261.5000  -999.2500   -58.3805     7.4728     6.7514   142.0580
  262.0000  -999.2500   -57.9964     7.3953     6.6721   143.6562
  262.5000  -999.2500   -57.6130     7.3188     6.5928   145.2526
