~VERSION INFORMATION
 VERS.                2.0:   CWLS LOG ASCII STANDARD - VERSION 2.0
 WRAP.                 NO:   ONE LINE PER DEPTH STEP
~WELL INFORMATION
#MNEM.UNIT      DATA TYPE    INFORMATION
#----------   ------------   ------------------------------
 STRT.F           31.0000:   START DEPTH
 STOP.F          590.0000:   STOP DEPTH
 STEP.F            0.1000:   STEP LENGTH
 NULL.          -999.2500:   NO VALUE
 COMP. LAWRENCE/ALLISON INC:   COMPANY
 WELL. NPR 3 73-61 SX #3-3:   WELL
 FLD .             TEAPOT:   FIELD
 LOC .       S3 T38N R78W:   LOCATION
 CNTY.            NATRONA:   COUNTY
 STAT.            WYOMING:   STATE
 CTRY. UNITED STATES OF AMERICA:   COUNTRY
 SRVC.           Gearhart:   SERVICE COMPANY
 DATE.        14-AUG-1988:   LOGDATE
 API .       490251124200:   API NUMBER
~CURVE INFORMATION
#MNEM.UNIT       API CODE    CURVE DESCRIPTION
#----------   ------------   ------------------------------
 DEPT.F                  :   
 GRR .GAPI   07 310 01 00:   GAMMA RAY
 RILD.OHMM   07 120 46 00:   INDUCTION LOG DEEP RESISTIVITY
 RILM.OHMM   07 120 44 00:   INDUCTION LOG MEDIUM RESISTIVITY
~PARAMETER INFORMATION
#MNEM.UNIT          VALUE    DESCRIPTION
#----------   ------------   ------------------------------
 PD  .                 GL:   PERMANENT DATUM
 EPD .F              5136:   ELEVATION PERMANENT DATUM
 LMF .                 KB:   LOG MEASURED FROM
 DAPD.F                10:   FEET ABOVE PERMANENT DATUM
 DMF .                 KB:   DRILLING MEASURED FROM
 EKB .F              5146:   KELLING BUSHING
 EDF .F              5144:   DRILLING FLOOR
 EGL .F              5136:   GROUND LEVEL
 DATE.        14-AUG-1988:   RUN DATE
 RUN .                  1:   RUN NUMBER
 DD  .F               597:   DEPTH DRILLER
 DL  .F               598:   DEPTH LOGGER
 BLI .F               590:   BOTTOM LOG INTERVAL
 TLI .F                50:   TOP LOG INTERVAL
 CS  .IN            9.625:   CASING SIZE
 CBD .F                50:   CASING BOTTOM DRILLER
 CBL .F                50:   CASING BOTTOM LOGGER
 BS  .IN             8.75:   BIT SIZE
 BSD .F               597:   BIT SIZE AT DEPTH
 DFT .                AIR:   DRILLING FLUID TYPE
 TCS .HRS            1930:   TIME CURCULATED STOPPED
 TLAB.HRS            2030:   TIME LOGGER AT BOTTOM
 MRT .F                70:   MAXIMUM RECORDED TEMPERATURE
 LUN .               7597:   LOGGING UNIT NUMBER
 LUL .           GILLETTE:   LOGGING UNIT LOCATION
 ENGI.         WEATHERMON:   RECORDING ENGINEER
 WITN.             STRONG:   WITNESSED BY
 CLNT.            A2DTECH:   CLIENT CODE
 ORIG.           5" PRINT:   ORIGIN OF DATA
 UWI .       490251124200:   UNIQUE WELL ID
 DICO. A2D Technologies, Inc.:   DIGITIZING COMPANY
~OTHER INFORMATION
~A   DEPT       GRR      RILD       RILM   
# ...
  231.2000   103.2717    11.9925    11.7455
  231.3000   103.0223    11.9534    11.6803
  231.4000   102.7615    11.9076    11.6624
  231.5000   102.5236    11.9066    11.6241
  231.6000   102.4653    11.9056    11.5799
  231.7000   102.3272    11.8388    11.5682
  231.8000   102.0778    11.8214    11.4979
  231.9000   101.8285    11.8204    11.4970
  232.0000   101.5711    11.8194    11.4452
  232.1000   101.3297    11.7367    11.4156
  232.2000   101.2749    11.7358    11.3901
  232.3000   101.1331    11.7348    11.3234
  232.4000   100.9788    11.6812    11.2555
  232.5000   100.9364    11.6518    11.2546
  232.6000   100.6828    11.6508    11.2030
  232.7000   100.6858    11.6374    11.1750
  232.8000   100.6888    11.5683    11.1492
  232.9000   100.6919    11.5674    11.0959
  233.0000   100.7935    11.5664    11.0950
  233.1000   101.0490    11.5258    11.0305
  233.2000   101.3051    11.4845    11.0165
  233.3000   101.5598    11.4836    10.9775
  233.4000   102.0171    11.4825    10.9132
  233.5000   102.3726    11.4022    10.8492
  233.6000   103.1317    11.4014    10.7860
  233.7000   103.4356    11.3605    10.7850
  233.8000   103.6423    11.3207    10.7338
  233.9000   104.0521    11.3198    10.7088
  234.0000   104.5599    11.3177    10.6823
  234.1000   105.0127    11.2395    10.6330
  234.2000   105.2682    11.2387    10.6308
  234.3000   105.5685    11.2378    10.5576
  234.4000   105.7789    11.2093    10.5569
  234.5000   106.0342    11.1583    10.5179
  234.6000   106.1813    11.1554    10.4822
  234.7000   106.2429    11.0791    10.4673
  234.8000   106.4894    11.0783    10.4059
  234.9000   106.4929    11.0774    10.3351
  235.0000   106.4955    11.0484    10.3343
  235.1000   106.6603    10.9991    10.2952
  235.2000   106.6916    10.9953    10.2612
  235.3000   106.5045    10.9211    10.2604
  235.4000   106.5075    10.9203    10.2595
  235.5000   106.5110    10.9194    10.2585
  235.6000   106.5136    10.8899    10.2578
  235.7000   106.3513    10.8422    10.2570
  235.8000   106.2175    10.8376    10.2561
  235.9000   106.1546    10.7653    10.2398
  236.0000   105.9054    10.7645    10.1835
  236.1000   105.6228    10.7636    10.1825
  236.2000   105.4066    10.7336    10.1818
  236.3000   105.1574    10.6875    10.1809
  236.4000   104.7890    10.6820    10.1801
  236.5000   104.2872    10.6117    10.1793
  236.6000   103.8050    10.6109    10.1784
  236.7000   103.5260    10.5684    10.1775
  236.8000   102.8616    10.5358    10.1250
  236.9000   101.7622    10.5349    10.1055
  237.0000   100.7491    10.5287    10.1047
  237.1000    99.9219    10.4603    10.0869
  237.2000    98.9394    10.4596    10.0332
  237.3000    98.1061    10.4587    10.0323
  237.4000    97.6570    10.4578    10.0316
  237.5000    97.3313    10.4389    10.0307
  237.6000    97.0820    10.3838    10.0009
  237.7000    96.9093    10.3828     9.9597
  237.8000    96.9394    10.3820     9.9589
  237.9000    97.2178    10.3387     9.9580
  238.0000    97.4502    10.3086     9.9049
  238.1000    97.7056    10.3077     9.8876
  238.2000    97.8308    10.3069     9.8868
  238.3000    97.9944    10.3059     9.8678
  238.4000    98.5022    10.2505     9.8168
  238.5000    99.0486    10.2331     9.8159
  238.6000    99.2846    10.2322     9.8151
  238.7000    99.7235    10.2313     9.8144
  238.8000   100.0975    10.2305     9.7835
  238.9000   100.4370    10.2296     9.7449
  239.0000   100.9447    10.2288     9.7441
  239.1000   101.4836    10.2280     9.7432
  239.2000   101.7231    10.2271     9.6897
  239.3000   102.1656    10.2061     9.6743
  239.4000   102.6734    10.1548     9.6735
  239.5000   103.1812    10.1538     9.6727
  239.6000   103.6511    10.1530     9.6719
  239.7000   103.9186    10.1522     9.6711
  239.8000   104.4025    10.1513     9.6703
  239.9000   104.9103    10.1505     9.6695
  240.0000   105.5592    10.1497     9.6687
  240.1000   106.3192    10.1488     9.6679
  240.2000   107.0789    10.1480     9.6671
  240.3000   107.8641    10.1472     9.6662
  240.4000   108.5992    10.1463     9.6655
  240.5000   109.5538    10.1455     9.6647
  240.6000   110.2772    10.1446     9.6639
  240.7000   110.7850    10.1437     9.6631
  240.8000   111.2928    10.1429     9.6623
  240.9000   111.8097    10.1420     9.6614
  241.0000   112.3080    10.1412     9.6607
  241.1000   112.6178    10.1404     9.6598
  241.2000   112.5769    10.1395     9.6590
  241.3000   112.4260    10.1387     9.6801
  241.4000   112.2829    10.1379     9.7248
  241.5000   111.5257    10.1370     9.7238
  241.6000   110.7746    10.1362     9.7231
  241.7000   110.0204    10.1589     9.7222
  241.8000   109.2662    10.2050     9.7554
  241.9000   108.4099    10.2042     9.7883
  242.0000   107.5084    10.2031     9.7874
  242.1000   107.0071    10.2024     9.7866
  242.2000   106.4114    10.2016     9.7856
  242.3000   106.0035    10.2008     9.7850
  242.4000   105.3462    10.1999     9.7842
  242.5000   104.5921    10.1991     9.7833
  242.6000   103.7820    10.1981     9.7951
  242.7000   102.7753    10.1973     9.8498
  242.8000   101.5957    10.1965     9.8488
  242.9000   101.1806    10.1956     9.8482
  243.0000   100.8380    10.1948     9.8474
  243.1000   100.8072    10.1940     9.8465
  243.2000   101.1221    10.1930     9.8457
  243.3000   101.6202    10.1923     9.8471
  243.4000   101.9159    10.1915     9.9124
  243.5000   102.3434    10.1906     9.9118
  243.6000   102.6885    10.1897     9.9110
  243.7000   102.8308    10.1889     9.9101
  243.8000   102.8971    10.1879     9.9093
  243.9000   103.1523    10.1872     9.9085
  244.0000   103.4445    10.1864     9.9075
  244.1000   103.4471    10.1855     9.9068
  244.2000   103.2839    10.1847     9.8683
  244.3000   103.0345    10.1837     9.8367
  244.4000   102.7851    10.1828     9.8208
  244.5000   102.5186    10.1821     9.7670
  244.6000   101.9521    10.1812     9.7662
  244.7000   101.7351    10.1804     9.7655
  244.8000   101.3159    10.1796     9.7267
  244.9000   100.9342    10.1742     9.6963
  245.0000   100.6848    10.1074     9.6956
  245.1000   100.4559    10.1067     9.6901
  245.2000   100.4596    10.1058     9.6268
  245.3000   100.2389    10.1050     9.6261
  245.4000   100.1632    10.0873     9.6253
  245.5000   100.0423    10.0335     9.5972
  245.6000    99.8671    10.0326     9.5572
  245.7000    99.8945    10.0319     9.5511
  245.8000   100.1755     9.9906     9.4895
  245.9000   100.1782     9.9608     9.4888
  246.0000   100.3585     9.9425     9.4495
  246.1000   100.4864     9.8903     9.4216
  246.2000   100.5672     9.8894     9.4041
  246.3000   100.8506     9.8368     9.3497
  246.4000   101.4021     9.7792     9.3020
  246.5000   101.6355     9.7509     9.2543
  246.6000   101.8909     9.7321     9.2066
  246.7000   102.2774     9.6818     9.1589
  246.8000   102.7849     9.6810     9.1111
  246.9000   103.2927     9.6286     9.0634
  247.0000   103.8371     9.5722     9.0157
  247.1000   104.0741     9.5161     8.9680
  247.2000   104.3295     9.4785     8.9203
  247.3000   104.7197     9.4703     8.8726
  247.4000   105.1425     9.4114     8.8249
  247.5000   105.3979     9.3597     8.7772
  247.6000   105.6678     9.3049     8.7294
  247.7000   106.1467     9.2504     8.6817
  247.8000   106.4661     9.1962     8.6340
  247.9000   106.7214     9.1345     8.5863
  248.0000   106.9768     9.0233     8.5363
  248.1000   107.1934     8.9730     8.4887
  248.2000   107.1965     8.9204     8.4389
  248.3000   107.4409     8.8397     8.3895
  248.4000   107.5045     8.7553     8.3403
  248.5000   107.5076     8.7039     8.2836
  248.6000   107.5106     8.6512     8.1843
  248.7000   107.5136     8.6506     8.1380
  248.8000   107.5167     8.6114     8.1264
  248.9000   107.7647     8.5609     8.0989
  249.0000   107.8248     8.5292     8.0514
  249.1000   107.8278     8.5197     8.0042
  249.2000   107.8308     8.4689     7.9564
  249.3000   107.8338     8.4682     7.9557
