~VERSION INFORMATION
 VERS.                2.0:   CWLS LOG ASCII STANDARD - VERSION 2.0
 WRAP.                 NO:   ONE LINE PER DEPTH STEP
~WELL INFORMATION
#MNEM.UNIT      DATA TYPE    INFORMATION
#----------   ------------   ------------------------------
 STRT.F           30.0000:   START DEPTH
 STOP.F          750.0000:   STOP DEPTH
 STEP.F            0.5000:   STEP LENGTH
 NULL.          -999.2500:   NO VALUE
 COMP. FENIX & SCISSON INC:   COMPANY
 WELL. TEAPOT DOME SX #38-11:   WELL
 FLD .             TEAPOT:   FIELD
 LOC .      S11 T38N R78W:   LOCATION
 CNTY.            NATRONA:   COUNTY
 STAT.            WYOMING:   STATE
 CTRY. UNITED STATES OF AMERICA:   COUNTRY
 SRVC.            Unknown:   SERVICE COMPANY
 DATE.        23-FEB-1978:   LOGDATE
 API .       490251058200:   API NUMBER
~CURVE INFORMATION
#MNEM.UNIT       API CODE    CURVE DESCRIPTION
#----------   ------------   ------------------------------
 DEPT.F                  :   
 CALD.IN     45 280 60 00:   CALIPER FROM DENSITY LOG
 GRD .GAPI   45 310 01 00:   GAMMA RAY FROM DENSITY LOG
 RHOB.G/C3   45 350 01 00:   BULK DENSITY
 DPHI.DEC    45 890 12 00:   DENSITY POROSITY SANDSTONE
 CORR.G/C3   45 356 01 00:   DENSITY CORRECTION
 SPR .MV     07 010 01 00:   SPONTANEOUS POTENTIAL FROM RES. LOG
 SN  .OHMM   07 040 16 00:   SHORT NORMAL 16'
 ILD .OHMM   07 120 46 00:   INDUCTION LOG DEEP
~PARAMETER INFORMATION
#MNEM.UNIT          VALUE    DESCRIPTION
#----------   ------------   ------------------------------
 PD  .                 GL:   PERMANENT DATUM
 EPD .F              5204:   ELEVATION PERMANENT DATUM
 LMF .                 KB:   LOG MEASURED FROM
 DAPD.F                 4:   FEET ABOVE PERMANENT DATUM
 DMF .                 KB:   DRILLING MEASURED FROM
 EKB .F              5208:   KELLING BUSHING
 EGL .F              5204:   GROUND LEVEL
 DATE.            2-23-78:   RUN DATE
 RUN .                  1:   RUN NUMBER
 DD  .F               755:   DEPTH DRILLER
 DL  .F               751:   DEPTH LOGGER
 BLI .F               745:   BOTTOM LOG INTERVAL
 TLI .F                45:   TOP LOG INTERVAL
 CS  .IN            8.625:   CASING SIZE
 CBD .F                40:   CASING BOTTOM DRILLER
 CBL .F                40:   CASING BOTTOM LOGGER
 BS  .IN            7.875:   BIT SIZE
 BSD .F               755:   BIT SIZE AT DEPTH
 DFT .         LIGNO SULF:   DRILLING FLUID TYPE
 DFD .                8.7:   DRILLING FLUID DENSITY
 DFV .                 33:   DRILLING FLUID VISCOSITY
 DFPH.                 10:   DRILLING FLUID PH
 DFL .                  4:   DRILLING FLUID LOSS
 MSS .          FLOW LINE:   MUD SAMPLE SOURCE
 RMS .OHMM              2:   RESISTIVITY MUD SAMPLE
 MST .F                60:   MUD SAMPLE TEMPERATURE
 RMF .OHMM            1.9:   RESISTIVITY MUD FILTRATE SAMPLE
 MFST.F                62:   MUD FILTRATE SAMPLE TEMPERATURE
 RMC .OHMM            3.5:   RESISTIVITY MUD CAKE
 MCST.F                60:   MUD CAKE SAMPLE TEMPERATURE
 MFSS.               MEAS:   MUD FILTRATE SAMPLE SOURCE
 MCSS.               MEAS:   MUD CAKE SAMPLE SOURCE
 RMB .OHMM           1.69:   RESISTIVITY MUD AT BHT
 BHT .F                71:   BOTTOM HOLE TEMPERATURE
 TCS .HRS               3:   TIME CURCULATED STOPPED
 MRT .F                71:   MAXIMUM RECORDED TEMPERATURE
 LUN .               2958:   LOGGING UNIT NUMBER
 LUL .               CASP:   LOGGING UNIT LOCATION
 ENGI.            POINTER:   RECORDING ENGINEER
 WITN.           MCGINLEY:   WITNESSED BY
 CLNT.            A2DTECH:   CLIENT CODE
 ORIG.       2", 5" PRINT:   ORIGIN OF DATA
 UWI .       490251058200:   UNIQUE WELL ID
 DICO. A2D Technologies, Inc.:   DIGITIZING COMPANY
~OTHER INFORMATION
~A   DEPT     CALD         GRD      RHOB       DPHI       CORR        SPR         SN        ILD   
   30.0000  -999.2500    80.8549  -999.2500  -999.2500  -999.2500  -999.2500  -999.2500  -999.2500
   30.5000  -999.2500    80.8549  -999.2500  -999.2500  -999.2500  -999.2500  -999.2500  -999.2500
   31.0000  -999.2500    80.8549  -999.2500  -999.2500  -999.2500  -999.2500  -999.2500  -999.2500
   31.5000  -999.2500    80.8549  -999.2500  -999.2500  -999.2500  -999.2500  -999.2500  -999.2500
   32.0000  -999.2500    80.8559  -999.2500  -999.2500  -999.2500  -999.2500  -999.2500  -999.2500
   32.5000  -999.2500    80.9579  -999.2500  -999.2500  -999.2500  -999.2500  -999.2500  -999.2500
   33.0000  -999.2500    81.1862  -999.2500  -999.2500  -999.2500  -999.2500  -999.2500  -999.2500
   33.5000  -999.2500    81.4151  -999.2500  -999.2500  -999.2500  -999.2500  -999.2500  -999.2500
   34.0000  -999.2500    81.4097  -999.2500  -999.2500  -999.2500  -999.2500  -999.2500  -999.2500
   34.5000  -999.2500    81.3636  -999.2500  -999.2500  -999.2500  -999.2500  -999.2500  -999.2500
   35.0000  -999.2500    81.3106  -999.2500  -999.2500  -999.2500  -999.2500  -999.2500  -999.2500
   35.5000  -999.2500    81.2200  -999.2500  -999.2500  -999.2500  -999.2500  -999.2500  -999.2500
   36.0000  -999.2500    82.6516  -999.2500  -999.2500  -999.2500  -999.2500  -999.2500  -999.2500
   36.5000  -999.2500    84.3628  -999.2500  -999.2500  -999.2500  -999.2500  -999.2500  -999.2500
   37.0000  -999.2500    84.5763  -999.2500  -999.2500  -999.2500  -999.2500  -999.2500  -999.2500
   37.5000  -999.2500    84.9374  -999.2500  -999.2500  -999.2500  -999.2500  -999.2500  -999.2500
   38.0000  -999.2500    91.3211  -999.2500  -999.2500  -999.2500  -999.2500  -999.2500  -999.2500
   38.5000  -999.2500    93.1284  -999.2500  -999.2500  -999.2500  -999.2500  -999.2500  -999.2500
   39.0000  -999.2500    91.7636  -999.2500  -999.2500  -999.2500  -999.2500  -999.2500  -999.2500
   39.5000  -999.2500    89.0726  -999.2500  -999.2500  -999.2500  -999.2500  -999.2500  -999.2500
   40.0000  -999.2500    86.3742  -999.2500  -999.2500  -999.2500   -40.6250     0.2203     1.2492
   40.5000     8.0400    82.3226  -999.2500  -999.2500    -0.6446   -40.6250     0.2203     1.2492
   41.0000     8.0517    76.8434  -999.2500  -999.2500    -0.6029   -40.6250     0.2203     1.2492
   41.5000     8.0953    69.9588  -999.2500  -999.2500    -0.5612   -40.6250     0.2204     1.2530
   42.0000     8.1554    82.7649  -999.2500  -999.2500    -0.3419   -40.6250     0.2203     1.2492
   42.5000     8.2010    75.1172  -999.2500  -999.2500    -0.1456   -40.6225     0.2203     1.2492
   43.0000     8.2608    92.2902  -999.2500  -999.2500     0.1393   -40.6223     0.2202     1.2492
   43.5000     8.2950    78.1358  -999.2500  -999.2500     0.2196   -40.6459     0.2200     1.2492
   44.0000     8.3168    86.0526  -999.2500  -999.2500     0.1485   -41.9133     0.2197     1.2492
   44.5000     8.5094    87.3339  -999.2500  -999.2500     0.0625   -46.9957     0.8832     1.2480
   45.0000     8.7075    71.6734  -999.2500  -999.2500     0.1123   -51.1172     2.6995     1.2492
   45.5000     8.9045    77.1696  -999.2500  -999.2500     0.1790   -15.1849     3.6136     1.7012
   46.0000     9.1013    84.9462  -999.2500  -999.2500     0.2098   -18.7935     3.8414     2.1532
   46.5000     9.2998    71.7288  -999.2500  -999.2500     0.1213   -20.3103     3.9817     2.2248
   47.0000     9.4092    82.1272  -999.2500  -999.2500     0.1416   -21.1754     4.1272     2.3751
   47.5000     9.4887    74.9762  -999.2500  -999.2500     0.1719   -21.8608     4.2780     2.5307
   48.0000    10.0763    86.8036  -999.2500  -999.2500     0.1164   -22.1472     4.4347     3.3639
   48.5000     9.6088    66.6428  -999.2500  -999.2500     0.1075   -22.4275     4.5683     4.1118
   49.0000     9.7046    74.3616  -999.2500  -999.2500     0.2941   -22.8868     4.6895     2.4601
   49.5000     9.7418    84.9956  -999.2500  -999.2500     0.2811   -24.5221     4.8370     2.8631
   50.0000     9.6481    74.9128  -999.2500  -999.2500     0.1521   -26.1797     4.9889     3.1436
   50.5000     9.2141    82.6651  -999.2500  -999.2500     0.2264   -24.0404     5.1455     3.1436
   51.0000     8.7903    87.7128  -999.2500  -999.2500     0.3606   -24.6082     5.3251     3.1436
   51.5000     8.2042    79.1116     2.1864     0.2621     0.3643   -25.1957     5.5282     3.1727
   52.0000     9.2146    85.7547     2.3421     0.2193     0.2464   -24.2465     5.8339     3.3036
   52.5000     9.8818    96.4907     2.3421     0.2221     0.1413   -23.2840     5.7339     3.4484
   53.0000     9.0728    97.5874     2.2827     0.2243     0.0630   -22.8653     5.5585     3.8750
   53.5000    10.1831    98.9460     2.2725     0.2253     0.0496   -22.7211     5.4219     5.0253
   54.0000     8.4347    99.1313     2.2837     0.2233     0.0347   -22.8452     6.4103     5.6225
   54.5000     8.7915    99.6079     2.2853     0.2324     0.0194   -22.9635     5.5304     5.6746
   55.0000     8.5710   100.1441     2.2699     0.2430     0.0051   -23.0823     5.6755     3.2624
   55.5000     8.5320   100.4004     2.2647     0.2537     0.0000   -23.2010     5.8564     3.1971
   56.0000     8.4659   100.5103     2.2536     0.2644    -0.0026   -23.3196     6.0533     3.1061
   56.5000     8.4057   101.2419     2.2329     0.2779    -0.0016   -23.4383     5.9040     2.9740
   57.0000     8.3700   102.9186     2.2123     0.2731     0.0007   -23.5570     5.7803     2.8450
   57.5000     8.3701   103.9003     2.1916     0.2635     0.0014   -23.6735     5.7803     2.6861
   58.0000     8.3587   103.1307     2.1710     0.2538     0.0412   -23.7535     5.7803     2.6863
   58.5000     8.3416    99.0462     2.1629     0.2442     0.0879   -23.8260     5.7803     2.7806
   59.0000     8.1659    94.9066     2.2078     0.2345     0.1226   -23.9266     5.8312     2.9141
   59.5000     8.3955    88.2443     2.2791     0.1695     0.1414   -24.2151     6.1824     3.0028
   60.0000     8.7686    88.6151     2.3229     0.1329     0.1749   -24.5073     6.3392     2.9999
   60.5000     8.0414    90.3020     2.4197     0.1126     0.1190   -24.7990     6.1056     3.0296
   61.0000     8.6447    93.8650     2.4658     0.1406     0.0471   -25.0904     6.7065     3.3695
   61.5000     9.3090    98.7444     2.4179     0.1699     0.0143   -25.3819     7.1535     3.7289
   62.0000     8.1555   101.6686     2.3705     0.1807     0.0157   -25.6734     6.4304     4.1122
   62.5000     8.0852   100.5488     2.3527     0.1767     0.0189   -25.9649     5.7922     4.3421
   63.0000     8.2110    98.5036     2.3559     0.1727     0.0209   -26.2564     5.2213     4.3232
   63.5000     8.3299    97.3755     2.3594     0.1719     0.0172   -26.5490     4.8956     4.3102
   64.0000     8.3317    97.3606     2.3630     0.1831     0.0132   -26.8439     4.8506     4.2972
   64.5000     8.3423    97.8148     2.3603     0.1949     0.0092   -27.0926     4.8506     4.2843
   65.0000     8.3324    98.3123     2.3392     0.2068     0.0132   -26.6470     4.8506     4.2714
   65.5000     8.2947    99.1724     2.3169     0.2197     0.0177   -26.2975     4.7716     4.2225
   66.0000     8.2706   101.8136     2.2887     0.2261     0.0210   -26.5318     4.6251     4.1026
   66.5000     8.2719   104.9834     2.2817     0.2331     0.0194   -26.7876     4.4830     3.9862
   67.0000     8.2409   108.1463     2.2685     0.2409     0.0139   -27.0552     4.2144     3.7081
   67.5000     8.0944   110.0654     2.2545     0.2486     0.0020   -27.0642     3.8707     3.3039
   68.0000     8.5937   111.8235     2.2093     0.2564    -0.0007   -26.9917     3.5550     2.9438
   68.5000     8.3091   113.5869     2.1710     0.2636     0.0387   -26.9205     3.2651     2.7698
   69.0000     8.4196   115.0720     2.1728     0.2442     0.0834   -27.0615     3.0577     2.6987
   69.5000     8.7686   115.0030     2.2272     0.2216     0.1179   -27.2239     3.0303     2.6871
   70.0000     8.1358   112.0548     2.3263     0.1991     0.0832   -27.6194     3.0272     2.7234
