~VERSION INFORMATION
 VERS.                2.0:   CWLS LOG ASCII STANDARD - VERSION 2.0
 WRAP.                 NO:   ONE LINE PER DEPTH STEP
~WELL INFORMATION
#MNEM.UNIT      DATA TYPE    INFORMATION
#----------   ------------   ------------------------------
 STRT.F           30.0000:   START DEPTH
 STOP.F         2423.0000:   STOP DEPTH
 STEP.F            0.5000:   STEP LENGTH
 NULL.          -999.2500:   NO VALUE
 COMP. DEPARTMENT OF ENERGY:   COMPANY
 WELL.   NPR-3 #35-1 X 10:   WELL
 FLD .        TEAPOT DOME:   FIELD
 LOC .      S10 T38N R78W:   LOCATION
 CNTY.            NATRONA:   COUNTY
 STAT.            WYOMING:   STATE
 CTRY. UNITED STATES OF AMERICA:   COUNTRY
 SRVC.       Schlumberger:   SERVICE COMPANY
 DATE.        15-JAN-1999:   LOGDATE
 API .       490252282200:   API NUMBER
~CURVE INFORMATION
#MNEM.UNIT       API CODE    CURVE DESCRIPTION
#----------   ------------   ------------------------------
 DEPT.F                  :   
 GRR .GAPI   06 310 01 00:   GAMMA RAY FROM RESISTIVITY
 SPR .MV     06 010 01 00:   SPONTANEOUS POTENTIAL FROM RES.
 HD  .IN     06 280 01 00:   HOLE DIAMETER
 AT90.OHMM   06 120 90 00:   90-IN. RESISTIVITY, 2-FT RESOLUTION
 AT30.OHMM   06 120 30 00:   30-IN. RESISTIVITY, 2-FT RESOLUTION
 AT10.OHMM   06 120 10 00:   10-IN. RESISTIVITY, 2-FT RESOLUTION
~PARAMETER INFORMATION
#MNEM.UNIT          VALUE    DESCRIPTION
#----------   ------------   ------------------------------
 PD  .                 GL:   PERMANENT DATUM
 EPD .F              5228:   ELEVATION PERMANENT DATUM
 LMF .                 KB:   LOG MEASURED FROM
 DAPD.F                10:   FEET ABOVE PERMANENT DATUM
 DMF .                 KB:   DRILLING MEASURED FROM
 EKB .F              5238:   KELLING BUSHING
 EDF .F              5237:   DRILLING FLOOR
 EGL .F              5228:   GROUND LEVEL
 DATE.        15-JAN-1999:   RUN DATE
 RUN .                  1:   RUN NUMBER
 DD  .F              2400:   DEPTH DRILLER
 DL  .F              2421:   DEPTH LOGGER
 BLI .F              2393:   BOTTOM LOG INTERVAL
 TLI .F                30:   TOP LOG INTERVAL
 CS  .IN            9.625:   CASING SIZE
 CBD .F               778:   CASING BOTTOM DRILLER
 CBL .F               773:   CASING BOTTOM LOGGER
 BS  .IN              8.5:   BIT SIZE
 BSD .F              2400:   BIT SIZE AT DEPTH
 DFT .            GEL/KCL:   DRILLING FLUID TYPE
 DFD .                8.9:   DRILLING FLUID DENSITY
 DFV .                 39:   DRILLING FLUID VISCOSITY
 DFPH.                  9:   DRILLING FLUID PH
 DFL .                8.8:   DRILLING FLUID LOSS
 MSS .            MUD PIT:   MUD SAMPLE SOURCE
 RMS .OHMM            .29:   RESISTIVITY MUD SAMPLE
 MST .F                65:   MUD SAMPLE TEMPERATURE
 RMF .OHMM            .22:   RESISTIVITY MUD FILTRATE SAMPLE
 MFST.F                65:   MUD FILTRATE SAMPLE TEMPERATURE
 RMC .OHMM            .43:   RESISTIVITY MUD CAKE
 MCST.F                65:   MUD CAKE SAMPLE TEMPERATURE
 MFSS.          MUD PRESS:   MUD FILTRATE SAMPLE SOURCE
 MCSS.         CALCULATED:   MUD CAKE SAMPLE SOURCE
 RMB .OHMM           .195:   RESISTIVITY MUD AT BHT
 BHT .F               100:   BOTTOM HOLE TEMPERATURE
 TCS .HRS            2015:   TIME CURCULATED STOPPED
 TLAB.HRS            2315:   TIME LOGGER AT BOTTOM
 MRT .F               100:   MAXIMUM RECORDED TEMPERATURE
 LUN .               2102:   LOGGING UNIT NUMBER
 LUL .             CASPER:   LOGGING UNIT LOCATION
 ENGI.    TISOVEC/PIERSON:   RECORDING ENGINEER
 WITN.           ESMERSON:   WITNESSED BY
 CLNT.            A2DTECH:   CLIENT CODE
 ORIG.       2", 5" PRINT:   ORIGIN OF DATA
 UWI .       490252282200:   UNIQUE WELL ID
 DICO. A2D Technologies, Inc.:   DIGITIZING COMPANY
~OTHER INFORMATION
~A   DEPT       GRR       SPR         HD       AT90       AT30       AT10   
# ...
 1954.0000   134.9282   -11.7039     8.4401     8.5953     8.1432     7.4065
 1954.5000   136.9098   -11.8284     8.4428     8.1338     7.8376     7.4192
 1955.0000   140.1020   -11.9534     8.4454     8.7139     8.2401     8.0675
 1955.5000   142.9271   -12.0793     8.4483     9.7013     9.2617     8.6313
 1956.0000   143.3122   -12.2022     8.4507     9.6060     9.2047     8.9243
 1956.5000   140.9693   -12.3327     8.4539     9.4232     9.0914     8.7603
 1957.0000   140.0454   -12.4157     8.4519     9.3480     9.0305     8.7911
 1957.5000   139.3569   -12.3391     8.4459     9.3480     8.9270     8.8420
 1958.0000   140.6543   -12.2548     8.4410     9.1799     8.8247     8.6510
 1958.5000   143.0791   -12.1710     8.4357     9.0075     8.7235     8.4711
 1959.0000   145.3548   -12.0843     8.4342     9.0075     8.5993     8.2861
 1959.5000   144.3169   -12.0219     8.4344     9.1949     8.8460     8.5307
 1960.0000   141.5624   -12.0195     8.4343     9.8676     9.1762     8.9243
 1960.5000   140.6118   -12.0196     8.4343     9.1773     8.8525     8.6841
 1961.0000   142.2027   -12.0179     8.4343     8.9176     8.5460     8.4019
 1961.5000   143.6318   -12.0213     8.4343     8.9283     8.2861     8.1289
 1962.0000   143.4260   -12.0135     8.4343     8.4420     8.3147     8.0054
 1962.5000   143.4211   -12.0744     8.4343     8.5610     8.3455     7.9336
 1963.0000   145.8753   -12.2176     8.4343     8.6806     8.3633     7.8376
 1963.5000   150.5968   -12.3515     8.4343     8.5199     8.1338     7.8744
 1964.0000   149.8302   -12.4902     8.4343     8.5511     8.1819     7.9559
 1964.5000   143.3202   -12.6275     8.4343     8.6316     8.2861     8.0378
 1965.0000   137.6897   -12.7630     8.4343     8.5379     8.1716     7.9965
 1965.5000   139.1358   -12.9043     8.4343     8.3535     8.0220     7.9146
 1966.0000   140.7969   -13.0338     8.4343     8.2861     7.9106     7.8376
 1966.5000   142.8057   -13.1860     8.4343     8.5199     8.0719     7.9350
 1967.0000   143.5145   -13.1771     8.4343     8.5083     8.2098     8.0587
 1967.5000   143.4906   -12.9886     8.4343     8.4712     8.2080     8.0727
 1968.0000   143.4442   -12.8217     8.4343     8.4413     8.2713     8.1129
 1968.5000   143.5703   -12.6404     8.4343     8.7433     8.4407     8.1533
 1969.0000   141.5067   -12.4703     8.4343     9.0057     8.6140     8.1939
 1969.5000   137.9739   -12.2893     8.4343     9.0949     8.7909     8.2348
 1970.0000   134.9617   -12.1209     8.4343     9.1067     8.8601     8.2758
 1970.5000   137.2686   -11.8490     8.4343     9.1186     8.8853     8.3975
 1971.0000   142.1324   -11.6626     8.4343     9.1308     8.9101     8.6017
 1971.5000   140.1844   -11.6382     8.4343     9.1423     8.9353     8.7072
 1972.0000   134.8969   -11.7027     8.4343     9.1539     8.9606     8.7718
 1972.5000   129.8500   -11.7562     8.4343     9.1660     8.9859     8.8420
 1973.0000   128.1284   -11.8149     8.4343     9.1772     9.0075     8.9198
 1973.5000   130.9753   -11.8714     8.4343     9.1760     9.1329     9.0276
 1974.0000   134.7374   -11.9274     8.4343     9.6086     9.2617     9.0914
 1974.5000   139.9133   -11.9882     8.4343     9.4687     9.2617     9.0075
 1975.0000   145.5430   -12.0347     8.4343     9.1422     8.8831     8.6954
 1975.5000   149.3984   -12.0610     8.4343     8.8313     8.5406     8.3442
 1976.0000   149.2624   -12.0931     8.4343     8.5311     8.2114     8.0070
 1976.5000   148.4814   -12.1212     8.4343     8.1338     7.8376     7.6165
 1977.0000   143.0339   -12.1537     8.4343     8.2925     8.0395     7.7709
 1977.5000   137.8112   -12.1798     8.4343     8.5544     8.2946     8.0120
 1978.0000   131.6808   -12.2167     8.4343     8.8245     8.5577     8.1598
 1978.5000   132.3342   -12.1816     8.4343     9.0914     8.8435     8.2103
 1979.0000   135.1545   -12.0973     8.4343     9.1332     8.8392     8.3660
 1979.5000   137.9203   -12.0256     8.4343     9.1772     8.9079     8.5331
 1980.0000   136.8988   -11.9496     8.4343     9.2214     8.9668     8.7036
 1980.5000   134.2388   -11.8731     8.4343     9.2617     9.0616     8.8619
 1981.0000   132.2356   -11.8187     8.4343     9.5660     9.2472     9.0153
 1981.5000   134.1974   -11.8194     8.4343     9.8143     9.4364     9.1762
 1982.0000   139.8866   -11.8087     8.4343    10.0680     9.7008     9.1655
 1982.5000   142.8277   -11.7812     8.4343    10.0484     9.6973     9.1545
 1983.0000   145.5255   -11.7536     8.4344    10.0243     9.6792     9.1435
 1983.5000   145.5287   -11.7257     8.4343    10.0002     9.6637     9.1325
 1984.0000   142.5166   -11.6980     8.4348     9.9763     9.6482     9.1216
 1984.5000   137.1718   -11.6707     8.4362     9.9523     9.6328     9.1106
 1985.0000   134.7408   -11.6413     8.4377     9.9284     9.6174     9.0997
 1985.5000   135.7586   -11.6298     8.4392     9.9046     9.5099     9.0335
 1986.0000   137.7937   -11.7752     8.4407     9.8830     9.3514     8.8028
 1986.5000   137.7544   -11.9389     8.4422     9.6710     9.2002     8.5199
 1987.0000   137.3450   -12.0999     8.4437     9.4373     9.0120     8.6632
 1987.5000   136.8094   -12.2640     8.4452     9.5765     9.1910     8.8613
 1988.0000   136.0976   -12.4067     8.4467     9.7590     9.4280     9.0639
 1988.5000   135.1911   -12.3445     8.4482     9.9447     9.7865     9.1762
 1989.0000   135.9912   -12.2567     8.4497    10.2517     9.7479     9.1376
 1989.5000   138.4367   -12.1728     8.4513    10.2142     9.6487     9.0938
 1990.0000   139.0526   -12.0865     8.4527    10.0704     9.5501     9.0502
 1990.5000   138.2444   -12.0027     8.4543     9.9240     9.4360     8.9307
 1991.0000   138.4525   -11.9152     8.4534     9.7917     9.5256     9.0630
 1991.5000   141.0848   -11.8159     8.4517     9.9076     9.6713     9.2989
 1992.0000   143.3482   -11.5179     8.4501    10.0445     9.8197     9.7037
 1992.5000   143.0735   -11.1744     8.4485    10.1618     9.9763     9.7016
 1993.0000   143.2527   -10.7936     8.4468    10.0375     9.8648     9.7031
 1993.5000   145.7680   -10.5837     8.4452     9.8781     9.6729     9.4779
 1994.0000   148.5984   -10.6144     8.4436     9.7211     9.4843     9.2944
 1994.5000   146.9371   -10.5941     8.4420     9.5667     9.3008     9.1154
 1995.0000   141.9204   -10.6513     8.4404     9.4147     9.1205     8.9397
 1995.5000   138.4715   -10.7925     8.4387     9.2617     9.0075     8.7628
 1996.0000   141.2415   -10.9388     8.4372     9.3867     9.0923     8.8528
 1996.5000   150.1398   -11.0827     8.4354     9.5164     9.1654     8.9454
 1997.0000   148.7622   -11.2318     8.4342     9.6480     9.2391     9.0389
 1997.5000   144.1851   -11.3656     8.4344     9.7917     9.3134     9.1746
 1998.0000   139.6001   -11.5105     8.4343     9.7563     9.3480     9.1587
 1998.5000   137.0224   -11.6809     8.4344     9.7078     9.2670     9.1229
 1999.0000   136.0817   -11.8152     8.4343     9.6597     9.1976     9.0871
 1999.5000   135.4825   -11.9861     8.4343     9.6116     9.1285     9.0516
 2000.0000   136.1068   -11.9092     8.4343     9.5633     9.0599     9.0161
 2000.5000   136.8865   -11.6787     8.4343     9.5218     8.9917     8.9809
 2001.0000   136.6033   -11.4906     8.4343     9.4025     8.9237     8.9458
 2001.5000   136.0105   -11.2872     8.4343     9.2989     8.8562     8.8844
 2002.0000   135.9261   -11.1405     8.4343     9.1973     8.7904     8.7842
 2002.5000   138.0943   -11.0236     8.4343     9.0957     8.7244     8.6853
 2003.0000   141.0096   -11.0638     8.4343     9.0075     8.6795     8.5878
 2003.5000   142.5563   -11.1349     8.4343     8.9959     8.6795     8.4915
 2004.0000   144.6038   -11.1980     8.4343     8.9856     8.6795     8.3962
 2004.5000   146.4353   -11.2557     8.4343     8.9753     8.6200     8.2873
 2005.0000   147.2059   -11.3670     8.4343     8.9650     8.5248     8.3411
 2005.5000   146.2431   -11.4742     8.4343     8.9548     8.4413     8.4048
