~VERSION INFORMATION
 VERS.                2.0:   CWLS LOG ASCII STANDARD - VERSION 2.0
 WRAP.                 NO:   ONE LINE PER DEPTH STEP
~WELL INFORMATION
#MNEM.UNIT      DATA TYPE    INFORMATION
#----------   ------------   ------------------------------
 STRT.F           20.0000:   START DEPTH
 STOP.F          500.0000:   STOP DEPTH
 STEP.F            0.5000:   STEP LENGTH
 NULL.          -999.2500:   NO VALUE
 COMP.    FENIX & SCISSON:   COMPANY
 WELL. RES 3 TEAPOT DOM #81SX10-10:   WELL
 FLD .             TEAPOT:   FIELD
 LOC .      S10 T38N R78W:   LOCATION
 CNTY.            NATRONA:   COUNTY
 STAT.            WYOMING:   STATE
 CTRY. UNITED STATES OF AMERICA:   COUNTRY
 SRVC.           BIRDWELL:   SERVICE COMPANY
 DATE.        22-NOV-1978:   LOGDATE
 API .       490251075100:   API NUMBER
~CURVE INFORMATION
#MNEM.UNIT       API CODE    CURVE DESCRIPTION
#----------   ------------   ------------------------------
 DEPT.F                  :   
 ILD .OHMM   05 120 46 00:   INDUCTION LOG DEEP
 SN  .OHMM   05 040 16 00:   SHORT NORMAL 16"
 SPR .MV     05 010 01 00:   SPONTANEOUS POTENTIAL FROM RES.
 CALD.IN     45 280 60 00:   CALIPER FROM DENSITY LOG
 CORR.G/C3   45 356 01 00:   DENSITY CORRECTION
 DPHI.DEC    45 890 10 00:   DENSITY POROSITY LIMESTONE
 GRD .GAPI   45 310 01 00:   GAMMA RAY FROM DENSITY LOG
 RHOB.G/C3   45 350 01 00:   BULK DENSITY
~PARAMETER INFORMATION
#MNEM.UNIT          VALUE    DESCRIPTION
#----------   ------------   ------------------------------
 PD  .                 GL:   PERMANENT DATUM
 EPD .F              5129:   ELEVATION PERMANENT DATUM
 LMF .                 KB:   LOG MEASURED FROM
 DAPD.F                 4:   FEET ABOVE PERMANENT DATUM
 DMF .                 KB:   DRILLING MEASURED FROM
 EKB .F              5133:   KELLING BUSHING
 EGL .F              5129:   GROUND LEVEL
 DATE.        22-NOV-1978:   RUN DATE
 RUN .                  1:   RUN NUMBER
 DD  .F               500:   DEPTH DRILLER
 DL  .F               500:   DEPTH LOGGER
 BLI .F               500:   BOTTOM LOG INTERVAL
 TLI .F                20:   TOP LOG INTERVAL
 CS  .IN            8.625:   CASING SIZE
 CBD .F                40:   CASING BOTTOM DRILLER
 CBL .F                40:   CASING BOTTOM LOGGER
 BS  .IN            7.875:   BIT SIZE
 BSD .F               500:   BIT SIZE AT DEPTH
 DFT .                KCL:   DRILLING FLUID TYPE
 DFD .                8.7:   DRILLING FLUID DENSITY
 DFV .                 36:   DRILLING FLUID VISCOSITY
 DFPH.               11.2:   DRILLING FLUID PH
 DFL .                 94:   DRILLING FLUID LOSS
 MSS .            MUD PIT:   MUD SAMPLE SOURCE
 RMS .OHMM           0.28:   RESISTIVITY MUD SAMPLE
 MST .F                62:   MUD SAMPLE TEMPERATURE
 RMF .OHMM           0.24:   RESISTIVITY MUD FILTRATE SAMPLE
 MFST.F                66:   MUD FILTRATE SAMPLE TEMPERATURE
 RMC .OHMM           0.31:   RESISTIVITY MUD CAKE
 MCST.F                66:   MUD CAKE SAMPLE TEMPERATURE
 MFSS.               MEAS:   MUD FILTRATE SAMPLE SOURCE
 MCSS.               MEAS:   MUD CAKE SAMPLE SOURCE
 RMB .OHMM            0.3:   RESISTIVITY MUD AT BHT
 BHT .F                58:   BOTTOM HOLE TEMPERATURE
 TCS .HRS               1:   TIME CURCULATED STOPPED
 MRT .F                58:   MAXIMUM RECORDED TEMPERATURE
 LUN .               3029:   LOGGING UNIT NUMBER
 LUL .               CASP:   LOGGING UNIT LOCATION
 ENGI.           REYNOLDS:   RECORDING ENGINEER
 WITN.              AMEND:   WITNESSED BY
 CLNT.            A2DTECH:   CLIENT CODE
 ORIG.           5" PRINT:   ORIGIN OF DATA
 UWI .       490251075100:   UNIQUE WELL ID
 DICO. A2D Technologies, Inc.:   DIGITIZING COMPANY
~OTHER INFORMATION
~A   DEPT      ILD         SN        SPR       CALD       CORR       DPHI         GRD      RHOB   
# ...
  182.0000     8.6029     9.0036   -45.5234     7.7041    -0.0026     0.1381   110.6685     2.4568
  182.5000     8.6023     8.9848   -45.3745     7.6886    -0.0040     0.1390   111.5670     2.4538
  183.0000     8.5725     8.8633   -45.6762     7.6880    -0.0025     0.1393   109.3163     2.4507
  183.5000     8.4825     8.8027   -46.4276     7.6873     0.0005     0.1381   107.3655     2.4507
  184.0000     8.4233     8.7423   -46.8788     7.6867     0.0035     0.1308   107.5144     2.4601
  184.5000     8.3646     8.6826   -47.1800     7.6804     0.0036     0.1266   106.4631     2.4739
  185.0000     8.3062     8.5044   -47.1815     7.6707     0.0021     0.1308   105.5621     2.4626
  185.5000     8.2093     8.3879   -47.1792     7.6701     0.0006     0.1350   104.9610     2.4626
  186.0000     8.1340     8.2997   -46.8213     7.6694    -0.0038     0.1347   105.7571     2.4642
  186.5000     8.0772     8.1365   -47.0362     7.6689    -0.0038     0.1350   107.0567     2.4527
  187.0000     7.9654     7.9893   -47.3374     7.6683    -0.0038     0.1420   109.0043     2.4467
  187.5000     7.8552     7.6669   -47.7886     7.6677    -0.0037     0.1443   111.2518     2.4392
  188.0000     7.6858     7.5374   -48.1749     7.6671    -0.0037     0.1440   109.9010     2.4339
  188.5000     7.4818     7.3544   -48.3915     7.6665     0.0008     0.1548   102.8290     2.4286
  189.0000     7.2263     7.2044   -48.3928     7.6659     0.0023     0.1560   103.9008     2.4211
  189.5000     7.0771     7.0508   -48.3945     7.6652     0.0054     0.1585   106.8978     2.4269
  190.0000     6.8830     6.9599   -48.3958     7.6647     0.0084     0.1449   108.2461     2.4458
  190.5000     6.7876     6.9603   -48.2473     7.6720     0.0129     0.1332   106.1454     2.4503
  191.0000     6.7403     7.0092   -47.7989     7.6784     0.0129     0.1380   105.2444     2.4510
  191.5000     6.7398     7.0097   -47.4033     7.6778     0.0130     0.1419   106.7361     2.4480
  192.0000     6.8335     7.1082   -46.6027     7.6772     0.0083     0.1404   111.0882     2.4468
  192.5000     6.8979     7.2079   -46.2919     7.6617     0.0055     0.1380   112.2866     2.4464
  193.0000     7.0247     7.2586   -46.0059     7.6611     0.0026     0.1395   108.0869     2.4494
  193.5000     7.1223     7.4117   -45.4080     7.6604     0.0011     0.1410   109.2848     2.4516
  194.0000     7.1714     7.5194   -45.2591     7.6599     0.0011     0.1422   110.4828     2.4508
  194.5000     7.2454     7.6743   -45.7107     7.6742     0.0012     0.1428   107.4825     2.4500
  195.0000     7.3213     7.7820   -47.0618     7.6736     0.0027     0.1428   107.1816     2.4508
  195.5000     7.3207     7.7826   -47.6629     7.6880     0.0027     0.1374   108.8290     2.4552
  196.0000     7.3202     7.7293   -47.8142     7.7024     0.0028     0.1365   100.7316     2.4597
  196.5000     7.3197     7.6764   -47.2156     7.7168     0.0058     0.1356    95.4708     2.4574
  197.0000     7.3192     7.6239   -46.6177     7.7161     0.0073     0.1356    94.7317     2.4581
  197.5000     7.3697     7.6244   -46.7694     7.7155     0.0097     0.1260   103.2756     2.4666
  198.0000     7.3691     7.5198   -47.2206     7.7150     0.0134     0.1320   111.3702     2.4738
  198.5000     7.3686     7.4168   -47.9716     7.7144     0.0134     0.1350   114.2173     2.4671
  199.0000     7.3172     7.4174   -48.4228     7.7137     0.0134     0.1356   112.5667     2.4625
  199.5000     7.3167     7.3665   -47.8071     7.6981     0.0134     0.1359   109.2009     2.4587
  200.0000     7.2655     7.2654   -47.4774     7.6826     0.0060     0.1370   108.8651     2.4546
  200.5000     6.6844     7.0087   -47.6811     7.6823     0.0090     0.1416   106.7166     2.4526
  201.0000     6.5411     6.8250   -47.2356     7.6820     0.0075     0.1415   103.7181     2.4497
  201.5000     6.3218     6.6378   -47.0900     7.6817     0.0030     0.1415   103.5401     2.4481
  202.0000     6.0214     6.3227   -47.5451     7.6814    -0.0030     0.1562   109.7151     2.4323
  202.5000     5.7752     6.1068   -48.2990     7.6811    -0.0075     0.1744   113.0135     2.4038
  203.0000     5.5008     5.9393   -48.6031     7.6808    -0.0030     0.1811   107.7661     2.3940
  203.5000     5.2757     5.8979   -49.0571     7.6805     0.0000     0.1724   105.5172     2.4015
  204.0000     5.2386     5.9386   -49.0615     7.6802     0.0030     0.1562   107.6642     2.4135
  204.5000     5.2744     6.0629   -48.9157     7.6799     0.0045     0.1507   112.2639     2.4240
  205.0000     5.3473     6.3201   -48.6956     7.6796     0.0015     0.1478   113.3133     2.4307
  205.5000     5.5003     6.5490   -48.3256     7.6793     0.0000     0.1463   108.2159     2.4374
  206.0000     5.7695     6.7951   -47.8901     7.6790     0.0030     0.1448   106.1169     2.4449
  206.5000     6.1403     7.1095   -47.0263     7.6787     0.0060     0.1420   106.1649     2.4524
  207.0000     6.4898     7.3599   -46.0906     7.6784     0.0090     0.1357   108.2339     2.4591
  207.5000     6.8592     7.5664   -45.9439     7.6781     0.0090     0.1306   110.9145     2.4666
  208.0000     7.1494     7.6716   -46.0992     7.6778     0.0090     0.1288   112.4138     2.4696
  208.5000     7.2988     7.8364   -46.7031     7.6775     0.0045     0.1330   112.1139     2.4643
  209.0000     7.4515     8.0520   -47.7579     7.6772     0.0029     0.1336   107.9160     2.4583
  209.5000     7.5022     8.0798   -48.2120     7.6836     0.0000     0.1333   100.7196     2.4575
  210.0000     7.5533     8.1071   -48.5161     7.6916     0.0015     0.1330   101.9190     2.4590
  210.5000     7.5521     8.1629   -48.5204     7.7063     0.0045     0.1327   108.6657     2.4644
  211.0000     7.4989     8.2763   -48.0752     7.7060     0.0090     0.1327   113.1634     2.4680
  211.5000     7.4979     8.2757   -47.3306     7.7207     0.0090     0.1326   112.7136     2.4672
  212.0000     7.5740     8.3328   -46.6946     7.7203     0.0090     0.1326   110.3148     2.4612
  212.5000     7.6535     8.3903   -46.1397     7.7200     0.0060     0.1326   101.9190     2.4611
  213.0000     7.7265     8.5067   -45.6945     7.7133     0.0030     0.1323    99.3224     2.4679
  213.5000     7.8668     8.5062   -45.3997     7.7045     0.0028     0.1323   105.1794     2.4709
  214.0000     7.8655     8.5648   -45.3673     7.7042     0.0015     0.1317   113.3133     2.4686
  214.5000     7.9192     8.5642   -45.2579     7.7039     0.0030     0.1317   116.9115     2.4686
  215.0000     7.9179     8.5044   -45.4873     7.7036     0.0045     0.1317   118.7106     2.4678
  215.5000     7.9169     8.5630   -45.7241     7.7033     0.0030     0.1278   119.9100     2.4715
  216.0000     7.9158     8.5623   -46.3216     7.7030    -0.0015     0.1248   120.2099     2.4768
  216.5000     7.9699     8.5618   -46.8113     7.7027    -0.0015     0.1257   119.4603     2.4820
  217.0000     7.9688     8.5612   -47.2297     7.7024     0.0030     0.1266   116.9115     2.4820
  217.5000     8.0230     8.5606   -47.3838     7.7021     0.0090     0.1133   113.3133     2.4890
  218.0000     8.0780     8.5600   -47.2384     7.7168     0.0210     0.1097   112.7136     2.5014
  218.5000     8.0766     8.5003   -46.9168     7.7164     0.0150     0.1085   113.9130     2.5052
  219.0000     8.1318     8.4997   -46.7970     7.7162     0.0030     0.1178   109.8651     2.4909
  219.5000     8.0743     8.4991   -47.2521     7.7159    -0.0045     0.1265   107.1664     2.4758
  220.0000     8.0174     8.4398   -47.8561     7.7156    -0.0060     0.1289   108.6657     2.4691
  220.5000     7.9610     8.3808   -48.4611     7.7153    -0.0030     0.1304   110.0510     2.4683
  221.0000     7.9599     8.3223   -48.6147     7.7067    -0.0015     0.1322   112.2639     2.4675
  221.5000     7.9588     8.2643   -48.6196     7.6997     0.0030     0.1274   111.6642     2.4728
  222.0000     7.9026     8.2066   -48.5537     7.6994     0.0075     0.1255   108.5157     2.4803
