~VERSION INFORMATION
 VERS.                2.0:   CWLS LOG ASCII STANDARD - VERSION 2.0
 WRAP.                 NO:   ONE LINE PER DEPTH STEP
~WELL INFORMATION
#MNEM.UNIT      DATA TYPE    INFORMATION
#----------   ------------   ------------------------------
 STRT.F           70.0000:   START DEPTH
 STOP.F          806.0000:   STOP DEPTH
 STEP.F            0.5000:   STEP LENGTH
 NULL.          -999.2500:   NO VALUE
 COMP. U S NAVY/INTEX OIL CO:   COMPANY
 WELL. RES 3 TEAPOT DOME #33-S-2:   WELL
 FLD .             TEAPOT:   FIELD
 LOC .       S2 T38N R78W:   LOCATION
 CNTY.            NATRONA:   COUNTY
 STAT.            WYOMING:   STATE
 CTRY. UNITED STATES OF AMERICA:   COUNTRY
 SRVC.         Lane Wells:   SERVICE COMPANY
 DATE.        15-MAR-1980:   LOGDATE
 API .       490250644600:   API NUMBER
~CURVE INFORMATION
#MNEM.UNIT       API CODE    CURVE DESCRIPTION
#----------   ------------   ------------------------------
 DEPT.F                  :   
 GR  .GAPI   30 310 01 00:   GAMMA RAY
 SPR .MV     05 010 01 00:   SPONTANEOUS POTENTIAL FROM RES.
 CILD.MMHO   05 110 46 00:   CONDUCTIVITY INDUCTION LOG DEEP
 ASN .OHMM   05 041 16 00:   AMPLIFIED SHORT NORMAL 16"
 ILD .OHMM   05 120 46 00:   INDUCTION LOG DEEP
~PARAMETER INFORMATION
#MNEM.UNIT          VALUE    DESCRIPTION
#----------   ------------   ------------------------------
 PD  .                 GL:   PERMANENT DATUM
 EPD .F              5119:   ELEVATION PERMANENT DATUM
 LMF .                 KB:   LOG MEASURED FROM
 DAPD.F                 5:   FEET ABOVE PERMANENT DATUM
 DMF .                 KB:   DRILLING MEASURED FROM
 EKB .F              5124:   KELLING BUSHING
 EGL .F              5119:   GROUND LEVEL
 DATE.            3-15-60:   RUN DATE
 RUN .                  1:   RUN NUMBER
 DD  .F               810:   DEPTH DRILLER
 DL  .F               808:   DEPTH LOGGER
 BLI .F               806:   BOTTOM LOG INTERVAL
 TLI .F                70:   TOP LOG INTERVAL
 CS  .IN            8.625:   CASING SIZE
 CBD .F                12:   CASING BOTTOM DRILLER
 BS  .IN            7.875:   BIT SIZE
 BSD .F               810:   BIT SIZE AT DEPTH
 DFT .   GEL/OIL EMULSION:   DRILLING FLUID TYPE
 DFD .                6.8:   DRILLING FLUID DENSITY
 DFV .                 34:   DRILLING FLUID VISCOSITY
 DFPH.                7.6:   DRILLING FLUID PH
 DFL .                9.4:   DRILLING FLUID LOSS
 MSS .           FLOWLINE:   MUD SAMPLE SOURCE
 RMS .OHMM            4.2:   RESISTIVITY MUD SAMPLE
 MST .F                65:   MUD SAMPLE TEMPERATURE
 RMF .OHMM            3.3:   RESISTIVITY MUD FILTRATE SAMPLE
 MFST.F                68:   MUD FILTRATE SAMPLE TEMPERATURE
 RMC .OHMM              4:   RESISTIVITY MUD CAKE
 MCST.F                68:   MUD CAKE SAMPLE TEMPERATURE
 MFSS.                MUD:   MUD FILTRATE SAMPLE SOURCE
 MCSS.              PRESS:   MUD CAKE SAMPLE SOURCE
 RMB .OHMM            3.9:   RESISTIVITY MUD AT BHT
 BHT .F                71:   BOTTOM HOLE TEMPERATURE
 MRT .F                71:   MAXIMUM RECORDED TEMPERATURE
 LUN .             L-4474:   LOGGING UNIT NUMBER
 LUL .             CASPER:   LOGGING UNIT LOCATION
 ENGI.      GRIGGS/NELSON:   RECORDING ENGINEER
 WITN.   JORGENSEN/HUDSON:   WITNESSED BY
 CLNT.            A2DTECH:   CLIENT CODE
 ORIG. 1", 2.5", 5" PRINT:   ORIGIN OF DATA
 UWI .       490250644600:   UNIQUE WELL ID
 DICO. A2D Technologies, Inc.:   DIGITIZING COMPANY
~OTHER INFORMATION
~A   DEPT       GR        SPR        CILD         ASN        ILD 
# ...
  619.0000    88.7920   -30.4159   140.3471    11.0564     9.0208
  619.5000    83.2542   -30.7483   138.2144    11.6410     9.1554
  620.0000    72.7536   -31.3731   135.6635    11.8483     9.3074
  620.5000    78.5802   -31.5055   132.0201    12.2008     9.5716
  621.0000    83.3601   -31.0341   127.4882    12.5533    10.0168
  621.5000    85.6671   -30.8111   122.9562    12.8851    10.5944
  622.0000    65.0576   -31.3372   117.8910    13.7248    11.2008
  622.5000    71.1134   -32.0664   114.6919    14.1292    11.7852
  623.0000    65.4908   -32.3800   110.7820    16.3053    12.3589
  623.5000    58.2569   -32.4463   105.2133    17.7656    12.9757
  624.0000    58.6781   -32.7076    99.1706    19.2832    13.7000
  624.5000    47.4947   -33.1641    93.1280    20.0815    14.4750
  625.0000    49.5243   -33.5860    89.4550    21.2381    15.0827
  625.5000    33.2729   -33.9808    87.8777    21.5936    15.3973
  626.0000    34.7149   -34.4699    86.7447    21.8691    15.5607
  626.5000    32.8977   -34.9515    85.9005    22.0957    15.7439
  627.0000    28.9986   -35.2213    83.7941    22.3223    15.9324
  627.5000    35.7215   -35.3586    82.1156    22.4822    16.1396
  628.0000    44.8392   -35.7089    80.4371    23.3033    16.5827
  628.5000    37.4709   -36.4213    78.7586    23.7263    17.3841
  629.0000    29.5904   -37.2314    77.0800    25.6813    18.3046
  629.5000    23.8284   -37.7886    75.4015    26.5477    19.0141
  630.0000    22.8884   -37.9828    73.7230    27.6807    19.4683
  630.5000    24.5843   -37.8349    72.0445    28.8137    19.8345
  631.0000    30.3526   -37.3886    70.3660    29.9467    20.2032
  631.5000    36.7243   -36.9046    68.1280    31.0130    20.5419
  632.0000    36.7835   -36.8202    68.1280    31.7239    20.8341
  632.5000    38.7185   -37.2372    67.0778    31.6668    21.1186
  633.0000    42.3240   -37.7121    66.2538    31.6021    21.4228
  633.5000    32.2615   -37.7931    65.4298    31.5462    21.7423
  634.0000    30.0932   -37.5115    64.5735    32.2334    22.0700
  634.5000    41.1457   -37.1711    64.8223    32.9680    22.3899
  635.0000    32.0929   -36.9391    65.0813    33.6216    22.6772
  635.5000    35.9930   -36.8361    65.3402    34.4708    22.9446
  636.0000    36.7098   -36.8714    65.5992    34.9308    23.2192
  636.5000    25.6701   -37.0014    65.8582    34.9409    23.3986
  637.0000    21.4242   -37.1035    66.1171    34.9326    23.2426
  637.5000    24.8258   -37.0906    66.3761    34.9387    22.6629
  638.0000    23.0790   -36.9753    66.6351    34.6416    21.9272
  638.5000    36.0053   -36.8304    66.8940    34.0797    21.4043
  639.0000    43.6597   -36.7397    67.1530    33.5055    21.1822
  639.5000    45.6953   -36.7048    67.4120    32.9399    21.0957
  640.0000    47.8365   -36.5859    67.6710    32.3726    21.0186
  640.5000    50.7741   -36.2616    67.9299    31.7993    20.9441
  641.0000    50.4984   -35.8568    68.1280    31.3817    20.8629
  641.5000    28.3999   -35.6740    68.1280    31.0107    20.7338
  642.0000    30.8694   -35.8793    68.1280    30.7562    20.5483
  642.5000    39.3155   -36.3215    68.1280    30.4680    20.3305
  643.0000    37.8754   -36.6479    69.1172    30.5288    20.0881
  643.5000    42.0795   -36.5988    70.1120    30.6027    19.7928
  644.0000    47.4983   -36.2267    70.9909    29.5086    19.4120
  644.5000    51.5233   -35.7563    71.9958    28.1295    18.9847
  645.0000    47.5057   -35.2125    72.8567    27.8291    18.6655
  645.5000    49.7155   -34.4293    73.8910    28.0125    18.6133
  646.0000    37.5580   -33.5165    74.7114    28.0230    18.8052
  646.5000    29.8351   -32.9594    75.7948    28.2728    19.0207
  647.0000    33.2902   -33.0375    76.5621    28.7469    19.0417
  647.5000    38.0181   -33.4379    77.6966    29.3845    18.8143
  648.0000    40.5061   -33.6559    78.6792    29.2729    18.4046
  648.5000    32.7533   -33.5381    78.9023    27.4035    17.8768
  649.0000    44.4692   -33.2952    81.0922    25.3007    17.2685
  649.5000    52.5603   -33.1817    83.1126    23.5275    16.6455
  650.0000    60.8027   -33.2676    84.7322    21.9232    16.1063
  650.5000    53.2959   -33.4622    86.6201    21.1926    15.7071
  651.0000    50.8431   -33.7170    88.4267    20.4124    15.4167
  651.5000    51.9111   -34.0728    89.4550    19.8507    15.1751
  652.0000    55.4634   -34.4101    89.8226    19.7235    14.9711
  652.5000    59.9945   -34.4382    90.0796    19.3063    14.8315
  653.0000    58.8000   -34.1783    90.3365    19.1400    14.7552
  653.5000    57.4534   -34.1089    90.5934    19.0063    14.7048
  654.0000    65.9338   -34.4806    90.8504    18.8052    14.6506
  654.5000    48.0347   -34.8742    91.1073    18.6486    14.5927
  655.0000    51.0435   -34.8361    91.3643    18.3863    14.5381
  655.5000    54.8620   -34.5115    91.6212    18.3618    14.4855
  656.0000    62.8665   -34.2486    91.8781    18.3316    14.4323
  656.5000    60.8312   -34.0364    92.1351    18.2783    14.3779
  657.0000    63.5053   -33.7735    92.3920    18.2560    14.3224
  657.5000    61.0304   -33.6551    92.6489    18.2067    14.2681
  658.0000    57.9789   -33.8582    92.9059    18.0530    14.2168
  658.5000    57.7836   -34.1804    93.1644    17.9053    14.1670
  659.0000    62.8237   -34.3275    93.4209    17.7512    14.1169
  659.5000    68.3645   -34.2894    93.6775    17.6112    14.0683
  660.0000    62.1437   -34.2248    93.9347    17.4715    14.0131
  660.5000    64.5219   -34.2415    94.1925    17.3235    13.9277
  661.0000    52.2244   -34.3945    94.4478    17.1762    13.7983
  661.5000    49.4825   -34.6027    94.7085    17.0341    13.6461
  662.0000    56.3175   -34.5336    94.9599    16.8915    13.5058
  662.5000    63.7370   -33.9494    95.2254    16.7459    13.3812
  663.0000    67.4858   -33.1988    95.4714    16.6025    13.2464
  663.5000    51.3852   -32.9352    95.7424    16.4548    13.0978
  664.0000    44.3735   -33.2997    95.9834    16.2815    12.9719
  664.5000    44.7525   -33.8077    96.2615    16.0878    12.8977
  665.0000    51.3051   -34.0743    96.5620    15.9307    12.8678
  665.5000    56.1760   -34.1669    96.5840    15.8570    12.8702
  666.0000    57.2647   -34.1855    96.5640    15.8322    12.9117
  666.5000    49.9473   -34.0274    96.5640    15.7872    12.9916
  667.0000    51.2065   -33.7327    96.5640    15.7319    13.0953
  667.5000    49.1376   -33.6125    96.5640    15.7509    13.2182
  668.0000    57.2185   -33.8321    96.5640    15.8822    13.3406
  668.5000    60.4080   -34.1766    96.5640    16.0606    13.3916
  669.0000    57.1017   -34.3526    96.5640    16.1929    13.3213
  669.5000    54.0223   -34.2959    96.5640    16.2571    13.2003
  670.0000    53.8722   -34.1303    96.5640    16.3069    13.1538
  670.5000    65.3388   -34.0105    96.5640    16.3757    13.2114
  671.0000    74.9889   -34.0316    96.5640    16.4209    13.3194
  671.5000    72.6776   -34.1555    96.5640    16.4340    13.4826
  672.0000    71.2620   -34.2062    94.7156    16.5612    13.7737
  672.5000    66.6322   -33.9938    92.1462    16.9611    14.1862
  673.0000    65.0879   -33.4925    89.4550    17.6067    14.5782
  673.5000    59.8054   -32.9154    88.8839    18.4236    14.8076
  674.0000    60.9548   -32.5536    88.2844    19.3994    14.8667
  674.5000    55.9149   -32.4695    87.6848    20.4645    14.8294
  675.0000    48.9286   -32.4224    87.0853    21.4896    14.7065
  675.5000    52.8031   -32.1976    86.4858    21.2457    14.4307
  676.0000    48.6818   -31.8688    85.9005    19.9718    13.9887
  676.5000    44.2716   -31.6112    90.9220    18.9389    13.4862
  677.0000    48.1422   -31.4684    95.8272    17.8315    13.0300
  677.5000    48.1173   -31.4605   100.7324    16.5049    12.6053
  678.0000    48.8243   -31.6680   107.2275    15.7856    12.1373
  678.5000    56.9909   -32.0458   107.8353    15.2961    11.6471
  679.0000    53.8742   -32.3773   108.7346    14.5618    11.2719
  679.5000    61.6794   -32.5244   109.6339    14.1134    11.1225
