~VERSION INFORMATION
 VERS.                2.0:   CWLS LOG ASCII STANDARD - VERSION 2.0
 WRAP.                 NO:   ONE LINE PER DEPTH STEP
~WELL INFORMATION
#MNEM.UNIT      DATA TYPE    INFORMATION
#----------   ------------   ------------------------------
 STRT.F           80.0000:   START DEPTH
 STOP.F          808.0000:   STOP DEPTH
 STEP.F            0.5000:   STEP LENGTH
 NULL.          -999.2500:   NO VALUE
 COMP.           U S NAVY:   COMPANY
 WELL.     NRP #3 #38-S-2:   WELL
 FLD .             TEAPOT:   FIELD
 LOC .       S2 T38N R78W:   LOCATION
 CNTY.            NATRONA:   COUNTY
 STAT.            WYOMING:   STATE
 CTRY. UNITED STATES OF AMERICA:   COUNTRY
 SRVC.       Schlumberger:   SERVICE COMPANY
 DATE.        18-JUN-1962:   LOGDATE
 API .       490250639100:   API NUMBER
~CURVE INFORMATION
#MNEM.UNIT       API CODE    CURVE DESCRIPTION
#----------   ------------   ------------------------------
 DEPT.F                  :   
 GR  .GAPI   30 310 01 00:   GAMMA RAY
 SPR .MV     05 010 01 00:   SPONTANEOUS POTENTIAL FROM RES.
 ASN .OHMM   05 041 16 00:   AMPLIFIED SHORT NORMAL 16"
 ILD .OHMM   05 120 46 00:   INDUCTION LOG DEEP
 CILD.MMHO   05 110 46 00:   CONDUCTIVITY INDUCTION LOG DEEP
 CALM.IN     15 280 01 00:   CALIPER FROM MICRO LOG
~PARAMETER INFORMATION
#MNEM.UNIT          VALUE    DESCRIPTION
#----------   ------------   ------------------------------
 PD  .                 GL:   PERMANENT DATUM
 EPD .F              5146:   ELEVATION PERMANENT DATUM
 LMF .                 KB:   LOG MEASURED FROM
 DAPD.F                 5:   FEET ABOVE PERMANENT DATUM
 DMF .                 KB:   DRILLING MEASURED FROM
 EKB .F              5151:   KELLING BUSHING
 EGL .F              5146:   GROUND LEVEL
 DATE.          6-18-1962:   RUN DATE
 RUN .                  1:   RUN NUMBER
 DD  .F              1000:   DEPTH DRILLER
 DL  .F               808:   DEPTH LOGGER
 BLI .F               807:   BOTTOM LOG INTERVAL
 TLI .F                80:   TOP LOG INTERVAL
 BS  .IN             8.75:   BIT SIZE
 BSD .F              1000:   BIT SIZE AT DEPTH
 DFT .       OIL EMULSION:   DRILLING FLUID TYPE
 DFD .                8.7:   DRILLING FLUID DENSITY
 DFV .                 58:   DRILLING FLUID VISCOSITY
 DFL .                  4:   DRILLING FLUID LOSS
 RMS .OHMM           3.77:   RESISTIVITY MUD SAMPLE
 MST .F                79:   MUD SAMPLE TEMPERATURE
 RMF .OHMM           2.47:   RESISTIVITY MUD FILTRATE SAMPLE
 MFST.F                79:   MUD FILTRATE SAMPLE TEMPERATURE
 RMC .OHMM           3.29:   RESISTIVITY MUD CAKE
 MCST.F                79:   MUD CAKE SAMPLE TEMPERATURE
 TCS .HRS               1:   TIME CURCULATED STOPPED
 LUN .               2503:   LOGGING UNIT NUMBER
 LUL .               CSPR:   LOGGING UNIT LOCATION
 ENGI.             DANNER:   RECORDING ENGINEER
 WITN.          JORGENSEN:   WITNESSED BY
 CLNT.            A2DTECH:   CLIENT CODE
 ORIG.   1", 2", 5" PRINT:   ORIGIN OF DATA
 UWI .       490250639100:   UNIQUE WELL ID
 DICO. A2D Technologies, Inc.:   DIGITIZING COMPANY
~OTHER INFORMATION
~A   DEPT       GR        SPR          ASN        ILD      CILD      CALM   
# ...
  704.0000  -999.2500   -67.3204    10.8457    14.0117   103.7783     8.6915
  704.5000  -999.2500   -67.2951    10.6328    13.8821   106.1121     8.6915
  705.0000  -999.2500   -67.2697    10.4393    13.7523   108.4458     8.6915
  705.5000  -999.2500   -67.2470    10.2455    13.5023   111.2103     8.6915
  706.0000  -999.2500   -67.1265    10.0507    13.2621   114.9802     8.6915
  706.5000  -999.2500   -66.9587     9.8451    13.0240   119.1270     8.6915
  707.0000  -999.2500   -66.7899     9.5874    12.7898   126.1640     8.6915
  707.5000  -999.2500   -66.6210     9.3094    12.2315   133.2011     8.6915
  708.0000  -999.2500   -66.4523     8.9891    11.5445   151.0170     8.6915
  708.5000  -999.2500   -66.2835     8.5418    10.8573   167.2134     8.6915
  709.0000  -999.2500   -66.1144     8.0994    10.2377   183.4098     8.6915
  709.5000  -999.2500   -65.9467     7.5909     9.8103   194.4844     8.6915
  710.0000  -999.2500   -65.8185     7.0929     9.6860   197.1134     8.6915
  710.5000  -999.2500   -65.8364     6.8291     9.7141   195.2590     8.6915
  711.0000  -999.2500   -65.8509     6.7882     9.7819   190.9316     8.6915
  711.5000  -999.2500   -65.8651     6.9779     9.8480   186.5150     8.6915
  712.0000  -999.2500   -65.8794     7.5217    10.1387   179.3726     8.6915
  712.5000  -999.2500   -65.8936     8.3236    10.7549   164.3651     8.6915
  713.0000  -999.2500   -65.9079     9.1425    11.5952   147.5036     8.6915
  713.5000  -999.2500   -65.9221     9.5440    12.4331   128.7686     8.6916
  714.0000  -999.2500   -65.9364     9.7804    13.2023   117.6749     8.6915
  714.5000  -999.2500   -65.9507     9.9738    13.5718   109.0741     8.6885
  715.0000  -999.2500   -65.9649    10.1737    13.6528   108.7770     8.6852
  715.5000  -999.2500   -65.9791    10.2934    13.7260   108.3930     8.6818
  716.0000  -999.2500   -65.9936    10.4151    13.7901   108.0552     8.6784
  716.5000  -999.2500   -66.0075    10.5329    13.8994   106.2713     8.6752
  717.0000  -999.2500   -66.0173    10.6860    14.0054   104.6537     8.6718
  717.5000  -999.2500   -66.1523    12.3373    14.1124   103.0275     8.6416
  718.0000  -999.2500   -66.3046    14.1969    14.2260   101.4013     8.5968
  718.5000  -999.2500   -66.4585    15.9251    14.3453    99.7751     8.4606
  719.0000  -999.2500   -66.6122    16.0854    14.4643    98.1489     8.3240
  719.5000  -999.2500   -66.7660    16.2332    14.5841    96.5227     8.2251
  720.0000  -999.2500   -66.9181    16.3810    14.7099    94.8965     8.2241
  720.5000  -999.2500   -67.0304    16.5287    14.8375    93.2703     8.2213
  721.0000  -999.2500   -66.9662    16.6765    14.9728    91.6441     8.2186
  721.5000  -999.2500   -66.9064    16.8243    15.1088    90.0179     8.2157
  722.0000  -999.2500   -66.8469    16.9721    15.2449    88.3917     8.2126
  722.5000  -999.2500   -66.7869    17.1199    15.3810    86.7655     8.2094
  723.0000  -999.2500   -66.7279    17.2678    15.5184    85.7092     8.2274
  723.5000  -999.2500   -66.6703    17.4157    15.6610    85.2227     8.4997
  724.0000  -999.2500   -66.7616    17.5628    15.7009    84.7363     8.8069
  724.5000  -999.2500   -67.0857    17.6725    15.7364    84.2499     8.9106
  725.0000  -999.2500   -67.4074    17.6830    15.7625    83.7634     8.8342
  725.5000  -999.2500   -67.7310    17.6955    15.7619    83.2770     8.4692
  726.0000  -999.2500   -68.0467    17.7081    15.7619    83.0873     8.3384
  726.5000  -999.2500   -68.1463    17.7206    15.7619    83.5900     8.2626
  727.0000  -999.2500   -68.2399    17.7331    15.7619    84.0926     8.2302
  727.5000  -999.2500   -68.2000    17.7456    15.7619    84.5952     8.1955
  728.0000  -999.2500   -68.1310    17.7593    15.7619    84.9792     8.1610
  728.5000  -999.2500   -68.0609    17.7314    15.7620    85.0861     8.1264
  729.0000  -999.2500   -67.9910    17.6884    15.7624    85.1931     8.0918
  729.5000  -999.2500   -67.9213    17.6451    15.7597    85.3000     8.0571
  730.0000  -999.2500   -67.8493    17.6017    15.7064    85.4070     8.0286
  730.5000  -999.2500   -67.7311    17.5584    15.6548    85.5139     8.0497
  731.0000  -999.2500   -67.6095    17.5152    15.6038    85.6208     8.0713
  731.5000  -999.2500   -67.4881    17.4718    15.5532    85.7278     8.0941
  732.0000  -999.2500   -67.3669    17.4281    15.5013    85.8347     8.1265
  732.5000  -999.2500   -67.2408    17.3845    15.4444    85.9503     8.4417
  733.0000  -999.2500   -67.0236    17.3118    15.3214    86.6431     8.6305
  733.5000  -999.2500   -66.7984    17.2150    15.2022    87.4117     8.3917
  734.0000  -999.2500   -66.5733    17.1173    15.0834    88.4902     8.4481
  734.5000  -999.2500   -66.3485    17.0195    14.9643    90.2892     8.6134
  735.0000  -999.2500   -66.1228    16.9219    14.8452    92.0884     8.6914
  735.5000  -999.2500   -65.9923    16.8241    14.7262    93.6917     8.6932
  736.0000  -999.2500   -65.9341    16.7254    14.6071    95.1000     8.6938
  736.5000  -999.2500   -65.8762    16.6233    14.4881    96.5080     8.6948
  737.0000  -999.2500   -65.8184    16.6829    14.3690    97.9154     8.6959
  737.5000  -999.2500   -65.7607    16.7426    14.2500    99.3227     8.6969
  738.0000  -999.2500   -65.7028    16.8022    14.1310   100.7302     8.6980
  738.5000  -999.2500   -65.6450    16.8618    14.0283   102.1376     8.6991
  739.0000  -999.2500   -65.5871    16.9215    13.9639   103.5450     8.7001
  739.5000  -999.2500   -65.5293    16.9811    13.8996   104.9524     8.7012
  740.0000  -999.2500   -65.4715    17.0407    13.8352   106.3598     8.7022
  740.5000  -999.2500   -65.4136    17.1003    13.7710   107.2700     8.7033
  741.0000  -999.2500   -65.3556    17.1600    13.7058   107.6906     8.7044
  741.5000  -999.2500   -65.2982    17.2196    13.6390   108.1112     8.7054
  742.0000  -999.2500   -65.2406    11.0531    13.5927   108.5310     8.7065
  742.5000  -999.2500   -65.2737    10.8216    13.6370   108.9505     8.7076
  743.0000  -999.2500   -65.3854    10.7648    13.6065   109.2828     8.7086
  743.5000  -999.2500   -65.4974    10.7565    13.5706   109.5775     8.7100
  744.0000  -999.2500   -65.6100    10.7348    13.5345   109.8725     8.7113
  744.5000  -999.2500   -65.7226    10.7133    13.4988   110.1681     8.6943
  745.0000  -999.2500   -65.8350    10.6907    13.4631   110.4637     8.5296
  745.5000  -999.2500   -65.9475    10.6462    13.4274   110.7594     8.3671
  746.0000  -999.2500   -66.0600    10.5428    13.3923   111.0847     8.4769
  746.5000  -999.2500   -66.1723    10.4418    13.3101   112.7297     8.6136
  747.0000  -999.2500   -66.2848    10.3302    13.2093   114.5575     8.3042
  747.5000  -999.2500   -66.4007    10.2180    13.1083   116.3853     8.0242
  748.0000  -999.2500   -66.4295    10.1127    13.0072   118.2131     7.9940
  748.5000  -999.2500   -66.4303    10.0142    12.9061   119.9354     7.9858
  749.0000  -999.2500   -66.4297     9.9157    12.8052   121.5523     8.0018
  749.5000  -999.2500   -66.4306     9.8173    12.7144   123.1691     8.0198
  750.0000  -999.2500   -66.5171     9.7188    12.6898   124.7860     8.0376
  750.5000  -999.2500   -66.6144     9.6203    12.5981   126.4028     8.0101
  751.0000  -999.2500   -66.7122     9.5234    12.5089   128.1746     7.7314
  751.5000  -999.2500   -66.8087     9.4280    12.4090   130.9070     7.5943
  752.0000  -999.2500   -66.7367     9.3326    12.2304   133.9289     7.8228
  752.5000  -999.2500   -66.3740     9.2377    11.9802   137.2222     8.0565
  753.0000  -999.2500   -66.0226     9.1431    11.6623   144.5029     8.0881
  753.5000  -999.2500   -65.6716     9.0328    11.3415   152.5020     8.0658
  754.0000  -999.2500   -65.3210     8.7783    11.0131   160.5012     8.0575
  754.5000  -999.2500   -64.9692     8.3272    11.0044   164.3651     8.4789
  755.0000  -999.2500   -64.8094     7.9898    11.0339   164.0258     8.7096
  755.5000  -999.2500   -64.8713     7.9318    11.0620   161.1928     8.1498
