~VERSION INFORMATION
 VERS.                2.0:   CWLS LOG ASCII STANDARD - VERSION 2.0
 WRAP.                 NO:   ONE LINE PER DEPTH STEP
~WELL INFORMATION
#MNEM.UNIT      DATA TYPE    INFORMATION
#----------   ------------   ------------------------------
 STRT.F         1400.0000:   START DEPTH
 STOP.F         3422.0000:   STOP DEPTH
 STEP.F            0.5000:   STEP LENGTH
 NULL.          -999.2500:   NO VALUE
 COMP. LAWRENCE/ALLISON INC:   COMPANY
 WELL.   NPR 3 #36-STX-23:   WELL
 FLD .             TEAPOT:   FIELD
 LOC .      S23 T38N R78W:   LOCATION
 CNTY.            NATRONA:   COUNTY
 STAT.            WYOMING:   STATE
 CTRY. UNITED STATES OF AMERICA:   COUNTRY
 SRVC.            Unknown:   SERVICE COMPANY
 DATE.        04-JAN-1985:   LOGDATE
 API .       490251137700:   API NUMBER
~CURVE INFORMATION
#MNEM.UNIT       API CODE    CURVE DESCRIPTION
#----------   ------------   ------------------------------
 DEPT.F                  :   
 ROP .MIN/FT 91 810 01 00:   RAT OF DRILLING PENETRATION
 TGAS.UNITS  91 830 01 00:   TOTAL GAS UNIT
~PARAMETER INFORMATION
#MNEM.UNIT          VALUE    DESCRIPTION
#----------   ------------   ------------------------------
 DATE.           1-4-1985:   RUN DATE
 RUN .                  1:   RUN NUMBER
 DD  .F              3427:   DEPTH DRILLER
 TLI .F              1400:   TOP LOG INTERVAL
 BSD .F              3427:   BIT SIZE AT DEPTH
 WITN. RAY ANDERSON/JACK HARBISON:   WITNESSED BY
 CLNT.            A2DTECH:   CLIENT CODE
 ORIG.           5" PRINT:   ORIGIN OF DATA
 UWI .       490251137700:   UNIQUE WELL ID
 DICO. A2D Technologies, Inc.:   DIGITIZING COMPANY
~OTHER INFORMATION
~A  DEPT       ROP       TGAS   
# ...
 1643.0000     0.5296     1.1170
 1643.5000     0.5286     1.1078
 1644.0000     0.5277     1.0980
 1644.5000     0.5268     1.0882
 1645.0000     0.5258     1.0784
 1645.5000     0.5249     1.0686
 1646.0000     0.5058     1.0588
 1646.5000     0.4870     1.0490
 1647.0000     0.4585     1.0392
 1647.5000     0.4395     1.0294
 1648.0000     0.4211     1.0196
 1648.5000     0.4215     1.0098
 1649.0000     0.4216     1.0000
 1649.5000     0.4217     0.9902
 1650.0000     0.4217     0.9804
 1650.5000     0.4218     0.9706
 1651.0000     0.4219     0.9608
 1651.5000     0.4219     0.9510
 1652.0000     0.4220     0.9412
 1652.5000     0.4221     0.9313
 1653.0000     0.4221     0.9215
 1653.5000     0.4222     0.9117
 1654.0000     0.4222     0.9019
 1654.5000     0.4223     0.8921
 1655.0000     0.4224     0.8863
 1655.5000     0.4224     0.8853
 1656.0000     0.4225     0.8843
 1656.5000     0.4226     0.8832
 1657.0000     0.4226     0.8822
 1657.5000     0.4227     0.8811
 1658.0000     0.4228     0.8801
 1658.5000     0.4228     0.8791
 1659.0000     0.4229     0.8780
 1659.5000     0.4230     0.8770
 1660.0000     0.4231     0.8760
 1660.5000     0.4234     0.8749
 1661.0000     0.4238     0.8739
 1661.5000     0.4242     0.8728
 1662.0000     0.4245     0.8718
 1662.5000     0.4249     0.8708
 1663.0000     0.4252     0.8697
 1663.5000     0.4256     0.8687
 1664.0000     0.4260     0.8677
 1664.5000     0.4263     0.8666
 1665.0000     0.4267     0.8656
 1665.5000     0.4270     0.8645
 1666.0000     0.4274     0.8635
 1666.5000     0.4278     0.8625
 1667.0000     0.4281     0.8614
 1667.5000     0.4285     0.8604
 1668.0000     0.4288     0.8594
 1668.5000     0.4292     0.8583
 1669.0000     0.4296     0.8559
 1669.5000     0.4299     0.8520
 1670.0000     0.4303     0.8481
 1670.5000     0.4306     0.8442
 1671.0000     0.4310     0.8403
 1671.5000     0.4314     0.8364
 1672.0000     0.4317     0.8325
 1672.5000     0.4321     0.8286
 1673.0000     0.4325     0.8247
 1673.5000     0.4328     0.8208
 1674.0000     0.4332     0.8169
 1674.5000     0.4335     0.8130
 1675.0000     0.4339     0.8092
 1675.5000     0.4343     0.8053
 1676.0000     0.4346     0.8014
 1676.5000     0.4350     0.7975
 1677.0000     0.4353     0.7936
 1677.5000     0.4357     0.7897
 1678.0000     0.4361     0.7858
 1678.5000     0.4364     0.7819
 1679.0000     0.4368     0.7780
 1679.5000     0.4371     0.7741
 1680.0000     0.4377     0.7702
 1680.5000     0.4387     0.7663
 1681.0000     0.4396     0.7625
 1681.5000     0.4406     0.7586
 1682.0000     0.4415     0.7547
 1682.5000     0.4425     0.7508
 1683.0000     0.4434     0.7469
 1683.5000     0.4444     0.7430
 1684.0000     0.4453     0.7391
 1684.5000     0.4463     0.7352
 1685.0000     0.4472     0.7313
 1685.5000     0.4482     0.7274
 1686.0000     0.4491     0.7235
 1686.5000     0.4501     0.7196
 1687.0000     0.4511     0.7158
 1687.5000     0.4520     0.7119
 1688.0000     0.4528     0.7058
 1688.5000     0.4526     0.6764
 1689.0000     0.4524     0.6470
 1689.5000     0.4522     0.6176
 1690.0000     0.4520     0.5882
 1690.5000     0.4518     0.5588
 1691.0000     0.4516     0.5294
 1691.5000     0.4514     0.5000
 1692.0000     0.4512     0.4705
 1692.5000     0.4510     0.4411
 1693.0000     0.4508     0.4117
 1693.5000     0.4506     0.3823
 1694.0000     0.4504     0.3529
 1694.5000     0.4502     0.3235
 1695.0000     0.4500     0.2941
 1695.5000     0.4498     0.2647
 1696.0000     0.4496     0.2352
 1696.5000     0.4494     0.2058
 1697.0000     0.4305     0.1764
 1697.5000     0.4343     0.1470
 1698.0000     0.4378     0.1176
 1698.5000     0.4413     0.0882
 1699.0000     0.4449     0.0588
 1699.5000     0.4484     0.0294
 1700.0000     0.4519     0.0024
 1700.5000     0.4906     0.0500
 1701.0000     0.5005     0.0939
 1701.5000     0.5142     0.1378
 1702.0000     0.5298     0.1817
 1702.5000     0.5236     0.2256
 1703.0000     0.5168     0.2695
 1703.5000     0.5100     0.3134
 1704.0000     0.5020     0.3573
 1704.5000     0.5037     0.4013
 1705.0000     0.5059     0.4452
 1705.5000     0.5081     0.4891
 1706.0000     0.5102     0.5330
 1706.5000     0.5124     0.5769
 1707.0000     0.5146     0.6208
 1707.5000     0.5167     0.6647
 1708.0000     0.5189     0.7086
 1708.5000     0.5211     0.7525
 1709.0000     0.5233     0.7964
 1709.5000     0.5254     0.8404
 1710.0000     0.5276     0.8843
 1710.5000     0.5298     0.9282
 1711.0000     0.5319     0.9721
 1711.5000     0.5344     1.0160
 1712.0000     0.5346     1.0513
 1712.5000     0.5349     1.0776
 1713.0000     0.5351     1.1038
 1713.5000     0.5353     1.1300
 1714.0000     0.5356     1.1563
 1714.5000     0.5358     1.1825
 1715.0000     0.5361     1.2088
 1715.5000     0.5363     1.2350
 1716.0000     0.5365     1.2612
 1716.5000     0.5368     1.2875
 1717.0000     0.5370     1.3137
 1717.5000     0.5373     1.3399
 1718.0000     0.5375     1.3662
 1718.5000     0.5377     1.3924
 1719.0000     0.5380     1.4186
 1719.5000     0.5382     1.4449
 1720.0000     0.5384     1.4711
 1720.5000     0.5371     1.4974
 1721.0000     0.5359     1.5236
 1721.5000     0.5347     1.5498
 1722.0000     0.5335     1.5761
 1722.5000     0.5323     1.6023
 1723.0000     0.5311     1.6285
 1723.5000     0.5299     1.6548
 1724.0000     0.5287     1.6810
 1724.5000     0.5275     1.7072
 1725.0000     0.5263     1.7335
 1725.5000     0.5251     1.7597
 1726.0000     0.5240     1.7860
 1726.5000     0.5228     1.8122
 1727.0000     0.5216     1.8039
 1727.5000     0.5204     1.7647
 1728.0000     0.5212     1.7254
 1728.5000     0.5219     1.6862
 1729.0000     0.5226     1.6470
 1729.5000     0.5233     1.6078
 1730.0000     0.5240     1.5686
 1730.5000     0.5248     1.5294
 1731.0000     0.5255     1.4902
 1731.5000     0.5262     1.4509
 1732.0000     0.5269     1.4117
 1732.5000     0.5276     1.3725
 1733.0000     0.5284     1.3333
 1733.5000     0.5291     1.2941
 1734.0000     0.5298     1.2549
 1734.5000     0.5305     1.2157
 1735.0000     0.5312     1.1764
 1735.5000     0.5320     1.1372
 1736.0000     0.5327     1.0980
 1736.5000     0.5334     1.0588
 1737.0000     0.5341     1.0196
 1737.5000     0.5349     0.9804
 1738.0000     0.5356     0.9412
 1738.5000     0.5363     0.9019
 1739.0000     0.5370     0.8627
 1739.5000     0.5377     0.8235
 1740.0000     0.5385     0.7843
 1740.5000     0.5389     0.7451
 1741.0000     0.5389     0.7059
 1741.5000     0.5388     0.6667
 1742.0000     0.5387     0.6274
 1742.5000     0.5387     0.5882
 1743.0000     0.5386     0.5490
 1743.5000     0.5385     0.5098
 1744.0000     0.5385     0.4706
 1744.5000     0.5384     0.4314
 1745.0000     0.5383     0.3922
 1745.5000     0.5382     0.3529
 1746.0000     0.5382     0.3137
 1746.5000     0.5381     0.2745
 1747.0000     0.5380     0.2353
 1747.5000     0.5380     0.1961
 1748.0000     0.5379     0.1569
 1748.5000     0.5378     0.1177
 1749.0000     0.5378     0.0784
 1749.5000     0.5377     0.0392
 1750.0000     0.5376     0.0000
 1750.5000     0.5376     0.0000
 1751.0000     0.5374     0.0000
 1751.5000     0.5370     0.0000
 1752.0000     0.5365     0.0000
 1752.5000     0.5361     0.0033
 1753.0000     0.5357     0.0347
 1753.5000     0.5352     0.0661
 1754.0000     0.5348     0.0975
 1754.5000     0.5344     0.1288
 1755.0000     0.5339     0.1602
 1755.5000     0.5335     0.1916
 1756.0000     0.5331     0.2230
 1756.5000     0.5327     0.2543
 1757.0000     0.5322     0.2857
 1757.5000     0.5318     0.3171
 1758.0000     0.5314     0.3485
 1758.5000     0.5309     0.3799
 1759.0000     0.5305     0.4112
 1759.5000     0.5301     0.4426
 1760.0000     0.5297     0.4740
 1760.5000     0.5292     0.5054
 1761.0000     0.5288     0.5367
 1761.5000     0.5284     0.5426
 1762.0000     0.5279     0.5487
 1762.5000     0.5275     0.5549
 1763.0000     0.5271     0.5611
 1763.5000     0.5266     0.5673
 1764.0000     0.5262     0.5735
