~VERSION INFORMATION
 VERS.                2.0:   CWLS LOG ASCII STANDARD - VERSION 2.0
 WRAP.                 NO:   ONE LINE PER DEPTH STEP
~WELL INFORMATION
#MNEM.UNIT      DATA TYPE    INFORMATION
#----------   ------------   ------------------------------
 STRT.F           30.0000:   START DEPTH
 STOP.F          634.0000:   STOP DEPTH
 STEP.F            0.5000:   STEP LENGTH
 NULL.          -999.2500:   NO VALUE
 COMP. FENIX & SCISSON INC:   COMPANY
 WELL.     26-S-11 #26-11:   WELL
 FLD .             TEAPOT:   FIELD
 LOC .      S11 T38N R78W:   LOCATION
 CNTY.            NATRONA:   COUNTY
 STAT.            WYOMING:   STATE
 CTRY. UNITED STATES OF AMERICA:   COUNTRY
 SRVC.              Welex:   SERVICE COMPANY
 DATE.        26-APR-1977:   LOGDATE
 API .       490251034300:   API NUMBER
~CURVE INFORMATION
#MNEM.UNIT       API CODE    CURVE DESCRIPTION
#----------   ------------   ------------------------------
 DEPT.F                  :   
 SPR .MV     07 010 01 00:   SPONTANEOUS POTENTIAL
 ILD .OHMM   07 120 46 00:   INDUCTION LOG DEEP
 ILM .OHMM   07 120 44 00:   INDUCTION LOG MEDIUM
 SGRD.OHMM   07 221 05 00:   SHALLOW SHORT GUARD RESISTIVITY
 CALD.IN     45 280 60 00:   CALIPER FROM DENSITY LOG
 GRD .GAPI   45 310 01 00:   GAMMA RAY FROM DENSITY LOG
 CORR.G/C3   45 356 01 00:   DENSITY CORRECTION
 DPHI.DEC    45 890 12 00:   DENSITY POROSITY SANDSTONE
 RHOB.G/C3   45 350 01 00:   BULK DENSITY
~PARAMETER INFORMATION
#MNEM.UNIT          VALUE    DESCRIPTION
#----------   ------------   ------------------------------
 PD  .                 GL:   PERMANENT DATUM
 EPD .F              5179:   ELEVATION PERMANENT DATUM
 LMF .                 GL:   LOG MEASURED FROM
 DMF .                 GL:   DRILLING MEASURED FROM
 EGL .F              5179:   GROUND LEVEL
 DATE.          4-24-1977:   RUN DATE
 RUN .                  1:   RUN NUMBER
 DD  .F               645:   DEPTH DRILLER
 DL  .F               634:   DEPTH LOGGER
 BLI .F               632:   BOTTOM LOG INTERVAL
 TLI .F                40:   TOP LOG INTERVAL
 CS  .IN            8.625:   CASING SIZE
 CBD .F                40:   CASING BOTTOM DRILLER
 CBL .F                42:   CASING BOTTOM LOGGER
 BS  .IN            7.875:   BIT SIZE
 BSD .F               645:   BIT SIZE AT DEPTH
 DFT .            KCL MUD:   DRILLING FLUID TYPE
 DFD .                8.8:   DRILLING FLUID DENSITY
 DFV .                 33:   DRILLING FLUID VISCOSITY
 DFPH.                7.5:   DRILLING FLUID PH
 DFL .                 96:   DRILLING FLUID LOSS
 MSS .           FLOWLINE:   MUD SAMPLE SOURCE
 RMS .OHMM            .17:   RESISTIVITY MUD SAMPLE
 MST .F                81:   MUD SAMPLE TEMPERATURE
 RMF .OHMM            .16:   RESISTIVITY MUD FILTRATE SAMPLE
 MFST.F                81:   MUD FILTRATE SAMPLE TEMPERATURE
 RMC .OHMM            .21:   RESISTIVITY MUD CAKE
 MCST.F                81:   MUD CAKE SAMPLE TEMPERATURE
 MFSS.           FANN KIT:   MUD FILTRATE SAMPLE SOURCE
 MCSS.           FANN KIT:   MUD CAKE SAMPLE SOURCE
 RMB .OHMM            .19:   RESISTIVITY MUD AT BHT
 BHT .F                72:   BOTTOM HOLE TEMPERATURE
 TCS .HRS             1.5:   TIME CURCULATED STOPPED
 MRT .F                72:   MAXIMUM RECORDED TEMPERATURE
 LUN .                861:   LOGGING UNIT NUMBER
 LUL .           GILLETTE:   LOGGING UNIT LOCATION
 ENGI.             JOYNER:   RECORDING ENGINEER
 WITN.           ROB LYON:   WITNESSED BY
 CLNT.            A2DTECH:   CLIENT CODE
 ORIG.         2.5" PRINT:   ORIGIN OF DATA
 UWI .       490251034300:   UNIQUE WELL ID
 DICO. A2D Technologies, Inc.:   DIGITIZING COMPANY
~OTHER INFORMATION
~A   DEPT      SPR        ILD        ILM       SGRD       CALD        GRD       CORR       DPHI       RHOB   
# ...
  212.5000   -29.0786     7.6557     7.8008    10.8800     7.9791   121.7376     0.0093     0.1114     2.4608
  213.0000   -29.0816     7.6557     7.7998    10.8785     7.9797   123.8235     0.0092     0.1121     2.4622
  213.5000   -29.0846     7.6557     7.7987    10.8770     7.9802   124.7009     0.0092     0.1138     2.4637
  214.0000   -28.7855     7.6557     7.7976    10.8755     7.9808   121.1784     0.0091     0.1101     2.4677
  214.5000   -28.7885     7.6557     7.7965    10.9100     7.9814   117.9497     0.0121     0.1053     2.4759
  215.0000   -28.7915     7.6557     7.7954    11.2107     7.9819   116.4805     0.0150     0.1003     2.4846
  215.5000   -28.7945     7.6557     7.9051    11.3641     7.9825   118.2371     0.0149     0.0981     2.4866
  216.0000   -28.7976     7.6557     7.9039    11.3224     7.9831   120.2870     0.0149     0.0972     2.4872
  216.5000   -28.8006     7.7151     7.7921    11.3209     7.9836   118.8178     0.0160     0.0972     2.4872
  217.0000   -28.8036     7.7025     7.7910    11.4746     7.9842   118.0704     0.0178     0.0972     2.4872
  217.5000   -28.8066     7.6557     7.6808    11.4729     7.9835   120.8647     0.0189     0.0972     2.4871
  218.0000   -28.8096     7.6557     7.6798    11.4713     7.9828   122.3281     0.0207     0.0972     2.4871
  218.5000   -28.8126     7.4440     7.5711    11.2676     7.9821   120.8589     0.0206     0.0978     2.4871
  219.0000   -28.8157     7.4440     7.5701    11.1126     7.9814   119.6830     0.0206     0.0979     2.4870
  219.5000   -28.8187     7.3404     7.4630    10.8593     7.9808   118.5070     0.0205     0.0985     2.4870
  220.0000   -28.8218     7.3404     7.4620    10.8578     7.9801   119.9704     0.0205     0.0991     2.4855
  220.5000   -28.8248     7.2382     7.4520    10.7097     7.9794   117.3282     0.0204     0.0997     2.4825
  221.0000   -29.1299     7.2382     7.3554    10.5635     7.9787   114.9792     0.0204     0.1003     2.4795
  221.5000   -29.1330     7.2382     7.3543    10.5109     7.9781   116.1493     0.0174     0.1020     2.4751
  222.0000   -29.1360     7.1374     7.3533    10.3663     7.9774   118.4924     0.0144     0.1046     2.4735
  222.5000   -29.1390     7.0381     7.3523    10.2757     7.9767   118.8245     0.0114     0.1076     2.4691
  223.0000   -29.1420     7.0381     7.2483    10.2743     7.9760   117.3136     0.0097     0.1105     2.4676
  223.5000   -29.1450     6.9401     7.1457    10.1341     7.9753   116.4309     0.0083     0.1136     2.4631
  224.0000   -29.1480     6.9401     7.1447    10.1327     7.9747   115.2550     0.0082     0.1139     2.4616
  224.5000   -29.1511     6.8435     7.1437    10.1314     7.9740   115.2521     0.0082     0.1119     2.4660
  225.0000   -29.2296     6.8435     7.1177    10.1300     7.9733   114.9559     0.0129     0.1086     2.4748
  225.5000   -29.4592     6.7482     7.0417    10.2673     7.9726   115.8327     0.0188     0.1024     2.4852
  226.0000   -29.4622     6.7482     7.0407    10.2660     7.9719   118.1759     0.0199     0.0934     2.4940
  226.5000   -29.4652     6.7482     7.0397    10.2646     7.9713   119.6392     0.0199     0.0906     2.4984
  227.0000   -29.4682     6.8435     7.0387    10.2632     7.9706   118.7565     0.0228     0.0897     2.4969
  227.5000   -29.4713     6.8435     7.1378    10.4023     7.9699   118.4604     0.0257     0.0867     2.4984
  228.0000   -29.4743     6.9401     7.1367    10.5434     7.9692   117.5777     0.0257     0.0835     2.5043
  228.5000   -29.4773     6.9401     7.2759    10.6106     7.9686   117.2815     0.0286     0.0796     2.5101
  229.0000   -29.4803     7.0381     7.3390    10.6849     7.9679   117.8768     0.0286     0.0763     2.5131
  229.5000   -29.4834     7.2382     7.4420    10.7554     7.9672   119.3285     0.0285     0.0775     2.5116
  230.0000   -29.4865     7.2382     7.5466    10.8283     7.9665   118.1329     0.0285     0.0817     2.5086
  230.5000   -29.7916     7.2382     7.6431    11.0516     7.9658   116.9633     0.0255     0.0843     2.5041
  231.0000   -29.7946     7.2382     7.7604    11.3561     7.9652   116.3871     0.0225     0.0852     2.4996
  231.5000   -29.7976     7.2382     7.8695    11.5114     7.9645   116.3441     0.0194     0.0862     2.4996
  232.0000   -29.8006     7.2382     7.9801    11.7429     7.9638   114.8445     0.0164     0.0889     2.4996
  232.5000   -29.8036     7.2382     8.1527    11.3425     7.9631   112.7248     0.0105     0.0909     2.4981
  233.0000   -29.8067     7.2382     8.2695    11.2702     7.9625   110.4497     0.0074     0.0940     2.4906
  233.5000   -29.8097     7.1374     8.3215    11.2687     7.9618   111.0029     0.0074     0.1025     2.4817
  234.0000   -29.8127     7.1374     8.4385    11.1148     7.9611   113.9160     0.0074     0.1085     2.4743
  234.5000   -29.8157     7.0381     8.5572    11.1133     7.9604   116.5288     0.0073     0.1105     2.4669
  235.0000   -29.5166     7.0381     8.6775    11.2006     7.9597   118.9296     0.0102     0.1096     2.4639
  235.5000   -29.2175     7.0563     8.6761    11.4168     7.9591   121.2425     0.0132     0.1068     2.4683
  236.0000   -29.2206     7.1374     8.4336    11.7298     7.9584   123.2043     0.0161     0.1034     2.4742
  236.5000   -29.0781     7.1374     8.4324    11.8891     7.9577   124.3270     0.0160     0.1010     2.4771
  237.0000   -29.0665     7.2382     8.3131    10.9555     7.9570   124.8566     0.0190     0.1002     2.4801
  237.5000   -28.9275     7.2382     8.1956    10.8060     7.9564   119.6236     0.0189     0.1052     2.4800
  238.0000   -28.9305     7.2382     8.1944    10.6585     7.9557   117.1964     0.0189     0.1070     2.4770
  238.5000   -28.9335     7.2382     8.0785    10.6570     7.9550   115.1701     0.0188     0.1082     2.4711
  239.0000   -28.9366     7.2382     8.0774    10.6556     7.9543   114.8743     0.0217     0.1076     2.4666
  239.5000   -28.9396     7.2705     8.0763    10.6542     7.9536   116.2683     0.0217     0.1058     2.4696
  240.0000   -28.6405     7.3404     7.9620    10.6527     7.9530   117.8010     0.0217     0.0999     2.4828
  240.5000   -28.3414     7.4440     7.9609    10.6513     7.9523   115.2884     0.0216     0.0934     2.4907
  241.0000   -28.0429     7.4825     8.0730    11.0935     7.9516   115.7888     0.0216     0.0886     2.4991
  241.5000   -28.0459     7.5899     8.1865    11.5541     7.9509   118.8206     0.0215     0.0839     2.5020
  242.0000   -28.0489     7.6557     8.3015    11.7109     7.9503   120.9971     0.0215     0.0815     2.5080
  242.5000   -27.7493     7.7637     8.3004    11.8695     7.9496   122.1852     0.0214     0.0809     2.5123
  243.0000   -27.4506     7.8733     8.4171    11.8679     7.9489   119.4409     0.0244     0.0815     2.5062
  243.5000   -27.1515     8.0352     8.5355    12.0291     7.9482   117.0782     0.0243     0.0833     2.5033
  244.0000   -27.1545     8.1506     8.6555    12.1922     7.9475   114.3777     0.0243     0.0857     2.5034
  244.5000   -26.8550     8.2676     8.7772    12.3573     7.9469   110.1272     0.0272     0.0851     2.5048
  245.0000   -26.5559     8.3862     8.9007    12.3556     7.9462   106.6276     0.0272     0.0833     2.5078
  245.5000   -26.2568     8.5642     9.1540    12.5232     7.9455   109.4085     0.0271     0.0821     2.5106
  246.0000   -25.9577     8.6852     9.2828    12.6930     7.9448   113.1809     0.0268     0.0845     2.5032
  246.5000   -25.9611     8.8078     9.4133    13.0413     7.9442   114.5368     0.0238     0.0863     2.5017
  247.0000   -25.6616     9.0036     9.5533    13.3992     7.9435   112.6042     0.0208     0.0875     2.5015
  247.5000   -25.6650     9.1328     9.8174    13.5809     7.9428   109.4184     0.0180     0.0881     2.5000
  248.0000   -25.6680     9.3158     9.9686    13.7653     7.9421   107.6774     0.0176     0.0881     2.4984
  248.5000   -25.6710     9.5807    10.2389    13.9519     7.9414   106.9003     0.0150     0.0893     2.4969
