~VERSION INFORMATION
 VERS.                2.0:   CWLS LOG ASCII STANDARD - VERSION 2.0
 WRAP.                 NO:   ONE LINE PER DEPTH STEP
~WELL INFORMATION
#MNEM.UNIT      DATA TYPE    INFORMATION
#----------   ------------   ------------------------------
 STRT.F           38.0000:   START DEPTH
 STOP.F          663.5000:   STOP DEPTH
 STEP.F            0.5000:   STEP LENGTH
 NULL.          -999.2500:   NO VALUE
 COMP. FENIX & SCISSON INC:   COMPANY
 WELL.   NPR SX #3 #35-34:   WELL
 FLD .             TEAPOT:   FIELD
 LOC .      S34 T39N R78W:   LOCATION
 CNTY.            NATRONA:   COUNTY
 STAT.            WYOMING:   STATE
 CTRY. UNITED STATES OF AMERICA:   COUNTRY
 SRVC.       Schlumberger:   SERVICE COMPANY
 DATE.        21-MAR-1977:   LOGDATE
 API .       490251031500:   API NUMBER
~CURVE INFORMATION
#MNEM.UNIT       API CODE    CURVE DESCRIPTION
#----------   ------------   ------------------------------
 DEPT.F                  :   
 SPR .MV     07 010 01 00:   SPONTANEOUS POTENTIAL
 LL8 .OHMM   07 220 08 00:   LATEROLOG-8 RES.
 ILD .OHMM   07 120 46 00:   INDUCTION LOG DEEP
 ILM .OHMM   07 120 44 00:   INDUCTION LOG MEDIUM
 CALD.IN     45 280 60 00:   CALIPER
 RHOB.G/C3   45 350 01 00:   BULK DENSITY
 DPHI.DEC    45 890 12 00:   DENSITY POROSITY SANDSTONE
 CORR.G/C3   45 356 01 00:   DENSITY CORRECTION
 GRD .GAPI   45 310 01 00:   GAMMA RAY FROM DENSITY LOG
~PARAMETER INFORMATION
#MNEM.UNIT          VALUE    DESCRIPTION
#----------   ------------   ------------------------------
 PD  .                 GL:   PERMANENT DATUM
 EPD .F              5081:   ELEVATION PERMANENT DATUM
 LMF .                 GL:   LOG MEASURED FROM
 DMF .                 KB:   DRILLING MEASURED FROM
 EKB .F              5086:   KELLING BUSHING
 EGL .F              5081:   GROUND LEVEL
 DATE.          3-21-1977:   RUN DATE
 RUN .                  1:   RUN NUMBER
 DD  .F               670:   DEPTH DRILLER
 DL  .F               665:   DEPTH LOGGER
 BLI .F               659:   BOTTOM LOG INTERVAL
 TLI .F                40:   TOP LOG INTERVAL
 CS  .IN            8.625:   CASING SIZE
 CBD .F                40:   CASING BOTTOM DRILLER
 CBL .F                40:   CASING BOTTOM LOGGER
 BS  .IN            7.875:   BIT SIZE
 BSD .F               670:   BIT SIZE AT DEPTH
 DFT .           CHEM GEL:   DRILLING FLUID TYPE
 DFV .                 33:   DRILLING FLUID VISCOSITY
 MSS .           MUD TANK:   MUD SAMPLE SOURCE
 RMS .OHMM           4.98:   RESISTIVITY MUD SAMPLE
 MST .F                53:   MUD SAMPLE TEMPERATURE
 RMF .OHMM           4.94:   RESISTIVITY MUD FILTRATE SAMPLE
 MFST.F                53:   MUD FILTRATE SAMPLE TEMPERATURE
 RMC .OHMM            2.5:   RESISTIVITY MUD CAKE
 MCST.F                53:   MUD CAKE SAMPLE TEMPERATURE
 MFSS.                  M:   MUD FILTRATE SAMPLE SOURCE
 MCSS.                  C:   MUD CAKE SAMPLE SOURCE
 RMB .OHMM              4:   RESISTIVITY MUD AT BHT
 BHT .F                65:   BOTTOM HOLE TEMPERATURE
 TCS .HRS            1000:   TIME CURCULATED STOPPED
 TLAB.HRS            1400:   TIME LOGGER AT BOTTOM
 MRT .F                65:   MAXIMUM RECORDED TEMPERATURE
 LUN .               7742:   LOGGING UNIT NUMBER
 LUL .                GLT:   LOGGING UNIT LOCATION
 ENGI.               LANE:   RECORDING ENGINEER
 WITN.              BURKE:   WITNESSED BY
 CLNT.            A2DTECH:   CLIENT CODE
 ORIG.       2", 5" PRINT:   ORIGIN OF DATA
 UWI .       490251031500:   UNIQUE WELL ID
 DICO. A2D Technologies, Inc.:   DIGITIZING COMPANY
~OTHER INFORMATION
~A   DEPT      SPR        LL8        ILD        ILM       CALD       RHOB       DPHI       CORR         GRD  
# ...
  622.0000   -52.0209    11.8235    11.2100     8.9320     7.9878     2.4873     0.1002     0.0214   115.3715
  622.5000   -51.8953    12.0193    11.3978     8.9731     7.9851     2.4914     0.0980     0.0232   116.1619
  623.0000   -51.7696    12.2184    11.5887     9.0723     7.9824     2.4957     0.0939     0.0248   114.0857
  623.5000   -51.6438    12.4208    11.7829     9.2619     7.9798     2.4999     0.0898     0.0264   110.0111
  624.0000   -51.5181    12.6266    11.9803     9.4555     7.9771     2.4991     0.0882     0.0244   106.7696
  624.5000   -51.3923    12.8357    12.1810     9.6531     7.9744     2.4929     0.0983     0.0179   104.2050
  625.0000   -51.2665    13.0484    12.3851     9.7772     7.9718     2.4918     0.1033     0.0232   106.9365
  625.5000   -51.1408    13.2645    12.5446     9.5644     7.9703     2.5057     0.0821     0.0263   109.2209
  626.0000   -51.0150    13.3804    12.5444     9.4624     7.9714     2.5161     0.0837     0.0278   105.5211
  626.5000   -50.8892    13.2987    12.5435     9.3363     7.9725     2.5184     0.0801     0.0345   100.5577
  627.0000   -50.7634    13.2423    12.5437     9.4299     7.9736     2.5138     0.0822     0.0290    98.2151
  627.5000   -50.6370    13.1855    12.5423     9.5563     7.9747     2.5092     0.0882     0.0368    99.1401
  628.0000   -50.5107    13.1357    12.6851     9.6844     7.9758     2.4952     0.0967     0.0278    97.6633
  628.5000   -50.4139    13.3779    12.8257     9.8144     7.9769     2.4842     0.1017     0.0338   101.1080
  629.0000   -50.5592    13.6078    12.9671     9.9456     7.9780     2.4909     0.0942     0.0356   106.7801
  629.5000   -50.7026    13.8821    13.1357    10.0516     7.9790     2.4791     0.1043     0.0198   106.3705
  630.0000   -50.8454    13.6353    13.0061    10.0331     7.9801     2.4561     0.1166     0.0108   101.2571
  630.5000   -50.9880    13.3372    12.8501    10.0177     7.9812     2.4635     0.1127     0.0136    97.1066
  631.0000   -51.1306    13.1869    12.6960    10.0024     7.9823     2.4723     0.1065     0.0167    94.5971
  631.5000   -51.2733    13.0894    12.5439     9.9871     7.9834     2.4770     0.1040     0.0139    98.4884
  632.0000   -51.4159    13.0151    12.5772     9.9718     7.9845     2.4635     0.1111     0.0095   100.7835
  632.5000   -51.5586    13.1709    12.6126     9.9565     7.9855     2.4522     0.1170     0.0051    99.5368
  633.0000   -51.7012    13.2987    12.6476     9.9413     7.9866     2.4532     0.1171     0.0038    98.2701
  633.5000   -51.8438    13.3804    12.6826     9.9261     7.9877     2.4602     0.1152     0.0081    99.9305
  634.0000   -51.9865    13.2354    12.7178     9.9109     7.9888     2.4686     0.1076     0.0201   106.5351
  634.5000   -52.1291    13.1131    12.7538     9.8957     7.9899     2.4739     0.1080     0.0243   113.3744
  635.0000   -52.2718    12.9920    12.7775     9.8806     7.9910     2.4680     0.1104     0.0126   114.5464
  635.5000   -52.4144    12.8720    12.3924     9.8675     7.9921     2.4734     0.1062     0.0145   109.4950
  636.0000   -52.5570    12.7126    12.1048     9.7220     7.9931     2.4845     0.0998     0.0149   103.2983
  636.5000   -52.6997    12.3992    11.8243     9.5726     7.9942     2.4773     0.1078     0.0126   101.0724
  637.0000   -52.8423    12.0935    11.5504     9.4258     7.9953     2.4799     0.1037     0.0214   112.9399
  637.5000   -52.9850    11.7954    11.2828     9.2813     7.9964     2.4964     0.0960     0.0285   119.8509
  638.0000   -53.1276    11.5046    11.0214     9.1391     7.9975     2.5004     0.0935     0.0383   113.3357
  638.5000   -53.2702    11.1255    10.8913     8.9990     7.9986     2.4994     0.0890     0.0295   106.4273
  639.0000   -53.4129    11.1845    10.8413     8.8611     7.9997     2.4889     0.0996     0.0140   105.6055
  639.5000   -53.5555    11.2748    10.7916     8.7253     8.0007     2.4777     0.1062    -0.0006   106.5767
  640.0000   -53.6982    11.3327    10.7421     8.5916     8.0018     2.4690     0.1109     0.0010   106.9358
  640.5000   -53.8408    11.0979    10.6573     8.4600     8.0029     2.4677     0.1119     0.0030   106.9629
  641.0000   -53.9835    10.9288    10.4997     8.3303     8.0040     2.4707     0.1088     0.0051   108.4821
  641.5000   -54.1261    10.7623    10.3437     8.2027     8.0051     2.4760     0.1066     0.0005   110.1973
  642.0000   -54.2687    10.5983    10.1902     8.0769     8.0062     2.4578     0.1170    -0.0048   112.6763
  642.5000   -54.4114    10.4368    10.0391     7.9075     8.0072     2.4511     0.1134     0.0063   117.1491
  643.0000   -54.5540    10.2777     9.8903     7.9119     8.0083     2.4737     0.1094     0.0152   117.1683
  643.5000   -54.6967    10.1211     9.7437     7.9189     8.0094     2.4752     0.1062     0.0242   116.2018
  644.0000   -54.8396     9.9593     9.5992     7.9261     8.0084     2.4853     0.1012     0.0200   114.8518
  644.5000   -54.9859     9.9845     9.5102     7.9332     8.0050     2.4823     0.1031     0.0258   113.8117
  645.0000   -54.9699    10.0178     9.5709     7.9403     8.0016     2.4871     0.1002     0.0222  -999.2500
  645.5000   -54.9194    10.0512     9.6222     7.9474     7.9981     2.4836     0.1027     0.0168  -999.2500
  646.0000   -54.8684    10.0847     9.6742     7.9545     7.9947     2.4808     0.1046     0.0160  -999.2500
  646.5000   -54.8178    10.1180     9.7269     7.9616     7.9913     2.4876     0.1003     0.0227  -999.2500
  647.0000   -54.7673    10.1444     9.7772     7.9687     7.9878     2.4892     0.0970     0.0181  -999.2500
  647.5000   -54.7167     9.9869     9.6466     7.9759     7.9844     2.4935     0.1010     0.0343  -999.2500
  648.0000   -54.6662     9.8588     9.5206     7.9801     7.9809     2.4884     0.0934     0.0202  -999.2500
  648.5000   -54.6157     9.7322     9.3963     7.8335     7.9775     2.4802     0.1030     0.0112  -999.2500
  649.0000   -54.5651     9.6073     9.2736     7.7222     7.9741     2.4728     0.1102     0.0134  -999.2500
  649.5000   -54.5145     9.4840     9.1525     7.6125     7.9706     2.4772     0.1061     0.0155  -999.2500
  650.0000   -54.4630     9.3623     9.0330     7.5043     7.9672     2.4808     0.1026     0.0122  -999.2500
  650.5000   -54.4120     9.2422     8.9151     7.3978     7.9637     2.4741     0.1080     0.0136  -999.2500
  651.0000   -54.5362     9.1235     8.7987     7.2773     7.9603     2.4674     0.1122     0.0133  -999.2500
  651.5000   -54.6785     9.0064     8.6838     7.3375     7.9569     2.4605     0.1139     0.0088  -999.2500
  652.0000   -54.8204     8.8909     8.5704     7.4088     7.9534     2.4690     0.1101     0.0203  -999.2500
  652.5000   -54.9620     8.7523     8.4585     7.4816     7.9500     2.4844     0.1028     0.0313  -999.2500
  653.0000   -55.1035     8.8398     8.3481     7.2790     7.9465     2.4911     0.0966     0.0352  -999.2500
  653.5000   -55.2451     8.9527     8.2390     7.0797     7.9431     2.4852     0.1005     0.0244  -999.2500
  654.0000   -55.3867     9.0670     8.1315     6.9464     7.9397     2.4794     0.1046     0.0156  -999.2500
  654.5000   -55.5283     9.1828     8.0253     6.9240     7.9362     2.4785     0.1050     0.0196  -999.2500
  655.0000   -55.6700     9.3000     7.9075     6.9018     7.9328     2.4800     0.1054     0.0267  -999.2500
  655.5000   -55.8112     9.4200     7.9597     6.8270     7.9307     2.4870     0.0954     0.0319  -999.2500
  656.0000   -55.9542     9.5116     7.9808     6.6081     7.9354     2.4904     0.0988     0.0209  -999.2500
  656.5000   -55.9389     9.5138     7.8349     6.3963     7.9399     2.4810     0.1028     0.0213  -999.2500
  657.0000   -55.8178     8.3549     7.8349     6.1070     7.9445     2.4795     0.1046     0.0278  -999.2500
  657.5000   -55.6945     7.2105     7.8349     6.1758     7.9490     2.4770     0.1052     0.0227  -999.2500
  658.0000   -55.5713     7.7474     7.7629     6.2964     7.9536     2.4744     0.1059     0.0121  -999.2500
