~VERSION INFORMATION
 VERS.                2.0:   CWLS LOG ASCII STANDARD - VERSION 2.0
 WRAP.                 NO:   ONE LINE PER DEPTH STEP
~WELL INFORMATION
#MNEM.UNIT      DATA TYPE    INFORMATION
#----------   ------------   ------------------------------
 STRT.F           35.0000:   START DEPTH
 STOP.F          736.0000:   STOP DEPTH
 STEP.F            0.5000:   STEP LENGTH
 NULL.          -999.2500:   NO VALUE
 COMP. US DEPTMNT OF ENRGY:   COMPANY
 WELL.       NPR 3 #73-15:   WELL
 FLD .   TEAPOT NAVAL RES:   FIELD
 LOC .      S15 T38N R78W:   LOCATION
 CNTY.            NATRONA:   COUNTY
 STAT.            WYOMING:   STATE
 CTRY. UNITED STATES OF AMERICA:   COUNTRY
 SRVC.           Gearhart:   SERVICE COMPANY
 DATE.        02-SEP-1987:   LOGDATE
 API .       490251122300:   API NUMBER
~CURVE INFORMATION
#MNEM.UNIT       API CODE    CURVE DESCRIPTION
#----------   ------------   ------------------------------
 DEPT.F                  :   
 GRR .GAPI   07 310 01 00:   GAMMA RAY
 RILD.OHMM   07 120 46 00:   INDUCTION LOG DEEP RESISTIVITY
 RILM.OHMM   07 120 44 00:   INDUCTION LOG MEDIUM RESISTIVITY
~PARAMETER INFORMATION
#MNEM.UNIT          VALUE    DESCRIPTION
#----------   ------------   ------------------------------
 PD  .                 GL:   PERMANENT DATUM
 LMF .                 KB:   LOG MEASURED FROM
 DAPD.F              10.5:   FEET ABOVE PERMANENT DATUM
 DMF .                 KB:   DRILLING MEASURED FROM
 DATE.        02-SEP-1987:   RUN DATE
 RUN .                  1:   RUN NUMBER
 DD  .F               740:   DEPTH DRILLER
 DL  .F               743:   DEPTH LOGGER
 BLI .F               735:   BOTTOM LOG INTERVAL
 TLI .F                30:   TOP LOG INTERVAL
 CS  .IN            9.625:   CASING SIZE
 CBD .F               740:   CASING BOTTOM DRILLER
 CBL .F                40:   CASING BOTTOM LOGGER
 BS  .IN             8.75:   BIT SIZE
 BSD .F               740:   BIT SIZE AT DEPTH
 DFT .                AIR:   DRILLING FLUID TYPE
 TCS .HRS            0230:   TIME CURCULATED STOPPED
 TLAB.HRS            0447:   TIME LOGGER AT BOTTOM
 MRT .F                80:   MAXIMUM RECORDED TEMPERATURE
 LUN .               7697:   LOGGING UNIT NUMBER
 LUL .           GILLETTE:   LOGGING UNIT LOCATION
 ENGI.         WEATHERMON:   RECORDING ENGINEER
 WITN.             STRONG:   WITNESSED BY
 CLNT.            A2DTECH:   CLIENT CODE
 ORIG.           5" PRINT:   ORIGIN OF DATA
 UWI .       490251122300:   UNIQUE WELL ID
 DICO. A2D Technologies, Inc.:   DIGITIZING COMPANY
~OTHER INFORMATION
~A   DEPT       GRR      RILD       RILM   
# ...
  581.0000    88.9365    12.8719    12.8711
  581.5000    90.7308    12.8764    12.8766
  582.0000    88.3436    12.8808    12.8810
  582.5000    86.8628    12.8852    12.7951
  583.0000    87.1947    12.8895    12.7119
  583.5000    89.3393    12.8047    12.8049
  584.0000    91.4839    12.8092    12.8093
  584.5000    92.7222    12.8136    12.8137
  585.0000    94.5647    12.8189    12.8181
  585.5000    96.1050    12.9128    12.9120
  586.0000    93.7179    12.9172    13.0065
  586.5000    91.3308    13.0118    13.1027
  587.0000    90.1521    13.1984    13.1072
  587.5000    89.8792    13.2951    13.2031
  588.0000    89.0032    13.2996    13.2077
  588.5000    88.7309    13.3042    13.2122
  589.0000    88.4586    13.3087    13.2167
  589.5000    88.1862    13.3133    13.1296
  590.0000    87.6118    13.1340    13.0420
  590.5000    88.2533    12.9571    12.9561
  591.0000    90.3979    12.7826    12.6941
  591.5000    93.1467    12.5230    12.5230
  592.0000    96.1976    12.1805    12.3544
  592.5000    96.8242    11.9365    12.1881
  593.0000    95.3509    11.8578    12.0184
  593.5000    93.2658    11.8629    11.6982
  594.0000    91.1808    11.8670    11.4617
  594.5000    90.2968    11.9538    11.3063
  595.0000    90.9383    12.1253    11.3901
  595.5000    92.1765    12.4715    11.6341
  596.0000    93.4148    12.8275    11.8833
  596.5000    93.1420    13.2857    12.4801
  597.0000    90.4532    13.9529    13.6650
  597.5000    83.7613    15.0668    15.2778
  598.0000    77.7604    16.2697    16.4975
  598.5000    76.9474    17.2059    17.5685
  599.0000    78.4952    17.8206    18.5795
  599.5000    79.7335    18.5859    19.5126
  600.0000    80.0634    19.5211    20.2096
  600.5000    79.7965    19.2620    20.3619
  601.0000    78.0191    18.7440    19.9288
  601.5000    75.9396    18.2399    19.1503
  602.0000    74.1309    18.1209    18.5062
  602.5000    73.8954    18.0052    18.1317
  603.0000    75.1479    17.7684    17.8911
  603.5000    75.4853    17.5329    17.9033
  604.0000    76.4270    17.2908    17.7865
  604.5000    76.4622    16.8151    17.6729
  605.0000    75.5912    16.3822    17.2000
  605.5000    74.4180    16.0550    16.2785
  606.0000    73.8491    15.6233    15.7224
  606.5000    73.2801    15.2031    15.2948
  607.0000    74.5327    14.7942    14.7951
  607.5000    76.3807    14.4968    14.4977
  608.0000    78.8329    14.2053    14.4031
  608.5000    82.1914    14.2131    14.4129
  609.0000    82.8221    14.2221    14.4208
  609.5000    81.6489    14.4387    14.4286
  610.0000    80.4846    14.5382    14.4365
  610.5000    79.6135    14.6476    14.4443
  611.0000    79.6758    14.4532    14.4522
  611.5000    80.9013    14.2614    14.3599
  612.0000    81.2387    14.1703    14.3679
  612.5000    79.7635    14.1780    14.3759
  613.0000    78.2882    14.1857    14.3853
  613.5000    76.5108    14.1934    14.2915
  614.0000    77.7545    14.2012    14.3001
  614.5000    80.2067    14.2090    14.3090
  615.0000    79.9399    14.2169    14.3168
  615.5000    79.0463    14.1258    14.3246
  616.0000    78.4999    14.2340    14.3324
  616.5000    81.2630    14.2417    14.3402
  617.0000    84.3194    14.2495    14.2485
  617.5000    85.5632    14.1565    14.2564
  618.0000    85.2875    14.0680    14.1653
  618.5000    85.3316    14.0757    14.2738
  619.0000    85.9711    14.0833    14.2816
  619.5000    86.6107    14.0910    14.2894
  620.0000    88.1571    14.0988    14.1962
  620.5000    88.1918    14.1066    14.2059
  621.0000    87.0274    14.1159    14.2136
  621.5000    85.8543    14.0257    14.1209
  622.0000    84.3790    13.9342    14.0307
  622.5000    83.8012    13.7493    13.7505
  623.0000    85.3559    13.5687    13.6627
  623.5000    87.5060    13.3887    13.3880
  624.0000    88.7497    13.3013    13.1189
  624.5000    89.1047    13.3104    12.7678
  625.0000    89.7281    13.3176    12.5967
  625.5000    90.0728    13.3250    12.4312
  626.0000    90.1081    13.3339    12.3501
  626.5000    87.7265    13.3411    12.3585
  627.0000    86.2512    13.2541    12.2779
  627.5000    84.4738    13.0800    12.2863
  628.0000    83.8510    13.0864    12.1233
  628.5000    84.5444    13.0943    12.0457
  629.0000    84.2639    13.1014    12.0524
  629.5000    83.1044    13.1999    12.1529
  630.0000    81.9400    13.2992    12.4074
  630.5000    82.2774    13.3993    12.5880
  631.0000    84.1254    13.4068    12.7711
  631.5000    84.4628    13.3227    12.9570
  632.0000    84.4981    13.3300    12.9640
  632.5000    83.3161    13.1338    12.9711
  633.0000    82.1511    13.0682    12.9781
  633.5000    80.9785    12.9849    12.8935
  634.0000    80.0645    12.9009    12.9023
  634.5000    79.8406    12.8185    12.8198
  635.0000    81.0932    12.7381    12.7380
  635.5000    82.3369    12.7453    12.7452
  636.0000    83.5807    12.7523    12.7523
  636.5000    83.6160    12.7594    12.7594
  637.0000    82.7449    12.7678    12.7675
  637.5000    82.1760    12.7747    12.8627
  638.0000    81.3049    12.7817    12.8706
  638.5000    83.8411    12.7886    12.8776
  639.0000    86.2181    12.7956    12.8846
  639.5000    89.2746    12.8025    12.8916
  640.0000    91.1137    12.8095    12.8092
  640.5000    89.0430    12.8165    12.8163
  641.0000    88.7674    12.8234    12.7906
  641.5000    88.8115    12.7415    12.7413
  642.0000    87.9396    12.6452    12.7500
  642.5000    87.6736    12.5793    12.7569
  643.0000    87.7100    12.4989    12.6745
  643.5000    88.0551    12.5074    12.6816
  644.0000    87.7882    12.5135    12.6886
  644.5000    86.9172    12.4326    12.6962
  645.0000    87.8588    12.4411    12.7031
  645.5000    89.1026    12.3616    12.5345
  646.0000    90.3463    12.3683    12.5414
  646.5000    91.5900    12.3751    12.4562
  647.0000    91.6254    12.3819    12.2959
  647.5000    92.3012    12.3902    12.2174
  648.0000    93.8195    12.3969    12.2257
  648.5000    95.0633    12.4036    12.2324
  649.0000    96.0049    12.3227    12.2390
  649.5000    96.9465    12.1609    12.2457
  650.0000    98.1873    12.0816    12.1384
  650.5000    99.1148    11.8360    11.9193
  651.0000   100.3484    11.6764    11.9226
  651.5000   101.8796    11.6797    11.9258
  652.0000   101.9002    11.6829    11.8464
  652.5000   101.9207    11.6862    11.8498
  653.0000   101.6341    11.7715    11.8537
  653.5000   101.0556    11.8569    11.8569
  654.0000    99.5656    11.8601    11.9428
  654.5000    97.1692    11.8633    11.9461
  655.0000    95.6792    11.8665    11.9493
  655.5000    96.6113    11.8698    11.8698
  656.0000    98.7467    11.7906    11.7906
  656.5000   101.1842    11.7939    11.7122
  657.0000   101.5018    11.6343    11.6343
  657.5000    98.8084    11.5568    11.6375
  658.0000    97.3185    11.5607    11.4806
  658.5000    94.6200    11.4830    11.4034
  659.0000    94.0362    11.4869    11.2498
  659.5000    94.0845    11.4096    11.0206
  660.0000    94.9890    11.2552    10.9473
  660.5000    96.5202    11.0266    10.8737
  661.0000    97.7492    10.9525    10.8013
  661.5000    99.5825    10.8049    10.8049
  662.0000   101.4157    10.7330    10.7330
  662.5000   103.2490    10.7298    10.7360
  663.0000   104.4781    10.6644    10.7390
  663.5000   105.1029    10.5208    10.6673
  664.0000   106.0543    10.4368    10.5236
  664.5000   108.1703    10.3639    10.4529
  665.0000   107.5867    10.1697    10.3113
  665.5000   107.0030    10.0320    10.1717
  666.0000   107.0236     9.8955    10.0347
  666.5000   107.3463     9.8302     9.8989
  667.0000   107.9711     9.3660     9.6972
  667.5000   108.2938     8.7913     9.5659
  668.0000   107.4081     7.9544     9.2231
  668.5000   106.5223     7.1482     8.5049
  669.0000   106.8501     6.7166     7.9360
  669.5000   108.3813     6.4889     7.1026
  670.0000   114.7463     6.3567     5.7672
  670.5000   122.3197     6.2272     5.1258
  671.0000   133.8207     6.1853     4.9863
  671.5000   140.4878     6.2306     5.0228
