~VERSION INFORMATION
 VERS.                2.0:   CWLS LOG ASCII STANDARD - VERSION 2.0
 WRAP.                 NO:   ONE LINE PER DEPTH STEP
~WELL INFORMATION
#MNEM.UNIT      DATA TYPE    INFORMATION
#----------   ------------   ------------------------------
 STRT.F            0.0000:   START DEPTH
 STOP.F          547.0000:   STOP DEPTH
 STEP.F            0.1000:   STEP LENGTH
 NULL.          -999.2500:   NO VALUE
 COMP.       F D SERV INC:   COMPANY
 WELL.    87-5 SX 3 #87-3:   WELL
 FLD .             TEAPOT:   FIELD
 LOC .       S3 T38N R78W:   LOCATION
 CNTY.            NATRONA:   COUNTY
 STAT.            WYOMING:   STATE
 CTRY. UNITED STATES OF AMERICA:   COUNTRY
 SRVC.     Atlas Wireline:   SERVICE COMPANY
 DATE.        31-OCT-1992:   LOGDATE
 API .       490252254800:   API NUMBER
~CURVE INFORMATION
#MNEM.UNIT       API CODE    CURVE DESCRIPTION
#----------   ------------   ------------------------------
 DEPT.F                  :   
 GRR .GAPI   07 310 01 00:   GAMMA RAY
 RILD.OHMM   07 120 46 00:   INDUCTION LOG DEEP RESISTIVITY
 RILM.OHMM   07 120 44 00:   INDUCTION LOG MEDIUM RESISTIVITY
~PARAMETER INFORMATION
#MNEM.UNIT          VALUE    DESCRIPTION
#----------   ------------   ------------------------------
 PD  .                 GL:   PERMANENT DATUM
 EPD .F              5119:   ELEVATION PERMANENT DATUM
 LMF .                 KB:   LOG MEASURED FROM
 DAPD.F                10:   FEET ABOVE PERMANENT DATUM
 DMF .                 KB:   DRILLING MEASURED FROM
 EKB .F              5129:   KELLING BUSHING
 EDF .F              5128:   DRILLING FLOOR
 EGL .F              5119:   GROUND LEVEL
 DATE.        31-OCT-1992:   RUN DATE
 RUN .                  1:   RUN NUMBER
 DD  .F               568:   DEPTH DRILLER
 DL  .F               555:   DEPTH LOGGER
 BLI .F               547:   BOTTOM LOG INTERVAL
 TLI .F                71:   TOP LOG INTERVAL
 CS  .IN            8.625:   CASING SIZE
 CBD .F                70:   CASING BOTTOM DRILLER
 CBL .F                71:   CASING BOTTOM LOGGER
 BS  .IN            7.875:   BIT SIZE
 BSD .F               568:   BIT SIZE AT DEPTH
 DFT .           AIR FOAM:   DRILLING FLUID TYPE
 TCS .HRS               2:   TIME CURCULATED STOPPED
 MRT .F                64:   MAXIMUM RECORDED TEMPERATURE
 LUN .            HL-6274:   LOGGING UNIT NUMBER
 LUL .             CASPER:   LOGGING UNIT LOCATION
 ENGI.        P.RASHUSSEN:   RECORDING ENGINEER
 WITN.     BRUCE ANDERSON:   WITNESSED BY
 CLNT.            A2DTECH:   CLIENT CODE
 ORIG.           5" PRINT:   ORIGIN OF DATA
 UWI .       490252254800:   UNIQUE WELL ID
 DICO. A2D Technologies, Inc.:   DIGITIZING COMPANY
~OTHER INFORMATION
~A    DEPT      GRR      RILD       RILM   
# ...
  109.2000   137.1533     9.0086     9.0305
  109.3000   138.1056     8.9934     9.0303
  109.4000   138.8662     8.9931     9.0300
  109.5000   139.7357     8.9929     9.0298
  109.6000   140.1695     8.9926     9.0295
  109.7000   140.6760     8.9923     9.0293
  109.8000   141.1824     8.9921     9.0167
  109.9000   141.6192     8.9919     8.9660
  110.0000   141.8715     8.9916     8.9657
  110.1000   142.1527     8.9914     8.9654
  110.2000   142.1511     8.9911     8.9652
  110.3000   141.9737     8.9908     8.9417
  110.4000   141.5915     8.9393     8.9023
  110.5000   141.1583     8.9277     8.8994
  110.6000   140.8749     8.9275     8.8398
  110.7000   140.3209     8.9066     8.8396
  110.8000   140.3193     8.8648     8.8394
  110.9000   140.3174     8.8646     8.8391
  111.0000   140.3156     8.8643     8.8389
  111.1000   140.3980     8.8641     8.8386
  111.2000   140.6503     8.8316     8.8384
  111.3000   140.9170     8.8019     8.8381
  111.4000   140.9153     8.8016     8.8379
  111.5000   141.1037     8.8014     8.8377
  111.6000   141.2152     8.8011     8.8374
  111.7000   141.1219     8.8009     8.8372
  111.8000   140.8239     8.7669     8.8369
  111.9000   140.2992     8.7391     8.8367
  112.0000   140.0506     8.7389     8.8364
  112.1000   139.7946     8.7386     8.8362
  112.2000   139.3906     8.7383     8.8359
  112.3000   138.9793     8.7381     8.8357
  112.4000   138.7233     8.7379     8.8354
  112.5000   138.4674     8.7376     8.8352
  112.6000   138.4652     8.7374     8.8349
  112.7000   138.2590     8.7372     8.8347
  112.8000   138.0030     8.7369     8.8344
  112.9000   137.8531     8.7367     8.8342
  113.0000   137.8513     8.7364     8.8339
  113.1000   137.8495     8.7634     8.8337
  113.2000   137.8474     8.7972     8.8704
  113.3000   138.2699     8.7969     8.8951
  113.4000   138.7763     8.7967     8.8949
  113.5000   139.2827     8.8456     8.8946
  113.6000   139.7252     8.8973     8.8943
  113.7000   139.9776     8.9493     8.8941
  113.8000   140.2644     9.0016     8.9318
  113.9000   140.2628     9.0448     8.9559
  114.0000   140.4310     9.0445     8.9733
  114.1000   140.6833     9.0443     9.0182
  114.2000   140.8643     9.0861     9.0179
  114.3000   140.8407     9.1072     9.0674
  114.4000   140.5570     9.1069     9.2001
  114.5000   140.3288     9.1067     9.3023
  114.6000   139.8956     9.1064     9.3564
  114.7000   139.3855     9.1061     9.4109
  114.8000   138.7185     9.1059     9.4681
  114.9000   137.7293     9.1057     9.5208
  115.0000   136.9043     9.1054     9.5339
  115.1000   135.9670     9.1052     9.5650
  115.2000   134.7641     9.1049     9.6002
  115.3000   133.8972     9.1046     9.5906
  115.4000   132.8724     9.0588     9.5328
  115.5000   130.9833     9.0408     9.5326
  115.6000   129.9131     9.0405     9.5323
  115.7000   129.4290     9.0402     9.5320
  115.8000   128.9190     9.0400     9.5318
  115.9000   128.5514     9.0397     9.5315
  116.0000   128.2954     9.0395     9.5312
  116.1000   127.9957     9.0763     9.5310
  116.2000   127.4743     9.1024     9.5307
  116.3000   127.9694     9.1021     9.5304
  116.4000   128.4759     9.0956     9.5084
  116.5000   129.2817     9.0382     9.4636
  116.6000   130.3968     9.0380     9.4633
  116.7000   131.6655     9.0377     9.3972
  116.8000   132.9343     9.0375     9.3532
  116.9000   134.4415     9.0372     9.3313
  117.0000   135.4720     9.0370     9.3090
  117.1000   136.7408     9.0367     9.2659
  117.2000   138.0096     9.0365     9.2656
  117.3000   139.1035     9.0362     9.2653
  117.4000   139.6188     9.0058     9.2651
  117.5000   140.5005     8.9530     9.2648
  117.6000   140.7126     8.9100     9.2419
  117.7000   141.1292     8.9098     9.1998
  117.8000   141.4058     8.8580     9.1981
  117.9000   141.4039     8.8473     9.1353
  118.0000   141.4021     8.8158     9.1351
  118.1000   141.4001     8.7852     9.1012
  118.2000   141.3985     8.7737     9.0710
  118.3000   141.3967     8.7222     9.0582
  118.4000   141.2726     8.6625     9.0074
  118.5000   141.0167     8.6202     8.9444
  118.6000   140.7607     8.5697     8.8567
  118.7000   140.4787     8.5416     8.7867
  118.8000   140.2489     8.5413     8.7583
  118.9000   139.9929     8.5382     8.7452
  119.0000   139.7370     8.4813     8.6969
  119.1000   139.5612     8.4383     8.6966
  119.2000   139.5286     8.4218     8.6964
  119.3000   139.2539     8.3981     8.6961
  119.4000   139.0167     8.3627     8.6959
  119.5000   138.9469     8.3625     8.6956
  119.6000   139.2186     8.3622     8.6954
  119.7000   139.6376     8.3620     8.6951
  119.8000   139.8899     8.3618     8.6949
  119.9000   140.1535     8.3615     8.6947
  120.0000   140.6373     8.3769     8.7188
  120.1000   140.9503     8.4197     8.7551
  120.2000   141.2026     8.4195     8.7549
  120.3000   141.3602     8.3735     8.7546
  120.4000   141.3584     8.3604     8.7544
  120.5000   141.3566     8.3869     8.7541
  120.6000   141.3548     8.4185     8.7539
  120.7000   141.3530     8.4183     8.7536
  120.8000   141.1998     8.4181     8.7534
  120.9000   140.9438     8.4178     8.7531
  121.0000   140.6353     8.4176     8.7529
  121.1000   140.1252     8.4460     8.7527
  121.2000   139.5226     8.4761     8.7524
  121.3000   139.1051     8.4759     8.7522
  121.4000   138.7537     8.4757     8.7519
  121.5000   138.4977     8.4754     8.7517
  121.6000   138.2418     8.5153     8.7514
  121.7000   137.9858     8.5344     8.7512
  121.8000   137.6908     8.5342     8.7509
  121.9000   137.6892     8.5339     8.7507
  122.0000   137.6874     8.5337     8.7505
  122.1000   137.5690     8.5334     8.7502
  122.2000   137.4474     8.5752     8.7500
  122.3000   137.7176     8.5928     8.7497
  122.4000   138.2869     8.5926     8.7495
  122.5000   138.7304     8.5794     8.7492
  122.6000   139.2368     8.5322     8.7490
  122.7000   139.7432     8.5320     8.7487
  122.8000   140.2497     8.5318     8.7485
  122.9000   140.7812     8.4977     8.7483
  123.0000   141.6144     8.4719     8.7480
  123.1000   142.0725     8.4572     8.7298
  123.2000   142.7594     8.4124     8.6867
  123.3000   143.3888     8.4122     8.6864
  123.4000   143.8952     8.3675     8.6862
  123.5000   144.4016     8.3531     8.6474
  123.6000   144.9419     8.3276     8.6252
  123.7000   145.4144     8.2945     8.6066
  123.8000   145.9209     8.2943     8.5647
  123.9000   146.4273     8.2940     8.5645
  124.0000   146.8447     8.2938     8.5158
  124.1000   147.0970     8.2936     8.5044
  124.2000   147.3590     8.2933     8.5042
  124.3000   147.8460     8.2931     8.5040
  124.4000   147.9624     8.2929     8.5037
  124.5000   148.1062     8.2926     8.5035
  124.6000   148.2622     8.2924     8.5033
  124.7000   148.2134     8.2922     8.5030
  124.8000   147.9551     8.2920     8.5028
  124.9000   147.1982     8.2917     8.5025
  125.0000   146.0294     8.2915     8.4924
  125.1000   144.6040     8.2913     8.4429
  125.2000   143.4918     8.2910     8.4426
  125.3000   142.9817     8.2908     8.4424
  125.4000   142.4716     8.2906     8.4422
  125.5000   141.8722     8.2903     8.4420
  125.6000   141.6611     8.2901     8.4417
  125.7000   141.4052     8.2899     8.4415
  125.8000   141.0383     8.2896     8.4412
  125.9000   140.7128     8.2894     8.4410
  126.0000   140.9651     8.2892     8.4408
  126.1000   141.2544     8.2889     8.4405
  126.2000   141.6866     8.3017     8.4291
  126.3000   142.1930     8.3466     8.3813
  126.4000   142.6994     8.3463     8.3811
  126.5000   143.1371     8.3461     8.3809
  126.6000   143.3894     8.3459     8.4119
  126.7000   143.6714     8.3698     8.4391
  126.8000   143.8940     8.4040     8.4389
  126.9000   144.1463     8.4037     8.4387
  127.0000   144.3986     8.4035     8.4384
  127.1000   144.5748     8.4033     8.4382
  127.2000   144.5997     8.4030     8.4060
  127.3000   144.8745     8.4287     8.3790
