~VERSION INFORMATION
 VERS.                2.0:   CWLS LOG ASCII STANDARD - VERSION 2.0
 WRAP.                 NO:   ONE LINE PER DEPTH STEP
~WELL INFORMATION
#MNEM.UNIT      DATA TYPE    INFORMATION
#----------   ------------   ------------------------------
 STRT.F            4.0000:   START DEPTH
 STOP.F          578.0000:   STOP DEPTH
 STEP.F            0.5000:   STEP LENGTH
 NULL.          -999.2500:   NO VALUE
 COMP.              FENIX:   COMPANY
 WELL.   NPR-3 #14SX11-11:   WELL
 FLD .             TEAPOT:   FIELD
 LOC .      S11 T38N R78W:   LOCATION
 CNTY.            NATRONA:   COUNTY
 STAT.            WYOMING:   STATE
 CTRY. UNITED STATES OF AMERICA:   COUNTRY
 SRVC.           BIRDWELL:   SERVICE COMPANY
 DATE.        14-FEB-1978:   LOGDATE
 API .       490251057100:   API NUMBER
~CURVE INFORMATION
#MNEM.UNIT       API CODE    CURVE DESCRIPTION
#----------   ------------   ------------------------------
 DEPT.F                  :   
 ILD .OHMM   05 120 46 00:   INDUCTION LOG DEEP
 SN  .OHMM   05 040 16 00:   SHORT NORMAL 16"
 SPR .MV     05 010 01 00:   SPONTANEOUS POTENTIAL FROM RES.
 CALD.IN     45 280 60 00:   CALIPER FROM DENSITY LOG
 CORR.G/C3   45 356 01 00:   DENSITY CORRECTION
 DPHI.DEC    45 890 12 00:   DENSITY POROSITY SANDSTONE
 GRD .GAPI   45 310 01 00:   GAMMA RAY FROM DENSITY LOG
 RHOB.G/C3   45 350 01 00:   BULK DENSITY
~PARAMETER INFORMATION
#MNEM.UNIT          VALUE    DESCRIPTION
#----------   ------------   ------------------------------
 PD  .                 GL:   PERMANENT DATUM
 EPD .F              5183:   ELEVATION PERMANENT DATUM
 LMF .                 KB:   LOG MEASURED FROM
 DAPD.F                 4:   FEET ABOVE PERMANENT DATUM
 DMF .                 KB:   DRILLING MEASURED FROM
 EKB .F              5187:   KELLING BUSHING
 EGL .F              5183:   GROUND LEVEL
 DATE.        14-FEB-1978:   RUN DATE
 RUN .                  1:   RUN NUMBER
 DD  .F               580:   DEPTH DRILLER
 DL  .F               580:   DEPTH LOGGER
 BLI .F               578:   BOTTOM LOG INTERVAL
 TLI .F                20:   TOP LOG INTERVAL
 CS  .IN            8.625:   CASING SIZE
 CBD .F                15:   CASING BOTTOM DRILLER
 CBL .F                39:   CASING BOTTOM LOGGER
 BS  .IN            7.875:   BIT SIZE
 BSD .F               580:   BIT SIZE AT DEPTH
 DFT .         LIGNO-SULF:   DRILLING FLUID TYPE
 DFD .                8.6:   DRILLING FLUID DENSITY
 DFV .                 33:   DRILLING FLUID VISCOSITY
 DFPH.                 11:   DRILLING FLUID PH
 DFL .                  4:   DRILLING FLUID LOSS
 MSS .           FLOWLINE:   MUD SAMPLE SOURCE
 RMS .OHMM            1.3:   RESISTIVITY MUD SAMPLE
 MST .F                62:   MUD SAMPLE TEMPERATURE
 RMF .OHMM            1.2:   RESISTIVITY MUD FILTRATE SAMPLE
 MFST.F                64:   MUD FILTRATE SAMPLE TEMPERATURE
 RMC .OHMM            1.6:   RESISTIVITY MUD CAKE
 MCST.F                62:   MUD CAKE SAMPLE TEMPERATURE
 MFSS.               MEAS:   MUD FILTRATE SAMPLE SOURCE
 BHT .F                70:   BOTTOM HOLE TEMPERATURE
 TCS .HRS               3:   TIME CURCULATED STOPPED
 MRT .F                70:   MAXIMUM RECORDED TEMPERATURE
 LUN .               2958:   LOGGING UNIT NUMBER
 LUL .               CASP:   LOGGING UNIT LOCATION
 ENGI.            POINTER:   RECORDING ENGINEER
 WITN.           MCGINLEY:   WITNESSED BY
 CLNT.            A2DTECH:   CLIENT CODE
 ORIG.           5" PRINT:   ORIGIN OF DATA
 UWI .       490251057100:   UNIQUE WELL ID
 DICO. A2D Technologies, Inc.:   DIGITIZING COMPANY
~OTHER INFORMATION
~A    DEPT     ILD         SN        SPR       CALD       CORR       DPHI         GRD      RHOB   
# ...
  287.5000     5.9416     6.7369   -20.8717     7.8420     0.0528     0.1083    89.7338     2.4603
  288.0000     5.8990     6.5956   -21.0305     7.8413     0.0528     0.1011    90.0366     2.4689
  288.5000     5.9384     6.5930   -21.6440     7.8407     0.0528     0.0990    88.8190     2.4844
  289.0000     6.0197     6.6368   -22.2727     7.8401     0.0527     0.1036    86.2339     2.4904
  289.5000     6.1874     6.7260   -22.8727     7.8091     0.0482     0.1066    83.9528     2.4874
  290.0000     6.3158     6.8171   -22.8800     7.7477     0.0436     0.1084    83.1914     2.4829
  290.5000     6.4564     7.0059   -22.7340     7.7167     0.0421     0.1087    82.2781     2.4797
  291.0000     6.6721     7.1602   -22.4384     7.7313     0.0465     0.1063    81.8207     2.4761
  291.5000     6.8580     7.3049   -22.2942     7.7306     0.0495     0.1048    82.2748     2.4723
  292.0000     6.9523     7.3962   -22.1500     7.7300     0.0510     0.1051    85.3128     2.4715
  292.5000     6.9988     7.4971   -22.0076     7.7294     0.0524     0.1069    88.5028     2.4761
  293.0000     7.0456     7.5454   -21.8636     7.7288     0.0509     0.1047    89.2616     2.4791
  293.5000     7.0923     7.5415   -21.8712     7.7434     0.0523     0.1033    88.6519     2.4783
  294.0000     7.0904     7.4864   -21.8801     7.7428     0.0538     0.1036    87.8905     2.4783
  294.5000     7.0394     7.4834   -22.1905     7.7422     0.0552     0.1060    86.0653     2.4783
  295.0000     7.0371     7.4287   -22.5009     7.7416     0.0567     0.1021    85.0000     2.4798
  295.5000     6.9866     7.3752   -22.5083     7.7409     0.0581     0.1003    84.8462     2.4820
  296.0000     6.9364     7.4234   -22.6672     7.7403     0.0566     0.1006    83.3250     2.4865
  296.5000     6.8390     7.3684   -23.1291     7.7245     0.0505     0.1031    82.1077     2.4888
  297.0000     6.8372     7.3146   -23.4395     7.7240     0.0460     0.1087    83.4740     2.4865
  297.5000     6.7881     7.2051   -23.5985     7.7234     0.0459     0.1168    84.9923     2.4670
  298.0000     6.7393     7.0103   -23.7590     7.7228     0.0474     0.1243    86.6626     2.4555
  298.5000     6.5986     6.8633   -23.9179     7.7222     0.0489     0.1280    88.0289     2.4481
  299.0000     6.4114     6.7193   -24.0768     7.7216     0.0488     0.1325    86.1510     2.4414
  299.5000     6.1957     6.5784   -23.9308     7.7362     0.0488     0.1388    84.5301     2.4241
  300.0000     5.9005     6.4852   -23.6370     7.7355     0.0562     0.1454    84.0727     2.4158
  300.5000     5.6194     6.3054   -24.2504     7.7349     0.0727     0.1410    83.9193     2.4120
  301.0000     5.3889     6.0044   -24.5608     7.7343     0.0693     0.1223    84.5257     2.4263
  301.5000     5.1678     5.7177   -24.5682     7.7337     0.0606     0.1084    85.2841     2.4483
  302.0000     5.0953     5.5166   -24.4240     7.7331     0.0575     0.0961    83.1550     2.4639
  302.5000     5.2010     5.4426   -24.4332     7.7325     0.0605     0.0952    82.0896     2.4857
  303.0000     5.3089     5.5163   -24.5921     7.7319     0.0559     0.0987    82.0881     2.4924
  303.5000     5.3854     5.6685   -25.0540     7.7316     0.0514     0.1022    81.6304     2.4932
  304.0000     5.5696     5.9478   -25.6674     7.7315     0.0469     0.1025    82.5408     2.4849
  304.5000     5.8451     6.1985   -25.6748     7.7314     0.0468     0.0995    83.7555     2.4826
  305.0000     6.0918     6.5485   -25.6821     7.7158     0.0485     0.0962    83.6017     2.4834
  305.5000     6.4377     6.8713   -25.5379     7.7153     0.0557     0.0938    83.6002     2.4888
  306.0000     6.7561     7.2099   -25.3747     7.6997     0.0602     0.0902    84.6625     2.4961
  306.5000     6.8486     7.5702   -25.3820     7.6840     0.0676     0.0863    86.7887     2.4994
  307.0000     6.9424     7.7739   -25.3879     7.5923     0.0661     0.0841    86.3040     2.5045
  307.5000     7.0864     7.9341   -25.3813     7.4551     0.0555     0.0944    82.6821     2.5060
  308.0000     7.1384     7.9868   -25.2482     7.4243     0.0495     0.0899    83.8964     2.5038
  308.5000     7.2315     8.0950   -25.2556     7.4998     0.0734     0.0842    85.8858     2.4947
  309.0000     7.2799     8.2038   -25.4130     7.6210     0.0674     0.0815    86.7532     2.4955
  309.5000     7.2774     8.2584   -25.7219     7.6509     0.0494     0.0984    87.2069     2.5045
  310.0000     7.2754     8.3117   -26.1823     7.6504     0.0478     0.0965    87.6592     2.5105
  310.5000     7.3246     8.3660   -26.7943     7.6803     0.0493     0.1042    89.7846     2.4902
  311.0000     7.4244     8.4258   -27.2547     7.7407     0.0507     0.1098    86.5895     2.4774
  311.5000     7.5261     8.4759   -27.5636     7.8162     0.0492     0.1053    84.9148     2.4752
  312.0000     7.5764     8.5314   -27.5697     7.9374     0.0491     0.0996    81.8481     2.4729
  312.5000     7.6802     8.5873   -27.5769     7.8305     0.0618     0.1074    80.0456     2.4722
  313.0000     7.6776     8.5829   -27.4298     7.7367     0.0970     0.1053    80.1940     2.4774
  313.5000     7.6755     8.5795   -27.2841     7.6320     0.0940     0.0960    81.4069     2.4947
  314.0000     7.6998     8.6365   -27.2915     7.5556     0.0864     0.0888    83.8356     2.5159
  314.5000     7.7290     8.6923   -27.2974     7.6311     0.0939     0.0816    85.8083     2.5030
  315.0000     7.7583     8.6886   -27.3033     7.7523     0.1103     0.0729    85.8054     2.5068
  315.5000     7.7910     8.6851   -27.3092     7.8582     0.1088     0.0705    85.4974     2.5248
  316.0000     7.7356     8.7420   -27.3152     7.8426     0.0997     0.0774    85.0395     2.5368
  316.5000     7.7340     8.6772   -27.3224     7.8724     0.0967     0.0835    85.1879     2.5158
  317.0000     7.6790     8.6737   -27.3283     7.6288     0.0967     0.0793    85.1850     2.5120
  317.5000     7.6774     8.6702   -27.6372     7.5220     0.0846     0.0811    85.0301     2.5165
  318.0000     7.5178     8.6068   -27.6431     7.5367     0.0771     0.0962    84.8752     2.5052
  318.5000     7.3103     8.4849   -27.9520     7.5971     0.0965     0.1063    79.8570     2.4842
  319.0000     7.2081     8.1926   -27.9579     7.7182     0.1135     0.0991    78.1824     2.4902
  319.5000     7.1569     8.0766   -28.1153     7.8250     0.1024     0.0916    81.2018     2.5135
  320.0000     7.1059     8.0733   -28.1212     7.8845     0.0916     0.1025    84.5587     2.5173
  320.5000     7.0554     8.1827   -28.2965     7.8993     0.0994     0.1076    84.2518     2.4820
  321.0000     7.0052     8.0660   -28.4375     7.9140     0.0918     0.0974    82.8811     2.5030
  321.5000     6.9073     7.7881   -28.5949     7.8983     0.0873     0.0983    81.2065     2.5011
  322.0000     6.8582     7.5198   -28.7523     7.8675     0.0902     0.1016    81.8114     2.4910
  322.5000     6.7110     7.3113   -28.7582     7.8214     0.1052     0.1052    85.6079     2.5008
  323.0000     6.5302     7.1085   -28.9156     7.7590     0.0736     0.1091    86.5168     2.5015
  323.5000     6.3503     6.9114   -29.2245     7.6685     0.0600     0.1170    85.2973     2.4714
  324.0000     6.1753     6.6733   -29.5334     7.6072     0.0461     0.1329    83.3187     2.4429
  324.5000     5.9636     6.3938   -29.5394     7.6828     0.0450     0.1601    82.5566     2.4105
  325.0000     5.6798     6.0863   -29.3937     7.7583     0.0495     0.1714    83.0096     2.3880
  325.5000     5.3722     5.7618   -29.2481     7.8187     0.0509     0.1820    82.5500     2.3739
  326.0000     4.6431     5.4868   -29.4055     7.8638     0.0524     0.2096    80.1155     2.3459
  326.5000     4.0961     5.1529   -29.2598     7.8786     0.0598     0.2367    79.2006     2.3090
  327.0000     3.4810     4.6746   -28.9642     7.8629     0.0688     0.2421    78.4371     2.2699
  327.5000     3.1249     4.1822   -28.9701     7.8777     0.0810     0.2379    76.3065     2.2556
