~VERSION INFORMATION
 VERS.                2.0:   CWLS LOG ASCII STANDARD - VERSION 2.0
 WRAP.                 NO:   ONE LINE PER DEPTH STEP
~WELL INFORMATION
#MNEM.UNIT      DATA TYPE    INFORMATION
#----------   ------------   ------------------------------
 STRT.F           26.0000:   START DEPTH
 STOP.F          655.0000:   STOP DEPTH
 STEP.F            0.5000:   STEP LENGTH
 NULL.          -999.2500:   NO VALUE
 COMP. FENIX & SCISSON, INCORPORATED:   COMPANY
 WELL. RES 3 TEAPOT DOM #22S-11:   WELL
 FLD .             TEAPOT:   FIELD
 LOC .      S11 T38N R78W:   LOCATION
 CNTY.            NATRONA:   COUNTY
 STAT.            WYOMING:   STATE
 CTRY. UNITED STATES OF AMERICA:   COUNTRY
 SRVC.            Unknown:   SERVICE COMPANY
 DATE.        03-FEB-1978:   LOGDATE
 API .       490251057200:   API NUMBER
~CURVE INFORMATION
#MNEM.UNIT       API CODE    CURVE DESCRIPTION
#----------   ------------   ------------------------------
 DEPT.F                  :   
 ILD .OHMM   05 120 46 00:   INDUCTION LOG DEEP
 SN  .OHMM   05 040 16 00:   SHORT NORMAL 16"
 SPR .MV     05 010 01 00:   SPONTANEOUS POTENTIAL.
 CALD.IN     45 280 60 00:   CALIPER FROM DENSITY LOG
 CORR.G/C3   45 356 01 00:   DENSITY CORRECTION
 DPHI.DEC    45 890 12 00:   DENSITY POROSITY SANDSTONE
 GRD .GAPI   45 310 01 00:   GAMMA RAY FROM DENSITY LOG
 RHOB.G/C3   45 350 01 00:   BULK DENSITY
~PARAMETER INFORMATION
#MNEM.UNIT          VALUE    DESCRIPTION
#----------   ------------   ------------------------------
 PD  .                 GL:   PERMANENT DATUM
 EPD .F              5168:   ELEVATION PERMANENT DATUM
 LMF .                 KB:   LOG MEASURED FROM
 DMF .                 KB:   DRILLING MEASURED FROM
 EKB .F              5171:   KELLING BUSHING
 EGL .F              5168:   GROUND LEVEL
 DATE.        03-FEB-1978:   RUN DATE
 RUN .                  1:   RUN NUMBER
 DD  .F               650:   DEPTH DRILLER
 DL  .F               655:   DEPTH LOGGER
 BLI .F               655:   BOTTOM LOG INTERVAL
 TLI .F                40:   TOP LOG INTERVAL
 CS  .IN            8.625:   CASING SIZE
 CBD .F                39:   CASING BOTTOM DRILLER
 CBL .F                40:   CASING BOTTOM LOGGER
 BS  .IN            7.875:   BIT SIZE
 BSD .F               650:   BIT SIZE AT DEPTH
 DFT .                KCL:   DRILLING FLUID TYPE
 DFD .                8.6:   DRILLING FLUID DENSITY
 DFV .                 31:   DRILLING FLUID VISCOSITY
 DFPH.                9.5:   DRILLING FLUID PH
 DFL .               12.8:   DRILLING FLUID LOSS
 MSS .           FLOWLINE:   MUD SAMPLE SOURCE
 RMS .OHMM           0.38:   RESISTIVITY MUD SAMPLE
 MST .F                62:   MUD SAMPLE TEMPERATURE
 RMF .OHMM            4.4:   RESISTIVITY MUD FILTRATE SAMPLE
 MFST.F                62:   MUD FILTRATE SAMPLE TEMPERATURE
 RMC .OHMM            0.8:   RESISTIVITY MUD CAKE
 MCST.F                62:   MUD CAKE SAMPLE TEMPERATURE
 MFSS.               MEAS:   MUD FILTRATE SAMPLE SOURCE
 RMB .OHMM           0.35:   RESISTIVITY MUD AT BHT
 BHT .F                68:   BOTTOM HOLE TEMPERATURE
 TCS .HRS               1:   TIME CURCULATED STOPPED
 MRT .F                68:   MAXIMUM RECORDED TEMPERATURE
 LUN .               2958:   LOGGING UNIT NUMBER
 LUL .             CASPER:   LOGGING UNIT LOCATION
 ENGI.           REYNOLDS:   RECORDING ENGINEER
 WITN.         HARRINGTON:   WITNESSED BY
 CLNT.            A2DTECH:   CLIENT CODE
 ORIG.           5" PRINT:   ORIGIN OF DATA
 UWI .       490251057200:   UNIQUE WELL ID
 DICO. A2D Technologies, Inc.:   DIGITIZING COMPANY
~OTHER INFORMATION
~A   DEPT      ILD         SN        SPR       CALD       CORR       DPHI         GRD      RHOB   
# ...
  512.0000    16.8627    13.9225   -57.8821     7.9590     0.0415     0.1768    81.5448     2.3643
  512.5000    16.8553    13.9160   -58.0427     7.9575     0.0414     0.1870    80.0730     2.3545
  513.0000    16.8479    13.8133   -58.0516     7.9560     0.0458     0.1897    77.8849     2.3424
  513.5000    16.8325    13.6165   -58.2142     7.9697     0.0486     0.1906    76.6575     2.3319
  514.0000    16.5992    13.5158   -58.2230     7.9682     0.0485     0.1912    80.4150     2.3551
  514.5000    16.2498    13.4147   -58.3835     7.9667     0.0468     0.1721    83.7192     2.3626
  515.0000    16.1303    13.3157   -58.4396     7.9649     0.0452     0.1557    86.1172     2.3782
  515.5000    16.1232    13.3095   -58.5528     7.9483     0.0421     0.1495    87.0046     2.3819
  516.0000    16.1162    13.3033   -58.5616     7.9469     0.0360     0.1417    85.5589     2.3962
  516.5000    16.1092    13.2970   -58.7223     7.9454     0.0269     0.1396    82.4302     2.4156
  517.0000    16.1021    13.3834   -58.7332     7.9439     0.0159     0.1396    79.6921     2.4216
  517.5000    16.0934    13.2831   -58.7419     7.9273     0.0117     0.1406    77.7094     2.4245
  518.0000    15.9750    13.1850   -59.0542     7.9259     0.0250     0.1478    79.9563     2.4215
  518.5000    15.8575    12.9073   -59.0630     7.9157     0.0338     0.1622    81.7500     2.4023
  519.0000    15.5237    12.7234   -59.2235     7.9077     0.0441     0.1661    81.7311     2.3779
  519.5000    14.9873    12.5422   -59.2323     7.9062     0.0455     0.1661    80.4267     2.3688
  520.0000    14.5703    12.3577   -59.0894     7.9045     0.0379     0.1619    77.6098     2.3785
  520.5000    14.0663    12.1016   -59.1004     7.9032     0.0348     0.1601    75.1739     2.3875
  521.0000    13.7568    12.0123   -59.1092     7.9017     0.0331     0.1595    74.4044     2.3882
  521.5000    13.4793    11.8412   -59.1168     7.9001     0.0345     0.1610    78.4592     2.3897
  522.0000    13.3802    11.7538   -59.1267     7.8986     0.0374     0.1620    82.2167     2.3881
  522.5000    13.3744    11.7483   -59.4390     7.8971     0.0432     0.1626    84.6146     2.3817
  523.0000    13.3685    11.7428   -59.4478     7.8957     0.0505     0.1614    85.5020     2.3738
  523.5000    13.3629    11.6548   -59.6085     7.9092     0.0595     0.1583    84.5720     2.3812
  524.0000    13.3569    11.6494   -59.7711     7.9076     0.0607     0.1542    82.1361     2.3894
  524.5000    13.3509    11.6439   -59.7799     7.9060     0.0516     0.1518    79.3981     2.3939
  525.0000    13.3438    11.6385   -59.9404     7.9047     0.0485     0.1518    77.5664     2.3998
  525.5000    13.2456    11.5843   -59.9492     7.9183     0.0499     0.1512    76.3390     2.4029
  526.0000    13.2398    11.5159   -59.9580     7.9168     0.0482     0.1500    76.4679     2.3968
  526.5000    13.2341    11.4618   -59.9668     7.9305     0.0436     0.1491    77.3553     2.3969
  527.0000    13.1367    11.3760   -59.9757     7.9442     0.0375     0.1488    79.3000     2.4004
  527.5000    13.1310    11.2921   -59.9848     7.9425     0.0312     0.1498    81.0937     2.4019
  528.0000    12.9441    11.2868   -59.9953     7.9409     0.0238     0.1528    82.7364     2.3996
  528.5000    12.8476    11.1260   -59.8524     7.9395     0.0192     0.1540    83.4728     2.3965
  529.0000    12.7531    10.9675   -59.8612     7.9531     0.0191     0.1552    80.3234     2.3927
  529.5000    12.6593    10.9203   -59.8700     7.9516     0.0204     0.1555    81.3152     2.3904
  530.0000    12.5662    10.8050   -59.8787     7.9501     0.0280     0.1531    80.8431     2.3956
  530.5000    12.5607    10.7999   -59.7243     7.9483     0.0351     0.1519    78.5582     2.3993
  531.0000    12.3820    10.7949   -59.5928     7.9319     0.0379     0.1531    77.0287     2.4016
  531.5000    12.3765    10.8662   -59.6038     7.9302     0.0378     0.1549    79.2756     2.3955
  532.0000    12.2842    10.8599   -59.6126     7.9206     0.0362     0.1555    81.9756     2.3857
  532.5000    12.1939    10.7802   -59.4675     7.8970     0.0360     0.1531    84.4336     2.3864
  533.0000    12.1042    10.9257   -59.4785     7.8956     0.0344     0.1507    86.7668     2.3965
  533.5000    12.0989    10.9194   -59.3354     7.8941     0.0343     0.1372    87.2057     2.4126
  534.0000    12.1792    10.9143   -59.4962     7.9077     0.0341     0.1360    86.1246     2.4305
  534.5000    12.1726    10.9091   -59.5070     7.9063     0.0370     0.1364    84.2929     2.4320
  535.0000    12.2104    10.9798   -59.5158     7.9198     0.0399     0.1373    86.2377     2.4305
  535.5000    12.3321    10.9744   -59.5235     7.9183     0.0442     0.1394    88.6357     2.4252
  536.0000    12.4992    10.9685   -59.5144     7.9166     0.0411     0.1412    88.3808     2.4161
  536.5000    12.4923    10.9634   -59.3900     7.9245     0.0350     0.1385    84.0613     2.4229
  537.0000    12.4869    10.9584   -59.3991     7.9289     0.0304     0.1376    82.8386     2.4320
  537.5000    12.3951    10.9531   -59.4080     7.9123     0.0302     0.1406    85.3828     2.4280
  538.0000    12.3039    10.9478   -59.1140     7.9107     0.0241     0.1412    86.8744     2.4197
  538.5000    12.2134    10.9416   -59.1243     7.9090     0.0225     0.1424    87.1623     2.4196
  539.0000    11.9554    10.9365   -58.9813     7.9077     0.0283     0.1472    84.2685     2.4128
  539.5000    11.7854    10.9319   -58.9645     7.9061     0.0312     0.1458    80.4365     2.3940
  540.0000    11.6177    10.9263   -58.8450     7.9046     0.0326     0.1431    79.0899     2.4090
  540.5000    11.4524    10.9212   -58.8558     7.9032     0.0294     0.1431    80.4304     2.4150
  541.0000    11.2895    10.8404   -58.7825     7.9017     0.0293     0.1434    84.4900     2.4149
  541.5000    11.1948    10.8343   -58.7223     7.9002     0.0291     0.1431    89.6070     2.4119
  542.0000    11.0458    10.7543   -58.5788     7.8984     0.0320     0.1425    91.8586     2.4051
  542.5000    11.0410    10.6749   -58.5898     7.8818     0.0318     0.1377    88.2095     2.3990
  543.0000    11.0362    10.6702   -58.5986     7.8804     0.0332     0.1341    88.6495     2.4245
  543.5000    11.1095    10.6650   -58.6070     7.8941     0.0316     0.1338    89.3800     2.4319
  544.0000    11.1808    10.8090   -58.6161     7.8926     0.0315     0.1341    87.9968     2.4334
  544.5000    11.2539    10.8792   -58.6252     7.8911     0.0298     0.1351    85.2588     2.4326
  545.0000    11.4063    10.9486   -58.6360     7.8893     0.0282     0.1356    86.7504     2.4318
  545.5000    11.5707    11.0964   -58.4930     7.8880     0.0266     0.1363    90.6589     2.4310
  546.0000    11.8800    11.1698   -58.3293     7.8713     0.0264     0.1366    91.3537     2.4287
  546.5000    12.1249    11.3981   -58.1560     7.8698     0.0263     0.1369    87.1197     2.4317
  547.0000    12.4610    11.7168   -57.9723     7.8683     0.0247     0.1492    81.8221     2.4129
  547.5000    12.8958    12.1201   -57.7695     7.8669     0.0216     0.1489    78.7085     2.4023
  548.0000    13.6267    12.7176   -57.6126     7.8740     0.0199     0.1498    77.5683     2.3993
  548.5000    14.5253    13.5310   -57.1823     7.8791     0.0183     0.1597    78.1536     2.3896
  549.0000    16.0828    14.4967   -56.8854     7.8772     0.0137     0.1723    78.7436     2.3707
  549.5000    17.7176    15.8582   -56.1376     7.8606     0.0225     0.1958    76.6051     2.3429
  550.0000    19.7916    17.3475   -55.3855     7.8651     0.0344     0.2246    71.7523     2.3008
  550.5000    22.1084    17.3877   -54.6394     7.8992     0.0312     0.2411    67.9707     2.2730
  551.0000    25.0419    19.3674   -53.8909     7.9333     0.0445     0.2484    67.0611     2.2497
  551.5000    27.9732    20.7510   -53.2942     7.9466     0.0713     0.2442    70.3789     2.2317
  552.0000    29.9831    21.4751   -53.0010     7.9452     0.0891     0.2364    72.4894     2.2475
