~VERSION INFORMATION
 VERS.                2.0:   CWLS LOG ASCII STANDARD - VERSION 2.0
 WRAP.                 NO:   ONE LINE PER DEPTH STEP
~WELL INFORMATION
#MNEM.UNIT      DATA TYPE    INFORMATION
#----------   ------------   ------------------------------
 STRT.F           28.0000:   START DEPTH
 STOP.F          693.0000:   STOP DEPTH
 STEP.F            0.5000:   STEP LENGTH
 NULL.          -999.2500:   NO VALUE
 COMP. FENIX & SCISSON INC:   COMPANY
 WELL.       NPR-3 #63-15:   WELL
 FLD .             TEAPOT:   FIELD
 LOC .      S15 T38N R78W:   LOCATION
 CNTY.            NATRONA:   COUNTY
 STAT.            WYOMING:   STATE
 CTRY. UNITED STATES OF AMERICA:   COUNTRY
 SRVC.            Unknown:   SERVICE COMPANY
 DATE.        10-JUN-1978:   LOGDATE
 API .       490251063800:   API NUMBER
~CURVE INFORMATION
#MNEM.UNIT       API CODE    CURVE DESCRIPTION
#----------   ------------   ------------------------------
 DEPT.F                  :   
 SPR .MV     05 010 01 00:   SPONTANEOUS POTENTIAL FROM RES.
 SN  .OHMM   05 040 16 00:   SHORT NORMAL 16"
 ILD .OHMM   05 120 46 00:   INDUCTION LOG DEEP
 CALD.IN     45 280 60 00:   CALIPER FROM DENSITY LOG
 GRD .GAPI   45 310 01 00:   GAMMA RAY FROM DENSITY LOG
 CORR.G/C3   45 356 01 00:   DENSITY CORRECTION
 DPHI.DEC    45 890 12 00:   DENSITY POROSITY SANDSTONE
 DEN .G/C3   45 350 01 00:   DENSITY
~PARAMETER INFORMATION
#MNEM.UNIT          VALUE    DESCRIPTION
#----------   ------------   ------------------------------
 PD  .                 GL:   PERMANENT DATUM
 EPD .F              5265:   ELEVATION PERMANENT DATUM
 LMF .                 KB:   LOG MEASURED FROM
 DAPD.F                 4:   FEET ABOVE PERMANENT DATUM
 DMF .                 KB:   DRILLING MEASURED FROM
 EKB .F              5269:   KELLING BUSHING
 EGL .F              5265:   GROUND LEVEL
 DATE.        10-JUN-1978:   RUN DATE
 RUN .                  1:   RUN NUMBER
 DD  .F               690:   DEPTH DRILLER
 DL  .F               697:   DEPTH LOGGER
 BLI .F               690:   BOTTOM LOG INTERVAL
 TLI .F                35:   TOP LOG INTERVAL
 CS  .IN            8.625:   CASING SIZE
 CBD .F                40:   CASING BOTTOM DRILLER
 CBL .F                35:   CASING BOTTOM LOGGER
 BS  .IN            7.875:   BIT SIZE
 BSD .F               690:   BIT SIZE AT DEPTH
 DFT .                KCL:   DRILLING FLUID TYPE
 DFD .                8.7:   DRILLING FLUID DENSITY
 DFV .                 34:   DRILLING FLUID VISCOSITY
 DFPH.                 10:   DRILLING FLUID PH
 DFL .               11.6:   DRILLING FLUID LOSS
 MSS .            MUD PIT:   MUD SAMPLE SOURCE
 RMS .OHMM            .32:   RESISTIVITY MUD SAMPLE
 MST .F                74:   MUD SAMPLE TEMPERATURE
 RMF .OHMM            .28:   RESISTIVITY MUD FILTRATE SAMPLE
 MFST.F                78:   MUD FILTRATE SAMPLE TEMPERATURE
 RMC .OHMM            .36:   RESISTIVITY MUD CAKE
 MCST.F                78:   MUD CAKE SAMPLE TEMPERATURE
 MFSS.               MEAS:   MUD FILTRATE SAMPLE SOURCE
 MCSS.               MEAS:   MUD CAKE SAMPLE SOURCE
 BHT .F                80:   BOTTOM HOLE TEMPERATURE
 TCS .HRS            0100:   TIME CURCULATED STOPPED
 MRT .F                80:   MAXIMUM RECORDED TEMPERATURE
 LUN .               2958:   LOGGING UNIT NUMBER
 LUL .               CASP:   LOGGING UNIT LOCATION
 ENGI.             MILLER:   RECORDING ENGINEER
 WITN.           MCGINLEY:   WITNESSED BY
 CLNT.            A2DTECH:   CLIENT CODE
 ORIG.           5" PRINT:   ORIGIN OF DATA
 UWI .       490251063800:   UNIQUE WELL ID
 DICO. A2D Technologies, Inc.:   DIGITIZING COMPANY
~OTHER INFORMATION
~A   DEPT      SPR         SN        ILD       CALD        GRD       CORR       DPHI        DEN   
# ...
  514.0000    -0.3092    14.1097    16.6829     7.2085    54.6160     0.0192     0.1799     2.3700
  514.5000    -0.2886    14.1202    16.6942     7.0002    54.7855     0.0209     0.1817     2.3731
  515.0000    -0.2681    14.1308    16.7055     6.9566    55.9212     0.0255     0.1877     2.3709
  515.5000    -0.2475    14.0446    16.8329     7.0627    58.8567     0.0227     0.1904     2.3611
  516.0000    -0.3767    14.0550    16.8443     7.2008    57.8365     0.0273     0.1924     2.3505
  516.5000    -0.3561    13.9684    16.7393     7.3052    56.8120     0.0395     0.1939     2.3471
  517.0000    -0.3353    13.9789    16.7509     7.2912    55.0412     0.0517     0.1948     2.3464
  517.5000    -0.3144    13.8789    16.7625     7.3078    50.2854     0.0533     0.1927     2.3465
  518.0000    -0.2894    13.8073    16.7762     7.2642    52.5444     0.0520     0.1854     2.3608
  518.5000    -0.5682    13.6302    16.9042     7.1757    55.4005     0.0491     0.1686     2.3737
  519.0000    -0.7025    13.5438    16.9156     7.1920    56.3224     0.0538     0.1598     2.3812
  519.5000    -0.8317    13.5564    15.7945     7.2831    57.1049     0.0554     0.1550     2.4002
  520.0000    -0.9557    13.5665    15.3708     7.3892    57.4067     0.0451     0.1595     2.4039
  520.5000    -0.9351    13.2976    15.4907     7.4672    57.4270     0.0287     0.1652     2.3927
  521.0000    -0.9146    12.9418    15.6088     7.5119    58.4920     0.0303     0.1600     2.3905
  521.5000    -0.8940    13.0438    15.6194     7.5132    63.1392     0.0274     0.1642     2.3981
  522.0000    -0.8735    13.0536    15.4150     7.4992    65.5475     0.0096     0.1720     2.3892
  522.5000    -0.8530    12.8837    15.3017     7.5308    64.9707     0.0143     0.1674     2.3845
  523.0000    -0.8323    12.7042    15.0166     7.5770    62.7513     0.0234     0.1608     2.4036
  523.5000    -0.8114    12.5507    14.7178     7.5933    62.9808     0.0281     0.1545     2.4097
  524.0000    -0.7904    12.3897    14.1260     7.6395    66.3799     0.0147     0.1526     2.4098
  524.5000    -0.7656    11.8947    14.0380     7.6409    66.6936     0.0133     0.1523     2.4091
  525.0000    -0.7451    11.8192    14.0498     7.6272    65.5249     0.0165     0.1523     2.4092
  525.5000    -0.8742    11.8303    14.0593     7.6438    64.2019     0.0197     0.1529     2.4092
  526.0000    -0.8537    11.8391    13.7796     7.6451    65.2670     0.0168     0.1546     2.4093
  526.5000    -0.8331    11.8479    13.5991     7.6614    71.5559     0.0140     0.1591     2.4049
  527.0000    -0.8126    11.8567    13.6086     7.6926    71.7273     0.0111     0.1615     2.3989
  527.5000    -0.7920    11.7837    13.6180     7.7239    69.9204     0.0128     0.1606     2.3983
  528.0000    -0.9263    11.7080    13.7238     7.7551    68.1889     0.0174     0.1581     2.3999
  528.5000    -0.9007    11.5588    13.6360     7.7265    68.3585     0.0221     0.1569     2.4022
  529.0000    -1.0298    11.8943    13.6475     7.7278    71.0653     0.0237     0.1587     2.4030
  529.5000    -1.0093    11.8188    13.5602     7.7294    72.5781     0.0209     0.1638     2.4023
  530.0000    -1.4571    11.6651    13.5717     7.7308    72.7426     0.0150     0.1679     2.3934
  530.5000    -1.7167    11.5933    13.5808     7.7321    68.4395     0.0122     0.1682     2.3890
  531.0000    -1.5413    11.5240    13.4959     7.7483    64.7285     0.0123     0.1676     2.3898
  531.5000    -1.5207    11.5326    13.5054     7.7946    67.3174     0.0125     0.1667     2.3921
  532.0000    -1.5002    11.4595    13.4212     7.8408    65.5203     0.0126     0.1657     2.3967
  532.5000    -2.0784    11.4702    13.3376     7.8421    64.9385     0.0143     0.1599     2.3998
  533.0000    -2.5070    11.4787    13.2545     7.8284    66.1579     0.0159     0.1591     2.4021
  533.5000    -2.6413    11.4873    13.1719     7.8298    67.9692     0.0161     0.1623     2.3999
  534.0000    -2.6156    11.4958    13.0899     7.8161    70.3775     0.0162     0.1641     2.3985
  534.5000    -2.5951    11.3462    13.0105     7.8024    69.0545     0.0194     0.1578     2.4016
  535.0000    -2.4248    11.3568    12.9295     7.8041    66.5375     0.0213     0.1514     2.4080
  535.5000    -2.4042    11.3653    12.9382     7.7901    62.0402     0.0257     0.1493     2.4168
  536.0000    -2.3832    11.4527    12.8576     7.7318    61.5034     0.0258     0.1493     2.4183
  536.5000    -2.3623    11.4612    12.9557     7.6733    62.5735     0.0260     0.1505     2.4154
  537.0000    -2.4923    11.4698    12.8750     7.6596    66.1759     0.0231     0.1537     2.4110
  537.5000    -2.4666    11.3206    12.7804     7.6622    68.4349     0.0158     0.1591     2.4050
  538.0000    -2.4461    11.3290    12.7151     7.6925    66.0672     0.0144     0.1606     2.4021
  538.5000    -2.4255    11.3374    12.6359     7.7387    62.9531     0.0146     0.1582     2.4059
  539.0000    -2.4050    11.3459    12.7344     7.7699    64.0182     0.0147     0.1578     2.4068
  539.5000    -2.3844    11.3545    12.7430     7.7862    65.8413     0.0179     0.1563     2.4068
  540.0000    -2.3639    11.4438    12.7516     7.7127    65.4070     0.0180     0.1502     2.4114
  540.5000    -2.3434    11.4523    12.7602     7.6837    65.4273     0.0212     0.1430     2.4183
  541.0000    -2.3228    11.6206    12.6808     7.7153    66.1939     0.0228     0.1379     2.4243
  541.5000    -2.3023    11.8732    12.6893     7.7316    66.8111     0.0275     0.1295     2.4334
  542.0000    -2.2817    12.0476    12.7040     7.7329    65.9359     0.0366     0.1111     2.4568
  542.5000    -2.5606    12.1403    12.8841     7.6746    65.5084     0.0473     0.0798     2.4827
  543.0000    -2.9840    12.1493    13.4416     7.6457    65.2302     0.0580     0.0566     2.5455
  543.5000    -2.9634    12.4996    14.3157     7.6171    62.3773     0.0611     0.0527     2.5756
  544.0000    -3.5417    13.2209    15.0369     7.5588    58.2608     0.0283     0.0569     2.5779
  544.5000    -3.6760    14.1807    16.1260     7.5299    55.7438     0.0029     0.0626     2.5743
  545.0000    -3.8051    14.8014    17.0562     7.5315    52.3312    -0.0120     0.0759     2.5601
  545.5000    -3.9343    15.6473    17.3057     7.5328    51.1524    -0.0164     0.0866     2.5271
  546.0000    -3.9086    16.6652    16.9614     7.5491    52.8195    -0.0117     0.0931     2.5137
  546.5000    -3.8881    16.5626    16.2821     7.5058    58.0637    -0.0040     0.0994     2.5045
  547.0000    -3.8675    16.0112    15.5080     7.5221    62.2631     0.0021     0.1090     2.4913
  547.5000    -3.8470    15.3715    14.8667     7.5384    64.8509     0.0130     0.1162     2.4764
  548.0000    -3.8263    14.5821    14.0119     7.5094    66.1851     0.0189     0.1270     2.4644
  548.5000    -3.8054    13.4788    13.3579     7.5110    66.2095     0.0176     0.1294     2.4532
  549.0000    -3.7844    12.6055    12.5593     7.5124    68.0208     0.0177     0.1337     2.4488
  549.5000    -3.7596    11.9355    11.8904     7.5137    69.5337     0.0134     0.1425     2.4459
  550.0000    -3.7395    11.3610    11.6012     7.5000    69.4330     0.0075     0.1461     2.4264
  550.5000    -3.6818    11.2598    11.4816     7.4402    67.4814     0.0016     0.1428     2.4287
  551.0000    -3.6242    11.1585    11.3620     7.3954    65.8557    -0.0013     0.1461     2.4280
  551.5000    -3.5665    11.0573    11.2729     7.3389    64.3792     0.0003     0.1473     2.4281
  552.0000    -3.5262    10.2863    11.2004     7.3101    61.1117     0.0004     0.1430     2.4282
  552.5000    -3.5102    10.0817    11.2070     7.3415    62.0233     0.0020     0.1403     2.4297
  553.0000    -3.6439    10.0885    11.2123     7.4325    63.2518     0.0021     0.1391     2.4336
  553.5000    -3.9273    10.0255    11.2176     7.5385    61.6076     0.0053     0.1378     2.4396
  554.0000    -4.0571    10.0324    11.2229     7.5995    59.8326     0.0084     0.1357     2.4449
