~VERSION INFORMATION
 VERS.                2.0:   CWLS LOG ASCII STANDARD - VERSION 2.0
 WRAP.                 NO:   ONE LINE PER DEPTH STEP
~WELL INFORMATION
#MNEM.UNIT      DATA TYPE    INFORMATION
#----------   ------------   ------------------------------
 STRT.F           15.0000:   START DEPTH
 STOP.F          692.0000:   STOP DEPTH
 STEP.F            0.5000:   STEP LENGTH
 NULL.          -999.2500:   NO VALUE
 COMP.    FENIX & SCISSON:   COMPANY
 WELL. S 15 NPR #3 #73-15:   WELL
 FLD .             TEAPOT:   FIELD
 LOC .      S15 T38N R78W:   LOCATION
 CNTY.            NATRONA:   COUNTY
 STAT.            WYOMING:   STATE
 CTRY. UNITED STATES OF AMERICA:   COUNTRY
 SRVC.              Welex:   SERVICE COMPANY
 DATE.        23-FEB-1977:   LOGDATE
 API .       490251057900:   API NUMBER
~CURVE INFORMATION
#MNEM.UNIT       API CODE    CURVE DESCRIPTION
#----------   ------------   ------------------------------
 DEPT.F                  :   
 SPR .MV     07 010 01 00:   SPONTANEOUS POTENTIAL
 SGRD.OHMM   07 220 05 00:   SHALLOW GUARD RESISTIVITY
 ILD .OHMM   07 120 46 00:   INDUCTION LOG DEEP
 ILM .OHMM   07 120 44 00:   INDUCTION LOG MEDIUM
 CALD.IN     45 280 60 00:   CALIPER
 GRD .GAPI   45 310 01 00:   GAMMA RAY FROM DENSITY LOG
 CORR.G/C3   45 356 01 00:   DENSITY CORRECTION
 DPHI.DEC    45 890 10 00:   DENSITY POROSITY SANDSTONE
 RHOB.G/C3   45 350 01 00:   BULK DENSITY
~PARAMETER INFORMATION
#MNEM.UNIT          VALUE    DESCRIPTION
#----------   ------------   ------------------------------
 PD  .                 GL:   PERMANENT DATUM
 EPD .F              5251:   ELEVATION PERMANENT DATUM
 LMF .                 GL:   LOG MEASURED FROM
 DMF .                 GL:   DRILLING MEASURED FROM
 EGL .F              5251:   GROUND LEVEL
 DATE.            2-23-77:   RUN DATE
 RUN .                  1:   RUN NUMBER
 DD  .F               686:   DEPTH DRILLER
 DL  .F               695:   DEPTH LOGGER
 BLI .F               693:   BOTTOM LOG INTERVAL
 TLI .F                42:   TOP LOG INTERVAL
 CS  .IN            8.625:   CASING SIZE
 CBD .F                42:   CASING BOTTOM DRILLER
 CBL .F                42:   CASING BOTTOM LOGGER
 BS  .IN            7.875:   BIT SIZE
 BSD .F               686:   BIT SIZE AT DEPTH
 DFT .           CHEM GEL:   DRILLING FLUID TYPE
 DFD .                8.8:   DRILLING FLUID DENSITY
 DFV .                 33:   DRILLING FLUID VISCOSITY
 DFPH.                  7:   DRILLING FLUID PH
 DFL .               11.2:   DRILLING FLUID LOSS
 MSS .          FLOW LINE:   MUD SAMPLE SOURCE
 RMS .OHMM            .32:   RESISTIVITY MUD SAMPLE
 MST .F                68:   MUD SAMPLE TEMPERATURE
 RMF .OHMM            .28:   RESISTIVITY MUD FILTRATE SAMPLE
 MFST.F                68:   MUD FILTRATE SAMPLE TEMPERATURE
 RMC .OHMM            .61:   RESISTIVITY MUD CAKE
 MCST.F                68:   MUD CAKE SAMPLE TEMPERATURE
 MFSS.           MEASURED:   MUD FILTRATE SAMPLE SOURCE
 MCSS.           MEASURED:   MUD CAKE SAMPLE SOURCE
 RMB .OHMM           .410:   RESISTIVITY MUD AT BHT
 BHT .F                53:   BOTTOM HOLE TEMPERATURE
 TCS .HRS               2:   TIME CURCULATED STOPPED
 MRT .F                53:   MAXIMUM RECORDED TEMPERATURE
 LUN .               8611:   LOGGING UNIT NUMBER
 LUL .           GILLETTE:   LOGGING UNIT LOCATION
 ENGI.            C. DOAK:   RECORDING ENGINEER
 WITN.         STUEBINGER:   WITNESSED BY
 CLNT.            A2DTECH:   CLIENT CODE
 ORIG. 1", 2.5", 5" PRINT:   ORIGIN OF DATA
 UWI .       490251057900:   UNIQUE WELL ID
 DICO. A2D Technologies, Inc.:   DIGITIZING COMPANY
~OTHER INFORMATION
~A   DEPT      SPR       SGRD        ILD        ILM       CALD         GRD      CORR       DPHI       RHOB   
# ...
  562.5000   -49.9624    13.7374    16.7061    14.5799     8.5740    81.6148     0.0833     0.1266     2.4479
  563.0000   -49.9942    14.3463    16.0265    14.2396     8.5556    83.0456     0.0853     0.1222     2.4621
  563.5000   -50.0257    14.3463    16.0265    13.9063     8.5376    84.3497     0.0875     0.1321     2.4382
  564.0000   -50.0573    14.0927    16.0265    13.5802     8.5194    85.7016     0.0883     0.1418     2.4139
  564.5000   -50.0888    13.8733    16.0265    13.2617     8.4995    85.6149     0.0876     0.1525     2.3963
  565.0000   -50.1203    14.1958    13.4195    12.8509     8.4940    85.3282     0.0871     0.1496     2.4009
  565.5000   -50.1518    14.6812    11.5774    13.0715     8.5091    86.3095     0.0865     0.1438     2.4082
  566.0000   -50.1833    15.1631    10.6501    13.2921     8.5226    88.2417     0.0860     0.1405     2.4074
  566.5000   -50.2148    14.8694    11.1930    13.5658     8.5358    88.6723     0.0854     0.1460     2.3989
  567.0000   -50.2463    14.6136    11.7180    13.8287     8.5494    86.5885     0.0847     0.1502     2.3962
  567.5000   -50.2778    14.8116    11.4527    13.6952     8.5644    85.0890     0.0853     0.1478     2.4024
  568.0000   -50.3093    15.1050    11.2803    13.5083     8.5617    87.4594     0.0874     0.1431     2.4102
  568.5000   -50.3408    15.4041    11.2878    13.3232     8.5417    90.0365     0.0894     0.1384     2.4179
  569.0000   -50.3723    15.7092    11.3834    13.1385     8.5233    92.7993     0.0915     0.1337     2.4255
  569.5000   -50.4038    16.0265    11.5634    12.9579     8.5049    93.0236     0.0935     0.1287     2.4323
  570.0000   -50.4353    15.5888    11.7102    12.7798     8.4904    91.7954     0.0956     0.1305     2.4293
  570.5000   -50.4668    14.8858    11.7102    12.6075     8.4904    90.6349     0.0965     0.1342     2.4223
  571.0000   -50.4982    15.4456    11.7970    12.6075     8.4898    89.4584     0.0964     0.1379     2.4154
  571.5000   -50.5300    14.4994    11.9284    12.6702     8.4909    88.3230     0.0964     0.1421     2.4087
  572.0000   -50.5610    14.5799    11.8438    12.7450     8.4896    87.0900     0.0964     0.1451     2.4025
  572.5000   -50.5942    15.5816    11.7644    12.8202     8.4871    87.0056     0.0964     0.1477     2.4021
  573.0000   -50.6215    15.2192    11.6855    12.8958     8.4385    88.1052     0.0964     0.1449     2.4038
  573.5000   -50.6508    14.8858    11.6072    12.9719     8.3940    89.8257     0.0964     0.1417     2.4076
  574.0000   -50.6793    15.2380    11.5295    13.0485     8.3468    91.5200     0.0964     0.1390     2.4113
  574.5000   -50.7082    15.4456    11.3601    13.1255     8.3009    91.7739     0.0965     0.1402     2.4116
  575.0000   -50.7370    14.8858    11.1250    13.2029     8.2544    90.8717     0.0957     0.1419     2.4100
  575.5000   -50.7658    14.3463    10.8947    13.2808     8.2084    94.4857     0.0943     0.1436     2.4085
  576.0000   -50.7947    14.3463    10.6779    13.3253     8.1625    98.0591     0.0929     0.1452     2.4069
  576.5000   -50.8234    14.4933    10.6489    13.3816     8.1137    97.5425     0.0916     0.1469     2.4060
  577.0000   -50.8526    14.6361    10.6211    13.4341     8.0893    97.0557     0.0902     0.1455     2.4081
  577.5000   -50.8814    14.7803    10.5934    13.4867     8.0924    98.9623     0.0888     0.1405     2.4173
  578.0000   -50.9095    14.9260    10.5657    13.5722     8.0857    96.4211     0.0875     0.1355     2.4277
  578.5000   -50.9406    15.0730    10.5381    13.5557     8.0721    93.0317     0.0861     0.1305     2.4376
  579.0000   -50.9669    15.2216    10.5106    13.4979     8.0598    94.3876     0.0848     0.1255     2.4478
  579.5000   -50.9855    15.3716    10.4826    13.4402     8.0471    96.3737     0.0834     0.1259     2.4447
  580.0000   -50.8941    15.5230    10.6153    13.3827     8.0343    98.1491     0.0820     0.1268     2.4380
  580.5000   -50.8143    15.6659    10.7498    13.3253     8.0217   100.1273     0.0806     0.1257     2.4429
  581.0000   -50.7282    16.0721    10.8870    13.4421     8.0090   102.0319     0.0807     0.1204     2.4517
  581.5000   -50.6444    16.3112    11.0266    13.5576     7.9962   102.8913     0.0840     0.1151     2.4600
  582.0000   -50.5607    16.5560    11.3277    13.6741     7.9835    99.7241     0.0872     0.1098     2.4680
  582.5000   -50.4762    16.8050    11.7206    13.7916     7.9709    96.7449     0.0904     0.1045     2.4764
  583.0000   -50.3922    17.0572    12.1278    14.1883     7.9579    95.7192     0.0937     0.0992     2.4847
  583.5000   -50.3081    17.2765    12.5494    14.7174     7.9456    95.7956     0.0969     0.0932     2.4924
  584.0000   -50.2237    19.4056    12.9854    15.2661     7.9331    94.4521     0.1000     0.0861     2.5026
  584.5000   -50.1398    21.7146    13.4330    15.7334     7.9361    92.4576     0.1036     0.0789     2.5146
  585.0000   -50.0562    21.3347    14.0840    15.2032     7.9397    90.9214     0.1018     0.0718     2.5258
  585.5000   -49.9700    20.9107    13.9675    14.7666     7.9439    91.5780     0.0968     0.0656     2.5355
  586.0000   -49.8895    21.9336    13.4398    14.3426     7.9477    94.0871     0.0923     0.0690     2.5309
  586.5000   -49.8079    20.2815    12.9321    13.9307     7.9517    94.6863     0.0887     0.0757     2.5221
  587.0000   -49.8525    17.9695    12.4436    13.5307     7.9556    90.2145     0.0904     0.0824     2.5130
  587.5000   -49.9011    15.7334    11.9284    13.1421     7.9595    89.5672     0.0912     0.0905     2.5025
  588.0000   -49.9551    15.7334    11.9284    12.7647     7.9637    91.6123     0.0959     0.0951     2.4859
  588.5000   -50.0063    15.7334    11.9284    12.3769     7.9667    93.6216     0.0953     0.1063     2.4650
  589.0000   -50.0579    15.7334    11.8406    12.2167     7.9711    92.8173     0.0935     0.1175     2.4446
  589.5000   -50.1100    15.7334    11.7481    12.0488     7.9469    91.9013     0.0915     0.1287     2.4240
  590.0000   -50.1617    15.7334    11.5813    11.8831     7.9099    91.7794     0.0895     0.1350     2.4080
  590.5000   -50.2135    15.7334    11.3652    11.7198     7.8977    91.9439     0.0895     0.1333     2.4121
  591.0000   -50.2654    15.7334    11.1533    11.5586     7.9190    92.4730     0.0931     0.1283     2.4242
  591.5000   -50.3172    15.7334    10.9453    11.3997     7.9372    92.8735     0.0963     0.1234     2.4356
  592.0000   -50.3686    15.7343    10.8541    11.2855     7.9551    93.2545     0.1000     0.1175     2.4494
  592.5000   -50.4214    15.7346    10.8201    11.2860     7.9714    91.8397     0.0976     0.1175     2.4523
  593.0000   -50.4724    15.7348    10.7862    11.2862     7.9681    90.0645     0.0943     0.1188     2.4503
  593.5000   -50.5228    15.6722    10.7524    11.2864     7.9653    92.6404     0.0906     0.1199     2.4462
  594.0000   -50.5822    15.5545    10.7187    11.2865     7.9616    95.4823     0.0884     0.1207     2.4436
  594.5000   -50.5436    15.4374    10.6851    11.2863     7.9583    98.6571     0.0914     0.1168     2.4482
  595.0000   -50.4377    15.3212    10.6342    11.1823     7.9549   100.4016     0.0944     0.1126     2.4569
  595.5000   -50.3401    15.2060    10.5787    10.9220     7.9514    99.3132     0.0977     0.1084     2.4654
  596.0000   -50.2440    15.0917    10.5235    10.5432     7.9480    95.6591     0.1006     0.1041     2.4736
  596.5000   -50.1452    14.9783    10.4686    10.5985     7.9444    93.0145     0.1040     0.0984     2.4798
  597.0000   -50.0478    14.8658    10.4141    11.0658     7.9413    92.8834     0.0998     0.1015     2.4715
  597.5000   -49.9502    14.7542    10.3598    11.5537     7.9379    90.3748     0.0944     0.1085     2.4614
  598.0000   -49.8526    14.6184    10.3057    12.0631     7.9331    89.6556     0.0888     0.1156     2.4511
  598.5000   -49.7544    14.6292    10.2521    12.8424     7.9454    92.8902     0.0834     0.1231     2.4405
