~VERSION INFORMATION
 VERS.                2.0:   CWLS LOG ASCII STANDARD - VERSION 2.0
 WRAP.                 NO:   ONE LINE PER DEPTH STEP
~WELL INFORMATION
#MNEM.UNIT      DATA TYPE    INFORMATION
#----------   ------------   ------------------------------
 STRT.F          690.5000:   START DEPTH
 STOP.F         2366.0000:   STOP DEPTH
 STEP.F            0.5000:   STEP LENGTH
 NULL.          -999.2500:   NO VALUE
 COMP. LAWRENCE/ALLISON INC:   COMPANY
 WELL.  NPR 3 #26SHX10-10:   WELL
 FLD .             TEAPOT:   FIELD
 LOC .      S10 T38N R78W:   LOCATION
 CNTY.            NATRONA:   COUNTY
 STAT.            WYOMING:   STATE
 CTRY. UNITED STATES OF AMERICA:   COUNTRY
 SRVC.            Unknown:   SERVICE COMPANY
 DATE.        30-DEC-1992:   LOGDATE
 API .       490251113600:   API NUMBER
~CURVE INFORMATION
#MNEM.UNIT       API CODE    CURVE DESCRIPTION
#----------   ------------   ------------------------------
 DEPT.F                  :   
 ROP .MIN/FT 91 810 01 00:   RATE OF DRILLING PENETRATION
 TGAS.UNITS  91 830 01 00:   TOTAL GAS FROM HOTWIRE
~PARAMETER INFORMATION
#MNEM.UNIT          VALUE    DESCRIPTION
#----------   ------------   ------------------------------
 EKB .F              5235:   KELLING BUSHING
 EGL .F              5225:   GROUND LEVEL
 DATE.           12-30-92:   RUN DATE
 DD  .F              2365:   DEPTH DRILLER
 BLI .F              2360:   BOTTOM LOG INTERVAL
 TLI .F              2160:   TOP LOG INTERVAL
 CS  .IN            8.625:   CASING SIZE
 CBD .F               675:   CASING BOTTOM DRILLER
 TCS .HRS            0200:   TIME CURCULATED STOPPED
 TLAB.HRS            1700:   TIME LOGGER AT BOTTOM
 ENGI.               HUSK:   RECORDING ENGINEER
 WITN.              TOWER:   WITNESSED BY
 CLNT.            A2DTECH:   CLIENT CODE
 ORIG.           5" PRINT:   ORIGIN OF DATA
 UWI .       490251113600:   UNIQUE WELL ID
 DICO. A2D Technologies, Inc.:   DIGITIZING COMPANY
~OTHER INFORMATION
~A   DEPT      ROP         TGAS 
# ...
 1905.5000     0.7446    38.4983
 1906.0000     0.6270    38.4254
 1906.5000     0.5668    38.3525
 1907.0000     0.6827    38.2796
 1907.5000     0.9251    38.2066
 1908.0000     0.9988    38.1337
 1908.5000     0.9985    38.0608
 1909.0000     1.0089    37.9879
 1909.5000     1.0086    37.9150
 1910.0000     0.9979    37.8421
 1910.5000     0.9763    37.7691
 1911.0000     0.9223    37.6962
 1911.5000     0.8390    37.6233
 1912.0000     0.8071    37.5504
 1912.5000     0.8069    37.4775
 1913.0000     0.8067    37.4046
 1913.5000     0.8171    37.3316
 1914.0000     0.8275    37.2587
 1914.5000     0.8272    37.1858
 1915.0000     0.8270    37.1129
 1915.5000     0.8373    37.0400
 1916.0000     0.8371    36.9671
 1916.5000     0.8263    36.8941
 1917.0000     0.7839    36.8212
 1917.5000     0.6993    36.7483
 1918.0000     0.6675    36.6754
 1918.5000     0.7939    36.6025
 1919.0000     0.8675    36.5296
 1919.5000     0.8779    36.4567
 1920.0000     0.8671    36.3837
 1920.5000     0.8669    36.3108
 1921.0000     0.8667    36.2379
 1921.5000     0.8665    36.1650
 1922.0000     0.8662    36.0921
 1922.5000     0.8766    36.0192
 1923.0000     0.8763    35.9462
 1923.5000     0.8761    35.8733
 1924.0000     0.8759    35.8004
 1924.5000     0.8335    35.7275
 1925.0000     0.7384    35.6546
 1925.5000     0.6643    35.5817
 1926.0000     0.6106    35.5087
 1926.5000     0.5795    35.4358
 1927.0000     0.6637    35.3629
 1927.5000     0.7268    35.2900
 1928.0000     0.7793    35.2033
 1928.5000     0.8213    34.1755
 1929.0000     0.8422    33.1581
 1929.5000     0.8526    32.1406
 1930.0000     0.8312    32.1924
 1930.5000     0.7677    32.2338
 1931.0000     0.6937    32.2751
 1931.5000     0.6081    32.3165
 1932.0000     0.5561    31.2988
 1932.5000     0.5664    31.3412
 1933.0000     0.5662    31.3835
 1933.5000     0.5660    30.3748
 1934.0000     0.5658    30.4162
 1934.5000     0.5656    30.4576
 1935.0000     0.5970    30.4989
 1935.5000     0.6812    29.4712
 1936.0000     0.7759    28.4537
 1936.5000     0.7863    28.5055
 1937.0000     0.7617    28.5468
 1937.5000     0.6065    28.5882
 1938.0000     0.5536    27.5708
 1938.5000     0.5533    27.6225
 1939.0000     0.5531    27.6639
 1939.5000     0.5529    27.7053
 1940.0000     0.5633    27.7467
 1940.5000     0.5631    27.7881
 1941.0000     0.5629    27.8295
 1941.5000     0.5627    27.8709
 1942.0000     0.5624    27.9122
 1942.5000     0.5622    27.9536
 1943.0000     0.5514    27.9953
 1943.5000     0.5301    28.0376
 1944.0000     0.5194    28.0881
 1944.5000     0.5192    29.1883
 1945.0000     0.5612    29.2297
 1945.5000     0.6559    30.3300
 1946.0000     0.7401    31.4302
 1946.5000     0.7715    32.5304
 1947.0000     0.7713    32.5752
 1947.5000     0.7711    31.5474
 1948.0000     0.7814    31.5992
 1948.5000     0.7812    32.7028
 1949.0000     0.7810    32.7442
 1949.5000     0.7914    32.7856
 1950.0000     0.8017    32.8235
 1950.5000     0.7929    30.9962
 1951.0000     0.7700    29.7293
 1951.5000     0.7700    29.7807
 1952.0000     0.7700    29.8218
 1952.5000     0.7911    30.9218
 1953.0000     0.8574    30.9629
 1953.5000     0.9810    32.0628
 1954.0000     0.9388    32.1039
 1954.5000     0.8544    32.1485
 1955.0000     0.8017    32.1965
 1955.5000     0.7806    32.2376
 1956.0000     0.7911    32.2787
 1956.5000     0.8122    32.3198
 1957.0000     0.8228    31.2918
 1957.5000     0.8122    32.4021
 1958.0000     0.7806    32.4432
 1958.5000     0.7068    32.4847
 1959.0000     0.6224    32.5271
 1959.5000     0.5274    32.5768
 1960.0000     0.5063    32.6179
 1960.5000     0.5274    32.6590
 1961.0000     0.5485    32.7002
 1961.5000     0.5169    33.8001
 1962.0000     0.5063    33.8412
 1962.5000     0.5063    33.8824
 1963.0000     0.5696    33.9247
 1963.5000     0.6540    33.9671
 1964.0000     0.7278    34.0160
 1964.5000     0.7700    34.0571
 1965.0000     0.7700    34.0982
 1965.5000     0.7700    33.0702
 1966.0000     0.7700    33.1216
 1966.5000     0.7700    33.1628
 1967.0000     0.7700    32.1451
 1967.5000     0.7595    32.1965
 1968.0000     0.7489    32.2376
 1968.5000     0.7384    31.2096
 1969.0000     0.7384    31.2610
 1969.5000     0.7384    31.3021
 1970.0000     0.7384    32.4021
 1970.5000     0.7384    32.4432
 1971.0000     0.7384    32.4847
 1971.5000     0.7384    32.5271
 1972.0000     0.7489    32.5768
 1972.5000     0.7809    32.6179
 1973.0000     0.8262    31.5899
 1973.5000     0.8966    31.6413
 1974.0000     0.9705    31.6825
 1974.5000     1.0127    31.7236
 1975.0000     0.9705    31.7647
 1975.5000     0.8333    31.8071
 1976.0000     0.7700    31.8572
 1976.5000     0.7806    30.8292
 1977.0000     0.7824    30.8806
 1977.5000     0.8017    30.9218
 1978.0000     0.8122    30.9629
 1978.5000     0.8122    31.0040
 1979.0000     0.7806    31.0451
 1979.5000     0.7595    31.0871
 1980.0000     0.8122    31.1376
 1980.5000     0.9711    31.1788
 1981.0000     1.0232    30.1508
 1981.5000     1.1076    30.2022
 1982.0000     1.2236    30.2433
 1982.5000     1.1287    30.2844
 1983.0000     0.9599    30.3255
 1983.5000     0.8650    30.3671
 1984.0000     0.8228    30.4094
 1984.5000     0.8228    30.4592
 1985.0000     0.8228    30.5003
 1985.5000     0.8228    30.5414
 1986.0000     0.8228    30.5825
 1986.5000     0.8228    31.6825
 1987.0000     0.8228    31.7236
 1987.5000     0.8228    31.7647
 1988.0000     0.8228    31.8071
 1988.5000     0.8228    31.8572
 1989.0000     0.8228    31.8983
 1989.5000     0.8228    31.9395
 1990.0000     0.8228    31.9806
 1990.5000     0.8228    32.0217
 1991.0000     0.8122    32.0628
 1991.5000     0.8122    32.1039
 1992.0000     0.8122    32.1459
 1992.5000     0.8017    32.1965
 1993.0000     0.8017    32.2376
 1993.5000     0.8017    32.2787
 1994.0000     0.8439   172.7654
 1994.5000     1.1814   451.6585
 1995.0000     1.4451   440.0491
 1995.5000     1.6983   202.9138
 1996.0000     1.8249     8.9989
 1996.5000     1.5479     2.8800
 1997.0000     0.9177     6.0994
 1997.5000     0.8017     8.2588
 1998.0000     0.7595    10.4272
 1998.5000     0.6857    10.4683
 1999.0000     0.6435    11.5682
 1999.5000     0.5696    11.6094
 2000.0000     0.5523    11.6539
 2000.5000     0.5699    11.2332
 2001.0000     0.6439    10.6775
 2001.5000     0.8551     9.6495
 2002.0000     1.0135     9.7010
 2002.5000     1.0559    10.8010
 2003.0000     1.0561    12.9600
 2003.5000     1.0564    15.1200
 2004.0000     1.0566    16.2290
 2004.5000     1.0568    16.2702
 2005.0000     1.0358    16.3114
 2005.5000     1.0255    16.3526
 2006.0000     1.0152    15.3349
 2006.5000     1.0156    15.3761
 2007.0000     1.0399    15.4173
 2007.5000     1.1741    15.4588
 2008.0000     1.2692    15.5012
 2008.5000     1.3116    15.5512
 2009.0000     1.1220    15.5923
 2009.5000     1.0272    15.6335
 2010.0000     1.0169    15.6747
 2010.5000     0.9960    15.7159
 2011.0000     0.9962    15.7571
 2011.5000     0.9964    15.7983
 2012.0000     0.9967    15.8400
 2012.5000     0.9969    14.8235
 2013.0000     1.0709    12.7522
 2013.5000     1.2399    12.7934
 2014.0000     1.3139    11.7741
 2014.5000     1.2930     9.6993
 2015.0000     1.2827    10.8702
 2015.5000     1.2829    39.4390
 2016.0000     1.3148    11.9508
 2016.5000     1.3572    11.9920
 2017.0000     1.4207    12.0332
 2017.5000     1.5264    11.0155
 2018.0000     1.5477    12.1155
 2018.5000     1.4801    12.1567
 2019.0000     1.2528    11.1388
 2019.5000     1.0842    11.0897
 2020.0000     0.9684    10.1626
 2020.5000     0.8947    10.2141
 2021.0000     0.8317    10.2553
 2021.5000     0.8213    10.2965
 2022.0000     0.7899    10.3377
 2022.5000     0.7795    11.4377
 2023.0000     0.7798    12.5377
 2023.5000     0.7800    13.6377
 2024.0000     0.7907    14.8516
 2024.5000     0.7909    16.9069
 2025.0000     0.7911    15.8789
 2025.5000     0.7808    13.8128
 2026.0000     0.7945    13.8539
 2026.5000     0.8973    11.7775
