~VERSION INFORMATION
 VERS.                2.0:   CWLS LOG ASCII STANDARD - VERSION 2.0
 WRAP.                 NO:   ONE LINE PER DEPTH STEP
~WELL INFORMATION
#MNEM.UNIT      DATA TYPE    INFORMATION
#----------   ------------   ------------------------------
 STRT.F           30.0000:   START DEPTH
 STOP.F          691.0000:   STOP DEPTH
 STEP.F            0.5000:   STEP LENGTH
 NULL.          -999.2500:   NO VALUE
 COMP. U.S. DEPARTMENT OF ENERGY:   COMPANY
 WELL. NAVAL PETROLEUM RESERVE #3 #77-S-34:   WELL
 FLD .        TEAPOT DOME:   FIELD
 LOC .      S34 T39N R78W:   LOCATION
 CNTY.            NATRONA:   COUNTY
 STAT.            WYOMING:   STATE
 CTRY. UNITED STATES OF AMERICA:   COUNTRY
 SRVC.              Welex:   SERVICE COMPANY
 DATE.        26-APR-1977:   LOGDATE
 API .       490251034700:   API NUMBER
~CURVE INFORMATION
#MNEM.UNIT       API CODE    CURVE DESCRIPTION
#----------   ------------   ------------------------------
 DEPT.F                  :   
 CALD.IN     45 280 60 00:   CALIPER FROM DENSITY LOG
 CORR.G/C3   45 356 01 00:   DENSITY CORRECTION
 DPHI.DEC    45 890 12 00:   DENSITY POROSITY SANDSTONE
 RHOB.G/C3   45 350 01 00:   BULK DENSITY
 GRD .GAPI   45 310 01 00:   GAMMA RAY FROM DENSITY LOG
 ILD .OHMM   07 120 46 00:   INDUCTION LOG DEEP
 ILM .OHMM   07 120 44 00:   INDUCTION LOG MEDIUM
 SGRD.OHMM   07 220 05 00:   SHALLOW GUARD RESISTIVITY
 SPR .MV     07 010 01 00:   SPONTANEOUS POTENTIAL FROM RES.
~PARAMETER INFORMATION
#MNEM.UNIT          VALUE    DESCRIPTION
#----------   ------------   ------------------------------
 PD  .                 GL:   PERMANENT DATUM
 EPD .F              5075:   ELEVATION PERMANENT DATUM
 LMF .                 GL:   LOG MEASURED FROM
 DMF .                 GL:   DRILLING MEASURED FROM
 EGL .F              5075:   GROUND LEVEL
 DATE.          4-26-1977:   RUN DATE
 RUN .                  1:   RUN NUMBER
 DD  .F               700:   DEPTH DRILLER
 DL  .F               693:   DEPTH LOGGER
 BLI .F               691:   BOTTOM LOG INTERVAL
 TLI .F                35:   TOP LOG INTERVAL
 CS  .IN            8.625:   CASING SIZE
 CBD .F                40:   CASING BOTTOM DRILLER
 CBL .F                39:   CASING BOTTOM LOGGER
 BS  .IN            7.875:   BIT SIZE
 BSD .F               700:   BIT SIZE AT DEPTH
 DFT .            KCL MUD:   DRILLING FLUID TYPE
 DFD .                9.5:   DRILLING FLUID DENSITY
 DFV .                 35:   DRILLING FLUID VISCOSITY
 DFPH.               10.5:   DRILLING FLUID PH
 DFL .                 12:   DRILLING FLUID LOSS
 MSS .           FLOWLINE:   MUD SAMPLE SOURCE
 RMS .OHMM            .32:   RESISTIVITY MUD SAMPLE
 MST .F                66:   MUD SAMPLE TEMPERATURE
 RMF .OHMM            .28:   RESISTIVITY MUD FILTRATE SAMPLE
 MFST.F                66:   MUD FILTRATE SAMPLE TEMPERATURE
 RMC .OHMM            .49:   RESISTIVITY MUD CAKE
 MCST.F                66:   MUD CAKE SAMPLE TEMPERATURE
 RMB .OHMM            .28:   RESISTIVITY MUD AT BHT
 BHT .F                74:   BOTTOM HOLE TEMPERATURE
 TCS .HRS             1.5:   TIME CURCULATED STOPPED
 MRT .F                74:   MAXIMUM RECORDED TEMPERATURE
 LUN .               8611:   LOGGING UNIT NUMBER
 LUL .           GILLETTE:   LOGGING UNIT LOCATION
 ENGI.            C. DOAK:   RECORDING ENGINEER
 WITN.       MR. ROB LYON:   WITNESSED BY
 CLNT.            A2DTECH:   CLIENT CODE
 ORIG.           5" PRINT:   ORIGIN OF DATA
 UWI .       490251034700:   UNIQUE WELL ID
 DICO. A2D Technologies, Inc.:   DIGITIZING COMPANY
~OTHER INFORMATION
~A   DEPT       CALD      CORR      DPHI         RHOB       GRD       ILD        ILM       SGRD        SPR   
# ...
  541.0000     7.9229     0.0388     0.1732     2.3880    85.7934    12.0988    15.7802    17.0861   -31.7966
  541.5000     7.9381     0.0378     0.1750     2.3866    86.9945    12.0205    15.5693    17.4452   -31.9405
  542.0000     7.9384     0.0348     0.1771     2.3828    88.3440    11.9419    15.3625    17.3134   -31.9335
  542.5000     7.9537     0.0333     0.1789     2.3791    90.7599    12.1125    15.2607    16.7437   -31.7784
  543.0000     7.9540     0.0317     0.1810     2.3776    92.5388    12.2003    15.1621    16.4033   -31.7728
  543.5000     7.9543     0.0332     0.1840     2.3761    94.1873    12.2042    15.4849    16.1809   -31.7658
  544.0000     7.9546     0.0332     0.1872     2.3701    94.9389    12.2092    15.7048    15.8526   -31.7601
  544.5000     7.9699     0.0347     0.1881     2.3657    95.5492    12.2131    15.8185    15.9642   -31.9054
  545.0000     7.9851     0.0347     0.1828     2.3746    96.7422    12.2171    16.0544    16.1878   -32.1974
  545.5000     8.0003     0.0347     0.1771     2.3821    97.6433    12.2210    16.2723    16.3018   -32.1903
  546.0000     8.0155     0.0347     0.1762     2.3814    98.5444    12.2260    16.0535    16.8758   -32.3356
  546.5000     8.0159     0.0346     0.1795     2.3747    99.1465    12.2299    15.6235    17.8342   -32.6290
  547.0000     8.0311     0.0346     0.1809     2.3799    99.4507    12.2339    15.2038    16.8801   -32.9209
  547.5000     8.0314     0.0346     0.1759     2.3859    98.2592    12.2379    15.2100    15.9735   -33.0648
  548.0000     8.0317     0.0346     0.1713     2.3926    96.3202    12.1577    15.2149    15.1229   -33.0578
  548.5000     8.0320     0.0346     0.1660     2.4031    98.5666    11.9961    15.2198    15.1248   -33.0521
  549.0000     8.0323     0.0346     0.1618     2.4121    99.7677    11.9166    14.7105    15.0229   -33.0673
  549.5000     8.0176     0.0315     0.1594     2.4099    99.4730    11.7523    14.5127    14.7105   -33.3399
  550.0000     8.0030     0.0270     0.1606     2.4010    96.8774    11.6013    14.3869    14.4963   -33.4837
  550.5000     7.9731     0.0255     0.1642     2.3987    94.0982    11.6021    14.5192    14.4202   -33.4678
  551.0000     7.9646     0.0255     0.1642     2.3994    96.0450    11.6028    14.7216    14.8255   -33.6353
  551.5000     7.9581     0.0209     0.1618     2.4039    97.5536    11.6036    14.7228    15.2417   -33.6370
  552.0000     7.9581     0.0104     0.1594     2.4077    95.4534    11.6045    14.4226    14.8299   -33.6384
  552.5000     7.9581     0.0044     0.1570     2.4152    93.0646    11.5256    14.2260    14.2313   -33.9388
  553.0000     7.9581     0.0014     0.1576     2.4122    95.0106    11.4471    13.9355    13.6568   -33.9402
  553.5000     7.9432     0.0014     0.1641     2.3973    97.1418    11.2911    13.6522    13.4717   -34.0915
  554.0000     7.9374     0.0014     0.1704     2.3913    97.8563    11.0609    13.6531    13.5667   -34.2423
  554.5000     7.9283     0.0044     0.1674     2.3967    92.7776    10.9100    13.7483    13.7571   -34.3932
  555.0000     7.9283     0.0059     0.1632     2.4040    90.9860    10.6875    13.7492    13.9497   -34.5441
  555.5000     7.9283     0.0073     0.1617     2.4055    93.8645    10.5419    13.6557    14.3413   -34.6951
  556.0000     7.9283     0.0075     0.1671     2.4003    97.8690    10.4701    13.5629    14.2447   -34.8463
  556.5000     7.9283     0.0088     0.1619     2.4056    99.5153    10.3989    13.3782    13.8598   -34.9972
  557.0000     7.9283     0.0088     0.1575     2.4153    94.8851    10.3997    13.1056    13.3923   -34.9986
  557.5000     7.9283     0.0088     0.1536     2.4198    97.0108    10.4004    13.0165    13.1201   -35.1495
  558.0000     7.9283     0.0088     0.1587     2.4153    99.9736    10.3296    13.1981    13.2125   -35.3007
  558.5000     7.9283     0.0088     0.1665     2.4086    96.3890    10.3304    13.4746    13.3060   -35.4516
  559.0000     7.9283     0.0087     0.1736     2.3944    93.4023    10.4026    13.6624    13.4924   -35.7520
  559.5000     7.9283     0.0087     0.1805     2.3735    90.7057    10.4033    13.7578    13.9670   -35.9029
  560.0000     7.9283     0.0087     0.1904     2.3578    89.5215    10.4039    13.7587    14.2605   -36.0538
  560.5000     7.9283     0.0102     0.1865     2.3631    89.8240    10.4048    13.7598    14.2442   -36.2050
  561.0000     7.9189     0.0117     0.1784     2.3740    90.2752    10.4055    13.5722    13.6871   -36.3559
  561.5000     7.9133     0.0132     0.1709     2.3876    91.3264    10.3347    13.4799    13.5012   -36.3573
  562.0000     7.9283     0.0147     0.1619     2.4028    93.1216    10.2643    13.3872    13.6907   -36.5082
  562.5000     7.9283     0.0161     0.1568     2.4147    94.6192    10.1945    13.2061    13.5051   -36.6595
  563.0000     7.9283     0.0176     0.1562     2.4116    95.3694    10.1251    13.0264    13.1402   -36.8104
  563.5000     7.9283     0.0176     0.1622     2.4065    96.1196    10.0562    13.0273    12.8731   -36.9612
  564.0000     7.9283     0.0161     0.1586     2.4125    95.8234     9.9878    12.9387    12.7860   -36.9627
  564.5000     7.9283     0.0131     0.1532     2.4193    95.6768     9.9199    13.0290    12.8765   -37.1136
  565.0000     7.9283     0.0131     0.1490     2.4245    96.5772     9.8524    13.2108    13.3542   -37.2648
  565.5000     7.9283     0.0100     0.1469     2.4283    98.6727     9.8532    13.2117    13.7041   -37.4157
  566.0000     7.9221     0.0100     0.1479     2.4201    99.4236     9.7189    13.1216    13.2418   -37.5666
  566.5000     7.9133     0.0100     0.1550     2.4126    98.8285     9.7196    13.0326    12.8836   -37.7175
  567.0000     7.9283     0.0130     0.1589     2.4111    97.6355     9.6534    13.0337    12.7968   -37.8687
  567.5000     7.9283     0.0135     0.1583     2.4171    96.7414     9.6542    12.9448    13.1565   -37.8701
  568.0000     7.9133     0.0160     0.1543     2.4239    96.4453     9.7216    13.0354    13.6193   -38.0210
  568.5000     7.9133     0.0176     0.1475     2.4306    97.7941     9.7223    13.0362    13.8101   -38.1719
  569.0000     7.9133     0.0207     0.1445     2.4337    98.9927     9.7229    13.1272    13.6229   -38.3229
  569.5000     7.9283     0.0249     0.1484     2.4215    99.4440     9.8587    13.2190    13.2548   -38.4741
  570.0000     7.9283     0.0279     0.1571     2.4284    95.2622     9.9275    13.2199    12.9849   -38.4755
  570.5000     7.9283     0.0309     0.1430     2.4412    91.0796     9.9969    13.2207    12.8089   -38.3274
  571.0000     7.9283     0.0339     0.1349     2.4457    88.9898    10.0667    13.2216    12.8996   -38.1794
  571.5000     7.9283     0.0339     0.1355     2.4495    87.7967    10.1371    13.1319    13.2691   -37.8822
  572.0000     7.9283     0.0339     0.1346     2.4554    88.5477    10.0680    13.0424    13.7287   -37.8836
  572.5000     7.9283     0.0339     0.1337     2.4517    89.2979    10.0688    13.0435    13.8249   -37.5860
  573.0000     7.9283     0.0338     0.1379     2.4442    90.1975    10.0003    13.0443    13.3590   -37.5875
  573.5000     7.9283     0.0322     0.1432     2.4353    91.2467    10.0010    13.0454    13.2691   -37.5892
  574.0000     7.9433     0.0308     0.1495     2.4263    92.4460     9.9329    13.0462    13.6420   -37.5906
  574.5000     7.9581     0.0278     0.1494     2.4353    92.7478     9.8653    13.1370    13.7381   -37.7415
  575.0000     7.9581     0.0248     0.1435     2.4375    94.3949     9.8661    12.9583    13.4588   -37.8924
  575.5000     7.9581     0.0233     0.1399     2.4368    97.3872     9.8667    12.8652    13.0049   -37.8939
  576.0000     7.9581     0.0217     0.1396     2.4398    98.1374     9.7324    12.6080    13.3700   -38.0451
  576.5000     7.9581     0.0217     0.1460     2.4324    95.7493     9.6662    12.3509    13.5576   -38.0465
  577.0000     7.9581     0.0215     0.1585     2.4189    97.6953     9.6002    12.1827    13.0104   -38.1974
