~VERSION INFORMATION
 VERS.                2.0:   CWLS LOG ASCII STANDARD - VERSION 2.0
 WRAP.                 NO:   ONE LINE PER DEPTH STEP
~WELL INFORMATION
#MNEM.UNIT      DATA TYPE    INFORMATION
#----------   ------------   ------------------------------
 STRT.F            8.0000:   START DEPTH
 STOP.F          500.0000:   STOP DEPTH
 STEP.F            0.5000:   STEP LENGTH
 NULL.          -999.2500:   NO VALUE
 COMP. FENIX & SCISSON INC:   COMPANY
 WELL. 65 12 SX 3FI #65-3:   WELL
 FLD .             TEAPOT:   FIELD
 LOC .       S3 T38N R78W:   LOCATION
 CNTY.            NATRONA:   COUNTY
 STAT.            WYOMING:   STATE
 CTRY. UNITED STATES OF AMERICA:   COUNTRY
 SRVC.              Welex:   SERVICE COMPANY
 DATE.        01-JUN-1980:   LOGDATE
 API .       490251082400:   API NUMBER
~CURVE INFORMATION
#MNEM.UNIT       API CODE    CURVE DESCRIPTION
#----------   ------------   ------------------------------
 DEPT.F                  :   
 GRD .GAPI   45 310 01 00:   GAMMA RAY FROM DENSITY LOG
 CALD.IN     45 280 60 00:   CALIPER
 RHOB.G/C3   45 350 01 00:   BULK DENSITY
 CORR.G/C3   45 356 01 00:   DENSITY CORRECTION
 DPHI.DEC    45 890 12 00:   DENSITY POROSITY SANDSTONE
 NPHI.DEC    42 890 03 00:   NEUTRON POROSITY SANDSTONE
 SPR .MV     07 010 01 00:   SPONTANEOUS POTENTIAL
 SGRD.OHMM   07 220 05 00:   SHALLOW GUARD RESISTIVITY
 ILD .OHMM   07 120 46 00:   INDUCTION LOG DEEP
 ILM .OHMM   07 120 44 00:   INDUCTION LOG MEDIUM
~PARAMETER INFORMATION
#MNEM.UNIT          VALUE    DESCRIPTION
#----------   ------------   ------------------------------
 PD  .                 GL:   PERMANENT DATUM
 EPD .F              5155:   ELEVATION PERMANENT DATUM
 LMF .                 KB:   LOG MEASURED FROM
 DAPD.F                 4:   FEET ABOVE PERMANENT DATUM
 DMF .                 KB:   DRILLING MEASURED FROM
 EKB .F              5159:   KELLING BUSHING
 EGL .F              5155:   GROUND LEVEL
 DATE.             6-1-80:   RUN DATE
 RUN .                  1:   RUN NUMBER
 DD  .F               505:   DEPTH DRILLER
 DL  .F               502:   DEPTH LOGGER
 BLI .F               500:   BOTTOM LOG INTERVAL
 TLI .F                20:   TOP LOG INTERVAL
 BS  .IN            9.875:   BIT SIZE
 BSD .F               505:   BIT SIZE AT DEPTH
 DFT .      OIL BASED MUD:   DRILLING FLUID TYPE
 MSS .            MUD PIT:   MUD SAMPLE SOURCE
 RMS .OHMM             .9:   RESISTIVITY MUD SAMPLE
 MST .F                65:   MUD SAMPLE TEMPERATURE
 RMF .OHMM            .72:   RESISTIVITY MUD FILTRATE SAMPLE
 MFST.F                65:   MUD FILTRATE SAMPLE TEMPERATURE
 RMC .OHMM           1.08:   RESISTIVITY MUD CAKE
 MCST.F                65:   MUD CAKE SAMPLE TEMPERATURE
 MFSS.           MEASURED:   MUD FILTRATE SAMPLE SOURCE
 MCSS.           MEASURED:   MUD CAKE SAMPLE SOURCE
 RMB .OHMM            .71:   RESISTIVITY MUD AT BHT
 BHT .F                76:   BOTTOM HOLE TEMPERATURE
 TCS .HRS               2:   TIME CURCULATED STOPPED
 MRT .F                76:   MAXIMUM RECORDED TEMPERATURE
 LUN .               9685:   LOGGING UNIT NUMBER
 LUL .             CASPER:   LOGGING UNIT LOCATION
 ENGI.               REIN:   RECORDING ENGINEER
 WITN.            RHOADES:   WITNESSED BY
 CLNT.            A2DTECH:   CLIENT CODE
 ORIG.        2" 5" PRINT:   ORIGIN OF DATA
 UWI .       490251082400:   UNIQUE WELL ID
 DICO. A2D Technologies, Inc.:   DIGITIZING COMPANY
~OTHER INFORMATION
~A    DEPT     GRD       CALD       RHOB       CORR       DPHI       NPHI        SPR        SGRD         ILD        ILM 
# ...
  276.0000   104.6019     9.9504     2.4484    -0.0269     0.1357     0.3033   -22.6592     9.3899     7.1383     8.3321
  276.5000   102.6685     9.9512     2.4558    -0.0182     0.1335     0.3062   -22.6808     9.0450     7.1561     8.5330
  277.0000   101.2385     9.9521     2.4568    -0.0177     0.1292     0.3091   -22.7024     9.2291     7.1740     8.6923
  277.5000   101.9668     9.9529     2.4721    -0.0125     0.1200     0.3120   -22.7241     9.4887     7.1920     8.8545
  278.0000   102.9482     9.9537     2.4936     0.0076     0.1108     0.3141   -22.7463     9.7556     7.2100     9.0198
  278.5000   103.9415     9.9545     2.4985     0.0186     0.1078     0.3039   -22.7675    10.0300     7.2280     9.1882
  279.0000   103.8734     9.9554     2.4964     0.0163     0.1067     0.3014   -22.7420    10.3121     7.2461     9.3597
  279.5000   102.3100     9.9562     2.5033     0.0197     0.0988     0.3015   -22.4804    10.6673     7.2576     9.4882
  280.0000    99.9539     9.9570     2.5103     0.0306     0.0980     0.3016   -22.2203    10.3588     6.8466     9.5568
  280.5000   100.5108     9.9578     2.5118     0.0417     0.1098     0.3017   -21.9609     9.9738     6.5141     9.3882
  281.0000   101.3945     9.9587     2.4913     0.0374     0.1201     0.3038   -21.7016     9.6070     6.1966     8.9641
  281.5000   102.3831     9.9613     2.4725     0.0312     0.1305     0.3108   -21.4422     8.8313     5.8938     7.7847
  282.0000   103.4438     9.9641     2.4516     0.0250     0.1398     0.3192   -21.1829     7.6078     5.6059     6.5998
  282.5000   104.4776     9.9669     2.4446     0.0236     0.1402     0.3275   -20.9231     5.9481     5.3320     5.6135
  283.0000   105.4904     9.9697     2.4432     0.0336     0.1397     0.3359   -20.6623     4.5876     5.0284     6.0784
  283.5000   105.0373     9.9725     2.4438     0.0436     0.1389     0.3383   -20.4226     6.8856     5.1557     6.7059
  284.0000   103.2303     9.9753     2.4420     0.0539     0.1252     0.3267   -20.4979    10.2220     5.3129     7.3965
  284.5000   100.9704     9.9781     2.4558     0.0366     0.1094     0.3155   -20.5825    11.2262     5.4757     8.0977
  285.0000    99.0938     9.9751     2.4809     0.0098     0.0917     0.3057   -20.6657    11.5306     5.6453     8.7676
  285.5000    97.2134     9.9714     2.5120     0.0091     0.0998     0.2989   -20.7485    11.7700     5.8824     9.4977
  286.0000    94.3216     9.9677     2.5191     0.0133     0.1032     0.2921   -20.8314    11.8018     6.3243    10.2875
  286.5000    93.6580     9.9640     2.5027     0.0103     0.0990     0.2879   -20.9181    11.8018     6.7994    11.0697
  287.0000    93.9072     9.9603     2.5122     0.0083     0.0886     0.2866   -21.0071    11.8032     7.3102    11.1605
  287.5000    94.1391     9.9567     2.5289     0.0274     0.0798     0.2937   -20.6513    11.7975     7.8593    11.2468
  288.0000    94.0817     9.9530     2.5444     0.0454     0.0950     0.2975   -20.3144    12.1955     8.4497    11.3338
  288.5000    93.8390     9.9493     2.5240     0.0337     0.0972     0.2989   -19.9824    12.5703     8.9560    11.4215
  289.0000    93.5884     9.9456     2.5168     0.0268     0.1070     0.2997   -19.3845    12.9538     9.2008    11.5098
  289.5000    92.9627     9.9419     2.4988     0.0291     0.1249     0.2994   -18.5355    13.4353     9.4695    11.5872
  290.0000    91.1266     9.9382     2.4695     0.0179     0.1449     0.2990   -17.6887    14.5435    10.0451    12.4967
  290.5000    88.6551     9.9346     2.4369     0.0072     0.1539     0.2859   -16.8400    16.9858    10.7011    13.9119
  291.0000    86.2008     9.9309     2.4222     0.0016     0.1550     0.2765   -15.9941    20.3690    11.4001    15.3800
  291.5000    80.8933     9.9271     2.4136     0.0104     0.1541     0.2702   -15.2340    24.5851    12.2069    17.0823
  292.0000    72.8089     9.9228     2.4158     0.0297     0.1624     0.2628   -15.0341    25.5040    13.4190    19.0159
  292.5000    65.2723     9.9208     2.4076     0.0490     0.1686     0.2590   -14.8211    23.8202    14.7515    19.3680
  293.0000    61.8997    10.0570     2.3948     0.0586     0.1754     0.2699   -14.6062    21.0350    16.2162    19.2586
  293.5000    63.5863    10.1942     2.3817     0.0611     0.1837     0.2801   -14.3913    21.4870    17.8332    19.1477
  294.0000    66.3969    10.1629     2.3687     0.0591     0.1880     0.2906   -14.1763    22.2738    18.0397    19.0373
  294.5000    69.2233    10.1165     2.3557     0.0459     0.1930     0.3010   -13.9620    23.0893    18.2494    19.0159
  295.0000    71.5105    10.0692     2.3437     0.0464     0.1998     0.3071   -13.7522    23.9348    18.4979    19.0159
  295.5000    73.0802    10.1057     2.3415     0.0357     0.1985     0.3023   -13.3710    24.8111    18.2657    19.3686
  296.0000    71.8452    10.2041     2.3448     0.0448     0.2025     0.2985   -12.9608    25.7196    17.9861    19.8068
  296.5000    70.6185    10.1876     2.3320     0.0516     0.2106     0.2949   -12.5497    26.6613    17.8332    20.2549
  297.0000    69.3948    10.1493     2.3127     0.0407     0.2234     0.2913   -12.1390    29.2664    18.8240    20.7132
  297.5000    68.1729    10.1108     2.2882     0.0272     0.2330     0.2962   -11.7284    28.9991    19.6367    21.1818
  298.0000    66.9510    10.0804     2.2715     0.0102     0.2415     0.2986   -11.3178    32.0811    20.4841    21.6610
  298.5000    65.7278    10.1145     2.2753     0.0097     0.2389     0.2884   -10.9070    34.3850    21.3687    22.3437
  299.0000    64.5009    10.1494     2.2792     0.0182     0.2364     0.2819   -10.4965    35.8386    22.2917    23.1462
  299.5000    63.2762    10.1847     2.2832     0.0265     0.2339     0.2796   -10.0792    36.8661    23.2561    23.9774
  300.0000    63.9086    10.1891     2.2906     0.0307     0.2193     0.2849   -10.0351    37.9187    24.2550    24.8385
  300.5000    64.9690    10.1817     2.3023     0.0374     0.2222     0.2833   -10.1354    38.8996    24.7531    25.7306
  301.0000    65.9361    10.1732     2.3000     0.0431     0.2269     0.2799   -10.2396    38.8933    25.1874    26.9471
  301.5000    65.3499    10.1605     2.2954     0.0399     0.2263     0.2773   -10.3436    38.4975    25.5040    26.8057
  302.0000    64.6883    10.1475     2.2979     0.0458     0.2197     0.2811   -10.4474    37.1597    25.1859    26.6024
  302.5000    65.4606    10.1345     2.3035     0.0551     0.2227     0.2800   -10.5513    35.8684    24.9418    26.3562
  303.0000    67.2275    10.1215     2.3094     0.0539     0.2119     0.2841   -10.6555    34.6219    24.7002    26.0000
  303.5000    69.0076    10.1086     2.3151     0.0498     0.1998     0.2787   -10.7467    33.4188    24.4609    25.6485
  304.0000    70.5882    10.0956     2.3385     0.0634     0.1892     0.2777   -10.7070    32.2575    24.2239    25.3019
  304.5000    72.0866    10.0825     2.3582     0.0701     0.1936     0.2766   -10.6664    31.2074    23.9892    24.9599
  305.0000    71.7853    10.0856     2.3460     0.0529     0.1991     0.2734   -10.6264    31.0597    23.7567    24.6225
  305.5000    70.9782    10.1019     2.3336     0.0441     0.2144     0.2633   -10.5865    30.9216    23.5266    24.2897
  306.0000    70.4719    10.1183     2.3117     0.0214     0.2216     0.2560   -10.5466    30.7840    23.2986    23.9611
  306.5000    72.3315    10.1348     2.3029     0.0141     0.2152     0.2522   -10.5067    30.6471    23.0729    23.6368
  307.0000    71.4680    10.1512     2.3175     0.0160     0.2098     0.2489   -10.4668    30.5109    22.8493    23.2676
  307.5000    70.3932    10.1677     2.3281     0.0184     0.2062     0.2457   -10.4269    30.3752    22.6354    23.3869
  308.0000    71.6347    10.1748     2.3198     0.0128     0.2182     0.2467   -10.3870    30.2401    22.3460    23.5756
  308.5000    73.1315    10.1748     2.3066     0.0013     0.2188     0.2465   -10.3471    30.0830    22.0231    23.7651
  309.0000    74.6235    10.1752     2.3052    -0.0104     0.2005     0.2498   -10.3072    30.3478    22.1331    23.9560
