~VERSION INFORMATION
 VERS.                2.0:   CWLS LOG ASCII STANDARD - VERSION 2.0
 WRAP.                 NO:   ONE LINE PER DEPTH STEP
~WELL INFORMATION
#MNEM.UNIT      DATA TYPE    INFORMATION
#----------   ------------   ------------------------------
 STRT.F           60.0000:   START DEPTH
 STOP.F         1143.0000:   STOP DEPTH
 STEP.F            0.5000:   STEP LENGTH
 NULL.          -999.2500:   NO VALUE
 COMP. U S NAVY-INTEX OIL:   COMPANY
 WELL.    N.P.R . 3 #63-2:   WELL
 FLD .             TEAPOT:   FIELD
 LOC .       S2 T38N R78W:   LOCATION
 CNTY.            NATRONA:   COUNTY
 STAT.            WYOMING:   STATE
 CTRY. UNITED STATES OF AMERICA:   COUNTRY
 SRVC. Schlumberger Well Surveying Corp:   SERVICE COMPANY
 DATE.        24-MAY-1964:   LOGDATE
 API .       490250645500:   API NUMBER
~CURVE INFORMATION
#MNEM.UNIT       API CODE    CURVE DESCRIPTION
#----------   ------------   ------------------------------
 DEPT.F                  :   
 SPR .MV     05 010 01 00:   SPONTANEOUS POTENTIAL FROM RES.
 ASN .OHMM   05 041 16 00:   AMPLIFIED SHORT NORMAL 16"
 ILD .OHMM   05 120 46 00:   INDUCTION LOG DEEP
 CILD.MMHO   05 110 46 00:   CONDUCTIVITY INDUCTION LOG DEEP
 CALS.IN     60 280 50 00:   CALIPER FROM SONIC LOG
 DT  .US/F   60 520 33 00:   INTERVAL TRANSIT TIME
~PARAMETER INFORMATION
#MNEM.UNIT          VALUE    DESCRIPTION
#----------   ------------   ------------------------------
 PD  .                 GL:   PERMANENT DATUM
 EPD .F              5181:   ELEVATION PERMANENT DATUM
 LMF .                 KB:   LOG MEASURED FROM
 DAPD.F                 5:   FEET ABOVE PERMANENT DATUM
 DMF .                 KB:   DRILLING MEASURED FROM
 EKB .F              5186:   KELLING BUSHING
 EGL .F              5181:   GROUND LEVEL
 DATE.        24-MAY-1964:   RUN DATE
 RUN .                  1:   RUN NUMBER
 DD  .F              1140:   DEPTH DRILLER
 DL  .F              1144:   DEPTH LOGGER
 BLI .F              1143:   BOTTOM LOG INTERVAL
 TLI .F                82:   TOP LOG INTERVAL
 CS  .IN            8.625:   CASING SIZE
 CBD .F                10:   CASING BOTTOM DRILLER
 BS  .IN            7.875:   BIT SIZE
 BSD .F              1140:   BIT SIZE AT DEPTH
 DFT .            GEL/OIL:   DRILLING FLUID TYPE
 DFD .                9.0:   DRILLING FLUID DENSITY
 DFV .                 63:   DRILLING FLUID VISCOSITY
 DFPH.                8.0:   DRILLING FLUID PH
 DFL .                7.6:   DRILLING FLUID LOSS
 MSS .           FLOWLINE:   MUD SAMPLE SOURCE
 RMS .OHMM           0.87:   RESISTIVITY MUD SAMPLE
 MST .F                84:   MUD SAMPLE TEMPERATURE
 RMF .OHMM           0.43:   RESISTIVITY MUD FILTRATE SAMPLE
 MFST.F                84:   MUD FILTRATE SAMPLE TEMPERATURE
 RMC .OHMM           1.52:   RESISTIVITY MUD CAKE
 MCST.F                84:   MUD CAKE SAMPLE TEMPERATURE
 MFSS.                 FP:   MUD FILTRATE SAMPLE SOURCE
 MCSS.                 FP:   MUD CAKE SAMPLE SOURCE
 TCS .HRS               2:   TIME CURCULATED STOPPED
 LUN .               4507:   LOGGING UNIT NUMBER
 LUL .               CSPR:   LOGGING UNIT LOCATION
 ENGI.             DANNER:   RECORDING ENGINEER
 WITN.          JORGENSEN:   WITNESSED BY
 CLNT.            A2DTECH:   CLIENT CODE
 ORIG.       2", 5" PRINT:   ORIGIN OF DATA
 UWI .       490250645500:   UNIQUE WELL ID
 DICO. A2D Technologies, Inc.:   DIGITIZING COMPANY
~OTHER INFORMATION
~A   DEPT      SPR          ASN        ILD      CILD      CALS         DT   
# ...
  528.0000   -42.9297     5.2685     4.1502   253.7962     7.8278   105.6413
  528.5000   -43.1737     5.4234     4.3987   234.2742     7.8278   102.4745
  529.0000   -43.2229     5.5755     4.6849   214.7523     7.8278   103.5341
  529.5000   -43.2229     5.6927     4.9021   197.7325     7.7976   103.7627
  530.0000   -43.2229     5.8066     4.9775   197.7417     7.7825   103.4638
  530.5000   -43.2044     5.8275     4.9779   206.0817     7.7674   103.1649
  531.0000   -43.0093     5.8356     4.9375   224.9435     7.7372   103.4705
  531.5000   -42.8141     5.8200     4.7860   243.8053     7.7221   104.3036
  532.0000   -42.6189     5.6923     4.3690   262.6671     7.7069   104.1557
  532.5000   -42.4237     5.4866     3.9519   281.5288     7.7372   104.3096
  533.0000   -42.2285     5.0821     3.5349   310.3596     7.7976   106.1239
  533.5000   -42.0334     4.5522     3.1178   367.9750     7.8127   107.5608
  534.0000   -41.8382     4.0604     2.7008   380.4070     7.8278   110.4317
  534.5000   -41.6430     3.6230     2.4283   385.5915     7.8278   115.2981
  535.0000   -41.4157     3.4497     2.3536   389.8355     7.8127   119.8487
  535.5000   -41.7701     3.4721     2.2789   390.5949     7.8127   123.5713
  536.0000   -42.0181     3.6414     2.2793   391.3554     7.7976   124.0285
  536.5000   -42.2581     3.5927     2.3583   381.7278     7.7221   122.5983
  537.0000   -42.6527     3.6687     2.5811   354.7280     7.6012   120.9409
  537.5000   -42.8966     4.2746     2.9467   327.7282     7.5559   118.0759
  538.0000   -43.1406     4.5855     3.3319   301.7779     7.7221   114.3053
  538.5000   -43.3735     4.6719     3.7932   268.3506     7.8127   112.7988
  539.0000   -43.3735     4.7012     4.1820   253.9367     7.8580   112.0471
  539.5000   -43.3735     4.8983     4.3841   239.5229     7.8580   110.9935
  540.0000   -43.3735     5.2564     4.3844   231.0241     7.8429   109.7134
  540.5000   -43.3735     5.3622     4.3832   231.0316     7.8278   108.6598
  541.0000   -43.3735     5.4211     4.3100   231.0396     7.8278   106.9269
  541.5000   -43.3735     5.4510     4.2155   231.0467     7.8127   105.8733
  542.0000   -43.3735     5.4261     4.0856   231.9327     7.8127   105.4234
  542.5000   -43.3735     5.3010     3.9727   234.0748     7.8127   105.5848
  543.0000   -43.2751     5.1324     3.8514   237.9094     7.7976   106.9406
  543.5000   -43.2229     4.9295     3.6363   246.5134     7.7976   108.7932
  544.0000   -43.2229     4.6711     3.5055   262.2074     7.7976   109.5115
  544.5000   -43.2229     4.4566     3.3367   287.5677     7.7976   109.2881
  545.0000   -43.2229     4.3111     3.0944   318.4492     7.8127   109.2148
  545.5000   -43.2229     4.1632     2.9442   324.1352     7.8127   109.7468
  546.0000   -43.0723     4.0237     2.8123   324.4880     7.8127   110.7309
  546.5000   -43.0723     3.8761     2.8127   327.5085     7.8127   112.6962
  547.0000   -43.0723     3.8114     2.8959   336.0486     7.8127   114.0576
  547.5000   -43.0723     3.7543     3.0387   344.2464     7.8127   114.7399
  548.0000   -43.0723     3.7109     3.0391   349.3677     7.7976   115.2711
  548.5000   -43.0723     3.7109     2.9643   351.8536     7.7976   114.9722
  549.0000   -43.0723     3.7558     2.7703   352.3950     7.7976   114.0695
  549.5000   -43.0723     3.8797     2.6489   352.8099     7.7976   112.4121
  550.0000   -43.0723     3.9355     2.4400   359.1231     7.8013   111.9481
  550.5000   -43.0723     3.7432     2.3311   395.2280     7.8106   113.9272
  551.0000   -43.0723     3.5636     2.1347   431.3329     7.8199   115.2879
  551.5000   -43.0723     3.3840     1.9156   465.7137     7.8292   116.7996
  552.0000   -43.0723     3.2044     1.8169   499.1290     7.8385   118.0291
  552.5000   -43.0723     3.0247     1.6911   502.3736     7.8270   120.0041
  553.0000   -43.0723     2.8568     1.8088   484.6386     7.8118   122.0892
  553.5000   -43.0723     2.7656     1.8558   466.9037     7.7965   124.7330
  554.0000   -43.0723     2.8010     1.9925   447.3502     7.7964   127.2258
  554.5000   -43.0723     2.9717     2.1001   419.7113     7.7962   126.1715
  555.0000   -43.0723     3.2451     2.3010   388.9146     7.7961   123.3058
  555.5000   -43.0723     3.5664     2.5449   358.1179     7.8111   120.4402
  556.0000   -43.0723     4.0396     2.8860   327.3211     7.8109   116.8953
  556.5000   -43.0723     4.2780     3.1956   301.3968     7.8107   112.8975
  557.0000   -43.0723     4.3454     3.4267   285.4974     7.8106   110.1073
  557.5000   -43.0723     4.3842     3.5085   270.0364     7.8104   109.0530
  558.0000   -43.0723     4.4058     3.4970   271.2046     7.7952   110.4137
  558.5000   -43.0723     4.4290     3.4672   281.0025     7.7950   111.0947
  559.0000   -43.0723     4.3839     3.3459   293.6856     7.8100   110.7202
  559.5000   -43.0723     4.2958     3.2244   309.2544     7.8249   110.7979
  560.0000   -43.0723     4.0840     3.0180   323.9446     7.8399   111.1775
  560.5000   -43.1255     3.8991     2.8358   345.3932     7.8397   111.7081
  561.0000   -43.2229     3.8060     2.6536   368.5861     7.8547   112.5405
  561.5000   -43.2229     3.7389     2.4713   391.7791     7.8545   113.6749
  562.0000   -43.2229     3.6285     2.2923   417.3502     7.8544   114.8092
  562.5000   -43.0723     3.3864     2.1491   436.1825     7.8542   115.9435
  563.0000   -43.0040     3.0648     2.1246   445.7906     7.8541   118.3609
  563.5000   -42.7601     2.8669     2.0747   431.4902     7.8539   122.7405
  564.0000   -42.4699     2.8690     2.1181   397.0482     7.8689   125.4598
  564.5000   -42.3193     3.2559     2.1798   380.1131     7.8536   127.0469
  565.0000   -42.1687     3.4108     2.4512   376.1676     7.8535   126.8228
  565.5000   -42.2520     3.4684     2.7755   354.9027     7.8533   125.3911
  566.0000   -42.4960     4.0417     3.1411   322.5288     7.8532   122.6764
  566.5000   -42.6205     4.6726     3.6536   293.1689     7.8379   118.8296
  567.0000   -42.8334     4.8959     3.8724   259.2933     7.8378   114.3790
  567.5000   -43.0773     5.1192     4.2549   242.1683     7.8376   110.4567
  568.0000   -43.2229     5.3081     4.4535   231.4458     7.8526   109.4024
  568.5000   -43.3735     5.4621     4.6563   225.1565     7.8373   109.2531
  569.0000   -43.5241     5.6718     4.8567   218.5818     7.8371   109.3314
  569.5000   -43.6014     5.8049     4.9939   212.0071     7.8370   109.3337
  570.0000   -43.6747     5.9450     5.1601   205.4324     7.8368   109.3360
  570.5000   -43.6747     6.1249     5.2823   198.8577     7.8367   109.1872
  571.0000   -43.6747     6.4161     5.4044   192.2830     7.8365   108.2839
  571.5000   -43.6747     6.6881     5.4591   185.5661     7.8364   107.0786
  572.0000   -43.6747     7.0956     5.5735   180.5527     7.8362   105.7224
  572.5000   -43.6747     7.2219     5.6100   176.5439     7.8361   104.4416
  573.0000   -43.6747     7.3068     5.6104   177.7436     7.8208   103.0854
  573.5000   -43.5241     7.3503     5.6107   179.7276     7.8207   102.1065
  574.0000   -43.5100     7.3652     5.6111   180.3321     7.8054   101.6559
  574.5000   -43.3735     7.3501     5.6115   181.4371     7.7902   102.0356
  575.0000   -43.3735     7.2789     5.6119   181.8524     7.7749   102.4907
  575.5000   -43.2229     7.2089     5.6123   181.8613     7.7748   102.9457
  576.0000   -43.2229     7.1850     5.6126   181.8675     7.7746   103.1744
  576.5000   -43.2229     7.1850     5.6130   181.1222     7.7745   103.3276
  577.0000   -43.2229     7.1859     5.6134   181.1295     7.7895   103.3299
  577.5000   -43.2229     7.2297     5.5869   181.8901     7.7893   103.2566
  578.0000   -43.2229     7.2738     5.5390   182.6514     7.7891   103.1080
  578.5000   -43.2229     7.3346     5.4942   183.7563     7.7890   102.9592
  579.0000   -43.2229     7.3811     5.4647   184.9873     7.7888   102.9510
  579.5000   -43.2229     7.3944     5.4651   186.4396     7.7887   103.1148
