~VERSION INFORMATION
 VERS.                2.0:   CWLS LOG ASCII STANDARD - VERSION 2.0
 WRAP.                 NO:   ONE LINE PER DEPTH STEP
~WELL INFORMATION
#MNEM.UNIT      DATA TYPE    INFORMATION
#----------   ------------   ------------------------------
 STRT.F           33.0000:   START DEPTH
 STOP.F          560.0000:   STOP DEPTH
 STEP.F            0.5000:   STEP LENGTH
 NULL.          -999.2500:   NO VALUE
 COMP. BROWN JOHN E&C INC:   COMPANY
 WELL.        SX 85 #25-3:   WELL
 FLD .             TEAPOT:   FIELD
 LOC .       S3 T38N R78W:   LOCATION
 CNTY.            NATRONA:   COUNTY
 STAT.            WYOMING:   STATE
 CTRY. UNITED STATES OF AMERICA:   COUNTRY
 SRVC.       Schlumberger:   SERVICE COMPANY
 DATE.        23-SEP-1980:   LOGDATE
 API .       490251130600:   API NUMBER
~CURVE INFORMATION
#MNEM.UNIT       API CODE    CURVE DESCRIPTION
#----------   ------------   ------------------------------
 DEPT.F                  :   
 ILD .OHMM   07 120 46 00:   INDUCTION LOG DEEP
 ILM .OHMM   07 120 44 00:   INDUCTION LOG MEDIUM
 DPHI.DEC    45 890 12 00:   DENSITY POROSITY SANDSTONE
 RHOB.G/C3   45 350 01 00:   BULK DENSITY
 DRHO.G/C3   45 356 01 00:   DENSITY CORRECTION
 CALD.IN     45 280 60 00:   CALIPER
 GRD .GAPI   45 310 01 00:   GAMMA RAY FROM DENSITY LOG
~PARAMETER INFORMATION
#MNEM.UNIT          VALUE    DESCRIPTION
#----------   ------------   ------------------------------
 PD  .                 GL:   PERMANENT DATUM
 EPD .F              5144:   ELEVATION PERMANENT DATUM
 LMF .                 KB:   LOG MEASURED FROM
 DAPD.F                10:   FEET ABOVE PERMANENT DATUM
 DMF .                 KB:   DRILLING MEASURED FROM
 EKB .F              5154:   KELLING BUSHING
 EDF .F              5153:   DRILLING FLOOR
 EGL .F              5144:   GROUND LEVEL
 DATE.            9-23-90:   RUN DATE
 RUN .                  1:   RUN NUMBER
 DD  .F               564:   DEPTH DRILLER
 DL  .F               565:   DEPTH LOGGER
 BLI .F               559:   BOTTOM LOG INTERVAL
 TLI .F                40:   TOP LOG INTERVAL
 CS  .IN            8.625:   CASING SIZE
 CBD .F                50:   CASING BOTTOM DRILLER
 CBL .F                50:   CASING BOTTOM LOGGER
 BS  .IN            7.875:   BIT SIZE
 BSD .F               564:   BIT SIZE AT DEPTH
 DFT .                AIR:   DRILLING FLUID TYPE
 TCS .HRS            1900:   TIME CURCULATED STOPPED
 TLAB.HRS            2000:   TIME LOGGER AT BOTTOM
 LUN .               5882:   LOGGING UNIT NUMBER
 LUL .               CODY:   LOGGING UNIT LOCATION
 ENGI.          M. FISHER:   RECORDING ENGINEER
 WITN.          G. STRONG:   WITNESSED BY
 CLNT.            A2DTECH:   CLIENT CODE
 ORIG.        2" 5" PRINT:   ORIGIN OF DATA
 UWI .       490251130600:   UNIQUE WELL ID
 DICO. A2D Technologies, Inc.:   DIGITIZING COMPANY
~OTHER INFORMATION
~A   DEPT      ILD        ILM       DPHI       RHOB       DRHO       CALD         GRD  
# ...
  533.5000    13.2894    13.4651     0.1050     2.5037    -0.0003     7.7124   112.0903
  534.0000    13.1772    13.4028     0.1045     2.5041    -0.0001     7.7113   110.1091
  534.5000    13.0659    13.3408     0.1036     2.5076     0.0002     7.7102   108.0056
  535.0000    13.0062    13.2792     0.1030     2.5111     0.0007     7.7092   107.4032
  535.5000    12.9699    13.2178     0.1026     2.5118     0.0015     7.7081   110.5992
  536.0000    12.9337    13.1799     0.1028     2.5088     0.0023     7.7070   113.8812
  536.5000    12.8976    12.8912     0.1036     2.5059     0.0031     7.7060   117.2052
  537.0000    12.8618    12.8100     0.1044     2.5029     0.0013     7.7049   116.4016
  537.5000    12.8266    12.7535     0.1053     2.5006    -0.0014     7.7038   115.2492
  538.0000    12.7900    12.6969     0.1061     2.4997    -0.0041     7.7027   114.2652
  538.5000    12.5758    12.6405     0.1057     2.5006    -0.0057     7.7017   117.7576
  539.0000    12.3668    12.5862     0.1045     2.5049    -0.0064     7.7006   121.2784
  539.5000    12.1622    12.4416     0.1032     2.5092    -0.0044     7.7030   120.2233
  540.0000    11.9609    12.2095     0.1037     2.5124    -0.0024     7.7074   118.9729
  540.5000    11.7629    11.9790     0.1051     2.5044    -0.0012     7.7119   118.9226
  541.0000    11.5683    11.7536     0.1028     2.5134     0.0005     7.7164   119.4038
  541.5000    11.3768    11.5324     0.1000     2.5240     0.0024     7.7204   119.8948
  542.0000    11.1959    11.3154     0.0978     2.5296     0.0042     7.7203   120.3961
  542.5000    11.0200    11.1024     0.0994     2.5242     0.0032     7.7203   119.6509
  543.0000    10.8469    10.8935     0.1000     2.5202     0.0020     7.7203   117.9899
  543.5000    10.6766    10.6885     0.0978     2.5269     0.0011     7.7203   116.9484
  544.0000    10.5089    10.5590     0.0956     2.5365     0.0007     7.7203   117.5451
  544.5000    10.3438    10.4698     0.0936     2.5461     0.0002     7.7203   120.5954
  545.0000    10.2814    10.3814     0.0932     2.5504    -0.0002     7.7203   121.3846
  545.5000    10.2327    10.2937     0.0940     2.5483    -0.0006     7.7203   122.1087
  546.0000    10.1842    10.2068     0.0958     2.5398    -0.0011     7.7203   122.8684
  546.5000    10.1340    10.1293     0.0976     2.5303    -0.0015     7.7203   122.6381
  547.0000    10.1208    10.0993     0.0979     2.5282    -0.0018     7.7203   122.1022
  547.5000    10.1071    10.0692     0.0954     2.5387    -0.0010     7.7203   121.5446
  548.0000    10.0934    10.0401     0.0929     2.5515    -0.0002     7.7203   120.9877
  548.5000    10.0797    10.0399     0.0936     2.5449     0.0007     7.7203   120.4281
  549.0000    10.0660    10.0402     0.0963     2.5346     0.0012     7.7203   119.8706
  549.5000    10.0526    10.0410     0.0990     2.5243     0.0006     7.7203   119.8150
  550.0000    10.0401    10.0406     0.1000     2.5253     0.0000     7.7203   120.8986
  550.5000     9.8116     9.8591     0.0992     2.5279    -0.0005     7.7203  -999.2500
  551.0000     9.6081     9.6614     0.0983     2.5305    -0.0006     7.7203  -999.2500
  551.5000     9.4087     9.4676     0.0970     2.5333    -0.0003     7.7203  -999.2500
  552.0000     9.2329     9.2779     0.0953     2.5406     0.0000     7.7203  -999.2500
  552.5000     9.1975     9.0919     0.0942     2.5462     0.0003     7.7203  -999.2500
  553.0000     9.1473     8.9097     0.0951     2.5417     0.0005     7.7203  -999.2500
  553.5000     9.0973     8.7310     0.0960     2.5373     0.0008     7.7203  -999.2500
  554.0000     9.0625     8.5560     0.0968     2.5346     0.0011     7.7202  -999.2500
  554.5000     9.0623     8.3847     0.0970     2.5332     0.0018     7.7137  -999.2500
  555.0000     8.9780     8.3339     0.0978     2.5303     0.0033     7.6947  -999.2500
  555.5000     8.9797     8.2566     0.1007     2.5194     0.0049     7.6758  -999.2500
  556.0000     9.0129     8.2916     0.1037     2.5087     0.0063     7.6567  -999.2500
  556.5000  -999.2500  -999.2500     0.1054     2.5011     0.0053     7.6416  -999.2500
  557.0000  -999.2500  -999.2500     0.1046     2.5064     0.0038     7.6741  -999.2500
  557.5000  -999.2500  -999.2500     0.1025     2.5150     0.0023     7.7071  -999.2500
  558.0000  -999.2500  -999.2500     0.1004     2.5232     0.0034     7.7224  -999.2500
  558.5000  -999.2500  -999.2500     0.1012     2.5254     0.0063     7.6638  -999.2500
  559.0000  -999.2500  -999.2500     0.1467     2.4018     0.0101     7.1068  -999.2500
  559.5000  -999.2500  -999.2500     0.2464     2.2550     0.0410     6.1610  -999.2500
  560.0000  -999.2500  -999.2500     0.3002  -999.2500     0.1196  -999.2500  -999.2500
