~VERSION INFORMATION
 VERS.                2.0:   CWLS LOG ASCII STANDARD - VERSION 2.0
 WRAP.                 NO:   ONE LINE PER DEPTH STEP
~WELL INFORMATION
#MNEM.UNIT      DATA TYPE    INFORMATION
#----------   ------------   ------------------------------
 STRT.F           28.0000:   START DEPTH
 STOP.F          463.0000:   STOP DEPTH
 STEP.F            0.5000:   STEP LENGTH
 NULL.          -999.2500:   NO VALUE
 COMP.    FENIX & SCISSON:   COMPANY
 WELL.  NPR-3 #74 S 10-10:   WELL
 FLD .        TEAPOT DOME:   FIELD
 LOC .      S10 T38N R78W:   LOCATION
 CNTY.            NATRONA:   COUNTY
 STAT.            WYOMING:   STATE
 CTRY. UNITED STATES OF AMERICA:   COUNTRY
 SRVC.           BIRDWELL:   SERVICE COMPANY
 DATE.        12-FEB-1978:   LOGDATE
 API .       490251057000:   API NUMBER
~CURVE INFORMATION
#MNEM.UNIT       API CODE    CURVE DESCRIPTION
#----------   ------------   ------------------------------
 DEPT.F                  :   
 ILD .OHMM   05 120 46 00:   INDUCTION LOG DEEP
 SN  .OHMM   05 040 16 00:   SHORT NORMAL 16"
 SPR .MV     05 010 01 00:   SPONTANEOUS POTENTIAL FROM RES.
 CALD.IN     45 280 60 00:   CALIPER FROM DENSITY LOG
 CORR.G/C3   45 356 01 00:   DENSITY CORRECTION
 DPHI.DEC    45 890 12 00:   DENSITY POROSITY SANDSTONE
 GRD .GAPI   45 310 01 00:   GAMMA RAY FROM DENSITY LOG
 RHOB.G/C3   45 350 01 00:   BULK DENSITY
~PARAMETER INFORMATION
#MNEM.UNIT          VALUE    DESCRIPTION
#----------   ------------   ------------------------------
 PD  .                 GL:   PERMANENT DATUM
 EPD .F              5183:   ELEVATION PERMANENT DATUM
 LMF .                 KB:   LOG MEASURED FROM
 DAPD.F                 4:   FEET ABOVE PERMANENT DATUM
 DMF .                 KB:   DRILLING MEASURED FROM
 EKB .F              5187:   KELLING BUSHING
 EGL .F              5183:   GROUND LEVEL
 DATE.        12-FEB-1978:   RUN DATE
 RUN .                  1:   RUN NUMBER
 DD  .F               465:   DEPTH DRILLER
 DL  .F               465:   DEPTH LOGGER
 BLI .F               463:   BOTTOM LOG INTERVAL
 TLI .F                40:   TOP LOG INTERVAL
 CS  .IN            8.625:   CASING SIZE
 CBD .F                39:   CASING BOTTOM DRILLER
 BS  .IN            7.875:   BIT SIZE
 BSD .F               465:   BIT SIZE AT DEPTH
 DFT .         LIGNO-SULF:   DRILLING FLUID TYPE
 DFD .                8.8:   DRILLING FLUID DENSITY
 DFV .                 34:   DRILLING FLUID VISCOSITY
 DFPH.                 10:   DRILLING FLUID PH
 DFL .                4.0:   DRILLING FLUID LOSS
 MSS .                PIT:   MUD SAMPLE SOURCE
 RMS .OHMM            1.3:   RESISTIVITY MUD SAMPLE
 MST .F                62:   MUD SAMPLE TEMPERATURE
 RMF .OHMM            1.4:   RESISTIVITY MUD FILTRATE SAMPLE
 MFST.F                62:   MUD FILTRATE SAMPLE TEMPERATURE
 MCST.F                62:   MUD CAKE SAMPLE TEMPERATURE
 MFSS.               MEAS:   MUD FILTRATE SAMPLE SOURCE
 RMB .OHMM            1.3:   RESISTIVITY MUD AT BHT
 BHT .F                62:   BOTTOM HOLE TEMPERATURE
 TCS .HRS               2:   TIME CURCULATED STOPPED
 MRT .F                70:   MAXIMUM RECORDED TEMPERATURE
 LUN .               2953:   LOGGING UNIT NUMBER
 LUL .             CASPER:   LOGGING UNIT LOCATION
 ENGI.            POINTER:   RECORDING ENGINEER
 WITN.          MC GINLEY:   WITNESSED BY
 CLNT.            A2DTECH:   CLIENT CODE
 ORIG.           5" PRINT:   ORIGIN OF DATA
 UWI .       490251057000:   UNIQUE WELL ID
 DICO. A2D Technologies, Inc.:   DIGITIZING COMPANY
~OTHER INFORMATION
~A   DEPT      ILD         SN        SPR       CALD       CORR       DPHI         GRD      RHOB   
# ...
  392.5000    14.2228    14.4918   -26.0912     8.0308     0.1578     0.1011    72.4587     2.4492
  393.0000    14.2247    14.4948   -25.7805     8.0460     0.1533     0.0941    73.0617     2.4998
  393.5000    14.1286    14.5987   -25.6185     8.0311     0.1503     0.0977    73.6652     2.5089
  394.0000    14.0255    14.5007   -25.7574     8.0012     0.1487     0.1050    74.7790     2.4983
  394.5000    13.8423    14.4034   -25.5922     8.0014     0.1517     0.1056    77.6716     2.4937
  395.0000    13.8446    14.3068   -25.5790     8.0165     0.1668     0.1020    79.6845     2.4915
  395.5000    13.9426    14.2108   -25.5659     8.0167     0.1804     0.0986    79.6860     2.5058
  396.0000    13.9445    14.0179   -25.4039     7.9868     0.1954     0.1080    78.9356     2.4869
  396.5000    13.8498    14.1191   -25.3908     7.9719     0.2120     0.1056    77.7340     2.4990
  397.0000    13.8522    14.1220   -25.5264     7.9570     0.2211     0.0947    75.9310     2.5186
  397.5000    13.8540    14.1249   -25.4829     7.9422     0.2105     0.1020    73.0753     2.4876
  398.0000    13.8559    14.0294   -25.7660     7.9424     0.2286     0.1200    71.8734     2.4536
  398.5000    13.7618    14.0330   -25.8999     7.9425     0.2421     0.1137    76.2362     2.4627
  399.0000    13.7642    14.0358   -25.8814     7.9427     0.2376     0.1074    79.0948     2.4710
  399.5000    13.6711    13.9416   -25.8667     7.9428     0.2330     0.1014    77.8933     2.4793
  400.0000    13.4848    14.0416   -25.7033     7.9579     0.2300     0.0953    75.1880     2.4951
  400.5000    13.4883    14.2397   -25.5400     7.9733     0.2179     0.0915    74.5877     2.5199
  401.0000    13.3981    14.1432   -25.2281     8.0036     0.1772     0.1200    74.8903     2.5252
  401.5000    13.4008    14.1452   -25.0647     8.0190     0.1666     0.1170    76.3955     2.4563
  402.0000    13.2195    14.0493   -24.7528     7.9892     0.1665     0.1068    78.2015     2.4878
  402.5000    13.2222    13.9541   -25.0352     7.9744     0.1575     0.1020    80.1579     2.4955
  403.0000    13.1337    13.9407   -24.8719     7.9597     0.1801     0.1215    78.5795     2.4692
  403.5000    13.0459    13.8437   -24.8572     7.9751     0.1996     0.1185    75.1988     2.4624
  404.0000    12.8695    13.7676   -24.6938     7.9754     0.2132     0.1215    73.2454     2.4626
  404.5000    12.7834    13.5803   -24.5305     7.9757     0.2162     0.1125    72.9457     2.4690
  405.0000    12.7860    13.3951   -24.3671     7.9760     0.2116     0.1050    73.0980     2.4776
  405.5000    12.6976    13.2119   -24.5047     7.9763     0.2086     0.0885    73.5506     2.5017
  406.0000    12.4423    13.0322   -24.6385     7.9766     0.2025     0.0390    73.5520     2.5445
  406.5000    12.3507    12.9434   -24.6201     7.9769     0.1678     0.0903    74.0046     2.5926
  407.0000    12.1079    12.7673   -24.7576     7.9622     0.0848     0.1032    75.9610     2.5311
  407.5000    11.8482    12.6804   -24.5906     7.9625     0.0802     0.1008    78.2181     2.4959
  408.0000    11.5411    12.4214   -24.5758     7.9477     0.0832     0.1023    78.2676     2.4817
  408.5000    11.3065    12.1673   -24.5611     7.9481     0.0862     0.1090    76.4165     2.4840
  409.0000    10.9246    11.8360   -24.3978     7.9484     0.0967     0.1120    76.1173     2.4795
  409.5000    10.6282    11.5939   -24.3830     7.9637     0.1103     0.1204    76.6070     2.4466
  410.0000    10.4844    11.2783   -24.3683     7.9790     0.1480     0.1126    78.6770     2.4871
  410.5000    10.2718    11.0472   -24.2049     7.9643     0.1479     0.0874    79.5807     2.5187
  411.0000    10.2026    10.7467   -24.0416     7.9495     0.1464     0.0862    79.5822     2.5180
  411.5000     9.9268    10.4542   -23.7296     7.9499     0.1433     0.0835    78.9822     2.5053
  412.0000     9.5253    10.1695   -23.5582     7.9502     0.1417     0.0847    77.3295     2.5233
  412.5000     9.0146     9.8926   -23.2541     7.9655     0.1403     0.0934    77.7821     2.5181
  413.0000     8.2985     9.3600   -23.0906     7.9808     0.1463     0.0994    79.7385     2.5098
  413.5000     7.5866     8.6137   -23.0545     7.9811     0.1538     0.1051    84.5520     2.5015
  414.0000     6.7934     7.7637   -22.7637     7.9964     0.1598     0.1141    99.1399     2.4924
  414.5000     6.1679     7.1944   -22.4488     7.9816     0.1567     0.1256   109.0662     2.4583
  415.0000     6.0841     7.0961   -22.2854     7.9669     0.1688     0.1297   107.4136     2.4501
  415.5000     6.2133     7.0482   -22.2707     7.9523     0.1718     0.1237    98.9028     2.4757
  416.0000     6.3011     7.0983   -22.2559     7.9526     0.1687     0.1078    88.8002     2.4810
  416.5000     6.4345     7.4524   -22.3935     7.9529     0.1672     0.1033    85.4635     2.4870
  417.0000     6.5254     8.4445   -22.5273     7.9682     0.1671     0.1001    85.0134     2.5006
  417.5000     6.8032    10.1849   -22.6611     7.9685     0.1702     0.0977    83.5115     2.5044
  418.0000     7.9776    11.0704   -22.7950     7.9688     0.1780     0.0794    80.8062     2.5052
  418.5000     9.8187    11.3834   -22.7766     7.9841     0.1837     0.0647    75.8453     2.5450
  419.0000    10.5968    11.6254   -22.9141     7.9862     0.1746     0.0869    74.1923     2.5533
  419.5000    10.9719    11.8737   -23.0479     8.0298     0.1730     0.0770    76.6001     2.5271
  420.0000    10.9741    12.0378   -23.4752     8.0451     0.1700     0.0596    80.2106     2.5609
  420.5000    10.9764    12.2077   -23.6128     8.0454     0.1428     0.0605    81.7159     2.5693
  421.0000    10.9030    12.3799   -23.8952     8.0457     0.1247     0.0743    82.0181     2.5632
  421.5000    11.0648    12.6419   -24.1739     8.0460     0.1246     0.0797    82.6211     2.5558
  422.0000    11.2134    12.7470   -24.4601     8.0463     0.1337     0.0878    84.4512     2.5483
  422.5000    11.2287    13.0920   -24.4416     8.0466     0.1442     0.0821    85.6315     2.5349
  423.0000    11.5332    13.2767   -24.4269     8.0469     0.1547     0.0833    82.6259     2.5325
  423.5000    11.6962    13.6520   -24.1150     8.0472     0.1592     0.0785    77.2138     2.5241
  424.0000    11.8615    14.0380   -23.8030     8.0625     0.1622     0.0749    76.4630     2.5373
  424.5000    12.0291    14.3351   -23.4911     8.0928     0.1622     0.0548    78.4198     2.5381
  425.0000    12.1992    14.6385   -23.3278     8.0931     0.1591     0.0428    81.7295     2.5636
  425.5000    12.4574    14.8451   -23.1644     8.0934     0.1455     0.0704    84.2874     2.5915
  426.0000    12.6335    14.8471   -23.1497     8.0637     0.1108     0.0861    84.4392     2.5780
  426.5000    12.9010    14.9525   -23.1349     8.0190     0.1093     0.0921    84.4407     2.5285
  427.0000    13.1741    14.9545   -23.1202     7.9742     0.1183     0.0957    83.2392     2.5136
  427.5000    13.2682    14.9566   -23.2541     7.9895     0.1318     0.0921    79.7820     2.5174
  428.0000    13.3630    14.8548   -23.2392     8.0349     0.1439     0.0933    79.4827     2.5197
  428.5000    13.5519    14.7546   -23.2244     8.0502     0.1499     0.0927    80.0912     2.5085
  429.0000    13.6488    14.7567   -23.2095     8.0505     0.1529     0.0949    81.6422     2.5160
  429.5000    13.6516    14.7587   -23.0461     8.0658     0.1543     0.0944    82.7958     2.5258
  430.0000    13.5596    14.7607   -23.0114     8.0811     0.1483     0.0603    82.3461     2.5319
  430.5000    13.4689    14.7628   -22.7192     8.0814     0.1045     0.0924    79.0393     2.5628
  431.0000    13.4724    14.7648   -23.0022     8.0817     0.1211     0.1005    76.1837     2.4982
  431.5000    13.4752    14.7668   -23.2809     8.0820     0.1301     0.0966    75.7337     2.5035
  432.0000    13.4779    14.7689   -23.7120     8.0823     0.1376     0.0840    76.4874     2.5111
  432.5000    13.4807    14.6683   -23.8495     8.0826     0.1406     0.0831    80.3986     2.5173
