~VERSION INFORMATION
 VERS.                2.0:   CWLS LOG ASCII STANDARD - VERSION 2.0
 WRAP.                 NO:   ONE LINE PER DEPTH STEP
~WELL INFORMATION
#MNEM.UNIT      DATA TYPE    INFORMATION
#----------   ------------   ------------------------------
 STRT.F           40.0000:   START DEPTH
 STOP.F          876.5000:   STOP DEPTH
 STEP.F            0.5000:   STEP LENGTH
 NULL.          -999.2500:   NO VALUE
 COMP. FENIX & SCISSON INC:   COMPANY
 WELL.     NPR 3 #41-S-14:   WELL
 FLD .             TEAPOT:   FIELD
 LOC .      S14 T38N R78W:   LOCATION
 CNTY.            NATRONA:   COUNTY
 STAT.            WYOMING:   STATE
 CTRY. UNITED STATES OF AMERICA:   COUNTRY
 SRVC.            Unknown:   SERVICE COMPANY
 DATE.        12-MAR-1978:   LOGDATE
 API .       490251060200:   API NUMBER
~CURVE INFORMATION
#MNEM.UNIT       API CODE    CURVE DESCRIPTION
#----------   ------------   ------------------------------
 DEPT.F                  :   
 CALD.IN     45 280 60 00:   CALIPER FROM DENSITY LOG
 GRD .GAPI   45 310 01 00:   GAMMA RAY FROM DENSITY LOG
 RHOB.G/C3   45 350 01 00:   BULK DENSITY
 DPHI.DEC    45 890 12 00:   DENSITY POROSITY SANDSTONE
 CORR.G/C3   45 356 01 00:   DENSITY CORRECTION
 SPR .MV     05 010 01 00:   SPONTANEOUS POTENTIAL FROM RES.
 IL  .OHMM   05 120 00 00:   INDUCTION LOG
 SN  .OHMM   05 040 16 00:   SHORT NORMAL 16"
~PARAMETER INFORMATION
#MNEM.UNIT          VALUE    DESCRIPTION
#----------   ------------   ------------------------------
 PD  .                 GL:   PERMANENT DATUM
 EPD .F              5211:   ELEVATION PERMANENT DATUM
 LMF .                 KB:   LOG MEASURED FROM
 DMF .                 KB:   DRILLING MEASURED FROM
 EKB .F              5215:   KELLING BUSHING
 EGL .F              5211:   GROUND LEVEL
 DATE.            3-12-78:   RUN DATE
 RUN .                  1:   RUN NUMBER
 DD  .F               870:   DEPTH DRILLER
 DL  .F               872:   DEPTH LOGGER
 BLI .F               866:   BOTTOM LOG INTERVAL
 TLI .F                50:   TOP LOG INTERVAL
 CS  .IN            8.625:   CASING SIZE
 CBD .F                40:   CASING BOTTOM DRILLER
 CBL .F                40:   CASING BOTTOM LOGGER
 BS  .IN            7.875:   BIT SIZE
 BSD .F               870:   BIT SIZE AT DEPTH
 DFT .                KCL:   DRILLING FLUID TYPE
 DFD .                8.6:   DRILLING FLUID DENSITY
 DFV .                 33:   DRILLING FLUID VISCOSITY
 DFPH.                 10:   DRILLING FLUID PH
 DFL .               12.1:   DRILLING FLUID LOSS
 MSS .           FLOWLINE:   MUD SAMPLE SOURCE
 RMS .OHMM            .32:   RESISTIVITY MUD SAMPLE
 MST .F                54:   MUD SAMPLE TEMPERATURE
 RMF .OHMM            .36:   RESISTIVITY MUD FILTRATE SAMPLE
 MFST.F                55:   MUD FILTRATE SAMPLE TEMPERATURE
 RMC .OHMM             .5:   RESISTIVITY MUD CAKE
 MCST.F                56:   MUD CAKE SAMPLE TEMPERATURE
 MFSS.           MEASURED:   MUD FILTRATE SAMPLE SOURCE
 MCSS.           MEASURED:   MUD CAKE SAMPLE SOURCE
 RMB .OHMM            .24:   RESISTIVITY MUD AT BHT
 BHT .F                72:   BOTTOM HOLE TEMPERATURE
 TCS .HRS               4:   TIME CURCULATED STOPPED
 MRT .F                72:   MAXIMUM RECORDED TEMPERATURE
 LUN .               2958:   LOGGING UNIT NUMBER
 LUL .               CASP:   LOGGING UNIT LOCATION
 ENGI.             MILLER:   RECORDING ENGINEER
 WITN.         HARRINGTON:   WITNESSED BY
 CLNT.            A2DTECH:   CLIENT CODE
 ORIG.        2" 5" PRINT:   ORIGIN OF DATA
 UWI .       490251060200:   UNIQUE WELL ID
 DICO. A2D Technologies, Inc.:   DIGITIZING COMPANY
~OTHER INFORMATION
~A   DEPT     CALD         GRD      RHOB       DPHI       CORR        SPR         IL         SN   
   40.0000  -999.2500    70.4564  -999.2500  -999.2500  -999.2500  -999.2500  -999.2500  -999.2500
   40.5000  -999.2500    70.2579  -999.2500  -999.2500  -999.2500  -999.2500  -999.2500  -999.2500
   41.0000  -999.2500    68.7463  -999.2500  -999.2500  -999.2500  -999.2500  -999.2500  -999.2500
   41.5000  -999.2500    68.5414  -999.2500  -999.2500  -999.2500  -999.2500  -999.2500  -999.2500
   42.0000  -999.2500    70.9837  -999.2500  -999.2500  -999.2500  -999.2500  -999.2500  -999.2500
   42.5000  -999.2500    73.9610  -999.2500  -999.2500  -999.2500  -999.2500  -999.2500  -999.2500
   43.0000  -999.2500    74.0993  -999.2500  -999.2500  -999.2500  -999.2500  -999.2500  -999.2500
   43.5000  -999.2500    74.3001  -999.2500  -999.2500  -999.2500  -999.2500     0.4092  -999.2500
   44.0000  -999.2500    74.0790  -999.2500  -999.2500  -999.2500  -999.2500     0.4514  -999.2500
   44.5000  -999.2500    69.1226  -999.2500  -999.2500  -999.2500  -999.2500     0.9302  -999.2500
   45.0000  -999.2500    67.5347  -999.2500  -999.2500  -999.2500  -999.2500     1.9169  -999.2500
   45.5000  -999.2500    66.0311  -999.2500  -999.2500  -999.2500  -999.2500     3.2970  -999.2500
   46.0000  -999.2500    65.8226  -999.2500  -999.2500  -999.2500  -999.2500     6.7945  -999.2500
   46.5000  -999.2500    70.1762  -999.2500  -999.2500  -999.2500  -999.2500    16.0229  -999.2500
   47.0000  -999.2500    75.7217  -999.2500  -999.2500  -999.2500  -999.2500     1.4508  -999.2500
   47.5000  -999.2500    74.0582  -999.2500  -999.2500  -999.2500  -999.2500     2.2313  -999.2500
   48.0000  -999.2500    70.7278  -999.2500  -999.2500  -999.2500  -999.2500     4.1188  -999.2500
   48.5000  -999.2500    68.0897  -999.2500  -999.2500  -999.2500     4.9058    13.8500     5.4367
   49.0000  -999.2500    66.5685  -999.2500  -999.2500  -999.2500     0.9811   308.0298     5.9101
   49.5000  -999.2500    64.0247  -999.2500  -999.2500  -999.2500    -1.8527   111.8443     6.4271
   50.0000  -999.2500    60.6710  -999.2500  -999.2500  -999.2500    -3.7289    37.7257     6.8163
   50.5000  -999.2500    57.3082  -999.2500  -999.2500  -999.2500    -6.2671    12.7250     6.7861
   51.0000  -999.2500    54.5764  -999.2500  -999.2500  -999.2500    -8.7771     6.9257     6.8031
   51.5000  -999.2500    54.8192  -999.2500  -999.2500  -999.2500   -11.1642     6.4383     6.7676
   52.0000  -999.2500    56.1407  -999.2500  -999.2500  -999.2500   -15.9827     6.0663     6.7323
   52.5000  -999.2500    57.4643  -999.2500  -999.2500  -999.2500   -15.3968     6.1113     6.6975
   53.0000  -999.2500    60.4207  -999.2500  -999.2500  -999.2500   -18.9934     6.1477     6.6625
   53.5000  -999.2500    63.0912  -999.2500  -999.2500  -999.2500   -20.8159     6.1873     6.7725
   54.0000  -999.2500    65.2557  -999.2500  -999.2500  -999.2500   -22.3030     5.9288     6.8851
   54.5000  -999.2500    66.2861  -999.2500  -999.2500  -999.2500   -22.2143     5.6090     6.9127
   55.0000  -999.2500    64.5863  -999.2500  -999.2500  -999.2500   -23.5848     5.3065     6.9127
   55.5000  -999.2500    62.6324  -999.2500  -999.2500  -999.2500   -25.3297     5.0487     6.9273
   56.0000     9.8581    61.5313  -999.2500  -999.2500  -999.2500   -28.4073     5.0492     6.9667
   56.5000     9.5003    62.8150  -999.2500  -999.2500  -999.2500   -31.6405     5.0497     6.9654
   57.0000     9.2163    66.2222  -999.2500  -999.2500  -999.2500   -32.7070     5.0489     7.9358
   57.5000     9.1615    69.6230  -999.2500  -999.2500  -999.2500   -33.6865     4.9665     8.0915
   58.0000     8.9241    72.7702  -999.2500  -999.2500  -999.2500   -35.2166     4.8888     7.8671
   58.5000     8.5606    72.7032  -999.2500  -999.2500  -999.2500   -37.4348     4.8122     7.9680
   59.0000     8.5083    74.3974  -999.2500  -999.2500  -999.2500   -39.5963     4.7369     8.2250
   59.5000     8.5142    75.3434     2.2117  -999.2500     0.0271   -40.9423     4.6828     8.3926
   60.0000     8.5213    76.1385     2.2107     0.2013     0.0186   -42.2547     4.6639     8.3437
   60.5000     8.5175    76.6212     2.3058     0.1889     0.0125   -43.5711     4.6452     8.3155
   61.0000     8.5132    76.6602     2.3083     0.1899     0.0148   -44.1588     4.6265     8.4027
   61.5000     8.5089    76.7020     2.3027     0.1920     0.0176   -44.7224     4.6078     8.4986
   62.0000     8.5045    76.7427     2.3039     0.1911     0.0213   -45.2905     4.5893     8.5491
   62.5000     8.4922    76.7881     2.3099     0.1885     0.0249   -45.8601     4.5708     8.5491
   63.0000     8.4672    77.4192     2.3144     0.1872     0.0151   -46.4295     4.5525     8.5491
   63.5000     8.4430    79.0046     2.3178     0.1861     0.0029   -46.9990     4.5341     8.2131
   64.0000     8.4470    80.5370     2.3123     0.1828     0.0066   -47.5685     4.5195     7.8240
   64.5000     8.4527    80.2579     2.3091     0.1785     0.0144   -48.1382     4.5378     7.4508
   65.0000     8.4578    80.9521     2.3147     0.1797     0.0080   -48.7082     4.5530     7.3013
   65.5000     8.4389    82.8340     2.3284     0.1762    -0.0012   -49.2724     4.5684     7.0869
   66.0000     8.3272    84.9486     2.3260     0.1809     0.0013   -49.7264     4.5837     6.8961
   66.5000     8.1530    86.7268     2.3284     0.1809     0.0053   -50.0223     4.6038     6.7086
   67.0000     8.1312    85.8759     2.3328     0.1757     0.0094   -50.0997     4.6003     6.5249
   67.5000     8.0816    82.4032     2.3331     0.1729     0.0102   -50.1926     4.5953     6.3592
   68.0000     8.0862    77.5308     2.3407     0.1625     0.0099   -50.7126     4.5904     6.2839
   68.5000     8.0883    77.2697     2.3479     0.1601     0.0096   -51.0120     4.5854     6.2447
   69.0000     8.0896    76.8403     2.3500     0.1668     0.0092   -51.0685     4.5805     6.1386
   69.5000     8.0910    72.0398     2.3426     0.1709     0.0089   -51.1244     4.5756     6.0134
   70.0000     8.0924    73.3584     2.3354     0.1746     0.0085   -51.1786     4.5706     5.8908
   70.5000     8.0939    75.6841     2.3283     0.1782     0.0082   -51.2331     4.5657     5.7707
   71.0000     8.0953    78.1438     2.3226     0.1817     0.0078   -51.2879     4.5620     5.6746
   71.5000     8.0967    80.9635     2.3233     0.1797     0.0075   -51.3418     4.5831     5.6196
   72.0000     8.0982    83.0461     2.3238     0.1789     0.0071   -51.3785     4.6020     5.5652
   72.5000     8.0996    81.4783     2.3234     0.1809     0.0068   -51.3299     4.6210     5.5326
   73.0000     8.1010    76.7094     2.3224     0.1788     0.0064   -51.2828     4.6401     5.5215
   73.5000     8.1024    69.5955     2.3361     0.1710     0.0024   -51.2355     4.6593     5.5103
   74.0000     8.1038    68.0601     2.3470     0.1677    -0.0014   -51.1888     4.6786     5.4993
   74.5000     8.1079    69.2425     2.3434     0.1707     0.0018   -51.2379     4.6979     5.4883
   75.0000     8.1323    70.4579     2.3397     0.1737     0.0072   -51.2944     4.7173     5.4773
   75.5000     8.1579    71.6912     2.3339     0.1734     0.0124   -51.3507     4.7368     5.4663
   76.0000     8.1648    72.1896     2.3412     0.1710     0.0107   -51.4068     4.7563     5.4553
   76.5000     8.1655    72.1263     2.3453     0.1693     0.0083   -51.4627     4.7773     5.4444
   77.0000     8.1659    72.0709     2.3554     0.1679     0.0060   -51.5193     4.7768     5.4335
   77.5000     8.1664    74.0413     2.3532     0.1664     0.0023   -51.5805     4.7771     5.4226
   78.0000     8.1668    77.7497     2.3456     0.1691     0.0029   -51.4428     4.7771     5.4117
   78.5000     8.1673    77.6571     2.3380     0.1725     0.0033   -51.2711     4.7771     5.4008
   79.0000     8.1677    77.3716     2.3420     0.1690     0.0036   -51.0987     4.7771     5.3900
   79.5000     8.1682    77.0517     2.3468     0.1644     0.0040   -51.0312     4.7771     5.3792
   80.0000     8.1686    76.9069     2.3499     0.1629     0.0043   -51.1656     4.7777     5.3684
