~VERSION INFORMATION
 VERS.                2.0:   CWLS LOG ASCII STANDARD - VERSION 2.0
 WRAP.                 NO:   ONE LINE PER DEPTH STEP
~WELL INFORMATION
#MNEM.UNIT      DATA TYPE    INFORMATION
#----------   ------------   ------------------------------
 STRT.F          690.5000:   START DEPTH
 STOP.F         2366.0000:   STOP DEPTH
 STEP.F            0.5000:   STEP LENGTH
 NULL.          -999.2500:   NO VALUE
 COMP. LAWRENCE/ALLISON INC:   COMPANY
 WELL.  NPR 3 #26SHX10-10:   WELL
 FLD .             TEAPOT:   FIELD
 LOC .      S10 T38N R78W:   LOCATION
 CNTY.            NATRONA:   COUNTY
 STAT.            WYOMING:   STATE
 CTRY. UNITED STATES OF AMERICA:   COUNTRY
 SRVC.            Unknown:   SERVICE COMPANY
 DATE.        30-DEC-1992:   LOGDATE
 API .       490251113600:   API NUMBER
~CURVE INFORMATION
#MNEM.UNIT       API CODE    CURVE DESCRIPTION
#----------   ------------   ------------------------------
 DEPT.F                  :   
 ROP .MIN/FT 91 810 01 00:   RATE OF DRILLING PENETRATION
 TGAS.UNITS  91 830 01 00:   TOTAL GAS FROM HOTWIRE
~PARAMETER INFORMATION
#MNEM.UNIT          VALUE    DESCRIPTION
#----------   ------------   ------------------------------
 EKB .F              5235:   KELLING BUSHING
 EGL .F              5225:   GROUND LEVEL
 DATE.           12-30-92:   RUN DATE
 DD  .F              2365:   DEPTH DRILLER
 BLI .F              2360:   BOTTOM LOG INTERVAL
 TLI .F              2160:   TOP LOG INTERVAL
 CS  .IN            8.625:   CASING SIZE
 CBD .F               675:   CASING BOTTOM DRILLER
 TCS .HRS            0200:   TIME CURCULATED STOPPED
 TLAB.HRS            1700:   TIME LOGGER AT BOTTOM
 ENGI.               HUSK:   RECORDING ENGINEER
 WITN.              TOWER:   WITNESSED BY
 CLNT.            A2DTECH:   CLIENT CODE
 ORIG.           5" PRINT:   ORIGIN OF DATA
 UWI .       490251113600:   UNIQUE WELL ID
 DICO. A2D Technologies, Inc.:   DIGITIZING COMPANY
~OTHER INFORMATION
~A   DEPT      ROP         TGAS 
# ...
 1298.0000     0.7907   162.8481
 1298.5000     0.8119   167.1597
 1299.0000     0.8226   172.7518
 1299.5000     0.8227   182.0746
 1300.0000     0.8228   189.5380
 1300.5000     0.7172   193.7769
 1301.0000     0.6629   194.8461
 1301.5000     0.6058   194.8566
 1302.0000     0.5481   194.8670
 1302.5000     0.5269   194.8774
 1303.0000     0.5690   194.8879
 1303.5000     0.6325   193.8369
 1304.0000     0.7398   191.7318
 1304.5000     0.8218   189.6250
 1305.0000     0.8428   186.4588
 1305.5000     0.7900   186.4694
 1306.0000     0.7688   183.3034
 1306.5000     0.7898   180.0170
 1307.0000     0.8002   177.8470
 1307.5000     0.8212   173.8053
 1308.0000     0.8211   169.5830
 1308.5000     0.8104   162.1817
 1309.0000     0.7998   156.8980
 1309.5000     0.7997   152.6731
 1310.0000     0.8312   149.5045
 1310.5000     0.8417   145.2822
 1311.0000     0.9048   143.1750
 1311.5000     0.9786   140.0090
 1312.0000     1.0418   136.8430
 1312.5000     1.0522   134.7353
 1313.0000     0.9466   131.5694
 1313.5000     0.8516   128.4037
 1314.0000     0.7987   126.2818
 1314.5000     0.7986   124.1118
 1315.0000     0.7985   123.0006
 1315.5000     0.7984   119.9748
 1316.0000     0.7983   117.8702
 1316.5000     0.7560   116.8192
 1317.0000     0.6610   116.8322
 1317.5000     0.5870   116.8427
 1318.0000     0.5447   116.8531
 1318.5000     0.5341   115.8021
 1319.0000     0.5447   115.8151
 1319.5000     0.6521   115.8256
 1320.0000     0.7658   115.8360
 1320.5000     0.7974   115.8464
 1321.0000     0.7972   115.8569
 1321.5000     0.7971   115.8673
 1322.0000     0.7970   115.8777
 1322.5000     0.7969   115.8882
 1323.0000     0.7968   115.8988
 1323.5000     0.7967   115.9094
 1324.0000     0.8177   115.9221
 1324.5000     0.7965   115.9325
 1325.0000     0.7419   115.9429
 1325.5000     0.6170   115.9533
 1326.0000     0.5747   114.9024
 1326.5000     0.5640   114.9154
 1327.0000     0.5534   114.9258
 1327.5000     0.5533   114.9363
 1328.0000     0.5637   114.9467
 1328.5000     0.5742   114.9571
 1329.0000     0.6584   114.9675
 1329.5000     0.7326   113.9188
 1330.0000     0.7532   113.9296
 1330.5000     0.7425   113.9400
 1331.0000     0.7318   115.0094
 1331.5000     0.7212   115.0200
 1332.0000     0.7211   113.6045
 1332.5000     0.7421   110.8079
 1333.0000     0.8158   110.8183
 1333.5000     0.8896   110.8287
 1334.0000     0.9316   110.8392
 1334.5000     0.9210   111.9084
 1335.0000     0.9314   115.0953
 1335.5000     0.9208   115.1058
 1336.0000     0.8996   115.1162
 1336.5000     0.8573   115.1266
 1337.0000     0.8150   111.9606
 1337.5000     0.7938   111.9710
 1338.0000     0.7937   110.9224
 1338.5000     0.7936   110.9331
 1339.0000     0.7935   109.8847
 1339.5000     0.7828   107.7775
 1340.0000     0.7827   107.7882
 1340.5000     0.7826   107.8009
 1341.0000     0.7825   107.8114
 1341.5000     0.7824   107.8218
 1342.0000     0.7717   107.8322
 1342.5000     0.7716   107.8427
 1343.0000     0.7610   106.7917
 1343.5000     0.7609   106.8056
 1344.0000     0.7502   106.8151
 1344.5000     0.7607   106.8256
 1345.0000     0.7609   106.8360
 1345.5000     0.7815   106.8464
 1346.0000     0.8236   106.8569
 1346.5000     0.8762   106.8673
 1347.0000     0.9500   106.8777
 1347.5000     1.0132   106.8882
 1348.0000     1.0342   106.8988
 1348.5000     1.0446   106.9094
 1349.0000     1.0445   107.9809
 1349.5000     1.0444   107.9913
 1350.0000     1.0391   109.0606
 1350.5000     1.0175   108.6512
 1351.0000     1.0023   108.0695
 1351.5000     0.9919   108.1004
 1352.0000     0.9920   108.1313
 1352.5000     0.9921   108.1622
 1353.0000     1.0028   108.1931
 1353.5000     1.0149   108.2240
 1354.0000     1.0241   108.2548
 1354.5000     1.0031   108.2859
 1355.0000     0.8748   109.3765
 1355.5000     0.7683   109.4140
 1356.0000     0.7502   109.4449
 1356.5000     0.7503   109.4758
 1357.0000     0.7610   110.5655
 1357.5000     0.7716   110.5964
 1358.0000     0.7717   110.6273
 1358.5000     0.7718   109.5988
 1359.0000     0.7825   109.6306
 1359.5000     0.7826   109.6624
 1360.0000     0.7827   110.7586
 1360.5000     0.7828   111.8483
 1361.0000     0.7935   111.8792
 1361.5000     0.8041   112.9689
 1362.0000     0.8148   112.9998
 1362.5000     0.8149   111.9706
 1363.0000     0.8150   112.0028
 1363.5000     0.8045   110.9748
 1364.0000     0.8046   111.0071
 1364.5000     0.8153   111.0443
 1365.0000     0.8154   111.0752
 1365.5000     0.8155   111.1061
 1366.0000     0.8156   111.1370
 1366.5000     0.8263   109.0502
 1367.0000     0.8264   109.0811
 1367.5000     0.8265   108.0529
 1368.0000     0.8266   108.0847
 1368.5000     0.8267   108.1227
 1369.0000     0.8268   108.1536
 1369.5000     0.8269   107.1179
 1370.0000     0.8270   107.1565
 1370.5000     0.8271   107.1874
 1371.0000     0.8272   107.2183
 1371.5000     0.8273   107.2492
 1372.0000     0.8274   107.2801
 1372.5000     0.8275   107.3118
 1373.0000     0.8276   107.3496
 1373.5000     0.8278   107.3805
 1374.0000     0.8278   108.4702
 1374.5000     0.8280   108.5011
 1375.0000     0.8281   107.4654
 1375.5000     0.8282   107.5041
 1376.0000     0.8283   108.5938
 1376.5000     0.8284   107.5658
 1377.0000     0.8285   107.5976
 1377.5000     0.8286   107.6353
 1378.0000     0.8287   108.7250
 1378.5000     0.8288   108.7559
 1379.0000     0.8289   108.7868
 1379.5000     0.8290   108.8177
 1380.0000     0.8291   108.8486
 1380.5000     0.8292   109.9383
 1381.0000     0.8293   109.9694
 1381.5000     0.8189   110.0012
 1382.0000     0.8190   110.0387
 1382.5000     0.8191   110.0696
 1383.0000     0.8192   110.1005
 1383.5000     0.8193   110.1314
 1384.0000     0.8194   110.1623
 1384.5000     0.8090   110.1932
 1385.0000     0.8091   110.2240
 1385.5000     0.7986   110.2553
 1386.0000     0.7987   110.2871
 1386.5000     0.7989   110.3244
 1387.0000     0.7990   110.3553
 1387.5000     0.7991   110.3862
 1388.0000     0.7992   110.4171
 1388.5000     0.7993   110.4480
 1389.0000     0.7994   110.4789
 1389.5000     0.7995   110.5098
 1390.0000     0.7996   110.5412
 1390.5000     0.7997   111.6381
 1391.0000     0.7998   111.6690
 1391.5000     0.7999   111.6999
 1392.0000     0.8000   112.7896
 1392.5000     0.8001   112.8205
 1393.0000     0.8002   112.8514
 1393.5000     0.7898   112.8823
 1394.0000     0.7899   113.9720
 1394.5000     0.7900   114.0035
 1395.0000     0.7901   114.0415
 1395.5000     0.7902   114.0724
 1396.0000     0.7903   115.1621
 1396.5000     0.7904   115.1930
 1397.0000     0.7905   115.2239
 1397.5000     0.7906   116.3136
 1398.0000     0.7907   117.4033
 1398.5000     0.7803   117.4342
 1399.0000     0.7804   118.5247
 1399.5000     0.7805   117.4959
 1400.0000     0.7911   116.4680
 1400.5000     0.8758   114.3908
 1401.0000     0.9182   114.4423
 1401.5000     0.9922   114.4836
 1402.0000     1.0451   114.5248
 1402.5000     1.0032   114.5661
 1403.0000     0.9084   114.6073
 1403.5000     0.8243   114.6494
 1404.0000     0.7920   114.7002
 1404.5000     0.7825   114.7414
 1405.0000     0.8566   114.7827
 1405.5000     0.9095   114.8239
 1406.0000     0.9625   114.8652
 1406.5000     1.0049   114.9064
 1407.0000     1.0156   114.9477
 1407.5000     1.0158   113.9294
 1408.0000     1.0160   113.9718
 1408.5000     1.0162   114.0141
 1409.0000     1.0059   114.0642
 1409.5000     1.0072   113.0363
 1410.0000     1.0380   113.0879
 1410.5000     1.1754   113.1291
 1411.0000     1.3021   113.1704
 1411.5000     1.4817   112.1425
 1412.0000     1.5452   112.1940
 1412.5000     1.5559   112.2353
 1413.0000     1.5561   112.2776
 1413.5000     1.5563   112.3281
 1414.0000     1.5565   112.3694
 1414.5000     1.5568   113.4694
 1415.0000     1.5570   112.4519
 1415.5000     1.5572   112.4931
 1416.0000     1.5468   112.5344
 1416.5000     1.5365   113.6345
 1417.0000     1.5156   113.6757
 1417.5000     1.5158   114.7765
 1418.0000     1.5054   114.8188
 1418.5000     1.4951   114.8686
 1419.0000     1.4954   114.9099
