~VERSION INFORMATION
 VERS.                2.0:   CWLS LOG ASCII STANDARD - VERSION 2.0
 WRAP.                 NO:   ONE LINE PER DEPTH STEP
~WELL INFORMATION
#MNEM.UNIT      DATA TYPE    INFORMATION
#----------   ------------   ------------------------------
 STRT.F           66.0000:   START DEPTH
 STOP.F          794.0000:   STOP DEPTH
 STEP.F            0.5000:   STEP LENGTH
 NULL.          -999.2500:   NO VALUE
 COMP. LAWRENCE/ALLISON INC:   COMPANY
 WELL.    27-16 SX #35-35:   WELL
 FLD .           NPR NO 3:   FIELD
 LOC .      S35 T39N R78W:   LOCATION
 CNTY.            NATRONA:   COUNTY
 STAT.            WYOMING:   STATE
 CTRY. UNITED STATES OF AMERICA:   COUNTRY
 SRVC.           Gearhart:   SERVICE COMPANY
 DATE.        16-MAY-1986:   LOGDATE
 API .       490251106100:   API NUMBER
~CURVE INFORMATION
#MNEM.UNIT       API CODE    CURVE DESCRIPTION
#----------   ------------   ------------------------------
 DEPT.F                  :   
 GRN .GAPI   42 310 01 00:   GAMMA RAY FROM COMPENSATED NEUTRON LOG
 CNC .DEC    42 890 01 00:   NEUTRON POROSITY LIMESTONE
~PARAMETER INFORMATION
#MNEM.UNIT          VALUE    DESCRIPTION
#----------   ------------   ------------------------------
 PD  .                 GL:   PERMANENT DATUM
 LMF .                 GL:   LOG MEASURED FROM
 DMF .                 GL:   DRILLING MEASURED FROM
 DATE.        16-MAY-1986:   RUN DATE
 RUN .                  1:   RUN NUMBER
 DD  .F               803:   DEPTH DRILLER
 DL  .F             793.5:   DEPTH LOGGER
 BLI .F             793.5:   BOTTOM LOG INTERVAL
 TLI .F                50:   TOP LOG INTERVAL
 BS  .IN             7.87:   BIT SIZE
 BSD .F               803:   BIT SIZE AT DEPTH
 DFT .              WATER:   DRILLING FLUID TYPE
 LUN .               6084:   LOGGING UNIT NUMBER
 LUL .           GILLETTE:   LOGGING UNIT LOCATION
 ENGI.                COX:   RECORDING ENGINEER
 WITN.             STRONG:   WITNESSED BY
 CLNT.            A2DTECH:   CLIENT CODE
 ORIG.           5" PRINT:   ORIGIN OF DATA
 UWI .       490251106100:   UNIQUE WELL ID
 DICO. A2D Technologies, Inc.:   DIGITIZING COMPANY
~OTHER INFORMATION
~A   DEPT       GRN       CNC   
# ...
  187.5000    94.1260     0.2777
  188.0000    98.4361     0.2744
  188.5000   101.6749     0.2726
  189.0000   101.3476     0.2621
  189.5000   100.1013     0.2563
  190.0000    97.9757     0.2570
  190.5000    99.2506     0.2837
  191.0000   100.1108     0.3013
  191.5000    97.0357     0.3171
  192.0000    93.9621     0.2963
  192.5000    93.9561     0.2644
  193.0000    94.8702     0.2694
  193.5000    96.0912     0.2858
  194.0000    97.0053     0.3009
  194.5000    97.9195     0.2903
  195.0000    98.8337     0.2767
  195.5000    99.1359     0.2631
  196.0000    98.2081     0.2637
  196.5000    96.3615     0.2813
  197.0000    94.5149     0.2988
  197.5000    93.2819     0.3038
  198.0000    92.6623     0.2838
  198.5000    93.5765     0.2742
  199.0000    97.5582     0.2790
  199.5000   100.9263     0.3013
  200.0000   101.5337     0.3206
  200.5000   100.0436     0.3032
  201.0000    99.0614     0.2810
  201.5000    99.9938     0.2701
  202.0000   101.1904     0.2905
  202.5000   101.4880     0.3145
  203.0000   101.1289     0.3199
  203.5000    99.5287     0.3129
  204.0000    97.7219     0.3063
  204.5000    96.8479     0.3051
  205.0000    96.2252     0.2818
  205.5000    95.9093     0.2636
  206.0000    95.2867     0.2485
  206.5000    96.2001     0.2554
  207.0000    98.9494     0.2648
  207.5000   101.0875     0.2739
  208.0000   102.3076     0.2802
  208.5000   100.1489     0.2917
  209.0000    93.6981     0.2933
  209.5000    93.0777     0.2833
  210.0000    93.6820     0.2630
  210.5000    94.5909     0.2643
  211.0000    96.1154     0.2701
  211.5000    97.6400     0.2722
  212.0000    98.5534     0.2735
  212.5000    98.2352     0.2744
  213.0000    96.9991     0.2750
  213.5000    95.1495     0.2778
  214.0000    92.0728     0.2845
  214.5000    90.8367     0.2924
  215.0000    92.3613     0.3009
  215.5000    95.2026     0.3067
  216.0000    97.3949     0.3043
  216.5000    99.5872     0.2913
  217.0000   101.5287     0.2822
  217.5000   101.2105     0.2765
  218.0000   100.5878     0.2847
  218.5000    99.3517     0.2890
  219.0000    97.1953     0.2918
  219.5000    92.2782     0.2936
  220.0000    88.5880     0.2861
  220.5000    87.6587     0.2785
  221.0000    91.3305     0.2743
  221.5000    95.3091     0.2776
  222.0000    98.3674     0.2925
  222.5000   100.8122     0.3007
  223.0000   100.4963     0.3032
  223.5000    98.3399     0.3023
  224.0000    98.3308     0.2819
  224.5000    98.9356     0.2667
  225.0000    99.2842     0.2579
  225.5000    95.5426     0.2668
  226.0000    92.1592     0.2725
  226.5000    92.4568     0.2724
  227.0000    96.1287     0.2707
  227.5000    99.1870     0.2739
  228.0000   100.4049     0.2835
  228.5000    98.8620     0.2684
  229.0000    97.6258     0.2584
  229.5000   100.3774     0.2563
  230.0000    99.1207     0.2667
  230.5000    99.8007     0.2603
  231.0000   101.9530     0.2570
  231.5000   104.0634     0.2589
  232.0000   102.9077     0.2777
  232.5000    99.4023     0.2900
  233.0000   103.9921     0.3011
  233.5000   105.5189     0.2911
  234.0000   106.1233     0.2790
  234.5000   105.1916     0.2827
  235.0000   102.7285     0.3000
  235.5000   103.6396     0.3073
  236.0000   104.2462     0.3057
  236.5000   104.2348     0.2931
  237.0000   101.1581     0.3002
  237.5000    98.0815     0.3133
  238.0000    97.1544     0.3205
  238.5000    98.9834     0.3181
  239.0000   100.5080     0.3073
  239.5000   101.4214     0.2914
  240.0000    99.5695     0.2758
  240.5000    96.7996     0.2743
  241.0000    93.7230     0.2779
  241.5000    95.5543     0.2919
  242.0000    98.3059     0.3029
  242.5000   100.1395     0.3080
  243.0000    97.3673     0.2859
  243.5000    97.3582     0.2602
  244.0000    98.5760     0.2506
  244.5000    95.4994     0.2421
  245.0000    90.5519     0.2397
  245.5000    85.5526     0.2435
  246.0000    81.2720     0.2577
  246.5000    81.4570     0.2622
  247.0000    87.2103     0.2511
  247.5000    99.1240     0.2404
  248.0000   100.9576     0.2535
  248.5000    99.7192     0.2659
  249.0000    96.6425     0.2826
  249.5000    96.3289     0.2930
  250.0000    97.5468     0.2958
  250.5000    95.6461     0.2862
  251.0000    93.5481     0.2646
  251.5000    92.3160     0.2551
  252.0000    91.3905     0.2479
  252.5000    91.1498     0.2464
  253.0000    93.0016     0.2458
  253.5000    95.1580     0.2446
  254.0000    96.7008     0.2431
  254.5000    97.6302     0.2441
  255.0000    98.5595     0.2564
  255.5000    99.1798     0.2610
  256.0000    95.1290     0.2631
  256.5000    92.4495     0.2662
  257.0000    93.0721     0.2704
  257.5000    91.2430     0.2777
  258.0000    90.3319     0.2850
  258.5000    90.0319     0.2750
  259.0000    90.3501     0.2693
  259.5000    94.9604     0.2687
  260.0000    98.9572     0.2944
  260.5000    99.2793     0.2959
  261.0000    97.1186     0.2802
  261.5000    94.6231     0.2715
  262.0000    92.1719     0.2702
  262.5000    90.3630     0.2739
  263.0000    90.1161     0.2808
  263.5000    91.9679     0.2899
  264.0000    94.4310     0.2957
  264.5000    95.3604     0.2987
  265.0000    93.8357     0.2997
  265.5000    92.6156     0.3003
  266.0000    98.4551     0.2985
  266.5000   100.9182     0.2770
  267.0000   102.7678     0.2620
  267.5000   102.4702     0.2467
  268.0000   101.2523     0.2572
  268.5000   100.3411     0.2741
  269.0000   100.3502     0.2864
  269.5000   101.2795     0.2934
  270.0000    99.4482     0.2952
  270.5000    95.4695     0.2934
  271.0000    95.4786     0.2877
  271.5000    96.1032     0.2865
  272.0000    97.3538     0.2971
  272.5000    98.9109     0.2950
  273.0000    99.1960     0.2877
  273.5000    98.8983     0.2941
  274.0000   100.6963     0.3080
  274.5000   102.2930     0.3095
  275.0000   101.3819     0.2941
  275.5000    99.8572     0.2817
  276.0000    98.3303     0.2717
  276.5000    99.5687     0.2629
  277.0000   101.1115     0.2499
  277.5000   102.9611     0.2372
  278.0000   101.1297     0.2435
  278.5000    98.9916     0.2520
  279.0000    97.7714     0.2554
  279.5000    99.6233     0.2572
  280.0000   100.2459     0.2584
  280.5000    98.4145     0.2599
  281.0000    97.5031     0.2612
  281.5000    99.3529     0.2525
  282.0000   100.8957     0.2491
  282.5000   101.2117     0.2600
  283.0000    99.9693     0.2715
  283.5000    98.4304     0.2818
  284.0000    96.8917     0.2779
  284.5000    97.5693     0.2673
  285.0000    98.8053     0.2603
  285.5000   100.6549     0.2576
  286.0000   100.6640     0.2546
  286.5000   100.0596     0.2482
  287.0000    98.8417     0.2446
  287.5000    98.2351     0.2434
  288.0000    99.3975     0.2468
  288.5000   100.8157     0.2613
  289.0000   102.2339     0.2880
  289.5000   103.1824     0.3125
  290.0000   100.1241     0.3083
  290.5000    95.2252     0.2796
  291.0000    92.1668     0.2665
  291.5000    90.6422     0.2644
  292.0000    89.7310     0.2783
  292.5000    88.8199     0.2808
  293.0000    91.2829     0.2590
  293.5000    96.5068     0.2490
  294.0000   102.0373     0.2493
  294.5000   104.5004     0.2541
  295.0000   102.6690     0.2478
  295.5000   103.8649     0.2340
  296.0000   105.7361     0.2202
  296.5000   105.1510     0.2269
  297.0000   100.5589     0.2381
  297.5000    98.1118     0.2439
  298.0000    99.3501     0.2460
  298.5000    99.0522     0.2466
  299.0000    96.9143     0.2476
  299.5000    95.6964     0.2491
  300.0000    96.3190     0.2524
  300.5000    98.5043     0.2594
  301.0000    99.7114     0.2603
  301.5000    98.4079     0.2585
  302.0000    96.6621     0.2540
  302.5000    97.5938     0.2573
  303.0000    99.7501     0.2598
  303.5000   101.9064     0.2543
  304.0000   103.1425     0.2427
  304.5000   101.0044     0.2366
  305.0000    98.5595     0.2378
  305.5000    98.3292     0.2363
  306.0000   100.4643     0.2294
  306.5000   102.9061     0.2400
  307.0000   103.2037     0.2576
  307.5000    98.8940     0.2670
  308.0000    95.5076     0.2619
  308.5000    93.6549     0.2574
