~VERSION INFORMATION
 VERS.                2.0:   CWLS LOG ASCII STANDARD - VERSION 2.0
 WRAP.                 NO:   ONE LINE PER DEPTH STEP
~WELL INFORMATION
#MNEM.UNIT      DATA TYPE    INFORMATION
#----------   ------------   ------------------------------
 STRT.F           22.5000:   START DEPTH
 STOP.F          644.0000:   STOP DEPTH
 STEP.F            0.5000:   STEP LENGTH
 NULL.          -999.2500:   NO VALUE
 COMP.    FELIX & SCISION:   COMPANY
 WELL.     NPR #3 #14-S-2:   WELL
 FLD .             TEAPOT:   FIELD
 LOC .       S2 T38N R78W:   LOCATION
 CNTY.            NATRONA:   COUNTY
 STAT.            WYOMING:   STATE
 CTRY. UNITED STATES OF AMERICA:   COUNTRY
 SRVC.           BIRDWELL:   SERVICE COMPANY
 DATE.        18-JAN-1978:   LOGDATE
 API .       490251055600:   API NUMBER
~CURVE INFORMATION
#MNEM.UNIT       API CODE    CURVE DESCRIPTION
#----------   ------------   ------------------------------
 DEPT.F                  :   
 CALD.IN     45 280 60 00:   CALIPER FROM DENSITY LOG
 CORR.G/C3   45 356 01 00:   DENSITY CORRECTION
 DPHI.DEC    45 890 12 00:   DENSITY POROSITY SANDSTONE
 GRD .GAPI   45 310 01 00:   GAMMA RAY FROM DENSITY LOG
 RHOB.G/C3   45 350 01 00:   BULK DENSITY
 ILD .OHMM   05 120 46 00:   INDUCTION LOG DEEP
 SPR .MV     05 010 01 00:   SPONTANEOUS POTENTIAL FROM RES.
 SN  .OHMM   05 040 16 00:   SHORT NORMAL 16"
~PARAMETER INFORMATION
#MNEM.UNIT          VALUE    DESCRIPTION
#----------   ------------   ------------------------------
 PD  .                 GL:   PERMANENT DATUM
 EPD .F              5121:   ELEVATION PERMANENT DATUM
 LMF .                 KB:   LOG MEASURED FROM
 DAPD.F                 4:   FEET ABOVE PERMANENT DATUM
 DMF .                 KB:   DRILLING MEASURED FROM
 EKB .F              5126:   KELLING BUSHING
 EGL .F              5121:   GROUND LEVEL
 DATE.          1-18-1978:   RUN DATE
 RUN .                  1:   RUN NUMBER
 DD  .F               645:   DEPTH DRILLER
 DL  .F               648:   DEPTH LOGGER
 BLI .F               642:   BOTTOM LOG INTERVAL
 TLI .F                39:   TOP LOG INTERVAL
 CS  .IN            8.625:   CASING SIZE
 CBD .F                39:   CASING BOTTOM DRILLER
 BS  .IN            7.875:   BIT SIZE
 BSD .F               645:   BIT SIZE AT DEPTH
 DFT .                KCL:   DRILLING FLUID TYPE
 DFD .                8.8:   DRILLING FLUID DENSITY
 DFV .                 34:   DRILLING FLUID VISCOSITY
 DFPH.                9.5:   DRILLING FLUID PH
 DFL .                6.4:   DRILLING FLUID LOSS
 MSS .                PIT:   MUD SAMPLE SOURCE
 RMS .OHMM            .38:   RESISTIVITY MUD SAMPLE
 MST .F                43:   MUD SAMPLE TEMPERATURE
 RMF .OHMM            .26:   RESISTIVITY MUD FILTRATE SAMPLE
 MFST.F                70:   MUD FILTRATE SAMPLE TEMPERATURE
 RMC .OHMM            .42:   RESISTIVITY MUD CAKE
 MCST.F                70:   MUD CAKE SAMPLE TEMPERATURE
 MFSS.           MEASURED:   MUD FILTRATE SAMPLE SOURCE
 MCSS.           MEASURED:   MUD CAKE SAMPLE SOURCE
 RMB .OHMM            .24:   RESISTIVITY MUD AT BHT
 BHT .F                69:   BOTTOM HOLE TEMPERATURE
 TCS .HRS               2:   TIME CURCULATED STOPPED
 MRT .F                69:   MAXIMUM RECORDED TEMPERATURE
 LUN .               2958:   LOGGING UNIT NUMBER
 LUL .             CASPER:   LOGGING UNIT LOCATION
 ENGI.           REYNOLDS:   RECORDING ENGINEER
 WITN.         HARRINGTON:   WITNESSED BY
 CLNT.            A2DTECH:   CLIENT CODE
 ORIG.      2" , 5" PRINT:   ORIGIN OF DATA
 UWI .       490251055600:   UNIQUE WELL ID
 DICO. A2D Technologies, Inc.:   DIGITIZING COMPANY
~OTHER INFORMATION
~A   DEPT     CALD       CORR       DPHI         GRD      RHOB        ILD        SPR         SN   
# ...
  346.5000     7.9721     0.0462     0.1072    89.1561     2.4821     8.1587   -20.3024     7.9572
  347.0000     7.9726     0.0478     0.1087    90.0579     2.4798     8.2764   -20.2857     8.0717
  347.5000     7.9732     0.0478     0.1099    91.7027     2.4776     8.3379   -20.2724     8.1316
  348.0000     7.9887     0.0501     0.1111    93.1989     2.4746     8.3999   -20.2591     8.1919
  348.5000     7.9893     0.0539     0.1098    93.5038     2.4739     8.4623   -20.0972     8.2526
  349.0000     7.9899     0.0592     0.1083    92.0308     2.4792     8.5252   -19.9353     8.3146
  349.5000     7.9905     0.0607     0.1080    85.9489     2.4823     8.5886   -19.7734     8.3186
  350.0000     7.9911     0.0615     0.1083    81.3529     2.4793     8.5927   -19.6115     8.6738
  350.5000     7.9467     0.0645     0.1092    81.2076     2.4786     8.7773   -19.5981     8.7363
  351.0000     7.9173     0.0698     0.1088    81.5103     2.4771     8.7812   -19.4362     8.7388
  351.5000     7.9176     0.0751     0.1067    82.7034     2.4771     8.7855   -19.4229     8.7412
  352.0000     7.9179     0.0812     0.1043    85.5310     2.4809     8.7898   -19.4096     8.8042
  352.5000     7.9182     0.0857     0.1034    90.1416     2.4945     8.8551   -19.3963     8.8066
  353.0000     7.9185     0.0888     0.1028    88.6601     2.5036     8.8594   -19.3830     8.8090
  353.5000     7.9336     0.0888     0.1022    87.4747     2.5043     8.8637   -19.5216     8.8115
  354.0000     7.9488     0.0881     0.1021    89.2633     2.5029     8.8067   -19.5049     8.7532
  354.5000     7.9491     0.0843     0.1030    88.9705     2.4968     8.8020   -19.6435     8.8163
  355.0000     7.9643     0.0875     0.1063    89.2721     2.4843     8.6939   -19.6269     8.6301
  355.5000     7.9646     0.0906     0.1142    90.6138     2.4692     8.6274   -19.4650     8.5133
  356.0000     7.9798     0.0967     0.1208    91.0639     2.4538     8.4646   -19.4516     8.4072
  356.5000     7.9652     0.1057     0.1235    91.0684     2.4489     8.3532   -19.4383     8.3320
  357.0000     7.9506     0.1109     0.1259    90.9123     2.4474     8.1854   -19.4250     8.1264
  357.5000     7.9361     0.1117     0.1270    89.4329     2.4459     8.0210   -20.3032     7.9620
  358.0000     7.9363     0.1117     0.1279    87.5154     2.4437     7.8599   -21.7758     7.8015
  358.5000     7.9218     0.1095     0.1294    89.1554     2.4354     7.7020   -21.6139     7.6966
  359.0000     7.9221     0.1035     0.1345    90.4971     2.4219     7.4952   -21.4520     7.5409
  359.5000     7.8925     0.1035     0.1483    90.6489     2.4114     7.2939   -21.7392     7.3375
  360.0000     7.8630     0.1043     0.1637    90.2076     2.3896     7.0981   -22.0230     6.9933
  360.5000     7.8188     0.1028     0.1730    90.0634     2.3633     6.7655   -22.6007     6.6193
  361.0000     7.7744     0.1006     0.1787    90.8118     2.3536     6.4039   -23.3304     6.2222
  361.5000     7.7449     0.0976     0.1853    91.2620     2.3400     5.8554   -23.9114     5.6505
  362.0000     7.7006     0.0939     0.1976    90.8206     2.3152     5.2438   -24.1986     5.0261
  362.5000     7.6711     0.0901     0.2051    87.7050     2.3070     4.5995   -24.1819     4.4398
  363.0000     7.6417     0.0871     0.2096    84.5891     2.3003     4.0066   -24.3172     3.7370
  363.5000     7.6420     0.0849     0.2111    82.5132     2.2973     3.5143   -25.0468     2.8953
  364.0000     7.6274     0.0834     0.2048    79.2487     2.3048     3.1472   -25.3307     2.2432
  364.5000     7.6277     0.0819     0.1918    79.5503     2.3350     2.9585   -25.3174     1.7744
  365.0000     7.6280     0.0805     0.1777    85.6468     2.3493     2.8987   -25.1555     1.2141
  365.5000     7.6283     0.0813     0.1545    93.0806     2.3990     2.8602   -25.2912     0.6894
  366.0000     7.6286     0.0805     0.1463    91.4505     2.4025     2.8620   -25.2774     0.4717
  366.5000     7.6289     0.0768     0.1343    89.9680     2.4337     2.9033   -25.1155     0.4138
  367.0000     7.6292     0.0708     0.1336    93.2424     2.4344     3.0701   -24.9536     0.3999
  367.5000     7.6444     0.0693     0.1354    94.2869     2.4298     3.6020   -24.7917     0.4820
  368.0000     7.6447     0.0693     0.1375    94.7371     2.4247     4.3446   -24.4812     1.5700
  368.5000     7.6598     0.0701     0.1366    94.5929     2.4240     4.7893   -24.1707     2.1270
  369.0000     7.6899     0.0702     0.1324    94.2962     2.4346     5.3161   -24.1574     3.3146
  369.5000     7.7051     0.0694     0.1294    93.2407     2.4383     5.8197   -23.9955     4.2564
  370.0000     7.7203     0.0680     0.1287    91.2779     2.4391     6.1541   -23.9822     5.0484
  370.5000     7.7354     0.0612     0.1287    90.7472     2.4407     6.2430   -23.8202     5.4107
  371.0000     7.7506     0.0582     0.1281    91.1985     2.4407     6.2894   -23.8068     5.6412
  371.5000     7.7807     0.0560     0.1281    90.0142     2.4415     6.2924   -23.7935     5.8814
  372.0000     7.8107     0.0545     0.1281    89.4231     2.4430     6.2955   -23.7801     6.0061
  372.5000     7.8269     0.0508     0.1294    92.9947     2.4378     6.2543   -23.9156     6.0913
  373.0000     7.8411     0.0493     0.1371   102.8059     2.4243     6.1720   -23.9019     6.1352
  373.5000     7.8414     0.0493     0.1461   107.5652     2.4077     6.1316   -23.8886     6.0947
  374.0000     7.8417     0.0493     0.1485   106.8266     2.4040     6.0509   -23.8752     6.0127
  374.5000     7.8569     0.0501     0.1482   103.4135     2.4033     5.9705   -24.0109     5.9319
  375.0000     7.8721     0.0486     0.1436   101.0405     2.4056     5.7702   -23.9976     5.8119
  375.5000     7.8872     0.0479     0.1361    96.4386     2.4176     5.6152   -24.2814     5.7338
  376.0000     7.9024     0.0472     0.1307    90.6470     2.4342     5.5024   -24.2648     5.5791
  376.5000     7.9325     0.0487     0.1276    92.4356     2.4403     5.3919   -24.2515     5.1016
  377.0000     7.9477     0.0495     0.1270    92.4400     2.4418     5.2471   -24.2382     4.3537
  377.5000     7.9479     0.0518     0.1261    92.8901     2.4418     5.2134   -24.0763     4.0086
  378.0000     7.9631     0.0564     0.1198    94.9748     2.4595     5.1799   -24.0629     3.9545
  378.5000     7.9634     0.0564     0.1080    97.5231     2.4771     5.2185   -23.9010     4.0386
  379.0000     7.9637     0.0564     0.1002    99.3343     2.4963     5.2573   -24.0396     4.2106
  379.5000     7.9640     0.0542     0.0993   100.9315     2.5044     5.4830   -24.1749     4.4203
  380.0000     7.9643     0.0512     0.1035    98.4110     2.5014     5.7981   -24.1583     4.6726
  380.5000     7.9646     0.0490     0.1086    95.1464     2.4887     6.1328   -24.1449     4.8716
  381.0000     7.9649     0.0491     0.1122    93.0706     2.4767     6.4853   -24.1316     5.0791
  381.5000     7.9652     0.0513     0.1146    93.3722     2.4707     6.7178   -24.1183     5.5193
  382.0000     7.9655     0.0543     0.1191    94.8625     2.4662     6.9554   -23.9564     5.8748
  382.5000     7.9509     0.0566     0.1226    95.0154     2.4579     7.1049   -23.6459     6.1674
  383.0000     7.9512     0.0620     0.1232    95.0198     2.4512     7.2575   -23.1868     6.5646
  383.5000     7.9515     0.0680     0.1235    95.1728     2.4505     7.3623   -22.4306     6.8915
  384.0000     7.9518     0.0741     0.1253    95.0286     2.4475     7.3659   -21.8229     7.0864
  384.5000     7.9521     0.0786     0.1271    95.0330     2.4415     7.3695   -21.3638     7.1869
  385.0000     7.9375     0.0824     0.1295    94.8877     2.4325     7.3730   -21.2019     7.1889
  385.5000     7.9378     0.0862     0.1374    95.0418     2.4205     7.3673   -21.0400     7.1909
  386.0000     7.9381     0.0983     0.1443    95.6406     2.4092     7.3291   -20.4323     7.1929
  386.5000     7.9384     0.1150     0.1463    96.0908     2.4070     7.2326   -19.9732     7.1449
