~VERSION INFORMATION
 VERS.                2.0:   CWLS LOG ASCII STANDARD - VERSION 2.0
 WRAP.                 NO:   ONE LINE PER DEPTH STEP
~WELL INFORMATION
#MNEM.UNIT      DATA TYPE    INFORMATION
#----------   ------------   ------------------------------
 STRT.F           36.0000:   START DEPTH
 STOP.F         2324.5000:   STOP DEPTH
 STEP.F            0.5000:   STEP LENGTH
 NULL.          -999.2500:   NO VALUE
 COMP. FENIX & SCISSON INC:   COMPANY
 WELL.           SX #57-3:   WELL
 FLD .             TEAPOT:   FIELD
 LOC .       S3 T38N R78W:   LOCATION
 CNTY.            NATRONA:   COUNTY
 STAT.            WYOMING:   STATE
 CTRY. UNITED STATES OF AMERICA:   COUNTRY
 SRVC.           BIRDWELL:   SERVICE COMPANY
 DATE.        15-JUN-1978:   LOGDATE
 API .       490251028800:   API NUMBER
~CURVE INFORMATION
#MNEM.UNIT       API CODE    CURVE DESCRIPTION
#----------   ------------   ------------------------------
 DEPT.F                  :   
 CALD.IN     45 280 60 00:   CALIPER FROM DENSITY LOG
 GRD .GAPI   45 310 01 00:   GAMMA RAY FROM DENSITY LOG
 CORR.G/C3   45 356 01 00:   DENSITY CORRECTION
 RHOB.G/C3   45 350 01 00:   BULK DENSITY
 DPHI.DEC    45 890 12 00:   DENSITY POROSITY SANDSTONE
 SPR .MV     07 010 01 00:   SPONTANEOUS POTENTIAL
 ILD .OHMM   07 120 46 00:   INDUCTION LOG DEEP
 ILM .OHMM   07 120 44 00:   INDUCTION LOG MEDIUM
 SGRD.OHMM   07 220 05 00:   SHALLOW GUARD RESISTIVITY
~PARAMETER INFORMATION
#MNEM.UNIT          VALUE    DESCRIPTION
#----------   ------------   ------------------------------
 PD  .                 GL:   PERMANENT DATUM
 EPD .F              5184:   ELEVATION PERMANENT DATUM
 LMF .                 KB:   LOG MEASURED FROM
 DAPD.F                10:   FEET ABOVE PERMANENT DATUM
 DMF .                 KB:   DRILLING MEASURED FROM
 EKB .F              5184:   KELLING BUSHING
 EGL .F              5184:   GROUND LEVEL
 DATE.            6-15-78:   RUN DATE
 RUN .                  1:   RUN NUMBER
 DD  .F              2340:   DEPTH DRILLER
 DL  .F              2324:   DEPTH LOGGER
 BLI .F              2324:   BOTTOM LOG INTERVAL
 TLI .F                50:   TOP LOG INTERVAL
 CS  .IN            9.625:   CASING SIZE
 CBD .F               600:   CASING BOTTOM DRILLER
 CBL .F               601:   CASING BOTTOM LOGGER
 BS  .IN             8.75:   BIT SIZE
 BSD .F              2340:   BIT SIZE AT DEPTH
 DFT .           AIR MIST:   DRILLING FLUID TYPE
 BHT .F                68:   BOTTOM HOLE TEMPERATURE
 MRT .F                68:   MAXIMUM RECORDED TEMPERATURE
 LUN .               2958:   LOGGING UNIT NUMBER
 LUL .               CASP:   LOGGING UNIT LOCATION
 ENGI.           REYNOLDS:   RECORDING ENGINEER
 WITN.           MCGINLEY:   WITNESSED BY
 CLNT.            A2DTECH:   CLIENT CODE
 ORIG.   2" 2.5" 5" PRINT:   ORIGIN OF DATA
 UWI .       490251028800:   UNIQUE WELL ID
 DICO. A2D Technologies, Inc.:   DIGITIZING COMPANY
~OTHER INFORMATION
~A   DEPT       CALD      GRD        CORR      RHOB         DPHI      SPR        ILD        ILM       SGRD   
# ...
 1167.5000     9.0440   145.9022     0.0646     2.5359     0.0136  -999.2500  -999.2500  -999.2500  -999.2500
 1168.0000     9.1318   139.2799     0.0635     2.5311     0.0164  -999.2500  -999.2500  -999.2500  -999.2500
 1168.5000     9.1824   132.3338     0.0636     2.5266     0.0221  -999.2500  -999.2500  -999.2500  -999.2500
 1169.0000     9.1639   129.8512     0.0645     2.5220     0.0214  -999.2500  -999.2500  -999.2500  -999.2500
 1169.5000     9.1454   131.0955     0.0653     2.5190     0.0204  -999.2500  -999.2500  -999.2500  -999.2500
 1170.0000     9.1420   137.2335     0.0660     2.5174     0.0196  -999.2500  -999.2500  -999.2500  -999.2500
 1170.5000     9.2138   143.0883     0.0668     2.5197     0.0182  -999.2500  -999.2500  -999.2500  -999.2500
 1171.0000     9.2700   141.5831     0.0667     2.5225     0.0182  -999.2500  -999.2500  -999.2500  -999.2500
 1171.5000     9.3287   139.7167     0.0654     2.5249     0.0235  -999.2500  -999.2500  -999.2500  -999.2500
 1172.0000     9.3039   140.7845     0.0642     2.5224     0.0285  -999.2500  -999.2500  -999.2500  -999.2500
 1172.5000     9.2742   142.5829     0.0632     2.5167     0.0275  -999.2500  -999.2500  -999.2500  -999.2500
 1173.0000     9.2452   141.5182     0.0633     2.5110     0.0276  -999.2500  -999.2500  -999.2500  -999.2500
 1173.5000     9.2247   137.3756     0.0626     2.5082     0.0294  -999.2500  -999.2500  -999.2500  -999.2500
 1174.0000     9.3132   139.2053     0.0613     2.5062     0.0311  -999.2500  -999.2500  -999.2500  -999.2500
 1174.5000     9.4012   140.6204     0.0600     2.5042     0.0332  -999.2500  -999.2500  -999.2500  -999.2500
 1175.0000     9.3230   137.2375     0.0588     2.5015     0.0306  -999.2500  -999.2500  -999.2500  -999.2500
 1175.5000     9.2449   136.5947     0.0575     2.5032     0.0273  -999.2500  -999.2500  -999.2500  -999.2500
 1176.0000     9.1453   139.7941     0.0563     2.5077     0.0253  -999.2500  -999.2500  -999.2500  -999.2500
 1176.5000     9.1527   138.7294     0.0553     2.5118     0.0253  -999.2500  -999.2500  -999.2500  -999.2500
 1177.0000     9.1723   137.0894     0.0553     2.5111     0.0253  -999.2500  -999.2500  -999.2500  -999.2500
 1177.5000     9.1201   135.2399     0.0553     2.5089     0.0249  -999.2500  -999.2500  -999.2500  -999.2500
 1178.0000     9.0473   133.9350     0.0558     2.5142     0.0228  -999.2500  -999.2500  -999.2500  -999.2500
 1178.5000     8.9752   136.2294     0.0564     2.5109     0.0183  -999.2500  -999.2500  -999.2500  -999.2500
 1179.0000     8.9018   140.6965     0.0569     2.5149     0.0137  -999.2500  -999.2500  -999.2500  -999.2500
 1179.5000     8.8338   139.9204     0.0575     2.5267     0.0135  -999.2500  -999.2500  -999.2500  -999.2500
 1180.0000     8.7521   135.5168     0.0581     2.5329     0.0164  -999.2500  -999.2500  -999.2500  -999.2500
 1180.5000     8.7688   131.2068     0.0587     2.5287     0.0189  -999.2500  -999.2500  -999.2500  -999.2500
 1181.0000     8.7975   125.2941     0.0592     2.5250     0.0172  -999.2500  -999.2500  -999.2500  -999.2500
 1181.5000     8.8268   126.7382     0.0587     2.5255     0.0149  -999.2500  -999.2500  -999.2500  -999.2500
 1182.0000     8.8593   130.7948     0.0581     2.5261     0.0139  -999.2500  -999.2500  -999.2500  -999.2500
 1182.5000     8.8338   134.9970     0.0575     2.5269     0.0154  -999.2500  -999.2500  -999.2500  -999.2500
 1183.0000     8.7993   137.6433     0.0569     2.5276     0.0155  -999.2500  -999.2500  -999.2500  -999.2500
 1183.5000     8.7630   136.2270     0.0562     2.5283     0.0145  -999.2500  -999.2500  -999.2500  -999.2500
 1184.0000     8.7241   134.6141     0.0557     2.5292     0.0134  -999.2500  -999.2500  -999.2500  -999.2500
 1184.5000     8.7173   138.5980     0.0544     2.5298     0.0164  -999.2500  -999.2500  -999.2500  -999.2500
 1185.0000     8.7557   140.0959     0.0523     2.5304     0.0196  -999.2500  -999.2500  -999.2500  -999.2500
 1185.5000     8.7894   140.9449     0.0504     2.5266     0.0228  -999.2500  -999.2500  -999.2500  -999.2500
 1186.0000     8.8255   142.4984     0.0483     2.5223     0.0245  -999.2500  -999.2500  -999.2500  -999.2500
 1186.5000     8.8590   141.0597     0.0474     2.5175     0.0243  -999.2500  -999.2500  -999.2500  -999.2500
 1187.0000     8.8978   136.9968     0.0474     2.5151     0.0240  -999.2500  -999.2500  -999.2500  -999.2500
 1187.5000     8.8870   133.2235     0.0474     2.5176     0.0238  -999.2500  -999.2500  -999.2500  -999.2500
 1188.0000     8.8661   132.1210     0.0482     2.5182     0.0196  -999.2500  -999.2500  -999.2500  -999.2500
 1188.5000     8.8918   130.0704     0.0508     2.5151     0.0142  -999.2500  -999.2500  -999.2500  -999.2500
 1189.0000     8.9278   126.4018     0.0534     2.5188     0.0139  -999.2500  -999.2500  -999.2500  -999.2500
 1189.5000     8.9688   127.8633     0.0560     2.5261     0.0135  -999.2500  -999.2500  -999.2500  -999.2500
 1190.0000     8.9612   132.0145     0.0585     2.5308     0.0149  -999.2500  -999.2500  -999.2500  -999.2500
 1190.5000     8.9192   134.9786     0.0611     2.5295     0.0172  -999.2500  -999.2500  -999.2500  -999.2500
 1191.0000     8.8824   136.1532     0.0639     2.5276     0.0194  -999.2500  -999.2500  -999.2500  -999.2500
 1191.5000     8.8455   140.7216     0.0659     2.5238     0.0222  -999.2500  -999.2500  -999.2500  -999.2500
 1192.0000     8.8031   143.8086     0.0706     2.5200     0.0256  -999.2500  -999.2500  -999.2500  -999.2500
 1192.5000     8.8005   143.2609     0.0728     2.5161     0.0290  -999.2500  -999.2500  -999.2500  -999.2500
 1193.0000     8.8543   141.9059     0.0750     2.5123     0.0323  -999.2500  -999.2500  -999.2500  -999.2500
 1193.5000     8.9023   142.4614     0.0741     2.5085     0.0356  -999.2500  -999.2500  -999.2500  -999.2500
 1194.0000     8.9379   144.8361     0.0731     2.5046     0.0316  -999.2500  -999.2500  -999.2500  -999.2500
 1194.5000     8.9219   144.4421     0.0719     2.5011     0.0333  -999.2500  -999.2500  -999.2500  -999.2500
 1195.0000     8.9044   143.0417     0.0715     2.4997     0.0353  -999.2500  -999.2500  -999.2500  -999.2500
 1195.5000     8.9470   141.7016     0.0729     2.4985     0.0359  -999.2500  -999.2500  -999.2500  -999.2500
 1196.0000     9.0019   140.7948     0.0743     2.4973     0.0312  -999.2500  -999.2500  -999.2500  -999.2500
 1196.5000     9.0543   150.9269     0.0757     2.4980     0.0245  -999.2500  -999.2500  -999.2500  -999.2500
 1197.0000     9.0393   149.3584     0.0771     2.5032     0.0231  -999.2500  -999.2500  -999.2500  -999.2500
 1197.5000     9.0269   140.1468     0.0786     2.5112     0.0247  -999.2500  -999.2500  -999.2500  -999.2500
 1198.0000     9.1513   134.8006     0.0780     2.5159     0.0278  -999.2500  -999.2500  -999.2500  -999.2500
 1198.5000     9.2126   138.6959     0.0759     2.5124     0.0278  -999.2500  -999.2500  -999.2500  -999.2500
 1199.0000     9.1854   141.9903     0.0739     2.5089     0.0294  -999.2500  -999.2500  -999.2500  -999.2500
 1199.5000     9.1654   145.7597     0.0720     2.5067     0.0281  -999.2500  -999.2500  -999.2500  -999.2500
 1200.0000     9.1448   148.4388     0.0700     2.5078     0.0268  -999.2500  -999.2500  -999.2500  -999.2500
 1200.5000     9.1236   147.8128     0.0680     2.5096     0.0278  -999.2500  -999.2500  -999.2500  -999.2500
 1201.0000     9.1033   146.0716     0.0661     2.5110     0.0322  -999.2500  -999.2500  -999.2500  -999.2500
 1201.5000     9.1058   143.1897     0.0640     2.5084     0.0366  -999.2500  -999.2500  -999.2500  -999.2500
 1202.0000     9.1180   139.9369     0.0638     2.5013     0.0403  -999.2500  -999.2500  -999.2500  -999.2500
 1202.5000     9.1279   136.4868     0.0651     2.4942     0.0403  -999.2500  -999.2500  -999.2500  -999.2500
 1203.0000     9.1332   134.4189     0.0666     2.4899     0.0373  -999.2500  -999.2500  -999.2500  -999.2500
 1203.5000     9.0842   133.7881     0.0657     2.4902     0.0356  -999.2500  -999.2500  -999.2500  -999.2500
