~VERSION INFORMATION
 VERS.                2.0:   CWLS LOG ASCII STANDARD - VERSION 2.0
 WRAP.                 NO:   ONE LINE PER DEPTH STEP
~WELL INFORMATION
#MNEM.UNIT      DATA TYPE    INFORMATION
#----------   ------------   ------------------------------
 STRT.F           29.0000:   START DEPTH
 STOP.F          720.0000:   STOP DEPTH
 STEP.F            0.5000:   STEP LENGTH
 NULL.          -999.2500:   NO VALUE
 COMP.    FENIX & SCISSON:   COMPANY
 WELL. RES 3 TEAPOT DOM #21-S-14:   WELL
 FLD .        TEAPOT DOME:   FIELD
 LOC .      S14 T38N R78W:   LOCATION
 CNTY.            NATRONA:   COUNTY
 STAT.            WYOMING:   STATE
 CTRY. UNITED STATES OF AMERICA:   COUNTRY
 SRVC.            Unknown:   SERVICE COMPANY
 DATE.        25-MAY-1978:   LOGDATE
 API .       490251063300:   API NUMBER
~CURVE INFORMATION
#MNEM.UNIT       API CODE    CURVE DESCRIPTION
#----------   ------------   ------------------------------
 DEPT.F                  :   
 CALD.IN     45 280 60 00:   CALIPER FROM DENSITY LOG
 CORR.G/C3   45 356 01 00:   DENSITY CORRECTION
 DPHI.DEC    45 890 12 00:   DENSITY POROSITY SANDSTONE
 GRD .GAPI   45 310 01 00:   GAMMA RAY FROM DENSITY LOG
 RHOB.G/C3   45 350 01 00:   BULK DENSITY
 ILD .OHMM   05 120 46 00:   INDUCTION LOG DEEP
 SN  .OHMM   05 040 16 00:   SHORT NORMAL 16"
 SPR .MV     05 010 01 00:   SPONTANEOUS POTENTIAL FROM RES.
~PARAMETER INFORMATION
#MNEM.UNIT          VALUE    DESCRIPTION
#----------   ------------   ------------------------------
 PD  .                 GL:   PERMANENT DATUM
 EPD .F              5232:   ELEVATION PERMANENT DATUM
 LMF .                 KB:   LOG MEASURED FROM
 DAPD.F                 4:   FEET ABOVE PERMANENT DATUM
 DMF .                 KB:   DRILLING MEASURED FROM
 EKB .F              5236:   KELLING BUSHING
 EGL .F              5232:   GROUND LEVEL
 DATE.        25-MAY-1978:   RUN DATE
 RUN .                  1:   RUN NUMBER
 DD  .F               716:   DEPTH DRILLER
 DL  .F               727:   DEPTH LOGGER
 BLI .F               720:   BOTTOM LOG INTERVAL
 TLI .F                44:   TOP LOG INTERVAL
 CS  .IN            8.625:   CASING SIZE
 CBD .F                40:   CASING BOTTOM DRILLER
 CBL .F                44:   CASING BOTTOM LOGGER
 BS  .IN            7.875:   BIT SIZE
 BSD .F               716:   BIT SIZE AT DEPTH
 DFT .                KCL:   DRILLING FLUID TYPE
 DFD .                8.6:   DRILLING FLUID DENSITY
 DFV .                 31:   DRILLING FLUID VISCOSITY
 DFPH.                9.5:   DRILLING FLUID PH
 DFL .               10.8:   DRILLING FLUID LOSS
 MSS .            MUD PIT:   MUD SAMPLE SOURCE
 RMS .OHMM           0.32:   RESISTIVITY MUD SAMPLE
 MST .F                82:   MUD SAMPLE TEMPERATURE
 RMF .OHMM           0.34:   RESISTIVITY MUD FILTRATE SAMPLE
 MFST.F                72:   MUD FILTRATE SAMPLE TEMPERATURE
 RMC .OHMM            0.8:   RESISTIVITY MUD CAKE
 MCST.F                72:   MUD CAKE SAMPLE TEMPERATURE
 MFSS.               MEAS:   MUD FILTRATE SAMPLE SOURCE
 RMB .OHMM           0.35:   RESISTIVITY MUD AT BHT
 BHT .F                74:   BOTTOM HOLE TEMPERATURE
 TCS .HRS               1:   TIME CURCULATED STOPPED
 MRT .F                74:   MAXIMUM RECORDED TEMPERATURE
 LUN .               2958:   LOGGING UNIT NUMBER
 LUL .               CASP:   LOGGING UNIT LOCATION
 ENGI.             MILLER:   RECORDING ENGINEER
 WITN.           MCGINLEY:   WITNESSED BY
 CLNT.            A2DTECH:   CLIENT CODE
 ORIG.           5" PRINT:   ORIGIN OF DATA
 UWI .       490251063300:   UNIQUE WELL ID
 DICO. A2D Technologies, Inc.:   DIGITIZING COMPANY
~OTHER INFORMATION
~A   DEPT     CALD       CORR       DPHI         GRD      RHOB        ILD         SN        SPR   
# ...
  515.0000     7.1769     0.0172     0.1085    89.6900     2.4938     5.7537     5.7042   -25.2947
  515.5000     7.2224     0.0189     0.1079    89.2564     2.4946     6.0855     6.0039   -24.6850
  516.0000     7.2395     0.0177     0.1078    88.8322     2.4925     6.4364     6.5156   -24.2241
  516.5000     7.2716     0.0224     0.1081    87.6523     2.4896     6.7607     6.7973   -23.9120
  517.0000     6.7057     0.0256     0.1080    88.8699     2.4897     7.0127     6.9939   -23.5998
  517.5000     6.6775     0.0273     0.1080    89.1872     2.4898     7.3080     7.1962   -23.5853
  518.0000     6.3962     0.0276     0.1082    83.6836     2.4899     7.4160     7.4043   -23.5709
  518.5000     5.9350     0.0293     0.1100    81.4637     2.4900     7.5256     7.5660   -23.5564
  519.0000     5.9887     0.0295     0.1150    81.3333     2.4909     7.6368     7.6251   -23.5417
  519.5000     6.4929     0.0253     0.1201    82.7001     2.4888     7.6963     7.6849   -23.6762
  520.0000     6.8389     0.0239     0.1209    84.8085     2.4716     7.7030     7.6930   -23.8105
  520.5000     6.9308     0.0392     0.1113    85.7228     2.4703     7.7097     7.7514   -23.7924
  521.0000     6.9927     0.0514     0.1080    86.6372     2.4756     7.6634     7.7047   -23.7779
  521.5000     7.0846     0.0621     0.1037    87.4023     2.4839     7.7248     7.7131   -23.7634
  522.0000     7.0867     0.0758     0.0971    88.0182     2.4938     7.7315     7.7734   -23.7489
  522.5000     7.1039     0.0865     0.0917    88.0373     2.5111     7.7382     7.7264   -23.7344
  523.0000     7.1085     0.0899     0.0899    87.4635     2.5254     7.7449     7.7333   -23.8687
  523.5000     7.1237     0.0884     0.0880    86.4376     2.5300     7.8053     7.7403   -24.0030
  524.0000     7.1259     0.0782     0.0880    86.3025     2.5293     7.8121     7.6951   -23.9881
  524.5000     7.0982     0.0619     0.0903    82.2962     2.5227     7.8190     7.7019   -23.9704
  525.0000     7.0854     0.0337     0.1052    81.7133     2.5094     7.8260     7.7086   -24.1084
  525.5000     7.0721     0.0294     0.1129    81.7368     2.4975     7.8342     7.7153   -24.0902
  526.0000     7.1794     0.0237     0.1195    81.4572     2.5051     7.8410     7.8295   -24.0757
  526.5000     7.2578     0.0059     0.1221    75.6473     2.5022     7.9022     7.8363   -24.2137
  527.0000     7.3210    -0.0013     0.1239    74.7784     2.4776     7.9090     7.8431   -24.3480
  527.5000     7.3808     0.0034     0.1277    77.9363     2.4635     7.8598     7.8502   -24.4792
  528.0000     7.4278     0.0036     0.1393    79.2984     2.4605     7.8683     7.9130   -24.4642
  528.5000     7.4300     0.0008     0.1525    80.9590     2.4383     7.7672     7.9199   -24.4494
  529.0000     7.4167    -0.0020     0.1805    82.1719     2.4137     7.5120     7.8705   -23.9851
  529.5000     7.3596     0.0118     0.1826    82.1907     2.3787     6.5045     7.7710   -23.6730
  530.0000     7.2870     0.0539     0.1640    83.2544     2.3728     5.9107     7.1589   -23.5097
  530.5000     7.2593     0.0706     0.1382    84.6165     2.3863     5.6760     6.3710   -23.3464
  531.0000     7.2620     0.0469     0.1184    84.6358     2.4612     5.7599     5.9921   -23.4807
  531.5000     7.2791     0.0127     0.1076    82.1216     2.4823     5.7649     5.8743   -23.4662
  532.0000     7.2813     0.0039     0.1040    80.7924     2.4726     5.8098     5.9215   -23.4518
  532.5000     7.2835     0.0041     0.1049    82.0100     2.4676     5.8647     6.0927   -23.4373
  533.0000     7.3305     0.0133     0.1054    84.1184     2.4871     6.1941     6.5343   -23.4226
  533.5000     7.4373     0.0330     0.1019    83.2417     2.4977     7.6250     7.5092   -23.2589
  534.0000     7.4096     0.0453     0.0957    80.5740     2.5068     8.5224     8.4525   -23.0925
  534.5000     6.6235     0.0515     0.0939    80.1450     2.5128     8.8903     8.8179   -23.0780
  535.0000     6.3383     0.0517     0.0930    79.6965     2.5159     9.2740     9.1358   -23.2160
  535.5000     6.3249     0.0489     0.0905    78.5456     2.5175     9.3464     9.2770   -23.3467
  536.0000     6.4921     0.0461     0.0881    77.6642     2.5176     9.3545     9.4103   -23.3322
  536.5000     6.6138     0.0419     0.0934    82.6132     2.5133     9.4278     9.4838   -23.3177
  537.0000     6.6758     0.0346     0.1019    85.7663     2.5059     9.5688     9.5579   -22.1127
  537.5000     6.7975     0.0258     0.1219    86.3822     2.4978     9.7102     9.5662   -21.6518
  538.0000     6.9193     0.0139     0.1432    86.5455     2.4665     9.7859     9.7078   -21.6210
  538.5000     6.9365     0.0278     0.1501    82.9870     2.4374     9.9992     9.9885   -20.8751
  539.0000     6.9391     0.0325     0.1739    78.3154     2.4270    10.3592    10.1363   -20.4142
  539.5000     6.9563     0.0342     0.1894    73.2896     2.4166    11.0324    10.7334   -20.2509
  540.0000     6.9584     0.0584     0.1924    60.8094     2.3565    11.8418    11.8236   -19.9388
  540.5000     7.0204     0.0631     0.2168    47.9924     2.3533    12.7773    13.0358   -19.9243
  541.0000     7.1721     0.0723     0.2132    43.3844     2.3160    13.6076    14.0775   -19.9098
  541.5000     7.2938     0.0923     0.2179    42.9508     2.3123    14.8974    14.8905   -19.8953
  542.0000     7.3259     0.1162     0.2257    44.7654     2.3065    16.6505    15.4273   -19.7320
  542.5000     7.3281     0.1254     0.2280    45.5305     2.2984    18.3550    15.6556   -19.5685
  543.0000     7.3607     0.1286     0.2017    44.2060     2.2962    18.4981    15.7779   -19.3790
  543.5000     7.3772     0.1273     0.1846    43.9264     2.3085    18.3868    15.7919   -19.2385
  544.0000     7.3346     0.1186     0.1795    45.7410     2.3509    18.1378    15.8089   -19.2240
  544.5000     7.2924     0.0814     0.1794    47.2523     2.3616    18.0415    15.7103   -19.2095
  545.0000     7.2642     0.0741     0.1867    47.4157     2.3632    18.0611    15.7274   -19.1950
  545.5000     7.2220     0.0649     0.1910    46.3945     2.3640    18.2020    15.7411   -19.3329
  546.0000     7.2093     0.0566     0.1844    46.1101     2.3515    18.2178    15.5386   -19.3148
  546.5000     7.1965     0.0509     0.1834    47.9247     2.3635    18.2336    15.5522   -19.3003
  547.0000     7.2142     0.0466     0.1762    51.2271     2.3681    18.2495    15.4583   -19.2857
  547.5000     7.2462     0.0423     0.1708    51.5448     2.3727    18.3919    15.3655   -19.2510
  548.0000     7.3231     0.0246     0.1725    51.5680     2.3798    18.6641    15.1678   -19.1044
  548.5000     7.3253     0.0158     0.1835    51.8854     2.3871    18.1752    15.1844   -19.0899
  549.0000     7.2826     0.0160     0.1844    52.2027     2.3783    17.6959    14.9858   -19.2278
  549.5000     7.2549     0.0193     0.1814    52.6693     2.3694    17.4648    14.7930   -19.3621
  550.0000     7.3017     0.0246     0.1514    54.1361     2.3744    17.0777    14.8059   -19.3477
  550.5000     7.3336     0.0332     0.1385    56.5851     2.4070    16.8038    14.7782   -19.5345
  551.0000     7.2457     0.0319     0.1322    56.6063     2.4153    16.5692    14.7543   -19.6131
  551.5000     7.2777     0.0291     0.1220    57.0715     2.4401    16.5858    14.6400   -19.7569
  552.0000     7.3243     0.0168     0.1270    57.6859     2.4607    16.5991    14.6547   -19.8817
  552.5000     7.3560    -0.0064     0.1378    57.8526     2.4672    16.3847    14.5625   -20.0161
  553.0000     7.3577    -0.0182     0.1561    57.2729     2.4434    15.7210    14.6782   -20.1505
  553.5000     7.3894    -0.0210     0.1717    56.6890     2.4285    15.3170    14.6900   -20.1325
  554.0000     7.4360    -0.0028     0.1768    56.5512     2.3830    15.2239    14.8039   -20.1181
  554.5000     7.4826     0.0019     0.1774    57.7731     2.3756    15.2392    14.5146   -19.9549
  555.0000     7.4993     0.0051     0.1752    57.2936     2.3749    15.2514    14.2282   -19.9405
