~VERSION INFORMATION
 VERS.                2.0:   CWLS LOG ASCII STANDARD - VERSION 2.0
 WRAP.                 NO:   ONE LINE PER DEPTH STEP
~WELL INFORMATION
#MNEM.UNIT      DATA TYPE    INFORMATION
#----------   ------------   ------------------------------
 STRT.F           34.0000:   START DEPTH
 STOP.F          510.0000:   STOP DEPTH
 STEP.F            0.5000:   STEP LENGTH
 NULL.          -999.2500:   NO VALUE
 COMP. LAWRENCE/ALLISON INC:   COMPANY
 WELL.      58-36 SX #3-3:   WELL
 FLD .             TEAPOT:   FIELD
 LOC .       S3 T38N R78W:   LOCATION
 CNTY.            NATRONA:   COUNTY
 STAT.            WYOMING:   STATE
 CTRY. UNITED STATES OF AMERICA:   COUNTRY
 SRVC.           Gearhart:   SERVICE COMPANY
 DATE.        17-SEP-1987:   LOGDATE
 API .       490251116300:   API NUMBER
~CURVE INFORMATION
#MNEM.UNIT       API CODE    CURVE DESCRIPTION
#----------   ------------   ------------------------------
 DEPT.F                  :   
 SPR .MV     07 010 01 00:   SPONTANEOUS POTENTIAL
 RLL .OHMM   07 220 00 00:   LATEROLOG RESISTIVITY
 RILD.OHMM   07 120 46 00:   INDUCTION LOG DEEP RESISTIVITY
 RILM.OHMM   07 120 44 00:   INDUCTION LOG MEDIUM RESISTIVITY
 GRR .GAPI   07 310 01 00:   GAMMA RAY FROM RES. LOG.
~PARAMETER INFORMATION
#MNEM.UNIT          VALUE    DESCRIPTION
#----------   ------------   ------------------------------
 PD  .                 GL:   PERMANENT DATUM
 EPD .F              5205:   ELEVATION PERMANENT DATUM
 LMF .                 KB:   LOG MEASURED FROM
 DAPD.F                 8:   FEET ABOVE PERMANENT DATUM
 DMF .                 KB:   DRILLING MEASURED FROM
 EKB .F              5213:   KELLING BUSHING
 EDF .F              5211:   DRILLING FLOOR
 EGL .F              5205:   GROUND LEVEL
 DATE.            9-17-87:   RUN DATE
 RUN .                  1:   RUN NUMBER
 DD  .F               521:   DEPTH DRILLER
 DL  .F               512:   DEPTH LOGGER
 BLI .F               510:   BOTTOM LOG INTERVAL
 TLI .F                30:   TOP LOG INTERVAL
 CS  .IN            8.625:   CASING SIZE
 CBD .F                52:   CASING BOTTOM DRILLER
 CBL .F                52:   CASING BOTTOM LOGGER
 BS  .IN            7.875:   BIT SIZE
 BSD .F               521:   BIT SIZE AT DEPTH
 DFT .          KCL WATER:   DRILLING FLUID TYPE
 DFD .                8.8:   DRILLING FLUID DENSITY
 MSS .            MUD PIT:   MUD SAMPLE SOURCE
 RMS .OHMM            .60:   RESISTIVITY MUD SAMPLE
 MST .F                41:   MUD SAMPLE TEMPERATURE
 TCS .HRS            0630:   TIME CURCULATED STOPPED
 TLAB.HRS            0918:   TIME LOGGER AT BOTTOM
 MRT .F                80:   MAXIMUM RECORDED TEMPERATURE
 LUN .               7650:   LOGGING UNIT NUMBER
 LUL .           GILLETTE:   LOGGING UNIT LOCATION
 ENGI.         WEATHERMON:   RECORDING ENGINEER
 WITN.             STRONG:   WITNESSED BY
 CLNT.            A2DTECH:   CLIENT CODE
 ORIG. 1", 2.5", 5" PRINT:   ORIGIN OF DATA
 UWI .       490251116300:   UNIQUE WELL ID
 DICO. A2D Technologies, Inc.:   DIGITIZING COMPANY
~OTHER INFORMATION
~A   DEPT      SPR        RLL       RILD       RILM        GRR   
# ...
  217.0000   -95.6107     6.5790     5.5591     4.8819   118.2269
  217.5000   -95.4177     6.6356     5.7975     5.0536   118.8755
  218.0000   -95.2248     6.9072     6.0461     5.2183   122.3341
  218.5000   -95.0326     7.1906     6.3054     5.3884   125.2135
  219.0000   -94.8407     7.4898     6.5723     5.5640   120.9255
  219.5000   -94.5772     7.8139     6.8172     5.7454   116.5416
  220.0000   -94.3173     8.1486     7.0712     5.9326   114.4080
  220.5000   -94.0583     8.4977     7.3344     6.1260   115.2047
  221.0000   -93.7994     8.9741     7.5311     6.3257   115.6426
  221.5000   -93.5404     8.9542     7.5530     6.5240   116.1142
  222.0000   -93.2815     8.9166     7.5751     6.6460   116.6324
  222.5000   -93.0226     8.8083     7.5927     6.7328   118.1605
  223.0000   -92.7627     8.7141     7.5563     6.7468   119.6700
  223.5000   -92.5066     8.6105     7.5076     6.7625   120.9215
  224.0000   -92.1283     8.5082     7.3353     6.7781   119.3760
  224.5000   -91.7117     8.4070     7.1673     6.7939   117.8308
  225.0000   -91.3887     8.3071     7.0032     6.7016   116.3020
  225.5000   -91.3123     8.2084     6.8033     6.5877   114.9158
  226.0000   -91.2316     8.1608     6.6280     6.4968   116.0484
  226.5000   -91.2447     8.1006     6.4878     6.3451   117.3122
  227.0000   -91.3542     8.0407     6.3505     6.1142   117.7538
  227.5000   -91.4631     7.9813     6.1223     5.8918   118.1628
  228.0000   -91.5717     7.9224     5.8638     5.6685   118.5466
  228.5000   -91.6803     7.8087     5.6162     5.3774   117.0058
  229.0000   -91.7885     7.5712     5.3791     5.1013   115.3037
  229.5000   -92.0375     7.0629     5.1520     4.8393   114.3367
  230.0000   -92.3363     6.3392     4.9257     4.5908   115.3214
  230.5000   -92.6314     5.6897     5.0263     4.3550   117.9186
  231.0000   -92.7633     5.3903     5.1550     4.1972   120.4943
  231.5000   -92.2710     5.5971     5.3030     4.4490   121.5571
  232.0000   -91.7832     6.0347     5.5274     4.6979   119.4830
  232.5000   -91.2960     6.7083     5.7613     4.9608   117.4421
  233.0000   -90.8134     7.4824     6.0052     5.2383   117.2550
  233.5000   -90.3504     8.2935     6.3022     5.5314   118.4303
  234.0000   -89.8860     8.3470     6.6333     5.8410   119.6210
  234.5000   -89.4649     8.3685     6.9824     6.1680   120.6455
  235.0000   -89.0485     8.3901     7.3494     6.5132   120.7047
  235.5000   -88.6322     8.4176     7.4520     6.6545   120.7827
  236.0000   -88.2157     8.5001     7.5246     6.7742   120.8631
  236.5000   -87.7991     8.5835     7.5983     6.8587   120.9447
  237.0000   -87.3826     8.6677     7.6653     6.8652   121.0676
  237.5000   -86.9661     8.7347     7.6655     6.8746   121.3807
  238.0000   -86.5494     8.8109     7.6654     6.8840   121.7065
  238.5000   -86.1334     8.8877     7.6653     6.8934   120.9404
  239.0000   -85.7129     8.9718     7.6653     6.9028   119.5129
  239.5000   -85.5382     8.9618     7.6653     6.9121   119.4448
  240.0000   -85.4868     8.9492     7.6653     6.9223   123.6547
  240.5000   -85.4388     8.9366     7.6656     6.8905   127.8809
  241.0000   -85.3914     8.9241     7.6520     6.8451   130.5521
  241.5000   -85.3487     8.9116     7.6330     6.7999   128.6564
  242.0000   -85.2440     8.8990     7.6141     6.7551   126.0462
  242.5000   -85.1364     8.8822     7.5953     6.7105   123.4026
  243.0000   -85.0301     8.8547     7.5764     6.6707   123.1242
  243.5000   -84.9583     8.8274     7.5577     6.6707   125.5504
  244.0000   -85.0109     8.8002     7.5389     6.6706   128.0181
  244.5000   -85.0606     8.7730     7.5202     6.6706   130.3078
  245.0000   -85.1101     8.7459     7.5017     6.6706   128.9856
  245.5000   -85.1596     8.7252     7.4830     6.6799   127.5733
  246.0000   -85.2091     8.7069     7.4644     6.7108   126.2804
  246.5000   -85.2595     8.6887     7.3616     6.7416   126.2561
  247.0000   -85.3122     8.6707     7.1779     6.7734   126.2626
  247.5000   -85.3282     8.6525     7.0221     6.7923   126.2354
  248.0000   -84.8107     8.5115     6.9238     6.3982   125.8960
  248.5000   -84.2995     8.2475     6.8270     6.1082   126.5863
  249.0000   -83.7918     7.9917     6.7314     5.9039   127.4568
  249.5000   -83.2836     7.7439     6.6371     5.8137   129.0610
  250.0000   -82.7767     7.4097     6.4634     5.8049   129.2055
  250.5000   -82.2871     7.5192     6.2608     5.8052   128.8308
  251.0000   -82.0967     7.7920     6.0645     5.8058   126.6915
  251.5000   -81.9154     8.0747     5.9171     5.8057   123.8920
  252.0000   -82.0728     8.2551     5.7482     5.5379   121.3877
  252.5000   -82.2439     7.4975     5.5841     5.1330   121.8203
  253.0000   -82.2462     6.8693     5.4465     4.8627   122.2063
  253.5000   -81.6437     6.2937     5.5069     4.8180   120.1058
  254.0000   -81.0887     5.9114     5.5680     4.7779   114.7720
  254.5000   -80.5360     6.2156     5.6297     4.8881   115.1675
  255.0000   -79.9192     6.6783     5.6922     5.0136   118.1367
  255.5000   -79.3006     7.1749     5.8863     5.2330   121.9199
  256.0000   -78.6797     7.7074     6.1654     5.5033   125.7072
  256.5000   -78.0862     8.1790     6.4582     5.7875   124.4794
  257.0000   -78.3865     8.1538     6.7647     6.0865   121.9337
  257.5000   -78.5952     8.1036     7.0533     6.3771   119.6347
  258.0000   -78.8011     8.0338     6.9136     6.4632   119.4028
  258.5000   -79.0018     8.1036     6.7206     6.4888   119.8196
  259.0000   -79.4069     8.2551     6.5330     6.3439   120.2482
  259.5000   -79.9591     8.4721     6.3687     6.0336   120.0500
  260.0000   -80.5128     8.1844     6.1451     5.6596   116.4420
  260.5000   -81.0666     7.6097     5.9058     5.3089   115.3806
  261.0000   -81.5859     7.0754     5.6929     4.9793   117.7609
  261.5000   -81.9146     6.5786     5.6377     4.7946   121.8025
  262.0000   -81.4353     6.2517     5.5829     4.7392   125.8043
  262.5000   -80.6274     6.3425     5.5287     4.6899   124.3958
  263.0000   -79.8155     6.4081     5.4965     4.9133   119.5579
  263.5000   -79.0036     6.8810     5.7685     5.1246   115.1054
  264.0000   -78.1921     7.5841     5.9952     5.4086   112.7359
  264.5000   -77.3810     7.8450     6.2696     5.8068   111.9991
  265.0000   -76.5666     7.9549     6.5565     6.2344   111.6044
  265.5000   -75.9855     8.1965     6.8565     6.5520   111.4271
  266.0000   -75.5368     8.5549     7.1702     6.8230   111.8003
  266.5000   -75.0895     8.8911     7.4982     7.1053   112.9681
  267.0000   -74.6423     8.8910     7.7442     7.2732   114.1416
  267.5000   -74.1947     8.8905     7.8201     7.3491   114.5925
  268.0000   -73.7461     8.8948     7.8968     7.3867   112.6057
  268.5000   -73.2977     8.9407     7.9742     7.3675   111.2900
  269.0000   -73.1838     8.9869     8.0288     7.3400   112.1140
  269.5000   -73.1276     9.0333     8.0288     7.3129   113.0332
  270.0000   -73.0735     9.0800     8.0288     7.2858   113.3983
  270.5000   -73.0197     9.1268     8.0288     7.2526   111.7766
  271.0000   -72.8017     9.2073     8.0288     7.2638   111.9382
  271.5000   -72.5816     9.3416     8.0286     7.2826   114.1698
  272.0000   -72.3212     9.4778     8.0288     7.3015   115.6916
  272.5000   -71.8857     9.5744     8.0826     7.3185   113.5956
  273.0000   -71.4629     9.5751     8.1427     7.2509   111.5412
  273.5000   -71.0392     9.4144     8.2033     7.1765   109.9966
  274.0000   -70.6133     9.1891     8.2643     7.1030   109.6999
  274.5000   -70.1759     8.9695     8.3258     7.0520   109.6812
  275.0000   -69.9481     8.7552     8.4198     7.1881   110.4166
  275.5000   -69.7191     8.5668     8.5231     7.3141   111.4142
  276.0000   -69.4879     8.8052     8.6276     7.4422   112.4351
  276.5000   -69.2492     9.1572     8.7343     7.6925   112.9205
  277.0000   -69.2681     9.5233     8.8096     7.9651   112.5392
  277.5000   -69.5204     9.9051     8.3716     8.1051   111.4686
