~VERSION INFORMATION
 VERS.                2.0:   CWLS LOG ASCII STANDARD - VERSION 2.0
 WRAP.                 NO:   ONE LINE PER DEPTH STEP
~WELL INFORMATION
#MNEM.UNIT      DATA TYPE    INFORMATION
#----------   ------------   ------------------------------
 STRT.F           40.0000:   START DEPTH
 STOP.F          596.0000:   STOP DEPTH
 STEP.F            0.5000:   STEP LENGTH
 NULL.          -999.2500:   NO VALUE
 COMP. FENIX & SCISSON INC:   COMPANY
 WELL. SX-15 N.O.R. #3 #51-15:   WELL
 FLD .             TEAPOT:   FIELD
 LOC .      S15 T38N R78W:   LOCATION
 CNTY.            NATRONA:   COUNTY
 STAT.            WYOMING:   STATE
 CTRY. UNITED STATES OF AMERICA:   COUNTRY
 SRVC.              Welex:   SERVICE COMPANY
 DATE.        12-MAR-1977:   LOGDATE
 API .       490251031100:   API NUMBER
~CURVE INFORMATION
#MNEM.UNIT       API CODE    CURVE DESCRIPTION
#----------   ------------   ------------------------------
 DEPT.F                  :   
 GRD .GAPI   45 310 01 00:   GAMMA RAY FROM DENSITY LOG
 CALD.IN     45 280 60 00:   CALIPER FROM DENSITY LOG
 CORR.G/C3   45 356 01 00:   DENSITY CORRECTION
 RHOB.G/C3   45 350 01 00:   BULK DENSITY
 DPOR.DEC    45 890 12 00:   DENSITY POROSITY SANDSTONE
 SGRD.OHMM   07 220 05 00:   SHALLOW GUARD RESISTIVITY
 ILD .OHMM   07 120 46 00:   INDUCTION LOG DEEP
 ILM .OHMM   07 120 44 00:   INDUCTION LOG MEDIUM
 SPR .MV     07 010 01 00:   SPONTANEOUS POTENTIAL
~PARAMETER INFORMATION
#MNEM.UNIT          VALUE    DESCRIPTION
#----------   ------------   ------------------------------
 PD  .                 GL:   PERMANENT DATUM
 EPD .F              5221:   ELEVATION PERMANENT DATUM
 LMF .                 GL:   LOG MEASURED FROM
 DMF .                 GL:   DRILLING MEASURED FROM
 EGL .F              5221:   GROUND LEVEL
 DATE.            3-12-77:   RUN DATE
 RUN .                  1:   RUN NUMBER
 DD  .F               600:   DEPTH DRILLER
 DL  .F               597:   DEPTH LOGGER
 BLI .F               596:   BOTTOM LOG INTERVAL
 TLI .F                45:   TOP LOG INTERVAL
 CS  .IN            8.625:   CASING SIZE
 CBD .F                46:   CASING BOTTOM DRILLER
 CBL .F                45:   CASING BOTTOM LOGGER
 BS  .IN            7.875:   BIT SIZE
 BSD .F               600:   BIT SIZE AT DEPTH
 DFT .            KCL-MUD:   DRILLING FLUID TYPE
 DFD .                8.9:   DRILLING FLUID DENSITY
 DFV .                 34:   DRILLING FLUID VISCOSITY
 MSS .            MUD PIT:   MUD SAMPLE SOURCE
 RMS .OHMM            .68:   RESISTIVITY MUD SAMPLE
 MST .F                40:   MUD SAMPLE TEMPERATURE
 RMF .OHMM            .57:   RESISTIVITY MUD FILTRATE SAMPLE
 MFST.F                40:   MUD FILTRATE SAMPLE TEMPERATURE
 RMC .OHMM            .78:   RESISTIVITY MUD CAKE
 MCST.F                40:   MUD CAKE SAMPLE TEMPERATURE
 MFSS.           MEASURED:   MUD FILTRATE SAMPLE SOURCE
 MCSS.           MEASURED:   MUD CAKE SAMPLE SOURCE
 RMB .OHMM            .41:   RESISTIVITY MUD AT BHT
 BHT .F                65:   BOTTOM HOLE TEMPERATURE
 TCS .HRS               3:   TIME CURCULATED STOPPED
 MRT .F                65:   MAXIMUM RECORDED TEMPERATURE
 LUN .                716:   LOGGING UNIT NUMBER
 LUL .             VERNAL:   LOGGING UNIT LOCATION
 ENGI.           CALLAHAN:   RECORDING ENGINEER
 WITN.         STUEBINGER:   WITNESSED BY
 CLNT.            A2DTECH:   CLIENT CODE
 ORIG.       2", 5" PRINT:   ORIGIN OF DATA
 UWI .       490251031100:   UNIQUE WELL ID
 DICO. A2D Technologies, Inc.:   DIGITIZING COMPANY
~OTHER INFORMATION
~A   DEPT       GRD        CALD     CORR       RHOB       DPOR       SGRD        ILD        ILM        SPR   
# ...
  186.0000   127.8957     7.9295     0.0445     2.5009     0.0935    11.9174     8.1894    10.1819   -53.0246
  186.5000   127.2212     7.9297     0.0432     2.4987     0.0916    13.2068     8.2376    10.5514   -52.9677
  187.0000   127.1322     7.9299     0.0385     2.4969     0.0917    14.8903     8.2862    10.8834   -52.9109
  187.5000   127.5741     7.9301     0.0238     2.4852     0.0996    12.4976     8.3350    10.5386   -52.8541
  188.0000   128.4488     7.9303     0.0182     2.4716     0.1074    12.2692     8.3842    10.3931   -52.7972
  188.5000   127.0681     7.9305     0.0181     2.4598     0.1142    12.3492     8.4336    10.7854   -52.7404
  189.0000   125.7321     7.9307     0.0181     2.4581     0.1211    12.6133     8.4851    10.7819   -52.6836
  189.5000   124.4048     7.9309     0.0181     2.4560     0.1225    12.5341     8.5987    10.7831   -52.6268
  190.0000   123.0705     7.9311     0.0168     2.4538     0.1238    12.3829     8.6449    10.8229   -52.5700
  190.5000   121.7106     7.9313     0.0132     2.4517     0.1251    12.4838     8.6913    10.8834   -52.5131
  191.0000   121.6377     7.9315     0.0096     2.4495     0.1275    12.6747     8.7231    10.8365   -52.4563
  191.5000   121.8885     7.9317     0.0098     2.4492     0.1300    12.8686     8.7078    10.7471   -52.3995
  192.0000   122.9044     7.9319     0.0145     2.4553     0.1277    12.9671     8.6941    10.6585   -52.3427
  192.5000   125.3558     7.9321     0.0193     2.4613     0.1215    12.3905     8.6805    10.5706   -52.2858
  193.0000   127.7859     7.9323     0.0240     2.4674     0.1151    12.0451     8.6669    10.4894   -52.2290
  193.5000   128.5078     7.9325     0.0242     2.4734     0.1141    12.2138     8.6533    10.4282   -52.1722
  194.0000   129.1596     7.9327     0.0241     2.4785     0.1128    12.3737     8.6428    10.3591   -52.1153
  194.5000   129.8241     7.9329     0.0257     2.4822     0.1114    12.4976     8.6430    10.2899   -52.0585
  195.0000   130.5166     7.9331     0.0365     2.4858     0.1098    12.3974     8.6430    10.2212   -52.0020
  195.5000   130.3849     7.9333     0.0476     2.4856     0.1068    12.3153     8.6430    10.1530   -51.8989
  196.0000   129.7181     7.9335     0.0517     2.4833     0.1038    12.2703     8.6430    10.0852   -51.7915
  196.5000   127.1257     7.9337     0.0538     2.4809     0.1009    12.7302     8.6433    10.0168   -51.6835
  197.0000   124.5227     7.9339     0.0558     2.4838     0.0980    12.4655     8.6425    10.1980   -51.5757
  197.5000   122.2137     7.9339     0.0563     2.4884     0.0952    12.2466     8.7073    10.3855   -51.4679
  198.0000   121.8952     7.9339     0.0503     2.4932     0.0922    11.9379     8.7733    10.5855   -51.3601
  198.5000   121.5999     7.9339     0.0387     2.4926     0.0990    12.3984     8.8402    10.5264   -51.2524
  199.0000   121.2951     7.9339     0.0400     2.4890     0.0963    13.2587     8.9076    10.4935   -51.1446
  199.5000   120.9901     7.9339     0.0421     2.4853     0.0893    13.6010     8.9872    10.9419   -51.0368
  200.0000   120.3340     7.9339     0.0339     2.4815     0.1023    13.7046     9.1606    11.2677   -50.9290
  200.5000   119.3307     7.9339     0.0246     2.4795     0.1025    13.7046     9.3374    11.5024   -50.8213
  201.0000   118.3275     7.9339     0.0194     2.4774     0.1012    13.9230     9.5176    11.5855   -50.7135
  201.5000   117.3209     7.9339     0.0251     2.4774     0.0999    14.1711     9.7013    11.6090   -50.6057
  202.0000   116.3075     7.9339     0.0304     2.4795     0.1008    14.3511     9.8886    11.0860   -50.4979
  202.5000   115.2663     7.9339     0.0357     2.4816     0.1018    14.3511    10.0794    11.3942   -50.3902
  203.0000   114.8334     7.9339     0.0366     2.4834     0.1003    14.3511    10.2740    11.8250   -50.2824
  203.5000   114.4174     7.9339     0.0336     2.4831     0.0986    14.5800    10.4722    12.1637   -50.1746
  204.0000   113.9947     7.9339     0.0306     2.4828     0.0985    15.0752    10.6744    12.4871   -50.0668
  204.5000   113.4777     7.9339     0.0276     2.4826     0.0998    15.5523    10.8803    12.8190   -49.9591
  205.0000   112.3727     7.9339     0.0295     2.4842     0.1002    15.9572    11.0895    13.1598   -49.8513
  205.5000   111.2622     7.9339     0.0412     2.4973     0.0966    16.2368    11.2938    13.2885   -49.7435
  206.0000   111.2852     7.9339     0.0524     2.5105     0.0916    16.4712    11.5816    13.4111   -49.6357
  206.5000   111.3731     7.9339     0.0640     2.5236     0.0797    17.1365    11.8624    14.5376   -49.5280
  207.0000   111.6153     7.9339     0.0595     2.5339     0.0726    18.8984    12.1500    16.4796   -49.4202
  207.5000   112.1648     7.9339     0.0507     2.5148     0.0796    21.3333    12.4446    16.8124   -49.3123
  208.0000   112.5969     7.9339     0.0513     2.5032     0.0852    17.5038    12.6133    14.5926   -49.2029
  208.5000   112.2923     7.9339     0.0525     2.5020     0.0908    16.3283    12.4672    13.0859   -49.0896
  209.0000   112.0029     7.9339     0.0534     2.4949     0.0971    16.4070    12.3666    12.7219   -48.9746
  209.5000   111.7160     7.9339     0.0472     2.4767     0.1069    16.1402    12.2669    12.3829   -48.8595
  210.0000   111.4289     7.9339     0.0081     2.4691     0.1167    15.8829    12.1679    12.5412   -48.7444
  210.5000   111.1399     7.9339     0.0199     2.4618     0.1227    15.9638    12.0696    12.7997   -48.6292
  211.0000   111.0536     7.9339     0.0342     2.4646     0.1149    16.0283    11.9740    13.0636   -48.5140
  211.5000   111.1025     7.9339     0.0428     2.4718     0.1083    15.7335    11.8316    13.3307   -48.3987
  212.0000   111.1511     7.9339     0.0504     2.4792     0.1017    15.5927    11.5892    13.1635   -48.2856
  212.5000   111.2093     7.9339     0.0492     2.4861     0.1001    15.6937    11.3616    12.9997   -48.2249
  213.0000   110.6134     7.9339     0.0485     2.4833     0.1020    15.7371    11.1892    12.8379   -48.3069
  213.5000   109.6106     7.9339     0.0558     2.4804     0.1038    14.8540    11.0190    12.6133   -48.3859
  214.0000   108.6025     7.9339     0.0604     2.4861     0.0997    14.4840    10.8528    12.7988   -48.4658
  214.5000   107.6031     7.9339     0.0602     2.4970     0.0945    14.7596    10.7610    13.1191   -48.5466
  215.0000   106.7873     7.9339     0.0544     2.5074     0.0905    15.4469    10.6846    13.4542   -48.5893
  215.5000   106.7904     7.9339     0.0484     2.5001     0.0995    15.3902    10.7098    13.3942   -48.2552
  216.0000   107.4327     7.9339     0.0423     2.4916     0.1069    15.2778    10.7536    13.3307   -47.9229
  216.5000   108.1736     7.9339     0.0516     2.4883     0.1111    15.1650    10.7976    13.5114   -47.5960
  217.0000   108.9239     7.9339     0.0543     2.4973     0.1063    15.1645    10.8418    13.6970   -47.5163
  217.5000   109.6723     7.9339     0.0543     2.5062     0.1024    15.5405    10.8861    13.9082   -47.7840
  218.0000   110.4197     7.9339     0.0543     2.5144     0.0919    15.8829    10.9306    14.1227   -48.0451
  218.5000   111.1705     7.9339     0.0509     2.5120     0.0857    16.6322    10.9754    14.3405   -48.1925
  219.0000   111.9172     7.9339     0.0433     2.5059     0.0952    16.4378    11.0206    14.6182   -48.1584
  219.5000   111.6536     7.9339     0.0447     2.4999     0.1058    15.9193    11.0858    14.3082   -48.1269
  220.0000   111.2193     7.9339     0.0475     2.4961     0.1059    14.7917    11.0067    13.9596   -48.0948
  220.5000   110.7812     7.9339     0.0507     2.4996     0.1031    14.0889    10.8596    14.4556   -48.0628
  221.0000   110.3443     7.9339     0.0609     2.5029     0.0957    14.0889    10.7150    14.9049   -48.0309
  221.5000   109.9069     7.9339     0.0672     2.5061     0.0882    14.0889    10.5724    15.3078   -47.9990
  222.0000   109.4725     7.9339     0.0614     2.5056     0.0830    16.0739    10.4318    13.2995   -47.9670
