~VERSION INFORMATION
 VERS.                2.0:   CWLS LOG ASCII STANDARD - VERSION 2.0
 WRAP.                 NO:   ONE LINE PER DEPTH STEP
~WELL INFORMATION
#MNEM.UNIT      DATA TYPE    INFORMATION
#----------   ------------   ------------------------------
 STRT.F           80.0000:   START DEPTH
 STOP.F          718.0000:   STOP DEPTH
 STEP.F            0.5000:   STEP LENGTH
 NULL.          -999.2500:   NO VALUE
 COMP. U S NAVY-INTEX OIL:   COMPANY
 WELL. RES 3 TEAPOT DOM #11SX-2:   WELL
 FLD .             TEAPOT:   FIELD
 LOC .       S2 T38N R78W:   LOCATION
 CNTY.            NATRONA:   COUNTY
 STAT.            WYOMING:   STATE
 CTRY. UNITED STATES OF AMERICA:   COUNTRY
 SRVC.       Schlumberger:   SERVICE COMPANY
 DATE.        05-AUG-1961:   LOGDATE
 API .       490250647900:   API NUMBER
~CURVE INFORMATION
#MNEM.UNIT       API CODE    CURVE DESCRIPTION
#----------   ------------   ------------------------------
 DEPT.F                  :   
 ILD .OHMM   05 120 46 00:   INDUCTION LOG DEEP
 ASN .OHMM   05 041 16 00:   AMPLIFIED SHORT NORMAL 16"
 SPR .MV     05 010 01 00:   SPONTANEOUS POTENTIAL FROM RES.
 CILD.MMHO   05 110 46 00:   CONDUCTIVITY INDUCTION LOG DEEP
 GR  .GAPI   30 310 01 00:   GAMMA RAY
~PARAMETER INFORMATION
#MNEM.UNIT          VALUE    DESCRIPTION
#----------   ------------   ------------------------------
 LMF .                 KB:   LOG MEASURED FROM
 DMF .                 KB:   DRILLING MEASURED FROM
 EKB .F              5105:   KELLING BUSHING
 EGL .F              5100:   GROUND LEVEL
 DATE.           8-5-1961:   RUN DATE
 RUN .                  1:   RUN NUMBER
 DD  .F               715:   DEPTH DRILLER
 DL  .F               719:   DEPTH LOGGER
 BLI .F               718:   BOTTOM LOG INTERVAL
 TLI .F               120:   TOP LOG INTERVAL
 BS  .IN             6.75:   BIT SIZE
 BSD .F               715:   BIT SIZE AT DEPTH
 DFT .       OIL EMULSION:   DRILLING FLUID TYPE
 DFV .                 40:   DRILLING FLUID VISCOSITY
 RMS .OHMM           1.11:   RESISTIVITY MUD SAMPLE
 MST .F                68:   MUD SAMPLE TEMPERATURE
 TCS .HRS               2:   TIME CURCULATED STOPPED
 LUN .               2544:   LOGGING UNIT NUMBER
 LUL .                 NC:   LOGGING UNIT LOCATION
 ENGI.            EARNEST:   RECORDING ENGINEER
 WITN.          JORGENSEN:   WITNESSED BY
 CLNT.            A2DTECH:   CLIENT CODE
 ORIG.      2" & 5" PRINT:   ORIGIN OF DATA
 UWI .       490250647900:   UNIQUE WELL ID
 DICO. A2D Technologies, Inc.:   DIGITIZING COMPANY
~OTHER INFORMATION
~A   DEPT        ILD        ASN      SPR        CILD        GR   
# ...
  507.0000     2.1518     5.7130   -47.4344   229.0419    69.4529
  507.5000     2.2322     5.5348   -47.1141   222.8144    68.4333
  508.0000     2.3120     5.6622   -46.8265   216.8503    69.9775
  508.5000     2.3929     5.8389   -46.9117   211.0778    68.8349
  509.0000     2.5455     6.0351   -47.0052   198.8947    69.5619
  509.5000     2.8416     6.7144   -47.3985   183.4899    71.5366
  510.0000     3.1357     7.3999   -47.8396   163.2429    70.5267
  510.5000     3.4307     8.0832   -48.2795   142.9407    68.4910
  511.0000     3.7271     8.7631   -48.6601   134.7252    68.3286
  511.5000     4.0085     9.1221   -48.8362   129.2574    67.2066
  512.0000     3.9656     9.0498   -49.0028   127.9075    66.2634
  512.5000     3.9105     9.2251   -48.9919   127.0792    68.9551
  513.0000     3.8568     9.3619   -48.9235   126.2475    69.4585
  513.5000     3.8035     9.2651   -48.8571   128.0712    62.5327
  514.0000     3.7505     9.1345   -48.7910   129.9023    65.0247
  514.5000     3.7173     9.0613   -48.7251   131.7334    69.4916
  515.0000     3.7178     9.0946   -48.6612   133.1052    73.9941
  515.5000     3.7374     9.2206   -48.5973   132.3952    76.3717
  516.0000     3.7706     9.3327   -48.3156   131.6852    71.5217
  516.5000     3.8041     9.3153   -48.0321   130.9752    70.0665
  517.0000     3.8377     9.2557   -47.8064   130.2652    73.9562
  517.5000     3.8713     9.1596   -47.8129   129.5552    73.1064
  518.0000     3.9050     9.1045   -47.8132   128.1632    71.2079
  518.5000     3.9385     9.0487   -47.8130   126.2484    72.3502
  519.0000     3.9639     8.9059   -47.8133   124.2148    74.5131
  519.5000     3.9413     8.7381   -47.8108   125.9068    76.3039
  520.0000     3.9185     8.7102   -47.9902   131.2375    75.5374
  520.5000     3.8960     8.7723   -48.2733   132.1133    76.9657
  521.0000     3.8756     8.8531   -48.5590   133.0452    79.0592
  521.5000     3.7642     8.8174   -48.6530   133.9771    80.8246
  522.0000     3.6244     8.6792   -48.7682   138.1585    79.3554
  522.5000     3.4836     8.5720   -48.6191   143.5607    81.0593
  523.0000     3.3431     8.3951   -48.3154   148.9629    79.1653
  523.5000     3.2188     8.2201   -48.0105   154.3652    75.6471
  524.0000     3.1762     8.0199   -47.7049   159.3613    74.8129
  524.5000     3.1306     7.7045   -47.3994   161.0180    75.8029
  525.0000     3.0847     7.5463   -47.0947   162.6747    74.5548
  525.5000     3.0384     7.4099   -46.7882   164.3313    72.0353
  526.0000     2.9922     7.2359   -46.4691   165.9880    73.3207
  526.5000     2.8947     7.3407   -46.7490   171.0912    75.7847
  527.0000     2.7435     7.3913   -47.1534   176.1477    78.8872
  527.5000     2.5925     7.2882   -47.5608   183.1337    77.5063
  528.0000     2.4406     7.0821   -47.7721   197.5894    75.4327
  528.5000     2.2900     6.8815   -47.5182   210.9704    76.8593
  529.0000     2.2702     6.5859   -47.2629   217.2147    74.2317
  529.5000     2.2803     6.1793   -47.3478   215.4074    70.9885
  530.0000     2.2924     5.8683   -47.5086   214.0719    66.6268
  530.5000     2.3044     5.8321   -47.5235   214.0719    67.2351
  531.0000     2.3143     5.7795   -47.2702   212.8144    67.8355
  531.5000     2.4597     5.7865   -47.0160   207.8443    62.7350
  532.0000     2.6718     6.4067   -47.4018   194.0905    59.9457
  532.5000     2.8848     7.1410   -47.8198   175.5356    60.5892
  533.0000     3.0985     7.4753   -47.5144   156.9807    56.5644
  533.5000     3.3136     7.5980   -47.2022   147.3253    53.1754
  534.0000     3.5078     7.6936   -46.8865   142.2904    58.8748
  534.5000     3.3266     7.8278   -46.8168   149.7987    65.4245
  535.0000     3.1354     7.9650   -46.9360   160.1710    70.7162
  535.5000     2.9458     8.0796   -47.0867   170.5433    75.6206
  536.0000     2.7560     7.9929   -47.2017   180.9156    77.4690
  536.5000     2.5744     7.7478   -47.0676   190.1597    74.7184
  537.0000     2.5686     7.3032   -46.9374   194.1118    70.2307
  537.5000     2.5695     6.7820   -46.8088   193.9017    66.5979
  538.0000     2.5694     6.3482   -46.6792   193.3785    67.4644
  538.5000     2.5700     6.3077   -46.6725   192.8553    64.2880
  539.0000     2.6010     6.3851   -46.7645   192.3322    65.8145
  539.5000     2.7759     6.6825   -46.8569   184.4469    68.6548
  540.0000     2.9718     7.2466   -46.9502   171.3678    63.7637
  540.5000     3.2448     7.8162   -47.0438   158.2887    65.3545
  541.0000     3.5209     8.2496   -47.1365   145.2096    63.1892
  541.5000     3.7982     8.5847   -47.1913   134.9767    59.2110
  542.0000     3.9256     8.9244   -47.0034   125.2495    55.4974
  542.5000     3.9430     9.2158   -46.8134   125.0689    58.3393
  543.0000     3.9599     9.3143   -46.6228   124.8322    58.7237
  543.5000     3.9763     9.4287   -46.4284   124.5956    58.0906
  544.0000     3.9928     9.5269   -46.3762   124.3589    60.0602
  544.5000     4.0094     9.5159   -46.3303   123.7086    59.4380
  545.0000     4.0260     9.4988   -46.2832   122.7146    60.9888
  545.5000     4.0424     9.5334   -46.2309   121.7206    62.9748
  546.0000     4.0589     9.7253   -46.3719   120.7265    64.5013
  546.5000     4.0514    10.0155   -46.5770   121.4451    54.9468
  547.0000     4.0229    10.0066   -46.7842   123.6816    56.6876
  547.5000     3.9942     9.9036   -46.9932   125.9182    59.8830
  548.0000     3.9653     9.6308   -47.2088   128.1547    63.1693
  548.5000     3.9377     9.6557   -47.1795   128.0257    66.4485
  549.0000     3.9435     9.6383   -47.1234   125.6606    69.7218
  549.5000     4.0435     9.5287   -47.0680   123.2955    73.8093
  550.0000     4.1400     9.4967   -47.0130   120.9304    70.8939
  550.5000     4.2419     9.5103   -46.9582   119.2615    65.4280
  551.0000     4.1593     9.6454   -46.9039   120.5369    66.6743
  551.5000     4.0186     9.8181   -46.8474   124.9920    68.4300
  552.0000     3.7137    10.0061   -46.7590   132.3446    64.4291
  552.5000     3.3678    10.0364   -46.5059   147.5249    67.1825
  553.0000     3.0199    10.0427   -46.2585   162.7053    70.8653
  553.5000     2.6720     9.7773   -46.0139   175.8563    72.4398
  554.0000     2.6417     8.6803   -45.8194   180.7452    69.5659
  554.5000     2.6667     7.5921   -45.8244   179.0951    71.0648
  555.0000     2.6925     6.8922   -45.8229   177.4451    73.1282
  555.5000     2.7226     6.9387   -45.8337   176.5709    67.2451
  556.0000     2.8663     6.9943   -46.1402   178.1437    61.4242
  556.5000     3.0128     7.7678   -46.4558   170.6886    55.7144
  557.0000     3.3607     8.8898   -46.7710   153.9247    51.8202
  557.5000     3.8377    10.0172   -47.0882   134.7430    53.8932
  558.0000     4.3188    10.4764   -47.4112   115.5614    51.8478
  558.5000     4.8082    10.9310   -47.5692   104.8247    48.7846
  559.0000     4.9645    11.2029   -47.7229   100.3101    47.4940
  559.5000     4.8591    11.3365   -47.8784   101.2546    49.6752
  560.0000     4.7432    11.4325   -48.0120   103.9563    48.9243
  560.5000     4.7168    11.6603   -48.0125   105.8483    50.3306
  561.0000     4.8210    11.8919   -48.0163   102.5482    51.7471
  561.5000     5.0189    12.1200   -47.8432    98.3283    50.4969
  562.0000     5.2161    12.3898   -47.6118    92.1407    49.4289
  562.5000     5.5377    12.9980   -47.3828    85.9531    50.8144
  563.0000     5.9935    13.8355   -47.2740    79.7655    45.8526
  563.5000     6.3868    15.3529   -47.5171    73.5778    40.2216
  564.0000     6.9561    16.8302   -47.7489    67.3902    40.9222
  564.5000     7.5291    18.3154   -47.9809    61.2009    33.2750
  565.0000     8.3565    19.8004   -48.3171    55.0089    32.1446
  565.5000     9.3319    21.2854   -48.6692    48.8175    28.5438
  566.0000    10.2971    22.7705   -49.0217    42.6286    25.6031
  566.5000    10.7099    24.2364   -49.3744    41.4345    27.0091
  567.0000    10.7426    25.1667   -49.7251    43.7445    28.0200
  567.5000    10.3845    25.3822   -50.0467    46.0546    24.4221
