~VERSION INFORMATION
 VERS.                2.0:   CWLS LOG ASCII STANDARD - VERSION 2.0
 WRAP.                 NO:   ONE LINE PER DEPTH STEP
~WELL INFORMATION
#MNEM.UNIT      DATA TYPE    INFORMATION
#----------   ------------   ------------------------------
 STRT.F           32.0000:   START DEPTH
 STOP.F          662.0000:   STOP DEPTH
 STEP.F            0.5000:   STEP LENGTH
 NULL.          -999.2500:   NO VALUE
 COMP.    FENIX & SCISSON:   COMPANY
 WELL.   NPR 67SX34 #3-34:   WELL
 FLD .             TEAPOT:   FIELD
 LOC .      S34 T39N R78W:   LOCATION
 CNTY.            NATRONA:   COUNTY
 STAT.            WYOMING:   STATE
 CTRY. UNITED STATES OF AMERICA:   COUNTRY
 SRVC.            Unknown:   SERVICE COMPANY
 DATE.        03-SEP-1978:   LOGDATE
 API .       490251070500:   API NUMBER
~CURVE INFORMATION
#MNEM.UNIT       API CODE    CURVE DESCRIPTION
#----------   ------------   ------------------------------
 DEPT.F                  :   
 ILD .OHMM   05 120 46 00:   INDUCTION LOG DEEP
 SN  .OHMM   05 040 00 00:   SHORT NORMAL
 SPR .MV     05 010 01 00:   SPONTANEOUS POTENTIAL FROM RES.
 CALD.IN     45 280 60 00:   CALIPER FROM DENSITY LOG
 DEN .G/C3   45 350 01 00:   COMPENSATED BULK DENSTIY
 DPHI.DEC    45 890 12 00:   DENSITY POROSITY SANDSTONE
 DRHO.G/C3   45 356 01 00:   DENSITY CORRECTION
 GRD .GAPI   45 310 01 00:   GAMMA RAY FROM DENSITY LOG
~PARAMETER INFORMATION
#MNEM.UNIT          VALUE    DESCRIPTION
#----------   ------------   ------------------------------
 PD  .                 GL:   PERMANENT DATUM
 EPD .F              5076:   ELEVATION PERMANENT DATUM
 LMF .                 KB:   LOG MEASURED FROM
 DAPD.F                 4:   FEET ABOVE PERMANENT DATUM
 DMF .                 KB:   DRILLING MEASURED FROM
 EKB .F              5080:   KELLING BUSHING
 EGL .F              5076:   GROUND LEVEL
 DATE.        03-SEP-1978:   RUN DATE
 RUN .                  1:   RUN NUMBER
 DD  .F               660:   DEPTH DRILLER
 DL  .F               662:   DEPTH LOGGER
 BLI .F               662:   BOTTOM LOG INTERVAL
 TLI .F                40:   TOP LOG INTERVAL
 CS  .IN            8.625:   CASING SIZE
 CBD .F                40:   CASING BOTTOM DRILLER
 BS  .IN            7.875:   BIT SIZE
 BSD .F               660:   BIT SIZE AT DEPTH
 DFT .                KCL:   DRILLING FLUID TYPE
 DFD .                9.0:   DRILLING FLUID DENSITY
 DFV .                 34:   DRILLING FLUID VISCOSITY
 MSS .           FLOWLINE:   MUD SAMPLE SOURCE
 RMS .OHMM            1.4:   RESISTIVITY MUD SAMPLE
 MST .F                65:   MUD SAMPLE TEMPERATURE
 RMF .OHMM            3.2:   RESISTIVITY MUD FILTRATE SAMPLE
 MFST.F                77:   MUD FILTRATE SAMPLE TEMPERATURE
 RMC .OHMM            2.1:   RESISTIVITY MUD CAKE
 MCST.F                78:   MUD CAKE SAMPLE TEMPERATURE
 MFSS.               MEAS:   MUD FILTRATE SAMPLE SOURCE
 TCS .HRS               1:   TIME CURCULATED STOPPED
 LUN .               3006:   LOGGING UNIT NUMBER
 LUL .               CASP:   LOGGING UNIT LOCATION
 ENGI.             MILLER:   RECORDING ENGINEER
 WITN.           MCGINLEY:   WITNESSED BY
 CLNT.            A2DTECH:   CLIENT CODE
 ORIG.        2" 5" PRINT:   ORIGIN OF DATA
 UWI .       490251070500:   UNIQUE WELL ID
 DICO. A2D Technologies, Inc.:   DIGITIZING COMPANY
~OTHER INFORMATION
~A   DEPT      ILD         SN        SPR       CALD        DEN       DPHI       DRHO         GRD  
# ...
  275.0000     9.3153     9.3207   -14.9621     7.0597     2.4148     0.1654    -0.0015    80.1349
  275.5000     9.3146     9.2577   -14.9578     7.0910     2.4223     0.1707     0.0015    75.9664
  276.0000     9.3140     9.2592   -15.1040     7.1373     2.4253     0.1751     0.0060    74.6295
  276.5000     9.3133     9.2604   -15.0987     7.2099     2.4170     0.1765     0.0045    73.4405
  277.0000     9.2485     9.2616   -15.0944     7.2848     2.4140     0.1693     0.0060    73.4460
  277.5000     9.2479     9.1990   -15.0902     7.3448     2.4170     0.1591     0.0136    73.8975
  278.0000     9.1836     9.1369   -15.0849     7.4197     2.4365     0.1630     0.0195    74.6470
  278.5000     9.1829     9.0754   -14.9303     7.4648     2.4320     0.1657     0.0120    75.8436
  279.0000     9.1822     9.0766   -14.9260     7.5248     2.4312     0.1657     0.0075    76.4441
  279.5000     9.1816     9.0781   -14.7714     7.5699     2.4350     0.1621     0.0105    76.5976
  280.0000     9.1810     9.0791   -14.7661     7.5702     2.4410     0.1567     0.0165    76.6021
  280.5000     9.1803     9.1434   -14.7619     7.5705     2.4440     0.1567     0.0195    77.5016
  281.0000     9.1797     9.1446   -14.7577     7.5707     2.4447     0.1546     0.0225    79.7415
  281.5000     9.0530     9.0828   -14.7464     7.5860     2.4440     0.1554     0.0255    79.8938
  282.0000     8.9076     9.0214   -14.5988     7.5863     2.4432     0.1583     0.0315    78.4089
  282.5000     8.8583     8.8991   -14.7450     7.5881     2.4410     0.1514     0.0361    77.6682
  283.0000     8.7435     8.8357   -14.7397     7.6018     2.4470     0.1439     0.0530    77.0764
  283.5000     8.6827     8.7792   -14.7353     7.6021     2.4552     0.1364     0.0676    76.6326
  284.0000     8.6223     8.6599   -14.5798     7.5874     2.4635     0.1373     0.0751    76.9362
  284.5000     8.5622     8.5424   -14.7270     7.5878     2.4695     0.1349     0.0766    77.0896
  285.0000     8.4441     8.5435   -14.7217     7.5731     2.4709     0.1298     0.0766    77.2430
  285.5000     8.4435     8.5449   -14.8678     7.5735     2.4754     0.1262     0.0766    77.2494
  286.0000     8.4430     8.5460   -15.0139     7.5588     2.4830     0.1247     0.0751    77.6990
  286.5000     8.4423     8.5471   -15.3094     7.5591     2.4883     0.1238     0.0676    77.8783
  287.0000     8.4417     8.5483   -15.3052     7.5594     2.4904     0.1339     0.0556    77.5597
  287.5000     8.4412     8.5496   -15.2999     7.5597     2.4987     0.1473     0.0478    76.5209
  288.0000     8.4992     8.5507   -15.2956     7.5600     2.4807     0.1502     0.0285    72.5014
  288.5000     8.4985     8.5518   -15.1410     7.5603     2.4536     0.1460     0.0285    70.5684
  289.0000     8.4980     8.5530   -15.1368     7.5457     2.4589     0.1433     0.0285    69.3805
  289.5000     8.4974     8.5543   -15.1315     7.5609     2.4626     0.1457     0.0285    68.9367
  290.0000     8.4383     8.4380   -15.1273     7.5612     2.4589     0.1508     0.0300    74.0092
  290.5000     8.3217     8.3810   -14.9726     7.5615     2.4558     0.1529     0.0330    75.8009
  291.0000     8.2069     8.2611   -14.8180     7.5618     2.4528     0.1526     0.0345    75.3592
  291.5000     8.0379     8.0985   -14.8127     7.5621     2.4506     0.1517     0.0345    75.6617
  292.0000     7.9270     7.9334   -14.8085     7.5624     2.4513     0.1457     0.0330    76.7253
  292.5000     7.7636     7.7719   -14.6539     7.5477     2.4521     0.1484     0.0330    81.5125
  293.0000     7.7096     7.6663   -14.6497     7.5481     2.4536     0.1505     0.0345    82.9774
  293.5000     7.7091     7.6145   -14.7958     7.5484     2.4543     0.1487     0.0345    82.2377
  294.0000     7.7086     7.6157   -14.9419     7.5636     2.4535     0.1493     0.0360    82.2421
  294.5000     7.7080     7.6695   -15.0881     7.5639     2.4535     0.1499     0.0360    82.0770
  295.0000     7.4972     7.7309   -15.2431     7.5642     2.4535     0.1499     0.0345    80.7606
  295.5000     7.2922     7.8867   -15.3793     7.5495     2.4535     0.1508     0.0315    80.1688
  296.0000     7.2918     7.8878   -15.5254     7.5349     2.4543     0.1493     0.0285    78.9810
  296.5000     7.3417     7.9681   -15.7343     7.5203     2.4475     0.1451     0.0270    77.7920
  297.0000     7.3923     8.0037   -15.9670     7.5206     2.4544     0.1484     0.0255    78.8407
  297.5000     7.4947     8.0564   -16.1132     7.5359     2.4587     0.1511     0.0270    82.8689
  298.0000     7.5462     8.0574   -16.1083     7.5361     2.4512     0.1503     0.0285    84.8107
  298.5000     7.7038     8.0585   -16.1036     7.5514     2.4505     0.1469     0.0285    80.8708
  299.0000     7.7568     8.1157   -16.1103     7.5517     2.4535     0.1429     0.0315    79.1563
  299.5000     7.8101     8.1167   -16.2455     7.5669     2.4595     0.1410     0.0375    80.3540
  300.0000     7.8095     8.0497   -16.2404     7.5970     2.4653     0.1425     0.0405    80.8049
  300.5000     7.7562     7.9517   -16.3897     7.5527     2.4677     0.1431     0.0390    81.4025
  301.0000     7.7568     7.8975   -16.5386     7.5382     2.4647     0.1410     0.0375    82.2981
  301.5000     7.6507     7.8436   -16.6872     7.5387     2.4625     0.1362     0.0345    82.3045
  302.0000     7.6514     7.7901   -16.6857     7.5391     2.4707     0.1411     0.0330    81.6850
  302.5000     7.6519     7.7908   -16.8347     7.5545     2.4722     0.1464     0.0330    81.7561
  303.0000     7.7055     7.7913   -16.6826     7.5400     2.4662     0.1458     0.0329    83.1985
  303.5000     7.7060     7.7979   -16.6811     7.5554     2.4587     0.1395     0.0329    85.4354
  304.0000     7.7065     7.8465   -16.6797     7.5708     2.4647     0.1305     0.0359    85.2878
  304.5000     7.6540     7.8470   -16.5275     7.5862     2.4707     0.1344     0.0389    83.6499
  305.0000     7.4973     7.8475   -16.5261     7.6015     2.4790     0.1359     0.0419    82.7572
  305.5000     7.3947     7.7940   -16.6754     7.5870     2.4722     0.1305     0.0449    84.2490
  306.0000     7.3444     7.7945   -16.6736     7.5725     2.4797     0.1380     0.0389    83.6543
  306.5000     7.3450     7.7413   -16.6707     7.5282     2.4820     0.1419     0.0298    82.0164
  307.0000     7.2947     7.7270   -16.5203     7.5137     2.4797     0.1491     0.0193    80.9647
  307.5000     7.3459     7.6890   -16.5186     7.4843     2.4632     0.1527     0.0088    79.7342
  308.0000     7.3464     7.6367   -16.5173     7.4549     2.4520     0.1542     0.0028    77.6989
  308.5000     7.3469     7.5325   -16.3654     7.3659     2.4482     0.1557     0.0027    79.1910
  309.0000     7.3475     7.5329   -16.5143     7.5753     2.4474     0.1536     0.0027    83.2163
  309.5000     7.3990     7.5335   -16.5125     7.5309     2.4452     0.1566     0.0042    84.4100
  310.0000     7.4508     7.5340   -16.5111     7.4866     2.4429     0.1584     0.0041    84.7091
  310.5000     7.4513     7.5867   -16.5097     7.4571     2.4422     0.1623     0.0027    83.8168
  311.0000     7.4519     7.5350   -16.6586     7.6218     2.4467     0.1689    -0.0003    83.8182
  311.5000     7.4524     7.5355   -16.8076     7.8760     2.4332     0.1755    -0.0018    83.0745
  312.0000     7.5046     7.5361   -16.6554     8.0555     2.4144     0.1736    -0.0019    80.0656
  312.5000     7.5051     7.5366   -16.5036     8.0709     2.4143     0.1678    -0.0004    79.9478
  313.0000     7.5056     7.5392   -16.5022     8.0564     2.4174     0.1599     0.0011    79.9496
  313.5000     7.5583     7.5900   -16.5007     8.0569     2.4265     0.1584     0.0101    80.1001
  314.0000     7.5588     7.6431   -16.4992     8.0574     2.4396     0.1548     0.0148    80.5486
  314.5000     7.6117     7.6436   -16.4975     8.0578     2.4482     0.1539     0.0086    81.2952
  315.0000     7.6650     7.5915   -16.3457     8.1030     2.4497     0.1602     0.0041    82.6380
