~VERSION INFORMATION
 VERS.                2.0:   CWLS LOG ASCII STANDARD - VERSION 2.0
 WRAP.                 NO:   ONE LINE PER DEPTH STEP
~WELL INFORMATION
#MNEM.UNIT      DATA TYPE    INFORMATION
#----------   ------------   ------------------------------
 STRT.F           17.0000:   START DEPTH
 STOP.F         1345.0000:   STOP DEPTH
 STEP.F            0.5000:   STEP LENGTH
 NULL.          -999.2500:   NO VALUE
 COMP. DEPARTMENT OF ENERGY:   COMPANY
 WELL. RES 3 TEAPOT DOME ##86S-11:   WELL
 FLD .             TEAPOT:   FIELD
 LOC .      S11 T38N R78W:   LOCATION
 CNTY.            NATRONA:   COUNTY
 STAT.            WYOMING:   STATE
 CTRY. UNITED STATES OF AMERICA:   COUNTRY
 SRVC.       Schlumberger:   SERVICE COMPANY
 DATE.        13-AUG-1959:   LOGDATE
 API .       490250633200:   API NUMBER
~CURVE INFORMATION
#MNEM.UNIT       API CODE    CURVE DESCRIPTION
#----------   ------------   ------------------------------
 DEPT.F                  :   
 SPR .MV     05 010 01 00:   SPONTANEOUS POTENTIAL FROM RES.
 CILD.MMHO   05 110 46 00:   CONDUCTIVITY INDUCTION LOG DEEP
 ILD .OHMM   05 120 46 00:   INDUCTION LOG DEEP
 ASN .OHMM   05 041 16 00:   AMPLIFIED SHORT NORMAL 16"
~PARAMETER INFORMATION
#MNEM.UNIT          VALUE    DESCRIPTION
#----------   ------------   ------------------------------
 PD  .                 GL:   PERMANENT DATUM
 EPD .F              5295:   ELEVATION PERMANENT DATUM
 LMF .                 KB:   LOG MEASURED FROM
 DAPD.F                 4:   FEET ABOVE PERMANENT DATUM
 DMF .                 KB:   DRILLING MEASURED FROM
 EKB .F              5299:   KELLING BUSHING
 EGL .F              5295:   GROUND LEVEL
 DATE.            8-13-59:   RUN DATE
 RUN .                  1:   RUN NUMBER
 DD  .F              1350:   DEPTH DRILLER
 DL  .F              1350:   DEPTH LOGGER
 BLI .F              1345:   BOTTOM LOG INTERVAL
 TLI .F                17:   TOP LOG INTERVAL
 CBD .F                17:   CASING BOTTOM DRILLER
 CBL .F                17:   CASING BOTTOM LOGGER
 BS  .IN             6.75:   BIT SIZE
 BSD .F              1350:   BIT SIZE AT DEPTH
 DFT .                GEL:   DRILLING FLUID TYPE
 DFD .                9.8:   DRILLING FLUID DENSITY
 DFV .                 65:   DRILLING FLUID VISCOSITY
 DFPH.                9.5:   DRILLING FLUID PH
 DFL .                5.4:   DRILLING FLUID LOSS
 RMS .OHMM           2.84:   RESISTIVITY MUD SAMPLE
 MST .F                69:   MUD SAMPLE TEMPERATURE
 RMF .OHMM            2.5:   RESISTIVITY MUD FILTRATE SAMPLE
 MFST.F                69:   MUD FILTRATE SAMPLE TEMPERATURE
 RMC .OHMM           2.46:   RESISTIVITY MUD CAKE
 MCST.F                69:   MUD CAKE SAMPLE TEMPERATURE
 MFSS.                  M:   MUD FILTRATE SAMPLE SOURCE
 MCSS.                  M:   MUD CAKE SAMPLE SOURCE
 TCS .HRS               1:   TIME CURCULATED STOPPED
 LUN .               2523:   LOGGING UNIT NUMBER
 LUL .               CSPR:   LOGGING UNIT LOCATION
 ENGI.             KNOBEL:   RECORDING ENGINEER
 WITN.             MARTIN:   WITNESSED BY
 CLNT.            A2DTECH:   CLIENT CODE
 ORIG.         2"5" PRINT:   ORIGIN OF DATA
 UWI .       490250633200:   UNIQUE WELL ID
 DICO. A2D Technologies, Inc.:   DIGITIZING COMPANY
~OTHER INFORMATION
~A   DEPT      SPR        CILD         ILD      ASN   
# ...
 1258.0000   -36.7168    80.0530    12.0641    14.6811
 1258.5000   -35.7133    80.5622    12.0438    14.4958
 1259.0000   -35.5289    81.0714    12.0155    14.2705
 1259.5000   -35.2940    81.5807    12.0004    14.0274
 1260.0000   -35.0926    82.0900    11.8956    13.7790
 1260.5000   -34.8911    82.5992    11.7440    13.5989
 1261.0000   -34.4552    83.1084    11.6199    13.4371
 1261.5000   -33.3970    83.6177    11.4851    13.2826
 1262.0000   -33.8940    84.4534    11.3577    13.1298
 1262.5000   -34.4687    85.6835    11.2228    12.9746
 1263.0000   -33.9868    86.9137    11.0980    12.8175
 1263.5000   -32.9285    88.1438    10.9543    12.6740
 1264.0000   -31.6253    89.3764    10.8864    12.5178
 1264.5000   -30.9573    90.6140    10.8777    12.5671
 1265.0000   -30.5989    92.0584    10.8445    12.7030
 1265.5000   -30.4057    91.5042    10.8040    12.8328
 1266.0000   -29.9851    90.6263    10.8322    12.9500
 1266.5000   -29.3257    89.7400    11.1096    13.1702
 1267.0000   -29.6555    87.1022    11.3597    13.6820
 1267.5000   -30.2527    83.4401    11.6166    14.2046
 1268.0000   -30.4787    79.7560    12.0424    14.6045
 1268.5000   -29.9275    76.0609    12.6459    15.3798
 1269.0000   -29.8794    72.3692    13.2072    16.1324
 1269.5000   -30.1388    68.6996    13.8483    17.0236
 1270.0000   -30.3057    66.5915    14.2432    17.2030
 1270.5000   -29.5748    64.8118    14.3299    16.4851
 1271.0000   -28.9590    65.2075    14.2447    15.7846
 1271.5000   -29.0871    65.8104    13.4629    15.0842
 1272.0000   -30.1112    71.2261    12.7628    14.3829
 1272.5000   -31.9325    76.7616    12.0429    13.6774
 1273.0000   -32.9087    82.2972    11.3670    12.9769
 1273.5000   -32.8036    87.8328    11.0368    12.7263
 1274.0000   -32.1774    91.1275    10.8128    12.5296
 1274.5000   -31.8794    92.3035    10.5093    12.3406
 1275.0000   -31.5685    92.7545    10.3337    12.1563
 1275.5000   -30.9765    93.2056    10.3704    11.9122
 1276.0000   -30.5139    93.6566    10.3781    11.9138
 1276.5000   -30.2197    94.1077    10.4012    11.9170
 1277.0000   -29.8220    94.5587    10.4156    11.9355
 1277.5000   -29.4624    95.0098    10.4344    11.9526
 1278.0000   -29.0703    95.4608    10.4508    11.9660
 1278.5000   -29.0399    95.3730    10.4684    11.9811
 1279.0000   -29.3290    94.9064    10.4853    11.9967
 1279.5000   -29.3986    94.4398    10.5023    12.0116
 1280.0000   -29.0507    93.9732    10.5192    12.0273
 1280.5000   -28.7329    93.5066    10.5362    12.0418
 1281.0000   -28.4093    92.9353    10.5532    12.0590
 1281.5000   -28.0875    92.9353    10.5701    12.0669
 1282.0000   -27.8226    92.9353    10.5871    12.0564
 1282.5000   -27.9250    92.9353    10.6040    12.0482
 1283.0000   -28.1201    92.9353    10.6210    12.0390
 1283.5000   -28.3479    92.9341    10.6379    12.0303
 1284.0000   -28.1980    92.9342    10.6549    12.0213
 1284.5000   -27.8252    92.9347    10.6718    12.0125
 1285.0000   -27.5060    92.9353    10.6889    12.0036
 1285.5000   -27.1636    92.9352    10.7058    11.9948
 1286.0000   -26.7964    92.9351    10.7230    11.9859
 1286.5000   -26.7028    92.9349    10.7395    11.9771
 1287.0000   -26.6639    92.9346    10.7573    11.9683
 1287.5000   -26.6110    92.9353    10.7729    11.9594
 1288.0000   -26.5650    92.9353    10.7931    11.9506
 1288.5000   -26.6593    92.9353    10.7936    11.9416
 1289.0000   -26.8469    92.9883    10.7645    11.9330
 1289.5000   -26.9321    93.1421    10.7385    11.9235
 1290.0000   -26.8739    93.2958    10.7106    11.9159
 1290.5000   -26.8344    93.4496    10.6838    11.9046
 1291.0000   -26.7576    93.6034    10.6564    11.9003
 1291.5000   -26.9667    93.7571    10.6292    11.8828
 1292.0000   -27.5561    93.9109    10.6020    11.9322
 1292.5000   -27.8250    94.0647    10.5748    11.9827
 1293.0000   -27.5211    94.2184    10.5476    11.9738
 1293.5000   -27.1983    94.3722    10.5205    11.9783
 1294.0000   -26.8766    94.5260    10.4933    11.9759
 1294.5000   -26.5393    94.6797    10.4663    11.9772
 1295.0000   -26.3502    94.8335    10.4388    11.9766
 1295.5000   -26.2781    94.9873    10.4122    11.9770
 1296.0000   -26.1723    95.1410    10.3840    11.9766
 1296.5000   -25.8853    95.2948    10.3595    11.9773
 1297.0000   -25.5801    95.4486    10.3299    11.9764
 1297.5000   -25.2848    95.6023    10.2962    11.9785
 1298.0000   -24.9863    95.4336    10.2665    11.9582
 1298.5000   -24.6938    95.1328    10.2352    11.9194
 1299.0000   -24.5668    94.8319    10.2046    11.8939
 1299.5000   -24.5091    94.5311    10.1737    11.8554
 1300.0000   -24.4215    94.2303    10.1430    11.7569
 1300.5000   -24.4802    93.9295    10.1122    11.6581
 1301.0000   -24.6172    94.2629    10.0814    11.5581
 1301.5000   -24.7431    95.1103    10.0506    11.4591
 1302.0000   -24.8717    95.9577    10.0199    11.3592
 1302.5000   -25.0032    96.8051     9.9891    11.2607
 1303.0000   -25.1245    97.6525     9.9587    11.1598
 1303.5000   -25.2688    98.4999     9.9275    11.0631
 1304.0000   -25.2912    99.3474     9.8977    10.9559
 1304.5000   -24.9634   100.1947     9.8654    10.8673
 1305.0000   -24.6509   101.0422     9.8383    10.6975
 1305.5000   -24.3362   101.9743     9.7926    10.5103
 1306.0000   -24.2237   103.9112     9.6281    10.3338
 1306.5000   -24.2040   106.0522     9.4630    10.1501
 1307.0000   -24.1602   108.2011     9.2990     9.9958
 1307.5000   -24.1353   110.3469     9.1352     9.9719
 1308.0000   -24.0874   111.5371     8.9699     9.8742
 1308.5000   -24.0831   113.4080     8.8076     9.6681
 1309.0000   -23.9077   115.2932     8.6397     9.4702
 1309.5000   -23.6201   117.2053     8.4795     9.2505
 1310.0000   -23.3854   122.0578     8.2246     8.9988
 1310.5000   -23.1207   129.8091     7.6651     8.7193
 1311.0000   -22.8924   137.5189     7.0932     8.4147
 1311.5000   -22.6938   144.4577     6.6271     7.9064
 1312.0000   -22.4637   162.9876     6.2522     7.3415
 1312.5000   -22.2397   181.5176     5.8735     6.7515
 1313.0000   -22.0180   187.5221     5.4763     6.3531
 1313.5000   -21.7658   194.1937     5.2042     6.1349
 1314.0000   -21.7492   200.8654     5.0714     6.1111
 1314.5000   -21.8866   207.5370     5.1055     6.2034
 1315.0000   -22.0242   211.3463     5.3484     7.0834
 1315.5000   -22.1035   202.3073     5.4494     8.1120
 1316.0000   -22.0478   180.7493     6.0381     8.7682
 1316.5000   -21.9889   154.4006     6.8991     9.0325
 1317.0000   -21.9257   141.2940     7.6602     9.3032
 1317.5000   -21.8641   128.1874     8.3455     9.5337
 1318.0000   -21.8027   120.1088     8.5527     9.7435
 1318.5000   -21.7418   116.0752     8.7326     9.9033
 1319.0000   -21.7650   115.3521     8.8655     9.9520
 1319.5000   -21.8241   114.6289     8.9534     9.9841
 1320.0000   -21.8727   113.9058     9.0501     9.9326
 1320.5000   -21.9296   113.1827     9.1394    10.5907
 1321.0000   -21.9770   111.9369     9.2368    10.6732
 1321.5000   -22.0393   110.1684     9.3197    10.8928
 1322.0000   -22.0773   108.4111     9.4269    11.0716
 1322.5000   -22.2301   106.6374     9.5827    11.2556
 1323.0000   -22.5920   104.8627     9.7315    11.4461
 1323.5000   -22.9301   103.0854     9.8821    11.6299
 1324.0000   -23.3137   101.3052    10.0351    11.8177
 1324.5000   -23.3065    99.5245    10.1804    12.0031
 1325.0000   -23.1518    97.7486    10.3465    12.1911
 1325.5000   -23.0222    96.1801    10.4745    12.3765
 1326.0000   -22.8787    95.0850    10.5449    12.5588
 1326.5000   -22.7438    93.9934    10.6331    12.7663
 1327.0000   -22.6024    92.9010    10.7134    12.9123
 1327.5000   -22.4671    91.8051    10.7978    12.9628
 1328.0000   -22.3247    90.7058    10.8806    13.0359
 1328.5000   -22.2743    89.6048    10.9630    13.0984
 1329.0000   -22.3671    88.5034    11.0476    13.1666
 1329.5000   -22.4809    87.5111    11.1277    13.2317
 1330.0000   -22.5911    87.2859    11.2171    13.2985
 1330.5000   -22.7080    87.0805    11.2543    13.3643
