~VERSION INFORMATION
 VERS.                2.0:   CWLS LOG ASCII STANDARD - VERSION 2.0
 WRAP.                 NO:   ONE LINE PER DEPTH STEP
~WELL INFORMATION
#MNEM.UNIT      DATA TYPE    INFORMATION
#----------   ------------   ------------------------------
 STRT.F           37.5000:   START DEPTH
 STOP.F          525.5000:   STOP DEPTH
 STEP.F            0.5000:   STEP LENGTH
 NULL.          -999.2500:   NO VALUE
 COMP. LAWRENCE/ALLISON INC:   COMPANY
 WELL.    74-11 SX #10-10:   WELL
 FLD .             TEAPOT:   FIELD
 LOC .      S10 T38N R78W:   LOCATION
 CNTY.            NATRONA:   COUNTY
 STAT.            WYOMING:   STATE
 CTRY. UNITED STATES OF AMERICA:   COUNTRY
 SRVC.            Unknown:   SERVICE COMPANY
 DATE.        08-AUG-1984:   LOGDATE
 API .       490251097800:   API NUMBER
~CURVE INFORMATION
#MNEM.UNIT       API CODE    CURVE DESCRIPTION
#----------   ------------   ------------------------------
 DEPT.F                  :   
 CNC .DEC    42 890 03 00:   NEUTRON POROSITY SANDSTONE
 AC  .US/F   60 520 00 00:   ACCOUSTIC
 GRD .GAPI   45 310 01 00:   GAMMA RAY FROM DENSITY LOG
 CALD.IN     45 280 60 00:   CALIPER FROM DENSITY LOG
 CORR.G/C3   45 356 01 00:   DENSITY CORRECTION
 DPHI.DEC    45 890 12 00:   DENSITY POROSITY SANDSTONE
 DEN .G/C3   45 350 01 00:   COMPENSATED BULK DENSTIY
 RILD.OHMM   07 120 46 00:   RESISTIVITY INDUCTION LOG DEEP
 RILM.OHMM   07 120 44 00:   RESISTIVITY INDUCTION LOG MEDIUM
 RFOC.OHMM   07 220 04 00:   RESISTIVITY FOCUSED LOG
 SPR .MV     07 010 01 00:   SPONTANEOUS POTENTIAL FROM RES.
~PARAMETER INFORMATION
#MNEM.UNIT          VALUE    DESCRIPTION
#----------   ------------   ------------------------------
 PD  .                 GL:   PERMANENT DATUM
 EPD .F              5180:   ELEVATION PERMANENT DATUM
 LMF .                 GL:   LOG MEASURED FROM
 DMF .                 GL:   DRILLING MEASURED FROM
 EGL .F              5180:   GROUND LEVEL
 DATE.             8-8-84:   RUN DATE
 RUN .                  1:   RUN NUMBER
 DD  .F               525:   DEPTH DRILLER
 DL  .F               526:   DEPTH LOGGER
 BLI .F               525:   BOTTOM LOG INTERVAL
 TLI .F                42:   TOP LOG INTERVAL
 CS  .IN            9.625:   CASING SIZE
 CBD .F                42:   CASING BOTTOM DRILLER
 CBL .F                42:   CASING BOTTOM LOGGER
 BS  .IN            7.875:   BIT SIZE
 BSD .F               525:   BIT SIZE AT DEPTH
 DFT .          KCL WATER:   DRILLING FLUID TYPE
 MSS .           FLOWLINE:   MUD SAMPLE SOURCE
 RMS .OHMM           .141:   RESISTIVITY MUD SAMPLE
 MST .F                78:   MUD SAMPLE TEMPERATURE
 RMF .OHMM            .12:   RESISTIVITY MUD FILTRATE SAMPLE
 MFST.F                78:   MUD FILTRATE SAMPLE TEMPERATURE
 RMC .OHMM             .2:   RESISTIVITY MUD CAKE
 MCST.F                78:   MUD CAKE SAMPLE TEMPERATURE
 MFSS.               MEAS:   MUD FILTRATE SAMPLE SOURCE
 MCSS.               MEAS:   MUD CAKE SAMPLE SOURCE
 RMB .OHMM            .13:   RESISTIVITY MUD AT BHT
 BHT .F                89:   BOTTOM HOLE TEMPERATURE
 MRT .F                89:   MAXIMUM RECORDED TEMPERATURE
 LUN .               6307:   LOGGING UNIT NUMBER
 LUL .               GLTE:   LOGGING UNIT LOCATION
 ENGI.            JOHNSON:   RECORDING ENGINEER
 WITN.              FIVAS:   WITNESSED BY
 CLNT.            A2DTECH:   CLIENT CODE
 ORIG.           5" PRINT:   ORIGIN OF DATA
 UWI .       490251097800:   UNIQUE WELL ID
 DICO. A2D Technologies, Inc.:   DIGITIZING COMPANY
~OTHER INFORMATION
~A   DEPT      CNC         AC        GRD       CALD       CORR       DPHI        DEN       RILD       RILM       RFOC        SPR   
# ...
  342.5000     0.3010    99.6150    67.9180     7.8630     0.0700     0.2130     2.3210    46.4170    15.9610    30.7860   -45.6530
  343.0000     0.3027    99.7800    67.3940     7.8630     0.0630     0.2160     2.3170    44.3850    15.8380    30.1320   -45.3080
  343.5000     0.3155   100.1200    67.4520     7.8640     0.0570     0.2180     2.3130    43.8500    15.7130    30.5910   -44.9620
  344.0000     0.3139   100.4600    68.5790     7.8640     0.0520     0.2200     2.3080    43.7150    15.5880    30.9760   -44.6150
  344.5000     0.3095   100.8000    69.7110     7.8650     0.0610     0.2170     2.3140    43.5790    15.4630    29.2520   -44.2690
  345.0000     0.3028   101.1400    70.8430     7.8650     0.0700     0.2110     2.3240    42.4070    15.3380    28.1130   -43.9240
  345.5000     0.2893   100.9280    71.9740     7.8660     0.0780     0.2040     2.3340    40.9970    15.2420    27.4810   -43.5780
  346.0000     0.2834    99.9870    73.1030     7.8660     0.0670     0.1960     2.3450    39.5870    15.3390    26.8490   -43.2320
  346.5000     0.2815    99.0450    74.0990     7.8670     0.0650     0.1980     2.3500    37.6540    15.4190    26.2440   -42.8780
  347.0000     0.2778    98.1030    73.3740     7.8680     0.0640     0.1980     2.3490    34.5960    15.4990    27.2770   -42.9940
  347.5000     0.2684    97.1610    72.5450     7.8680     0.0630     0.1970     2.3480    34.9190    15.5780    28.2670   -43.3550
  348.0000     0.2833    96.3770    71.7240     7.8690     0.0460     0.2010     2.3410    35.6270    15.6690    29.5820   -43.7180
  348.5000     0.3043    96.0790    71.0800     7.8690     0.0290     0.2060     2.3340    36.5620    15.5240    28.6520   -44.0790
  349.0000     0.3092    96.3200    72.7930     7.8700     0.0350     0.2100     2.3260    36.3210    15.3090    27.2640   -44.3440
  349.5000     0.3129    96.9210    74.4650     7.8700     0.0430     0.2150     2.3190    35.5660    15.0930    26.0030   -44.1870
  350.0000     0.3144    97.5220    76.2460     7.8710     0.0400     0.2150     2.3180    36.0680    14.8780    26.1520   -44.0380
  350.5000     0.3103    98.1230    75.7360     7.8710     0.0360     0.2130     2.3210    37.0820    14.5560    26.3180   -43.8890
  351.0000     0.3057    98.6030    72.8620     7.8720     0.0370     0.2140     2.3180    38.0960    14.5680    26.4850   -43.7380
  351.5000     0.3041    98.6030    72.0410     7.8730     0.0550     0.2150     2.3160    38.9970    14.5920    26.6510   -43.5880
  352.0000     0.3122    98.6030    71.8400     7.8730     0.0660     0.2130     2.3230    43.3100    14.6160    26.7320   -42.9860
  352.5000     0.3179    98.6030    71.1870     7.8740     0.0120     0.2080     2.3300    48.0370    14.6400    26.5040   -41.8560
  353.0000     0.3213    98.6030    70.3850     7.8740     0.0200     0.2100     2.3290    52.7650    14.6640    26.3000   -40.7330
  353.5000     0.3126    98.6030    70.3280     7.8750     0.0310     0.2120     2.3250    56.7560    14.6900    26.2440   -39.6110
  354.0000     0.3061    98.6030    72.3970     7.8750     0.0550     0.2090     2.3260    55.2190    13.8550    26.3450   -38.5550
  354.5000     0.3018    98.8060    74.4040     7.8760     0.0770     0.2120     2.3250    50.4140    12.7080    26.4210   -37.5910
  355.0000     0.2981    99.0080    76.4370     7.8760     0.0900     0.2180     2.3160    45.6080    11.5620    26.4870   -36.6720
  355.5000     0.2950    98.8730    76.5450     7.8770     0.0920     0.2220     2.3070    42.4290    10.3520    25.7010   -36.0370
  356.0000     0.2946    98.4510    76.5480     7.8770     0.0740     0.2160     2.3140    39.8180    11.0330    24.8650   -35.6880
  356.5000     0.2980    97.8610    76.5630     7.8780     0.0560     0.2080     2.3290    37.2070    12.1040    24.1560   -35.3360
  357.0000     0.2995    97.3890    77.0140     7.8790     0.0450     0.2010     2.3430    35.0920    13.1760    23.8070   -34.9850
  357.5000     0.2948    96.4780    78.4890     7.8790     0.0540     0.1970     2.3490    33.1400    14.2900    23.4600   -34.6350
  358.0000     0.2824    95.7190    78.3360     7.8790     0.0630     0.1940     2.3540    31.1880    14.8440    23.2230   -34.2840
  358.5000     0.2752    94.9600    78.0700     7.8790     0.0630     0.1910     2.3580    29.2360    15.6690    22.9860   -33.9250
  359.0000     0.2758    94.2000    74.9480     7.8790     0.0610     0.1900     2.3620    27.2290    15.4050    22.7490   -33.7930
  359.5000     0.2760    93.9660    71.5150     7.8790     0.0620     0.1890     2.3610    26.7320    14.6920    22.0350   -33.7310
  360.0000     0.2902    94.5180    72.5770     7.8790     0.0740     0.1870     2.3620    26.8290    13.9800    20.9660   -33.6720
  360.5000     0.2921    95.0700    80.6640     7.8790     0.0720     0.1850     2.3670    26.9120    13.3980    20.0920   -33.6140
  361.0000     0.2939    95.6220    85.0520     7.8790     0.0630     0.1820     2.3710    26.9790    13.5500    20.2910   -33.5550
  361.5000     0.2979    96.1740    85.1420     7.8790     0.0540     0.1800     2.3760    25.9690    13.7440    20.4930   -33.4930
  362.0000     0.2990    95.7830    82.7530     7.8790     0.0450     0.1770     2.3820    25.1170    13.9570    20.6550   -33.4190
  362.5000     0.2902    95.3920    81.8410     7.8790     0.0380     0.1750     2.3880    24.6050    14.2480    20.2190   -33.7730
  363.0000     0.2878    95.0010    82.0470     7.8790     0.0420     0.1720     2.3920    25.0320    14.5390    19.9710   -34.0360
  363.5000     0.2867    94.6100    79.2810     7.8790     0.0440     0.1690     2.3950    25.4590    14.8300    19.7260   -34.3070
  364.0000     0.2787    94.2190    75.6670     7.8790     0.0470     0.1690     2.3950    25.8860    15.1210    19.6680   -34.5770
  364.5000     0.2743    93.8280    72.1700     7.8790     0.0500     0.1710     2.3950    26.3130    15.4120    19.6120   -34.8140
  365.0000     0.2907    93.4370    70.4230     7.8790     0.0590     0.1690     2.3970    26.7320    15.7760    19.5450   -34.5530
  365.5000     0.2993    93.0460    68.6150     7.8790     0.0760     0.1630     2.4060    26.9320    15.3610    19.6310   -34.2560
  366.0000     0.2971    92.7330    68.0490     7.8790     0.0870     0.1560     2.4170    27.1750    14.6330    19.8360   -33.9580
  366.5000     0.2924    91.8830    72.1760     7.8790     0.0920     0.1490     2.4310    27.4180    13.9050    20.0400   -33.6610
  367.0000     0.2883    91.3160    76.2950     7.8790     0.0970     0.1410     2.4440    27.6610    13.1770    20.2450   -33.3630
  367.5000     0.2871    91.3160    78.8010     7.8790     0.0890     0.1430     2.4440    27.9050    12.7610    20.2780   -33.0650
  368.0000     0.2802    91.6190    78.3010     7.8790     0.0790     0.1470     2.4370    28.2510    12.6850    19.9790   -32.7680
  368.5000     0.2761    92.1260    77.8460     7.8790     0.0710     0.1500     2.4300    27.4420    12.6090    19.7380   -32.4700
  369.0000     0.2789    92.5100    77.3970     7.8790     0.0910     0.1510     2.4290    26.6670    12.5330    19.4970   -32.1710
  369.5000     0.2853    92.8140    76.9760     7.8790     0.1140     0.1470     2.4340    25.2950    12.4570    19.3660   -31.8610
  370.0000     0.2782    92.9350    77.5610     7.8790     0.1200     0.1440     2.4390    24.6660    12.2660    19.3660   -31.9150
  370.5000     0.2710    92.9350    78.1990     7.8790     0.0990     0.1440     2.4400    23.9330    12.0560    19.1880   -32.0110
  371.0000     0.2688    92.9350    78.8370     7.8790     0.0850     0.1430     2.4400    23.2000    11.8460    19.1880   -32.2980
  371.5000     0.2758    92.7580    79.4750     7.8790     0.0910     0.1420     2.4440    22.4660    11.6360    19.0250   -32.6580
  372.0000     0.2795    92.3150    80.1030     7.8790     0.0980     0.1400     2.4480    21.7330    11.4260    18.8380   -33.0180
  372.5000     0.2779    91.8720    80.3830     7.8790     0.0940     0.1380     2.4510    20.9990    11.2160    18.6650   -33.3780
