~VERSION INFORMATION
 VERS.                2.0:   CWLS LOG ASCII STANDARD - VERSION 2.0
 WRAP.                 NO:   ONE LINE PER DEPTH STEP
~WELL INFORMATION
#MNEM.UNIT      DATA TYPE    INFORMATION
#----------   ------------   ------------------------------
 STRT.F            0.0000:   START DEPTH
 STOP.F         4112.0000:   STOP DEPTH
 STEP.F            0.5000:   STEP LENGTH
 NULL.          -999.2500:   NO VALUE
 COMP. LAWRENCE-ALLISON &AS:   COMPANY
 WELL. N P R 3-76-1-SX #3-3:   WELL
 FLD .          N.P.R. #3:   FIELD
 LOC .       S3 T38N R78W:   LOCATION
 CNTY.            NATRONA:   COUNTY
 STAT.            WYOMING:   STATE
 CTRY. UNITED STATES OF AMERICA:   COUNTRY
 SRVC.      Dresser Atlas:   SERVICE COMPANY
 DATE.        04-SEP-1983:   LOGDATE
 API .       490251093100:   API NUMBER
~CURVE INFORMATION
#MNEM.UNIT       API CODE    CURVE DESCRIPTION
#----------   ------------   ------------------------------
 DEPT.F                  :   
 DEN .G/C3   45 350 01 00:   COMPENSATED BULK DENSTIY
 CORR.G/C3   45 356 01 00:   DENSITY CORRECTION
 PORD.DEC    45 890 12 00:   POROSITY DENSITY SANDSTONE
 CNC .DEC    42 890 03 00:   NEUTRON POROSITY SANDSTONE
 SPR .MV     07 010 01 00:   SPONTANEOUS POTENTIAL
 GRR .GAPI   07 310 01 00:   GAMMA RAY FROM RES. LOG.
 RFOC.OHMM   07 220 04 00:   RESISTIVITY FOCUSED LOG
 CALD.IN     45 280 60 00:   CALIPER
 AC  .US/F   60 520 00 00:   ACOUSTIC SONIC
 RILD.OHMM   07 120 46 00:   INDUCTION LOG DEEP RESISTIVITY
 RILM.OHMM   07 120 44 00:   INDUCTION LOG MEDIUM RESISTIVITY
~PARAMETER INFORMATION
#MNEM.UNIT          VALUE    DESCRIPTION
#----------   ------------   ------------------------------
 PD  .                 GL:   PERMANENT DATUM
 EPD .F              5147:   ELEVATION PERMANENT DATUM
 LMF .                 KB:   LOG MEASURED FROM
 DAPD.F                10:   FEET ABOVE PERMANENT DATUM
 DMF .                 KB:   DRILLING MEASURED FROM
 EKB .F              5157:   KELLING BUSHING
 EGL .F              5147:   GROUND LEVEL
 DATE.             9-4-83:   RUN DATE
 RUN .                  1:   RUN NUMBER
 DD  .F              4119:   DEPTH DRILLER
 DL  .F              4115:   DEPTH LOGGER
 BLI .F              4112:   BOTTOM LOG INTERVAL
 CS  .IN            9.625:   CASING SIZE
 CBD .F               491:   CASING BOTTOM DRILLER
 CBL .F               494:   CASING BOTTOM LOGGER
 BS  .IN             8.75:   BIT SIZE
 BSD .F              4119:   BIT SIZE AT DEPTH
 DFT .            KCL GEL:   DRILLING FLUID TYPE
 DFD .                8.9:   DRILLING FLUID DENSITY
 DFV .                 46:   DRILLING FLUID VISCOSITY
 DFPH.                  9:   DRILLING FLUID PH
 DFL .               13.6:   DRILLING FLUID LOSS
 MSS .            MUDTANK:   MUD SAMPLE SOURCE
 RMS .OHMM           .315:   RESISTIVITY MUD SAMPLE
 MST .F                92:   MUD SAMPLE TEMPERATURE
 RMF .OHMM            .25:   RESISTIVITY MUD FILTRATE SAMPLE
 MFST.F                84:   MUD FILTRATE SAMPLE TEMPERATURE
 RMC .OHMM             .4:   RESISTIVITY MUD CAKE
 MCST.F                92:   MUD CAKE SAMPLE TEMPERATURE
 MFSS.                  M:   MUD FILTRATE SAMPLE SOURCE
 MCSS.                  C:   MUD CAKE SAMPLE SOURCE
 RMB .OHMM            .22:   RESISTIVITY MUD AT BHT
 BHT .F               132:   BOTTOM HOLE TEMPERATURE
 TCS .HRS               4:   TIME CURCULATED STOPPED
 MRT .F               132:   MAXIMUM RECORDED TEMPERATURE
 LUN .               6274:   LOGGING UNIT NUMBER
 LUL .               GLTE:   LOGGING UNIT LOCATION
 ENGI.             RAUTIO:   RECORDING ENGINEER
 WITN.             STRONG:   WITNESSED BY
 CLNT.            A2DTECH:   CLIENT CODE
 ORIG. 1", 2", 2.5", 5" PRINT:   ORIGIN OF DATA
 UWI .       490251093100:   UNIQUE WELL ID
 DICO. A2D Technologies, Inc.:   DIGITIZING COMPANY
~OTHER INFORMATION
~A    DEPT     DEN       CORR       PORD        CNC        SPR          GRR     RFOC       CALD         AC       RILD       RILM   
# ...
 1921.5000     2.4728    -0.0038     0.1084     0.3081   -52.0041   126.2744     8.1196     9.1447  -999.2500     7.7471     8.0075
 1922.0000     2.4768     0.0144     0.1063     0.3180   -51.9823   122.7542     8.2038     9.1442  -999.2500     7.7690     8.0277
 1922.5000     2.4809     0.0370     0.1042     0.3274   -51.9606   124.6326     8.2864     9.1438  -999.2500     7.7900     8.0519
 1923.0000     2.4850     0.0492     0.1021     0.3228   -51.9388   128.9015     8.3726     9.1433  -999.2500     7.8113     8.0770
 1923.5000     2.4878     0.0327     0.0999     0.3140   -51.9170   133.2333     8.4560     9.1428  -999.2500     7.8330     8.1024
 1924.0000     2.4872     0.0385     0.0980     0.3053   -51.8952   133.3575     8.3857     9.1423  -999.2500     7.8545     8.1275
 1924.5000     2.4867     0.0436     0.0988     0.2979   -51.8736   128.7747     8.3060     9.1419  -999.2500     7.8761     8.1527
 1925.0000     2.4859     0.0492     0.0986     0.2891   -51.8518   124.2124     8.3798     9.1414  -999.2500     7.8973     8.1780
 1925.5000     2.4823     0.0565     0.0982     0.2867   -51.8296   122.9827     8.5848     9.1409  -999.2500     7.9186     8.2033
 1926.0000     2.4777     0.0417     0.0986     0.2916   -51.8089   124.9908     8.7945     9.1404  -999.2500     7.9424     8.2291
 1926.5000     2.4729     0.0182     0.1007     0.2961   -51.7873   126.8966     9.0088     9.1399  -999.2500     7.9641     8.2547
 1927.0000     2.4742     0.0250     0.1028     0.2943   -51.8000   128.7249     9.1008     9.1395  -999.2500     7.9852     8.2792
 1927.5000     2.4803     0.0331     0.1052     0.2916   -51.8136   130.5578     9.0562     9.1390  -999.2500     8.0060     8.3034
 1928.0000     2.4855     0.0519     0.1044     0.2958   -51.8286   130.0351     9.0018     9.1385  -999.2500     7.7652     8.2749
 1928.5000     2.4808     0.0657     0.1006     0.3004   -51.8431   129.2169     8.9478     9.1381  -999.2500     7.5440     8.2486
 1929.0000     2.4765     0.0461     0.0983     0.3050   -51.8575   128.6671     8.8417     9.1376  -999.2500     7.3292     8.2219
 1929.5000     2.4720     0.0267     0.0981     0.3095   -51.8721   126.1682     8.6083     9.1371  -999.2500     7.2172     8.1949
 1930.0000     2.4698     0.0069     0.1037     0.3156   -51.8866   122.2206     8.3810     9.1366  -999.2500     7.3711     8.1679
 1930.5000     2.4680    -0.0116     0.1079     0.3126   -51.9011   120.5762     8.1539     9.1362  -999.2500     7.5054     8.1411
 1931.0000     2.4680    -0.0096     0.1090     0.3073   -51.9156   122.6322     8.2087     9.1357  -999.2500     7.6422     8.1144
 1931.5000     2.4678     0.0074     0.1093     0.3020   -51.9301   123.5195     8.2654     9.1352  -999.2500     7.7181     8.0878
 1932.0000     2.4686     0.0231     0.1093     0.2989   -51.9445   123.3275     8.3225     9.1347  -999.2500     7.7181     8.0613
 1932.5000     2.4716     0.0402     0.1088     0.2930   -51.9590   123.9066     8.3799     9.1343  -999.2500     7.7181     8.0349
 1933.0000     2.4767     0.0386     0.1071     0.2960   -51.9735   125.0367     8.4581     9.1338  -999.2500     7.7181     8.0085
 1933.5000     2.4816     0.0343     0.1050     0.2980   -51.9880   124.6402     8.4369     9.1333  -999.2500     7.7181     7.9823
 1934.0000     2.4795     0.0296     0.1020     0.3269   -52.0025   123.9773     8.4051     9.1328  -999.2500     7.7181     7.9562
 1934.5000     2.4774     0.0251     0.1004     0.3453   -52.0170   120.2854     8.3727     9.1324  -999.2500     7.7181     7.9300
 1935.0000     2.4746     0.0206     0.1032     0.3614   -52.0315   118.4769     8.3403     9.1319  -999.2500     7.7173     7.9040
 1935.5000     2.4763     0.0200     0.1048     0.3623   -52.0460   120.8157     8.3081     9.1314  -999.2500     7.7169     7.8781
 1936.0000     2.4810     0.0347     0.1029     0.3357   -52.0605   123.0511     8.2760     9.1309  -999.2500     7.6769     7.8542
 1936.5000     2.4857     0.0488     0.1003     0.3108   -52.0750   124.9198     8.2442     9.1305  -999.2500     7.6407     7.8343
 1937.0000     2.4858     0.0604     0.0988     0.3116   -52.0896   122.8400     8.2125     9.1300  -999.2500     7.6044     7.8145
 1937.5000     2.4863     0.0645     0.0988     0.3124   -52.1040   121.3247     8.1810     9.1295  -999.2500     7.5678     7.7947
 1938.0000     2.4836     0.0649     0.0988     0.3217   -52.1185   122.3556     8.1545     9.1290  -999.2500     7.5313     7.7750
 1938.5000     2.4792     0.0650     0.1010     0.3301   -52.1334   120.6049     8.1544     9.1286  -999.2500     7.4951     7.7553
 1939.0000     2.4771     0.0579     0.1032     0.3120   -52.1474   119.3349     8.1538     9.1281  -999.2500     7.4591     7.7357
 1939.5000     2.4761     0.0509     0.1045     0.2883   -52.1619   121.9334     8.1535     9.1276  -999.2500     7.4233     7.7161
 1940.0000     2.4752     0.0381     0.1048     0.2910   -52.1790   124.5030     8.1544     9.1271  -999.2500     7.3876     7.6966
 1940.5000     2.4741     0.0294     0.1050     0.2996   -52.1615   126.6693     8.1556     9.1267  -999.2500     7.3521     7.6773
 1941.0000     2.4771     0.0546     0.1048     0.3141   -52.1179   124.5776     8.1284     9.1262  -999.2500     7.3168     7.6579
 1941.5000     2.4806     0.0582     0.1035     0.3271   -52.0766   119.4369     8.0674     9.1257  -999.2500     7.2820     7.6381
 1942.0000     2.4821     0.0545     0.1023     0.3390   -52.0363   114.0920     8.0078     9.1252  -999.2500     7.2475     7.6190
 1942.5000     2.4819     0.0497     0.1011     0.3333   -51.9951   112.4953     7.9487     9.1248  -999.2500     7.2124     7.6013
 1943.0000     2.4818     0.0490     0.0996     0.3255   -51.9541   116.1277     7.8607     9.1243  -999.2500     7.1736     7.5781
 1943.5000     2.4787     0.0489     0.1004     0.3176   -51.9132   119.2686     7.9643     9.1238  -999.2500     7.2170     7.6295
 1944.0000     2.4752     0.0381     0.1029     0.3092   -51.8722   122.4133     8.1762     9.1233  -999.2500     7.2667     7.6885
 1944.5000     2.4717     0.0241     0.1052     0.3084   -51.8313   122.5939     8.3939     9.1229  -999.2500     7.3167     7.7480
 1945.0000     2.4682     0.0129     0.1074     0.3034   -51.7904   122.6610     8.6173     9.1224  -999.2500     7.3671     7.8080
 1945.5000     2.4646     0.0126     0.1097     0.2988   -51.7495   124.1836     8.7736     9.1219  -999.2500     7.4179     7.8683
 1946.0000     2.4613     0.0087     0.1125     0.2988   -51.7085   126.6068     8.6736     9.1214  -999.2500     7.4690     7.9292
 1946.5000     2.4583     0.0199     0.1156     0.3121   -51.6675   129.0529     8.4965     9.1210  -999.2500     7.5206     7.9905
 1947.0000     2.4635     0.0349     0.1139     0.3317   -51.6266   128.5426     8.3046     9.1205  -999.2500     7.5725     8.0523
 1947.5000     2.4689     0.0503     0.1108     0.3302   -51.5853   124.0592     8.3389     9.1200  -999.2500     7.6248     8.1539
 1948.0000     2.4726     0.0659     0.1076     0.3285   -51.5444   119.5263     8.4061     9.1195  -999.2500     7.6774     8.1083
 1948.5000     2.4731     0.0745     0.1051     0.3323   -51.5039   120.9258     8.4581     9.1191  -999.2500     7.7181     7.9872
 1949.0000     2.4766     0.0635     0.1051     0.3357   -51.4615   123.4587     8.3596     9.1186  -999.2500     7.5756     7.8679
 1949.5000     2.4846     0.0540     0.1037     0.3238   -51.4206   125.9660     8.2453     9.1181  -999.2500     7.4115     7.7504
 1950.0000     2.5095     0.0460     0.1020     0.3149   -51.4156   128.4059     8.1539     9.1176  -999.2500     7.2510     7.6347
 1950.5000     2.5353     0.0748     0.0796     0.2980   -51.5457   126.7847     8.1539     9.1172  -999.2500     7.0429     7.4642
 1951.0000     2.5535     0.1126     0.0594     0.2811   -51.6735   124.0482     8.1539     9.1167  -999.2500     7.1189     7.4752
 1951.5000     2.5319     0.1522     0.0586     0.2868   -51.8045   121.2103     8.1539     9.1162  -999.2500     7.2341     7.5961
