~VERSION INFORMATION
 VERS.                2.0:   CWLS LOG ASCII STANDARD - VERSION 2.0
 WRAP.                 NO:   ONE LINE PER DEPTH STEP
~WELL INFORMATION
#MNEM.UNIT      DATA TYPE    INFORMATION
#----------   ------------   ------------------------------
 STRT.F            6.0000:   START DEPTH
 STOP.F          606.0000:   STOP DEPTH
 STEP.F            0.5000:   STEP LENGTH
 NULL.          -999.2500:   NO VALUE
 COMP. LAWRENCE/ALLISON INC:   COMPANY
 WELL.       61 STX #15-3:   WELL
 FLD .             TEAPOT:   FIELD
 LOC .       S3 T38N R78W:   LOCATION
 CNTY.            NATRONA:   COUNTY
 STAT.            WYOMING:   STATE
 CTRY. UNITED STATES OF AMERICA:   COUNTRY
 SRVC.      Dresser Atlas:   SERVICE COMPANY
 DATE.        23-SEP-1987:   LOGDATE
 API .       490251115900:   API NUMBER
~CURVE INFORMATION
#MNEM.UNIT       API CODE    CURVE DESCRIPTION
#----------   ------------   ------------------------------
 DEPT.F                  :   
 GRR .GAPI   07 310 01 00:   GAMMA RAY
 RILD.OHMM   07 120 46 00:   INDUCTION LOG DEEP RESISTIVITY
 RILM.OHMM   07 120 44 00:   INDUCTION LOG MEDIUM RESISTIVITY
~PARAMETER INFORMATION
#MNEM.UNIT          VALUE    DESCRIPTION
#----------   ------------   ------------------------------
 PD  .                 GL:   PERMANENT DATUM
 EPD .F              5230:   ELEVATION PERMANENT DATUM
 LMF .                 KB:   LOG MEASURED FROM
 DAPD.F                 8:   FEET ABOVE PERMANENT DATUM
 DMF .                 KB:   DRILLING MEASURED FROM
 EKB .F              5238:   KELLING BUSHING
 EGL .F              5230:   GROUND LEVEL
 DATE.        23-SEP-1987:   RUN DATE
 RUN .                  1:   RUN NUMBER
 DD  .F               618:   DEPTH DRILLER
 DL  .F               614:   DEPTH LOGGER
 BLI .F               612:   BOTTOM LOG INTERVAL
 TLI .F                 8:   TOP LOG INTERVAL
 CS  .IN            9.625:   CASING SIZE
 CBD .F                50:   CASING BOTTOM DRILLER
 CBL .F                49:   CASING BOTTOM LOGGER
 BS  .IN             8.75:   BIT SIZE
 BSD .F               618:   BIT SIZE AT DEPTH
 DFT .                AIR:   DRILLING FLUID TYPE
 TCS .HRS               1:   TIME CURCULATED STOPPED
 LUN .            HL-6274:   LOGGING UNIT NUMBER
 LUL .           GILLETTE:   LOGGING UNIT LOCATION
 ENGI.            PANASUK:   RECORDING ENGINEER
 WITN.             STRONG:   WITNESSED BY
 CLNT.            A2DTECH:   CLIENT CODE
 ORIG.       2", 5" PRINT:   ORIGIN OF DATA
 UWI .       490251115900:   UNIQUE WELL ID
 DICO. A2D Technologies, Inc.:   DIGITIZING COMPANY
~OTHER INFORMATION
~A    DEPT      GRR      RILD       RILM   
# ...
  552.0000   117.8973     9.2688     9.6975
  552.5000   118.5847     9.2753     9.6357
  553.0000   120.4124     9.2154     9.5743
  553.5000   121.5516     9.1585     9.5145
  554.0000   121.7913     9.0393     9.4539
  554.5000   119.5573     9.0366     9.3937
  555.0000   119.1223     9.0240     9.2999
  555.5000   119.3657     8.9036     9.0715
  556.0000   119.1520     8.7235     9.0125
  556.5000   118.2709     8.4888     8.9539
  557.0000   119.1890     8.2598     8.9582
  557.5000   124.6011     8.1489     8.9617
  558.0000   127.5395     7.8750     8.9652
  558.5000   126.4298     7.6625     8.9069
  559.0000   125.5451     7.5075     8.7283
  559.5000   126.4632     7.4067     8.4350
  560.0000   128.7269     7.3079     8.1516
  560.5000   130.0910     7.3103     7.9323
  561.0000   130.3307     7.3127     7.8807
  561.5000   128.7750     7.3659     7.9392
  562.0000   127.4405     7.4716     8.1088
  562.5000   126.1060     7.6308     8.5151
  563.0000   123.6508     7.8475     8.8181
  563.5000   121.8665     8.1264     9.0690
  564.0000   120.3071     8.4325     9.3916
  564.5000   119.1975     8.8979     9.7943
  565.0000   119.2160     9.2141    10.0035
  565.5000   120.3552     9.4758    10.2171
  566.0000   120.5949     9.6859    10.3635
  566.5000   120.1600     9.8166    10.5129
  567.0000   119.9499     9.8880    10.6635
  567.5000   120.6431     9.9599    10.7416
  568.0000   121.7823    10.0324    10.7458
  568.5000   122.0220    10.0364    10.7511
  569.0000   122.2655    10.1094    10.7553
  569.5000   120.4812    10.1127    10.6843
  570.0000   120.2674    10.1207    10.6895
  570.5000   121.6352    10.2612    10.6947
  571.0000   121.8749    10.2645    10.6984
  571.5000   119.6446    10.3392    10.7031
  572.0000   118.0815    10.3426    10.7073
  572.5000   119.6742    10.3360    10.5654
  573.0000   121.2670    10.2779    10.4956
  573.5000   121.5067    10.2104    10.4274
  574.0000   120.6219    10.0741    10.2892
  574.5000   119.5123     9.8712    10.1518
  575.0000   119.9806     9.6048     9.8797
  575.5000   121.1199     9.2812     9.6140
  576.0000   122.7089     8.9067     9.2909
  576.5000   123.3984     7.9214     8.8562
  577.0000   122.5173     7.1924     8.2108
  577.5000   117.8095     6.5304     7.4561
  578.0000   116.0252     5.8479     6.6778
  578.5000   117.6143     4.9209     5.6594
  579.0000   119.6568     4.1692     4.9991
  579.5000   121.4707     3.4599     4.3551
  580.0000   123.2846     2.8317     3.6906
  580.5000   123.9741     2.5185     2.8987
  581.0000   123.5428     2.4168     2.6323
  581.5000   123.3290     2.4007     2.5263
  582.0000   124.2471     2.4352     2.5802
  582.5000   124.4868     2.5096     2.9439
  583.0000   123.6058     2.7987     3.3586
  583.5000   114.4002     3.2152     3.9664
  584.0000   111.9376     3.6428     4.6842
  584.5000   115.5543     4.2398     5.4565
  585.0000   118.9461     5.3710     6.1396
  585.5000   118.0614     6.2562     6.7663
  586.0000   110.8798     7.0884     7.2535
  586.5000   111.1195     7.5565     7.8306
  587.0000   113.3869     7.7613     8.0533
  587.5000   116.1004     7.7638     8.1687
  588.0000   118.5889     7.8203     8.2857
  588.5000   120.6277     7.9358     8.3472
  589.0000   120.8675     8.1015     8.4084
  589.5000  -999.2500     8.1605     8.4117
  590.0000  -999.2500     8.2198     8.4150
  590.5000  -999.2500     8.2225     8.4775
  591.0000  -999.2500     8.1684     8.4808
  591.5000  -999.2500     8.0039     8.4841
  592.0000  -999.2500     7.9513     8.4875
  592.5000  -999.2500     7.8990     8.4916
  593.0000  -999.2500     7.7930     8.4356
  593.5000  -999.2500     7.7418     8.3807
  594.0000  -999.2500     7.7449     8.2696
  594.5000  -999.2500     7.6940     8.2491
  595.0000  -999.2500     7.6435     8.2072
  595.5000  -999.2500     7.6466     8.1615
  596.0000  -999.2500     7.6491     8.0579
  596.5000  -999.2500     7.6516     8.0611
  597.0000  -999.2500     7.7079     8.0642
  597.5000  -999.2500     7.7104     8.0674
  598.0000  -999.2500     7.7127     8.1837
  598.5000  -999.2500     7.7154     8.2437
  599.0000  -999.2500     7.7185     8.3042
  599.5000  -999.2500     7.7211     8.3075
  600.0000  -999.2500     7.7236     8.3115
  600.5000  -999.2500     7.7261     8.3147
  601.0000  -999.2500     7.7292     8.2598
  601.5000  -999.2500     7.6778     8.1504
  602.0000  -999.2500     7.5754     7.9869
  602.5000  -999.2500     7.5255     7.8260
  603.0000  -999.2500     7.4246     7.6683
  603.5000  -999.2500  -999.2500     7.5617
  604.0000  -999.2500  -999.2500     7.1623
  604.5000  -999.2500  -999.2500     5.6249
  605.0000  -999.2500  -999.2500     5.1079
  605.5000  -999.2500  -999.2500     5.1871
  606.0000  -999.2500  -999.2500     5.6317
