~VERSION INFORMATION
 VERS.                2.0:   CWLS LOG ASCII STANDARD - VERSION 2.0
 WRAP.                 NO:   ONE LINE PER DEPTH STEP
~WELL INFORMATION
#MNEM.UNIT      DATA TYPE    INFORMATION
#----------   ------------   ------------------------------
 STRT.F            2.0000:   START DEPTH
 STOP.F          497.5000:   STOP DEPTH
 STEP.F            0.5000:   STEP LENGTH
 NULL.          -999.2500:   NO VALUE
 COMP. Fluor Daniel (NPOSR) Inc:   COMPANY
 WELL.  NPR ##3 72-5-X-10:   WELL
 FLD .             TEAPOT:   FIELD
 LOC .      S10 T38N R78W:   LOCATION
 CNTY.            NATRONA:   COUNTY
 STAT.            WYOMING:   STATE
 CTRY. UNITED STATES OF AMERICA:   COUNTRY
 SRVC.      Western Atlas:   SERVICE COMPANY
 DATE.        27-APR-1996:   LOGDATE
 API .       490252278100:   API NUMBER
~CURVE INFORMATION
#MNEM.UNIT       API CODE    CURVE DESCRIPTION
#----------   ------------   ------------------------------
 DEPT.F                  :   
 GRR .GAPI   07 310 01 00:   GAMMA RAY FROM RES. LOG.
 RILD.OHMM   07 120 46 00:   INDUCTION LOG DEEP RESISTIVITY
 RILM.OHMM   07 120 44 00:   INDUCTION LOG MEDIUM RESISTIVITY
~PARAMETER INFORMATION
#MNEM.UNIT          VALUE    DESCRIPTION
#----------   ------------   ------------------------------
 PD  .                 GL:   PERMANENT DATUM
 EPD .F              5171:   ELEVATION PERMANENT DATUM
 LMF .                 KB:   LOG MEASURED FROM
 DAPD.F                10:   FEET ABOVE PERMANENT DATUM
 DMF .                 KB:   DRILLING MEASURED FROM
 EKB .F              5181:   KELLING BUSHING
 EDF .F              5180:   DRILLING FLOOR
 EGL .F              5171:   GROUND LEVEL
 DATE.            4-27-96:   RUN DATE
 RUN .                  1:   RUN NUMBER
 DD  .F               505:   DEPTH DRILLER
 DL  .F               505:   DEPTH LOGGER
 BLI .F               498:   BOTTOM LOG INTERVAL
 CS  .IN            9.625:   CASING SIZE
 CBD .F                95:   CASING BOTTOM DRILLER
 CBL .F                95:   CASING BOTTOM LOGGER
 BS  .IN             8.75:   BIT SIZE
 BSD .F               505:   BIT SIZE AT DEPTH
 DFT .                AIR:   DRILLING FLUID TYPE
 MRT .F                88:   MAXIMUM RECORDED TEMPERATURE
 LUN .            HL-6530:   LOGGING UNIT NUMBER
 LUL .             CASPER:   LOGGING UNIT LOCATION
 ENGI.             RAUTIO:   RECORDING ENGINEER
 WITN.              HARDY:   WITNESSED BY
 CLNT.            A2DTECH:   CLIENT CODE
 ORIG.       2", 5" PRINT:   ORIGIN OF DATA
 UWI .       490252278100:   UNIQUE WELL ID
 DICO. A2D Technologies, Inc.:   DIGITIZING COMPANY
~OTHER INFORMATION
~A    DEPT      GRR      RILD       RILM   
# ...
  275.0000   134.1060     8.1198     8.2693
  275.5000   137.2101     8.1542     8.2920
  276.0000   139.8853     8.1887     8.3146
  276.5000   138.3416     8.2234     8.3374
  277.0000   134.0607     8.2583     8.3603
  277.5000   134.1999     8.2935     8.3832
  278.0000   136.8161     8.3301     8.4071
  278.5000   136.1144     8.2759     8.3631
  279.0000   132.4138     8.2191     8.3165
  279.5000   131.2690     8.1627     8.2702
  280.0000   135.0895     8.1067     8.2242
  280.5000   140.1657     8.0285     8.1779
  281.0000   138.1305     8.0967     8.2683
  281.5000   134.2472     8.2161     8.3843
  282.0000   132.2208     8.3373     8.5036
  282.5000   131.6246     8.4083     8.6192
  283.0000   130.0106     8.4072     8.8915
  283.5000   126.9320     8.0624     8.6389
  284.0000   125.4337     7.5001     7.7896
  284.5000   124.5857     6.8295     6.9603
  285.0000   125.6717     6.2239     6.2163
  285.5000   129.0139     5.8566     5.5554
  286.0000   136.7722     5.7575     5.3022
  286.5000   143.6770     5.8158     5.2535
  287.0000   142.8238     5.8126     5.7959
  287.5000   134.4085     5.9088     6.1937
  288.0000   126.5910     6.2221     6.7526
  288.5000   123.0223     6.7502     7.4245
  289.0000   122.2944     7.4226     8.1634
  289.5000   121.5919     8.1674     8.9758
  290.0000   122.9790     8.9852     9.9249
  290.5000   125.5974     9.9252    10.2032
  291.0000   123.5084    10.1134    10.1285
  291.5000   120.4635     9.9523    10.0732
  292.0000   121.2342     9.8346    10.0168
  292.5000   126.9594    10.0047    10.1638
  293.0000   131.0936    10.1839    10.2587
  293.5000   131.5197    10.5503    10.7132
  294.0000   128.7906    11.2176    11.4640
  294.5000   125.2865    11.9300    12.2643
  295.0000   116.7648    12.6871    13.1203
  295.5000   104.0086    13.4918    14.0358
  296.0000    89.3162    14.3472    15.0152
  296.5000    77.2834    15.2610    15.9448
  297.0000    70.4275    16.1040    16.7739
  297.5000    70.0870    16.9324    17.5782
  298.0000    73.7832    17.7410    18.3314
  298.5000    76.4371    18.2385    18.5329
  299.0000    77.2077    18.3692    18.7366
  299.5000    74.7370    18.4075    18.9237
  300.0000    71.0273    17.9885    18.5739
  300.5000    68.5565    17.7124    18.2591
  301.0000    70.5803    17.4169    17.9496
  301.5000    73.4522    17.5074    17.5782
  302.0000    76.2018    17.6105    17.7306
  302.5000    77.6330    17.7129    17.8682
  303.0000    77.7559    17.8164    18.0068
  303.5000    77.4926    17.9836    18.4025
  304.0000    77.2007    18.5780    19.0338
  304.5000    77.5706    19.1898    19.6867
  305.0000    79.2180    19.8569    20.3620
  305.5000    80.2233    20.5471    21.0604
  306.0000    79.2247    21.1375    21.7861
  306.5000    76.0284    21.7303    22.5510
  307.0000    73.4428    21.9505    22.5442
  307.5000    71.1987    22.2943    22.5429
  308.0000    70.9259    23.1584    23.7656
  308.5000    74.0600    24.0560    24.6846
  309.0000    77.7451    24.9884    25.6392
  309.5000    79.6333    25.9569    26.6167
  310.0000    80.9164    26.9630    28.0625
  310.5000    82.2870    28.0080    29.5656
  311.0000    80.9118    29.0936    31.1505
  311.5000    77.1270    30.2213    32.8116
  312.0000    74.0919    31.3926    34.4561
  312.5000    77.8356    32.6018    34.2976
  313.0000    81.5664    33.8266    34.0538
  313.5000    83.4873    33.3263    33.8266
  314.0000    81.4457    32.7517    32.4464
  314.5000    79.6717    32.1871    31.1978
  315.0000    81.3510    31.6322    30.2758
  315.5000    85.0606    31.1331    29.7305
  316.0000    87.0144    30.7008    29.7305
  316.5000    85.8755    30.3078    29.7305
  317.0000    83.8005    29.9199    29.7305
  317.5000    82.9299    29.3658    28.5890
  318.0000    83.5768    28.2129    27.3780
  318.5000    84.1928    27.1053    26.2185
  319.0000    85.5455    26.0412    25.1073
  319.5000    90.1808    24.9532    24.0398
  320.0000    92.9846    24.1752    22.9662
  320.5000    95.1101    23.1562    22.4220
  321.0000    93.6426    22.1347    21.8573
  321.5000    91.4322    21.7514    21.3069
  322.0000    89.1403    21.4293    20.7513
  322.5000    89.7007    21.2494    20.7513
  323.0000    90.9073    21.1375    20.7513
  323.5000    92.1558    21.1375    20.7879
  324.0000    92.1634    21.2524    20.8845
  324.5000    92.2424    21.3333    20.9816
  325.0000    93.0166    21.3333    21.0791
  325.5000    94.3019    21.3948    21.1771
  326.0000    95.9058    21.5480    21.2756
  326.5000    97.4986    21.7023    21.3333
  327.0000    99.0820    21.8577    20.8301
  327.5000    99.8743    22.0142    20.5617
  328.0000    99.4497    22.1347    20.6227
  328.5000    96.0994    22.0411    20.6730
  329.0000    92.7802    21.9511    20.7236
  329.5000    92.7060    21.8615    20.7513
  330.0000    93.2606    21.7722    20.4739
  330.5000    94.6996    21.6833    20.2849
  331.0000    93.6034    21.5947    20.0976
  331.5000    93.2422    21.4706    19.9661
  332.0000    92.7514    21.2539    19.8950
  332.5000    92.0534    21.0394    19.8242
  333.0000    92.3782    20.8270    19.7009
  333.5000    92.7391    20.6168    19.4685
  334.0000    92.4014    20.4087    19.2390
  334.5000    95.6621    20.1852    19.0121
  335.0000    99.1474    19.9848    18.7879
  335.5000   100.0109    19.7679    18.5663
  336.0000    98.4157    19.5534    18.3473
  336.5000    95.0159    19.3977    18.1310
  337.0000    94.2736    19.2922    17.8991
  337.5000    93.3339    19.1872    18.2413
  338.0000    92.4030    19.0990    18.5348
  338.5000    91.8973    19.1280    18.8484
  339.0000    93.4194    19.1588    19.0990
  339.5000    94.0339    19.1895    19.0039
  340.0000    93.1995    19.2202    18.7500
  340.5000    92.5015    19.2509    18.5780
  341.0000    92.8357    19.2759    18.8332
  341.5000    93.3452    18.8808    19.0990
  342.0000    93.8605    18.5553    18.5453
  342.5000    94.8839    18.2354    18.1585
  343.0000    97.0027    17.9313    17.7797
  343.5000    98.3534    17.8774    17.4169
  344.0000    98.0940    17.9922    17.4169
  344.5000    96.7511    18.4777    18.4363
  345.0000    95.4018    18.9924    19.3114
  345.5000    93.1846    19.5146    20.2281
  346.0000    90.7945    20.3774    21.1908
  346.5000    89.2233    20.1560    21.7402
  347.0000    88.3017    19.8207    20.7369
  347.5000    87.1596    19.5018    19.6435
  348.0000    85.6025    18.9377    18.6021
  348.5000    86.1039    18.3611    17.6177
  349.0000    89.9209    17.8030    16.6854
  349.5000    93.9813    16.8932    15.7270
  350.0000    96.7146    16.0413    15.5835
  350.5000    96.3985    15.2791    15.5997
  351.0000    96.2741    15.1115    15.2796
  351.5000    98.4326    15.0112    15.0282
  352.0000   100.0308    14.9596    15.0282
  352.5000    99.2307    14.9080    15.0282
  353.0000    97.8366    14.8567    15.0282
  353.5000    96.3876    14.8056    14.9904
  354.0000    94.2361    14.7536    14.7678
  354.5000    93.6502    14.5309    14.5485
  355.0000    93.0335    14.3071    14.3322
  355.5000    92.0267    14.0868    14.1193
  356.0000    91.2347    13.8698    13.9096
  356.5000    92.5207    13.7046    13.7596
  357.0000    95.9352    13.5925    13.6450
  357.5000   100.5386    13.4589    13.5315
  358.0000   103.3276    13.3266    13.4189
  358.5000   102.2238    13.1956    13.3073
  359.0000   102.9140    13.0659    13.1965
  359.5000   104.7766    12.9373    13.0867
  360.0000   104.2274    12.8481    12.9671
  360.5000   102.4501    12.8481    12.9671
  361.0000   104.2193    12.8481    12.9671
  361.5000   105.3845    12.9100    12.9671
  362.0000   104.7906    13.0153    13.0910
  362.5000   104.8374    13.1596    13.2255
  363.0000   106.1994    13.3055    13.3613
  363.5000   106.3571    13.4531    13.4986
  364.0000   102.9774    13.6022    13.6373
  364.5000    98.0413    13.7530    13.7774
  365.0000    94.4400    13.9055    13.9189
  365.5000    93.1609    14.0889    14.0889
