~VERSION INFORMATION
 VERS.                2.0:   CWLS LOG ASCII STANDARD - VERSION 2.0
 WRAP.                 NO:   ONE LINE PER DEPTH STEP
~WELL INFORMATION
#MNEM.UNIT      DATA TYPE    INFORMATION
#----------   ------------   ------------------------------
 STRT.F            3.0000:   START DEPTH
 STOP.F          600.0000:   STOP DEPTH
 STEP.F            0.5000:   STEP LENGTH
 NULL.          -999.2500:   NO VALUE
 COMP. FENIX & SCISSON INC:   COMPANY
 WELL.     NPR-3 #83SX4-4:   WELL
 FLD .             TEAPOT:   FIELD
 LOC .       S4 T38N R78W:   LOCATION
 CNTY.            NATRONA:   COUNTY
 STAT.            WYOMING:   STATE
 CTRY. UNITED STATES OF AMERICA:   COUNTRY
 SRVC.           BIRDWELL:   SERVICE COMPANY
 DATE.        02-AUG-1978:   LOGDATE
 API .       490251067700:   API NUMBER
~CURVE INFORMATION
#MNEM.UNIT       API CODE    CURVE DESCRIPTION
#----------   ------------   ------------------------------
 DEPT.F                  :   
 GRD .GAPI   45 310 01 00:   GAMMA RAY FROM DENSITY LOG
 CORR.G/C3   45 356 01 00:   DENSITY CORRECTION
 RHOB.G/C3   45 350 01 00:   BULK DENSITY
 DPHI.DEC    45 890 12 00:   DENSITY POROSITY SANDSTONE
 SPR .MV     05 010 01 00:   SPONTANEOUS POTENTIAL
 ILD .OHMM   05 120 46 00:   INDUCTION LOG DEEP
 SN  .OHMM   05 040 00 00:   SHORT NORMAL
~PARAMETER INFORMATION
#MNEM.UNIT          VALUE    DESCRIPTION
#----------   ------------   ------------------------------
 PD  .                 GL:   PERMANENT DATUM
 EPD .F              5204:   ELEVATION PERMANENT DATUM
 LMF .                 KB:   LOG MEASURED FROM
 DAPD.F                 4:   FEET ABOVE PERMANENT DATUM
 DMF .                 KB:   DRILLING MEASURED FROM
 EKB .F              5204:   KELLING BUSHING
 EGL .F              5200:   GROUND LEVEL
 DATE.        02-AUG-1978:   RUN DATE
 RUN .                  1:   RUN NUMBER
 DD  .F               590:   DEPTH DRILLER
 DL  .F               606:   DEPTH LOGGER
 BLI .F               590:   BOTTOM LOG INTERVAL
 TLI .F                30:   TOP LOG INTERVAL
 CS  .IN            8.625:   CASING SIZE
 CBD .F                40:   CASING BOTTOM DRILLER
 BS  .IN            7.875:   BIT SIZE
 BSD .F               590:   BIT SIZE AT DEPTH
 DFT .                KCL:   DRILLING FLUID TYPE
 DFD .                8.7:   DRILLING FLUID DENSITY
 DFV .                 32:   DRILLING FLUID VISCOSITY
 DFPH.                  9:   DRILLING FLUID PH
 DFL .                 12:   DRILLING FLUID LOSS
 MSS .           FLOWLINE:   MUD SAMPLE SOURCE
 RMS .OHMM             .4:   RESISTIVITY MUD SAMPLE
 MST .F                61:   MUD SAMPLE TEMPERATURE
 RMF .OHMM             .5:   RESISTIVITY MUD FILTRATE SAMPLE
 MFST.F                50:   MUD FILTRATE SAMPLE TEMPERATURE
 RMC .OHMM            .65:   RESISTIVITY MUD CAKE
 MCST.F                66:   MUD CAKE SAMPLE TEMPERATURE
 MFSS.               MEAS:   MUD FILTRATE SAMPLE SOURCE
 BHT .F                78:   BOTTOM HOLE TEMPERATURE
 TCS .HRS            0300:   TIME CURCULATED STOPPED
 MRT .F                78:   MAXIMUM RECORDED TEMPERATURE
 LUN .               3006:   LOGGING UNIT NUMBER
 LUL .               CASP:   LOGGING UNIT LOCATION
 ENGI.             MILLER:   RECORDING ENGINEER
 WITN.              AMEND:   WITNESSED BY
 CLNT.            A2DTECH:   CLIENT CODE
 ORIG.           5" PRINT:   ORIGIN OF DATA
 UWI .       490251067700:   UNIQUE WELL ID
 DICO. A2D Technologies, Inc.:   DIGITIZING COMPANY
~OTHER INFORMATION
~A    DEPT     GRD       CORR       RHOB       DPHI        SPR        ILD         SN   
# ...
   48.5000    61.1804     0.1140     2.3757     0.1778     0.7065     4.0535     6.5478
   49.0000    63.2758     0.0870     2.4386     0.1697     0.7198     4.1401     6.5516
   49.5000    64.0219     0.0511     2.3892     0.1810     0.7330     4.2286     6.5547
   50.0000    62.8186     0.0511     2.4139     0.1665     0.7485     4.3189     6.5121
   50.5000    62.6427     0.0739     2.4222     0.1580     0.7617     4.4417     6.2955
   51.0000    60.5534     0.0839     2.4266     0.1542     0.6224     4.5680     6.0436
   51.5000    60.6978     0.0944     2.4289     0.1533     0.4897     4.6656     5.9229
   52.0000    59.3394     0.0898     2.4274     0.1536     0.5030     4.8314     5.9667
   52.5000    56.9333     0.0838     2.4221     0.1572     0.3637     4.9687     5.9695
   53.0000    56.6262     0.0793     2.4169     0.1614     0.3803     5.1105     6.0136
   53.5000    67.8633     0.0747     2.4146     0.1638     0.3935     5.2576     6.0164
   54.0000    71.9040     0.0687     2.4169     0.1599     0.4068     5.3721     6.0609
   54.5000    64.6012     0.0642     2.4183     0.1610     0.5693     5.4890     6.0637
   55.0000    61.9926     0.0626     2.4119     0.1722     0.4328     5.5616     6.1085
   55.5000    61.6855     0.0626     2.3951     0.1689     0.4465     5.6414     6.1114
   56.0000    62.7277     0.0640     2.4183     0.1588     0.3104     5.7224     6.0724
   56.5000    64.6694     0.0655     2.4333     0.1477     0.3238     5.7251     6.0753
   57.0000    67.6607     0.0640     2.4505     0.1432     0.0269     5.7278     6.0783
   57.5000    69.1526     0.0639     2.4475     0.1414    -0.2467     5.7306     6.0818
   58.0000    68.9955     0.0639     2.4654     0.1327     4.6448     5.6933     6.1267
   58.5000    68.3593     0.0653     2.4654     0.1321     6.9473     5.6966     6.1719
   59.0000    65.9806     0.0668     2.4647     0.1303     6.9606     5.6994     6.2175
   59.5000    58.0273     0.0697     2.4687     0.1262     6.9738     5.7021     6.2205
   60.0000    46.1759     0.0667     2.4752     0.1250     6.9871     5.7048     6.2234
   60.5000    44.0697     0.0621     2.4744     0.1235     7.0003     5.8267     6.4002
   61.0000    43.7626     0.0591     2.4654     0.1334     7.0136     5.8697     6.4920
   61.5000    55.2996     0.0606     2.4534     0.1406     7.0268     5.8725     6.5851
   62.0000    66.2368     0.0665     2.4519     0.1388     6.8875     5.8753     6.6338
   62.5000    71.0271     0.0739     2.4631     0.1364     6.9041     5.9222     6.6369
   63.0000    68.0195     0.0874     2.4624     0.1367     6.7648     6.0512     6.6859
   63.5000    67.8642     0.0995     2.4624     0.1348     6.6288     6.2608     6.6891
   64.0000    68.7546     0.1067     2.4761     0.1190     6.4955     6.4388     6.7385
   64.5000    69.4970     0.0962     2.4960     0.1110     5.6138     6.6218     6.7883
   65.0000    69.3398     0.0797     2.4990     0.1131     4.4331     6.8100     6.8385
   65.5000    55.5394     0.0662     2.4631     0.1328     3.8493     7.1008     7.0335
   66.0000    49.5351     0.0647     2.4601     0.1361     3.8627     7.3531     7.1836
   66.5000    49.3778     0.0661     2.4721     0.1259     4.0254     7.3566     7.3370
   67.0000    49.8186     0.0541     2.4646     0.1367     3.8891     7.3601     7.3912
   67.5000    52.6599     0.0540     2.4541     0.1397     3.1594     7.3636     7.4458
   68.0000    57.7501     0.0540     2.4533     0.1391     2.1278     7.4180     7.5526
   68.5000    61.3410     0.0539     2.4580     0.1332     0.9471     7.4216     7.6084
   69.0000    61.7854     0.0509     2.4608     0.1359     0.0648     7.4251     7.5598
   69.5000    61.3265     0.0479     2.4533     0.1359    -0.3697     7.3775     7.5106
   70.0000    60.1198     0.0433     2.4563     0.1347    -0.5090     7.3811     7.4114
   70.5000    59.6627     0.0403     2.4540     0.1383    -0.4924     7.3340     7.2634
   71.0000    59.8054     0.0358     2.4338     0.1535    -0.4792     7.2848     7.3179
   71.5000    59.6464     0.0402     2.4293     0.1538    -0.4659     7.1858     7.3719
   72.0000    58.2898     0.0596     2.4390     0.1461    -0.4527     6.9911     7.4264
   72.5000    55.2840     0.0597     2.4510     0.1449    -0.4394     6.8588     7.4299
   73.0000    54.2273     0.0670     2.4465     0.1404    -0.4262     6.9581     7.4335
   73.5000    54.5199     0.0729     2.4580     0.1311    -0.5627     6.9614     7.3783
   74.0000    55.4121     0.0744     2.4779     0.1251    -0.5489     6.9161     7.2884
   74.5000    57.3733     0.0729     2.4892     0.1158    -0.5356     6.8255     7.2419
   75.0000    59.7201     0.0728     2.4996     0.1094    -0.6716     6.7353     7.2462
   75.5000    61.8353     0.0743     2.5019     0.1081    -0.6582     6.6455     7.2496
   76.0000    61.8280     0.0772     2.4921     0.1198    -0.6766     6.6494     7.2024
   76.5000    61.0711     0.0847     2.4779     0.1279    -1.5274     6.6526     7.2067
   77.0000    58.0653     0.0924     2.4734     0.1246    -1.3616     6.7018     7.2101
   77.5000    55.9591     0.1040     2.4750     0.1174    -1.3483     6.7050     7.2634
   78.0000    54.6025     0.1070     2.4846     0.1180    -1.3351     6.7545     7.2668
   78.5000    54.5953     0.1039     2.4868     0.1168    -1.4711     6.8044     7.3205
   79.0000    55.4063     0.0964     2.5026     0.1068    -1.6104     6.8547     7.4768
   79.5000    58.7768     0.0874     2.5153     0.0926    -2.0449     6.9054     7.6892
   80.0000    61.3182     0.0769     2.5138     0.0974    -2.9238     7.0530     7.7995
   80.5000    61.0111     0.0693     2.4778     0.1243    -3.3583     7.1604     7.8571
   81.0000    60.1043     0.0663     2.4756     0.1243    -3.3451     7.2661     7.9151
   81.5000    59.9471     0.0662     2.4741     0.1270    -3.4811     7.4128     7.9190
   82.0000    60.0900     0.0677     2.4710     0.1282    -4.2141     7.4676     7.9228
   82.5000    60.3823     0.0676     2.4711     0.1270    -5.2456     7.5748     7.9273
   83.0000    61.1874     0.0646     2.4711     0.1279    -6.5756     7.6308     7.9311
   83.5000    65.7633     0.0631     2.4703     0.1273    -6.8609     7.6345     7.9348
   84.0000    63.0574     0.0585     2.4800     0.1217    -7.1463     7.6381     7.9386
   84.5000    55.8537     0.0570     2.4740     0.1256    -7.2821     7.5884     7.9424
   85.0000    54.9469     0.0525     2.4793     0.1199    -7.5771     7.5929     7.9462
   85.5000    52.5408     0.0509     2.4845     0.1175    -7.8526     7.5434     7.9499
   86.0000    48.9353     0.0509     2.4807     0.1187    -7.8388     7.4952     7.9537
   86.5000    46.8276     0.0508     2.4807     0.1211    -7.6736     7.4473     7.9020
   87.0000    45.4723     0.0508     2.4789     0.1241    -7.6603     7.3498     7.7976
   87.5000    54.0091     0.0507     2.4725     0.1238    -7.7996     7.2028     7.6956
   88.0000    59.9989     0.0522     2.4755     0.1310    -7.7830     7.0589     7.5418
   88.5000    75.4339     0.0522     2.4568     0.1361    -7.6205     6.8689     7.3912
   89.0000    75.7283     0.0551     2.4538     0.1370    -7.4580     6.7290     7.2429
   89.5000    72.5707     0.0566     2.4560     0.1373    -7.1463     6.5531     7.1479
   90.0000    68.3656     0.0565     2.4493     0.1430    -6.9837     6.4229     7.0472
   90.5000    67.9085     0.0550     2.4358     0.1505    -7.1231     6.3810     6.9604
   91.0000    68.8008     0.0564     2.4290     0.1595    -7.7035     6.2967     6.9645
   91.5000    64.1440     0.0609     2.4188     0.1601    -7.8395     6.2135     6.9678
   92.0000    61.2882     0.0683     2.4320     0.1479    -8.2740     6.2172     6.9712
   92.5000    61.1328     0.0533     2.4485     0.1430    -9.4552     6.2632     6.9745
   93.0000    64.5720     0.0443     2.4492     0.1403    -9.4415     6.3095     7.0260
   93.5000    65.1662     0.0412     2.4514     0.1394    -9.4283     6.4000     7.1760
