~VERSION INFORMATION
 VERS.                2.0:   CWLS LOG ASCII STANDARD - VERSION 2.0
 WRAP.                 NO:   ONE LINE PER DEPTH STEP
~WELL INFORMATION
#MNEM.UNIT      DATA TYPE    INFORMATION
#----------   ------------   ------------------------------
 STRT.F           25.0000:   START DEPTH
 STOP.F          867.0000:   STOP DEPTH
 STEP.F            0.5000:   STEP LENGTH
 NULL.          -999.2500:   NO VALUE
 COMP. LAWRENCE/ALLISON INC:   COMPANY
 WELL.    38-11 SX #35-35:   WELL
 FLD .             TEAPOT:   FIELD
 LOC .      S35 T39N R78W:   LOCATION
 CNTY.            NATRONA:   COUNTY
 STAT.            WYOMING:   STATE
 CTRY. UNITED STATES OF AMERICA:   COUNTRY
 SRVC.      Dresser Atlas:   SERVICE COMPANY
 DATE.        07-AUG-1985:   LOGDATE
 API .       490251104100:   API NUMBER
~CURVE INFORMATION
#MNEM.UNIT       API CODE    CURVE DESCRIPTION
#----------   ------------   ------------------------------
 DEPT.F                  :   
 SPR .MV     07 010 01 00:   SPONTANEOUS POTENTIAL
 RILD.OHMM   07 120 46 00:   INDUCTION LOG DEEP RESISTIVITY
 RILM.OHMM   07 120 44 00:   INDUCTION LOG MEDIUM RESISTIVITY
 RFOC.OHMM   07 220 04 00:   RESISTIVITY FOCUSED LOG
 PORD.DEC    45 890 12 00:   POROSITY DENSITY SANDSTONE
 CNC .DEC    42 890 03 00:   NEUTRON POROSITY SANDSTONE
 GRD .GAPI   45 310 01 00:   GAMMA RAY FROM DENSITY LOG
 CALD.IN     45 280 60 00:   CALIPER FROM DENSITY LOG
 CORR.G/C3   45 356 01 00:   DENSITY CORRECTION
 DEN .G/C3   45 350 01 00:   COMPENSATED BULK DENSTIY
~PARAMETER INFORMATION
#MNEM.UNIT          VALUE    DESCRIPTION
#----------   ------------   ------------------------------
 PD  .                 GL:   PERMANENT DATUM
 EPD .F              5110:   ELEVATION PERMANENT DATUM
 LMF .                 GL:   LOG MEASURED FROM
 DMF .                 GL:   DRILLING MEASURED FROM
 EGL .F              5110:   GROUND LEVEL
 DATE.             8-7-85:   RUN DATE
 RUN .                  1:   RUN NUMBER
 DD  .F               900:   DEPTH DRILLER
 DL  .F               869:   DEPTH LOGGER
 BLI .F               867:   BOTTOM LOG INTERVAL
 TLI .F                40:   TOP LOG INTERVAL
 CS  .IN            8.625:   CASING SIZE
 CBD .F                40:   CASING BOTTOM DRILLER
 CBL .F                40:   CASING BOTTOM LOGGER
 BS  .IN            7.875:   BIT SIZE
 BSD .F               900:   BIT SIZE AT DEPTH
 DFT .             4% KCL:   DRILLING FLUID TYPE
 MSS .           FLOWLINE:   MUD SAMPLE SOURCE
 RMS .OHMM           .222:   RESISTIVITY MUD SAMPLE
 MST .F                71:   MUD SAMPLE TEMPERATURE
 TCS .HRS               2:   TIME CURCULATED STOPPED
 MRT .F               100:   MAXIMUM RECORDED TEMPERATURE
 LUN .               6264:   LOGGING UNIT NUMBER
 LUL .               GLTE:   LOGGING UNIT LOCATION
 ENGI.           FAHLSING:   RECORDING ENGINEER
 WITN.              FIVAS:   WITNESSED BY
 CLNT.            A2DTECH:   CLIENT CODE
 ORIG.       2", 5" PRINT:   ORIGIN OF DATA
 UWI .       490251104100:   UNIQUE WELL ID
 DICO. A2D Technologies, Inc.:   DIGITIZING COMPANY
~OTHER INFORMATION
~A   DEPT      SPR       RILD       RILM       RFOC       PORD          CNC      GRD       CALD       CORR        DEN   
   25.0000  -999.2500  -999.2500  -999.2500  -999.2500  -999.2500     0.0198   118.3775  -999.2500  -999.2500  -999.2500
   25.5000  -999.2500  -999.2500  -999.2500  -999.2500  -999.2500     0.0218   121.4135  -999.2500  -999.2500  -999.2500
   26.0000  -999.2500  -999.2500  -999.2500  -999.2500  -999.2500    -0.0006   119.0279  -999.2500  -999.2500  -999.2500
   26.5000  -999.2500  -999.2500  -999.2500  -999.2500  -999.2500     0.0072   113.3289  -999.2500  -999.2500  -999.2500
   27.0000  -999.2500  -999.2500  -999.2500  -999.2500  -999.2500     0.0257   110.9373  -999.2500  -999.2500  -999.2500
   27.5000  -999.2500  -999.2500  -999.2500  -999.2500  -999.2500     0.1721   110.9673  -999.2500  -999.2500  -999.2500
   28.0000  -999.2500  -999.2500  -999.2500  -999.2500  -999.2500     0.6946   110.6840  -999.2500  -999.2500  -999.2500
   28.5000  -999.2500  -999.2500  -999.2500  -999.2500  -999.2500     0.6868   109.2080  -999.2500  -999.2500  -999.2500
   29.0000  -999.2500  -999.2500  -999.2500  -999.2500  -999.2500     0.0629   103.8103  -999.2500  -999.2500  -999.2500
   29.5000  -999.2500  -999.2500  -999.2500  -999.2500  -999.2500     0.0206    98.1114  -999.2500  -999.2500  -999.2500
   30.0000  -999.2500  -999.2500  -999.2500  -999.2500  -999.2500     0.0206    96.3281  -999.2500  -999.2500  -999.2500
   30.5000  -999.2500  -999.2500  -999.2500  -999.2500  -999.2500     0.0206    98.7617  -999.2500  -999.2500  -999.2500
   31.0000  -999.2500  -999.2500  -999.2500  -999.2500  -999.2500     0.0206   104.2074  -999.2500  -999.2500  -999.2500
   31.5000  -999.2500  -999.2500  -999.2500  -999.2500  -999.2500     0.0206   116.8820  -999.2500  -999.2500  -999.2500
   32.0000  -999.2500  -999.2500  -999.2500  -999.2500  -999.2500     0.0206   122.3276  -999.2500  -999.2500  -999.2500
   32.5000  -999.2500  -999.2500  -999.2500  -999.2500  -999.2500     0.0206   121.1468  -999.2500  -999.2500  -999.2500
   33.0000  -999.2500  -999.2500  -999.2500  -999.2500  -999.2500     0.0206   122.9780  -999.2500  -999.2500  -999.2500
   33.5000  -999.2500  -999.2500  -999.2500  -999.2500  -999.2500     0.0206   125.7128  -999.2500  -999.2500  -999.2500
   34.0000  -999.2500  -999.2500  -999.2500  -999.2500  -999.2500     0.0206   126.9436  -999.2500  -999.2500  -999.2500
   34.5000  -999.2500  -999.2500  -999.2500  -999.2500  -999.2500     0.0205   126.0640  -999.2500  -999.2500  -999.2500
   35.0000  -999.2500  -999.2500  -999.2500  -999.2500  -999.2500     0.0208   124.5819  -999.2500  -999.2500  -999.2500
   35.5000  -999.2500  -999.2500  -999.2500  -999.2500  -999.2500     0.0193   119.7866  -999.2500  -999.2500  -999.2500
   36.0000  -999.2500  -999.2500  -999.2500  -999.2500  -999.2500     0.0118   114.0877  -999.2500  -999.2500  -999.2500
   36.5000  -999.2500  -999.2500  -999.2500  -999.2500  -999.2500     0.0053   103.2683  -999.2500  -999.2500  -999.2500
   37.0000  -999.2500  -999.2500  -999.2500  -999.2500  -999.2500     0.0031    99.3706  -999.2500  -999.2500  -999.2500
   37.5000  -999.2500  -999.2500  -999.2500  -999.2500  -999.2500     0.0028   102.1114  -999.2500  -999.2500  -999.2500
   38.0000  -999.2500  -999.2500  -999.2500  -999.2500  -999.2500     0.0028   105.1475  -999.2500  -999.2500  -999.2500
   38.5000  -999.2500  -999.2500  -999.2500  -999.2500  -999.2500     0.0061   100.3522  -999.2500  -999.2500  -999.2500
   39.0000  -999.2500  -999.2500  -999.2500  -999.2500     0.6995     0.0146    95.2557    10.9379    -0.4310     2.0003
   39.5000  -999.2500  -999.2500  -999.2500  -999.2500     0.6977     0.0175    97.9905     8.1443     0.0751     2.0010
   40.0000  -999.2500  -999.2500  -999.2500  -999.2500     0.6131     0.0175   101.9301     7.9185    -0.0147     2.0003
   40.5000  -999.2500  -999.2500  -999.2500  -999.2500     0.4860     0.0176   103.4601     7.9192    -0.0730     2.0000
   41.0000  -999.2500  -999.2500  -999.2500  -999.2500     0.4797     0.0199   101.0744     7.9048    -0.0909     2.0000
   41.5000  -999.2500  -999.2500  -999.2500  -999.2500     0.4881     0.0241    99.5864     7.8754    -0.0878     2.0011
   42.0000  -999.2500  -999.2500  -999.2500  -999.2500     0.4923     0.0252   101.1224     7.8610    -0.0384     2.0011
   42.5000  -999.2500  -999.2500  -999.2500  -999.2500     0.4569     0.0231   102.9536     7.8769     0.0530     2.0012
   43.0000  -999.2500  -999.2500  -999.2500  -999.2500     0.4357     0.0204   102.0740     7.9812     0.1084     2.0004
   43.5000  -999.2500  -999.2500  -999.2500  -999.2500     0.4863     0.0186    99.6883     8.6150     0.1549     2.0005
   44.0000  -999.2500  -999.2500  -999.2500  -999.2500     0.5674     0.0284    96.0978    10.2288     0.1894     2.0005
   44.5000  -999.2500  -999.2500  -999.2500  -999.2500     0.6692     0.0422    90.3989    11.3393     0.2014     2.0005
   45.0000  -999.2500  -999.2500  -999.2500  -999.2500     0.7000     0.0689    68.7361    12.4053     0.1491     2.0005
   45.5000  -999.2500  -999.2500  -999.2500  -999.2500     0.7000     0.1450    54.0011    14.1956     0.0219     2.0000
   46.0000  -999.2500  -999.2500  -999.2500  -999.2500     0.7000     0.3039    36.2540    15.9033    -0.0783     2.0000
   46.5000  -999.2500  -999.2500  -999.2500  -999.2500     0.7000     0.4792    31.1575    15.7975    -0.1037     2.0000
   47.0000  -999.2500  -999.2500  -999.2500  -999.2500     0.7000     0.4887    29.6747    15.7689    -0.0992     2.0000
   47.5000  -999.2500  -999.2500  -999.2500  -999.2500     0.7000     0.4524    29.0964    15.7525    -0.0959     2.0000
   48.0000  -999.2500  -999.2500  -999.2500  -999.2500     0.7000     0.4053    31.2294    15.3632    -0.0980     2.0000
   48.5000  -999.2500  -999.2500  -999.2500  -999.2500     0.7000     0.4231    41.7955    12.5689    -0.1304     2.0007
   49.0000  -999.2500  -999.2500  -999.2500  -999.2500     0.7000     0.5054    57.7834     7.2068    -0.1453     2.0000
   49.5000  -999.2500  -999.2500  -999.2500  -999.2500     0.7000     0.4545    74.6748     8.8392    -0.1333     2.0000
   50.0000   -90.3759     0.2000     0.2042     2.2569     0.6728     0.4063    85.5422     9.5972    -0.0509     2.0000
   50.5000   -90.8571     0.2277     0.2132     2.3523     0.5713     0.3964    85.5661    10.4872    -0.0029     2.0000
   51.0000   -92.2406     0.2997     0.3932     2.9137     0.5497     0.4072    83.1323    11.1677     0.0091     2.0000
   51.5000   -93.8202     0.4207     0.4576     3.6847     0.5254     0.4179    80.1564    11.2287     0.0182     2.0000
   52.0000   -94.7180     0.6073     0.5841     4.2012     0.5081     0.4257    79.3128    11.1692     0.0062     2.0000
   52.5000   -95.1647     1.0059     0.7416     3.5843     0.5027     0.4341    79.3373    11.1398    -0.0266     2.0000
   53.0000   -95.4622     1.8065     0.8990     3.1005     0.5100     0.4464    78.7229    11.1405    -0.0550     2.0000
   53.5000   -95.7585     2.9002     1.1936     2.8344     0.5173     0.4667    77.2350    11.0959    -0.0729     2.0000
   54.0000   -92.5951     3.9940     1.5821     2.6636     0.5134     0.4999    74.7952    11.0967    -0.0953     2.0000
   54.5000   -87.9290     4.0775     2.1013     2.5728     0.5119     0.5206    71.0842    11.0974    -0.0713     2.0000
   55.0000   -83.4133     4.1628     2.6267     2.5768     0.5039     0.4884    65.9084    11.0519    -0.0248     2.0000
   55.5000   -82.2058     4.2206     3.3126     3.1493     0.4942     0.4681    63.8240    10.9717     0.0156     2.0000
   56.0000   -82.8029     4.5534     3.8288     3.7688     0.4733     0.4758    66.2576    10.6892     0.0741     2.0000
   56.5000   -84.0015     5.4148     4.2507     4.2973     0.4458     0.4844    70.4984    10.2650     0.1580     2.0085
   57.0000   -85.8346     6.3848     4.7041     4.9242     0.3823     0.4718    78.0525     9.6965     0.2404     2.0497
   57.5000   -87.6692     7.3295     5.5179     5.8519     0.3314     0.4469    82.2934     9.3045     0.2988     2.1200
   58.0000   -89.5510     7.8530     6.3339     6.3136     0.2997     0.4062    85.9318     9.0636     0.3213     2.1724
