~VERSION INFORMATION
 VERS.                2.0:   CWLS LOG ASCII STANDARD - VERSION 2.0
 WRAP.                 NO:   ONE LINE PER DEPTH STEP
~WELL INFORMATION
#MNEM.UNIT      DATA TYPE    INFORMATION
#----------   ------------   ------------------------------
 STRT.F           30.0000:   START DEPTH
 STOP.F          697.0000:   STOP DEPTH
 STEP.F            0.5000:   STEP LENGTH
 NULL.          -999.2500:   NO VALUE
 COMP. LAWRENCE/ALLISON INC:   COMPANY
 WELL.    81-66 SX #15-15:   WELL
 FLD .             TEAPOT:   FIELD
 LOC .      S15 T38N R78W:   LOCATION
 CNTY.            NATRONA:   COUNTY
 STAT.            WYOMING:   STATE
 CTRY. UNITED STATES OF AMERICA:   COUNTRY
 SRVC.           Gearhart:   SERVICE COMPANY
 DATE.        15-JUL-1987:   LOGDATE
 API .       490251117000:   API NUMBER
~CURVE INFORMATION
#MNEM.UNIT       API CODE    CURVE DESCRIPTION
#----------   ------------   ------------------------------
 DEPT.F                  :   
 GRR .GAPI   07 310 01 00:   GAMMA RAY
 ILD .OHMM   07 120 46 00:   INDUCTION LOG DEEP
 ILM .OHMM   07 120 44 00:   INDUCTION LOG MEDIUM
~PARAMETER INFORMATION
#MNEM.UNIT          VALUE    DESCRIPTION
#----------   ------------   ------------------------------
 PD  .                 GL:   PERMANENT DATUM
 EPD .F              5232:   ELEVATION PERMANENT DATUM
 LMF .                 KB:   LOG MEASURED FROM
 DAPD.F                 8:   FEET ABOVE PERMANENT DATUM
 DMF .                 KB:   DRILLING MEASURED FROM
 EKB .F              5240:   KELLING BUSHING
 EDF .F              5238:   DRILLING FLOOR
 EGL .F              5232:   GROUND LEVEL
 DATE.        28-AUG-1987:   RUN DATE
 RUN .                  1:   RUN NUMBER
 DD  .F               700:   DEPTH DRILLER
 DL  .F               706:   DEPTH LOGGER
 BLI .F               700:   BOTTOM LOG INTERVAL
 TLI .F                30:   TOP LOG INTERVAL
 CS  .IN            8.625:   CASING SIZE
 CBD .F                48:   CASING BOTTOM DRILLER
 CBL .F                48:   CASING BOTTOM LOGGER
 BS  .IN            7.875:   BIT SIZE
 BSD .F               700:   BIT SIZE AT DEPTH
 DFT .                AIR:   DRILLING FLUID TYPE
 TCS .HRS            0200:   TIME CURCULATED STOPPED
 TLAB.HRS            0449:   TIME LOGGER AT BOTTOM
 MRT .F                80:   MAXIMUM RECORDED TEMPERATURE
 LUN .               7597:   LOGGING UNIT NUMBER
 LUL .           GILLETTE:   LOGGING UNIT LOCATION
 ENGI.         WEATHERMON:   RECORDING ENGINEER
 WITN.             STRONG:   WITNESSED BY
 CLNT.            A2DTECH:   CLIENT CODE
 ORIG.       2", 5" PRINT:   ORIGIN OF DATA
 UWI .       490251117000:   UNIQUE WELL ID
 DICO. A2D Technologies, Inc.:   DIGITIZING COMPANY
~OTHER INFORMATION
~A   DEPT       GRR       ILD        ILM   
# ...
  303.0000   114.8906     9.1704     9.1957
  303.5000   112.8169     9.0994     9.0116
  304.0000   113.7601     8.9754     8.9538
  304.5000   117.4265     8.8096     8.8965
  305.0000   120.4877     8.7191     8.9011
  305.5000   121.4309     8.6960     8.9062
  306.0000   121.4663     8.7020     8.9110
  306.5000   119.6864     8.7675     8.9158
  307.0000   116.6962     8.7724     8.7984
  307.5000   113.5698     8.7162     8.8032
  308.0000   110.1184     8.7221     8.7468
  308.5000   108.3384     8.7268     8.7674
  309.0000   108.6764     8.6698     8.8163
  309.5000   110.2247     8.6757     8.7608
  310.0000   111.7730     8.6190     8.7658
  310.5000   112.1021     8.6246     8.7097
  311.0000   110.6336     8.5697     8.6539
  311.5000   108.5510     8.5744     8.5985
  312.0000   109.8376     8.5195     8.6043
  312.5000   112.6072     8.5243     8.6090
  313.0000   113.8098     8.5291     8.6137
  313.5000   114.1390     8.5346     8.6183
  314.0000   113.2667     8.5392     8.5631
  314.5000   112.3944     8.4257     8.5081
  315.0000   111.2284     8.3126     8.3951
  315.5000   108.8432     8.2032     8.3370
  316.0000   105.8529     8.1506     8.1744
  316.5000   103.7703     8.0424     8.0645
  317.0000   105.6622     7.9319     7.8482
  317.5000   108.5325     7.8212     7.5310
  318.0000   110.5420     7.5984     7.2771
  318.5000   109.3672     7.2113     7.1295
  319.0000   107.8897     7.0171     6.9868
  319.5000   107.0175     6.9712     6.9420
  320.0000   106.7414     6.9760     6.8976
  320.5000   106.1717     6.9798     6.9497
  321.0000   106.2160     7.0323     7.1012
  321.5000   108.6720     7.1847     7.3058
  322.0000   115.1829     7.4467     7.5689
  322.5000   120.2925     7.6666     7.7329
  323.0000   121.1926     7.8791     7.8457
  323.5000   119.7151     8.0001     7.9601
  324.0000   111.5811     8.0542     7.9644
  324.5000   109.7923     8.1148     7.9688
  325.0000   111.6520     8.1192     7.9732
  325.5000   116.2260     8.1801     7.9785
  326.0000   117.7743     8.1847     7.9821
  326.5000   116.2968     8.1893     7.9871
  327.0000   113.8921     8.1938     7.9915
  327.5000   113.0394     8.1413     7.9403
  328.0000   113.0837     8.0892     7.9446
  328.5000   112.8076     8.0386     7.8937
  329.0000   112.5494     7.9317     7.7887
  329.5000   112.2733     7.7181     7.6769
  330.0000   112.0151     7.5627     7.4790
  330.5000   111.7479     7.2572     7.2774
  331.0000   111.7833     6.8202     6.9347
  331.5000   111.5159     6.3650     6.4716
  332.0000   111.2490     6.1478     6.2100
  332.5000   110.9329     5.9299     5.9176
  333.0000   110.7147     5.6646     5.5223
  333.5000   110.1450     5.5498     5.0796
  334.0000   109.5753     5.5535     4.9403
  334.5000   109.3081     5.6344     4.9485
  335.0000   108.4447     5.7166     5.0558
  335.5000   108.1687     5.8404     5.3114
  336.0000   108.2130     6.0505     5.5798
  336.5000   108.5510     6.3120     5.9441
  337.0000   110.1401     6.5911     6.2883
  337.5000   111.3969     6.9338     6.6988
  338.0000   111.3804     7.3186     7.0880
  338.5000   110.2144     7.5294     7.3560
  339.0000   109.6358     7.6391     7.6072
  339.5000   109.9827     7.7063     7.7271
  340.0000   114.8592     7.8088     7.8854
  340.5000   117.9204     7.8676     7.9449
  341.0000   119.1661     7.9507     7.9492
  341.5000   119.8066     8.0424     8.0091
  342.0000   119.5395     8.1597     8.0695
  342.5000   118.6183     8.2787     8.1303
  343.0000   115.9883     8.3420     8.1917
  343.5000   112.3929     8.4636     8.2544
  344.0000   110.3103     8.5273     8.3748
  344.5000   110.0343     8.5915     8.4379
  345.0000   110.3812     8.6563     8.5015
  345.5000   111.3243     8.6839     8.6251
  346.0000   112.2674     8.7872     8.6905
  346.5000   113.5132     8.7920     8.6952
  347.0000   115.0822     8.7968     8.7608
  347.5000   115.4009     8.7915     8.7657
  348.0000   113.9308     8.7452     8.8328
  348.5000   112.4534     8.6904     8.8376
  349.0000   110.6734     8.6337     8.8424
  349.5000   109.1960     8.6395     8.8472
  350.0000   111.6520     8.6442     8.8520
  350.5000   114.4105     8.6489     8.8568
  351.0000   115.6562     8.5934     8.8616
  351.5000   116.2968     8.5983     8.8664
  352.0000   114.7998     8.4840     8.8713
  352.5000   113.9471     8.4201     8.8772
  353.0000   114.5965     8.3177     8.8192
  353.5000   117.0525     8.1513     8.7019
  354.0000   118.9034     8.0429     8.4685
  354.5000   119.2325     7.8810     8.2402
  355.0000   118.0576     7.6687     7.8522
  355.5000   118.4045     7.4622     7.4306
  356.0000   119.6502     7.2493     7.0316
  356.5000   120.8959     6.9576     6.7384
  357.0000   121.5371     6.6469     6.3416
  357.5000   120.5144     6.2907     6.0010
  358.0000   116.4190     5.8712     5.6002
  358.5000   113.1232     5.4368     5.1181
  359.0000   110.4245     4.7403     4.8272
  359.5000   108.9208     3.8474     4.1563
  360.0000   108.9929     3.4439     3.4900
  360.5000   110.8408     3.1478     3.0375
  361.0000   111.7811     3.0000     2.7184
  361.5000   112.1162     2.8790     2.5366
  362.0000   110.6358     2.8208     2.4678
  362.5000   109.1555     2.8229     2.4865
  363.0000   106.4649     2.8843     2.6487
  363.5000   105.2859     3.0316     2.9625
  364.0000   107.7402     3.3350     3.3403
  364.5000   113.9092     3.8715     3.7761
  365.0000   119.0821     4.3911     4.5068
  365.5000   120.5539     4.8774     5.1831
  366.0000   118.7710     5.4176     5.5986
  366.5000   118.1903     5.8117     5.8812
  367.0000   119.7438     6.0633     6.0503
  367.5000   122.1969     6.1951     6.1381
  368.0000   123.4397     6.2422     6.1410
  368.5000   123.4722     6.2027     6.1439
  369.0000   122.2945     6.1151     6.0615
  369.5000   121.7216     5.9158     5.8939
  370.0000   121.4518     5.6772     5.6599
  370.5000   123.0954     5.4483     5.3931
  371.0000   126.6687     5.3019     5.2474
  371.5000   129.4244     5.2310     5.1407
  372.0000   130.0620     5.2350     5.1074
  372.5000   127.6740     5.2748     5.1105
  373.0000   124.6808     5.3520     5.1846
  373.5000   122.5953     5.5463     5.3337
  374.0000   124.4433     5.7558     5.5640
  374.5000   127.5015     6.0786     5.8507
  375.0000   128.7443     6.3417     6.1544
  375.5000   129.3828     6.6625     6.5411
  376.0000   129.1201     6.9509     6.9193
  376.5000   126.4295     7.2519     7.2181
  377.0000   120.4105     7.6187     7.4776
  377.5000   114.6942     7.8295     7.6926
  378.0000   113.5083     8.0089     7.9137
  378.5000   115.9695     8.0698     8.0847
  379.0000   121.1458     8.0749     8.1451
  379.5000   122.6912     8.0248     8.2081
  380.0000   124.8417     8.0298     8.2100
  380.5000   127.9244     7.8686     8.1001
  381.0000   131.6734     7.7645     7.9928
  381.5000   133.7220     7.6087     7.7768
  382.0000   131.6365     7.4560     7.5142
  382.5000   128.6433     7.2557     7.2604
  383.0000   125.9527     7.0118     6.9665
  383.5000   122.6569     6.7875     6.6844
  384.0000   120.2689     6.5486     6.4138
  384.5000   119.3855     6.2412     6.0687
  385.0000   124.8725     5.7445     5.6911
  385.5000   129.1410     5.3989     5.2486
  386.0000   131.5945     5.1453     4.9664
  386.5000   130.6314     5.0420     4.6994
  387.0000   128.6416     5.0804     4.4159
  387.5000   126.8587     5.1549     4.3868
  388.0000   123.2603     5.2675     4.6088
  388.5000   119.6620     5.4196     4.9094
  389.0000   117.8791     5.6937     5.2661
  389.5000   118.8193     5.9402     5.6488
  390.0000   122.7853     6.1974     6.1500
  390.5000   126.4487     6.5109     6.6060
  391.0000   127.6915     6.8402     7.0705
  391.5000   127.7247     7.1363     7.4793
  392.0000   128.1129     7.3971     7.6943
  392.5000   129.3100     7.6693     7.8606
  393.0000   130.5529     7.8825     7.9193
  393.5000   131.7957     7.9424     7.9231
