~VERSION INFORMATION
 VERS.                2.0:   CWLS LOG ASCII STANDARD - VERSION 2.0
 WRAP.                 NO:   ONE LINE PER DEPTH STEP
~WELL INFORMATION
#MNEM.UNIT      DATA TYPE    INFORMATION
#----------   ------------   ------------------------------
 STRT.F           86.0000:   START DEPTH
 STOP.F          770.0000:   STOP DEPTH
 STEP.F            0.5000:   STEP LENGTH
 NULL.          -999.2500:   NO VALUE
 COMP.           U S NAVY:   COMPANY
 WELL. NPR 3 TEAPOT DOM #85-S-34:   WELL
 FLD .        TEAPOT DOME:   FIELD
 LOC .      S34 T39N R78W:   LOCATION
 CNTY.            NATRONA:   COUNTY
 STAT.            WYOMING:   STATE
 CTRY. UNITED STATES OF AMERICA:   COUNTRY
 SRVC. Schlumberger Well Surveying Corp:   SERVICE COMPANY
 DATE.        31-JUL-1963:   LOGDATE
 API .       490250652800:   API NUMBER
~CURVE INFORMATION
#MNEM.UNIT       API CODE    CURVE DESCRIPTION
#----------   ------------   ------------------------------
 DEPT.F                  :   
 ASN .OHMM   05 041 16 00:   AMPLIFIED SHORT NORMAL 16"
 CILD.MMHO   05 110 46 00:   CONDUCTIVITY INDUCTION LOG DEEP
 ILD .OHMM   05 120 46 00:   INDUCTION LOG DEEP
 SPR .MV     05 010 01 00:   SPONTANEOUS POTENTIAL FROM RES.
 GR  .GAPI   30 310 01 00:   GAMMA RAY
~PARAMETER INFORMATION
#MNEM.UNIT          VALUE    DESCRIPTION
#----------   ------------   ------------------------------
 PD  .                 GL:   PERMANENT DATUM
 EPD .F              5071:   ELEVATION PERMANENT DATUM
 LMF .                 KB:   LOG MEASURED FROM
 DAPD.F                 5:   FEET ABOVE PERMANENT DATUM
 DMF .                 KB:   DRILLING MEASURED FROM
 EKB .F              5076:   KELLING BUSHING
 EGL .F              5071:   GROUND LEVEL
 DATE.        31-JUL-1963:   RUN DATE
 RUN .                  1:   RUN NUMBER
 DD  .F               770:   DEPTH DRILLER
 DL  .F               771:   DEPTH LOGGER
 BLI .F               770:   BOTTOM LOG INTERVAL
 TLI .F                86:   TOP LOG INTERVAL
 CS  .IN            8.625:   CASING SIZE
 CBD .F                10:   CASING BOTTOM DRILLER
 BS  .IN             6.75:   BIT SIZE
 BSD .F               770:   BIT SIZE AT DEPTH
 DFT .          GEL & OIL:   DRILLING FLUID TYPE
 DFD .                9.6:   DRILLING FLUID DENSITY
 DFV .                 39:   DRILLING FLUID VISCOSITY
 DFPH.                9.0:   DRILLING FLUID PH
 DFL .                8.8:   DRILLING FLUID LOSS
 MSS .           FLOWLINE:   MUD SAMPLE SOURCE
 RMS .OHMM           3.06:   RESISTIVITY MUD SAMPLE
 MST .F                94:   MUD SAMPLE TEMPERATURE
 RMF .OHMM           2.64:   RESISTIVITY MUD FILTRATE SAMPLE
 MFST.F                94:   MUD FILTRATE SAMPLE TEMPERATURE
 MFSS.               MEAS:   MUD FILTRATE SAMPLE SOURCE
 TCS .HRS               1:   TIME CURCULATED STOPPED
 MRT .F           LESS 80:   MAXIMUM RECORDED TEMPERATURE
 LUN .               4507:   LOGGING UNIT NUMBER
 LUL .               CSPR:   LOGGING UNIT LOCATION
 ENGI.            WINKLER:   RECORDING ENGINEER
 WITN.          JORGENSON:   WITNESSED BY
 CLNT.            A2DTECH:   CLIENT CODE
 ORIG.           5" PRINT:   ORIGIN OF DATA
 UWI .       490250652800:   UNIQUE WELL ID
 DICO. A2D Technologies, Inc.:   DIGITIZING COMPANY
~OTHER INFORMATION
~A   DEPT        ASN      CILD         ILD      SPR         GR   
   86.0000     5.5549   216.7863     5.2034   -33.1500  -999.2500
   86.5000     5.5695   214.4513     5.1996   -33.1545  -999.2500
   87.0000     5.5995   212.1162     5.1958   -33.3161  -999.2500
   87.5000     5.6297   211.3584     5.1919   -33.7917  -999.2500
   88.0000     5.5663   209.8120     5.1881   -33.7963  -999.2500
   88.5000     5.8154   209.0536     5.1842   -33.6439  -999.2500
   89.0000     5.8615   207.5077     5.1933   -33.6485  -999.2500
   89.5000     5.8917   206.7499     5.3333   -33.3391  -999.2500
   90.0000     5.8278   205.9921     5.3285   -33.0298  -999.2500
   90.5000     5.8111   204.4534     5.3247   -32.8519  -999.2500
   91.0000     5.8257   202.8993     5.3208   -32.5680  -999.2500
   91.5000     5.8596   200.5719     5.2386   -32.4156  -999.2500
   92.0000     6.0167   198.2368     5.1564   -33.0493  -999.2500
   92.5000     6.1508   195.9017     5.1526   -33.2109  -999.2500
   93.0000     6.1657   193.5590     5.2273   -33.2155  -999.2500
   93.5000     6.1643   190.4416     5.3800   -33.3771  -999.2500
   94.0000     6.1633   185.7419     5.5329   -34.3236  -999.2500
   94.5000     6.1938   181.0409     5.7642   -35.8980  -999.2500
   95.0000     6.2863   177.9172     5.8516   -36.5306  -999.2500
   95.5000     6.3479   174.8012     5.9907   -35.8258  -999.2500
   96.0000     6.4407   173.2548     6.0662   -34.3420  -999.2500
   96.5000     6.5339   171.7083     6.0614   -34.5047  -999.2500
   97.0000     6.6436   170.1619     6.1368   -34.9803  -999.2500
   97.5000     6.7035   169.3964     6.1320   -35.1418  -999.2500
   98.0000     6.6865   167.8577     6.1282   -34.9883  -999.2500
   98.5000     6.6541   167.0922     6.1244   -34.5231  -999.2500
   99.0000     6.6218   168.7080     5.8854   -34.3696  -999.2500
   99.5000     6.5894   171.8934     5.6465   -34.2182  -999.2500
  100.0000     6.5413   176.6562     5.4075   -34.0652  -999.2500
  100.5000     6.4776   185.5757     5.3252   -34.5419  -999.2500
  101.0000     6.3044   195.2840     5.1515   -35.0174  -999.2500
  101.5000     6.0686   205.1476     4.8465   -35.0220  -999.2500
  102.0000     5.8171   215.4308     4.6075   -34.8529  -999.2500
  102.5000     5.5813   224.9254     4.3686   -34.0893  -999.2500
  103.0000     5.3142   230.4767     4.2864   -35.0370  -999.2500
  103.5000     5.1566   232.8735     4.3618   -35.0416  -999.2500
  104.0000     5.0917   229.7498     4.5922   -33.1623  -999.2500
  104.5000     5.0762   223.4715     4.9018   -34.5798  -999.2500
  105.0000     5.1375   214.8273     5.2898   -35.0554  -999.2500
  105.5000     5.4964   206.9717     5.5212   -35.2170  -999.2500
  106.0000     6.1056   194.9211     5.8307   -35.0646  -999.2500
  106.5000     6.4958   181.1277     6.1468   -34.7310  -999.2500
  107.0000     6.8547   166.0625     6.3845   -36.9608  -999.2500
  107.5000     7.0727   158.9955     6.6029   -37.5901  -999.2500
  108.0000     7.1499   153.5059     6.8332   -35.3981  -999.2500
  108.5000     7.1958   148.8049     6.9087   -34.4596  -999.2500
  109.0000     7.3518   145.6812     7.0606   -34.3072  -999.2500
  109.5000     7.5223   143.3461     7.0568   -33.9990  -999.2500
  110.0000     7.5209   141.0033     7.2097   -33.5326  -999.2500
  110.5000     7.5355   139.4637     7.2842   -33.5372  -999.2500
  111.0000     7.6283   137.1295     7.3589   -34.3268  -999.2500
  111.5000     7.8307   134.7944     7.4334   -35.1163  -999.2500
  112.0000     7.9548   133.1230     7.5078   -35.4349  -999.2500
  112.5000     8.0010   131.7015     7.5039   -35.5965  -999.2500
  113.0000     8.0309   132.5288     7.4869   -35.7865  -999.2500
  113.5000     8.0142   133.3482     7.3386   -36.2347  -999.2500
  114.0000     7.9662   138.1109     7.1780   -36.3963  -999.2500
  114.5000     7.8067   140.5077     7.0175   -36.4009  -999.2500
  115.0000     7.6781   143.6932     6.8569   -36.2485  -999.2500
  115.5000     7.4932   148.4559     6.7747   -35.7822  -999.2500
  116.0000     7.2731   154.7959     6.6925   -35.6298  -999.2500
  116.5000     6.9746   161.1359     6.4535   -35.7914  -999.2500
  117.0000     6.8484   165.9464     6.2146   -35.9530  -999.2500
  117.5000     6.7065   170.7807     5.8973   -35.8006  -999.2500
  118.0000     6.4863   177.0090     5.5799   -35.4912  -999.2500
  118.5000     6.2974   186.5036     5.2560   -35.6539  -999.2500
  119.0000     6.0773   196.7868     4.9321   -35.8155  -999.2500
  119.5000     5.8884   211.8019     4.6270   -35.8201  -999.2500
  120.0000     5.6317   224.4510     4.4664   -35.5096  -999.2500
  120.5000     5.2922   233.9456     4.3842   -35.3572  -999.2500
  121.0000     5.0399   233.1801     4.3020   -35.5199  -999.2500
  121.5000     5.2109   231.6404     4.4549   -35.3673  -999.2500
  122.0000     5.2884   230.0949     4.6078   -34.4302  -999.2500
  122.5000     5.0992   230.1262     4.7607   -34.7514  -999.2500
  123.0000     4.9733   229.2587     4.9920   -35.2245  -999.2500
  123.5000     5.3475   210.4791     5.2233   -35.5441  -999.2500
  124.0000     5.5968   198.6803     5.3762   -36.0196  -999.2500
  124.5000     5.7522   186.0929     5.5291   -36.3382  -999.2500
  125.0000     5.7825   178.2373     5.5251   -36.1847  -999.2500
  125.5000     5.8141   174.3249     5.5998   -36.1904  -999.2500
  126.0000     5.8740   173.5594     5.5950   -36.5090  -999.2500
  126.5000     5.9042   175.9639     5.6705   -36.8276  -999.2500
  127.0000     5.9344   178.3607     5.6657   -36.0472  -999.2500
  127.5000     5.9333   179.9688     5.6618   -34.6390  -999.2500
  128.0000     5.9323   181.5773     5.6580   -34.0156  -999.2500
  128.5000     5.8999   181.6088     5.6541   -33.5217  -999.2500
  129.0000     5.7893   181.6464     5.4936   -33.0840  -999.2500
  129.5000     5.5691   184.8318     5.3330   -32.9305  -999.2500
  130.0000     5.3646   198.2696     5.0157   -33.7212  -999.2500
  130.5000     5.2054   224.3257     4.5350   -34.8247  -999.2500
  131.0000     5.0125   262.2115     4.0413   -35.3002  -999.2500
  131.5000     4.6100   300.8858     3.4358   -35.3048  -999.2500
  132.0000     4.0612   334.8283     3.1185   -34.9955  -999.2500
  132.5000     3.8253   343.5343     2.8012   -35.0001  -999.2500
  133.0000     3.7304   342.7760     2.7973   -34.8404  -999.2500
  133.5000     3.9797   339.6294     2.7935   -34.6953  -999.2500
  134.0000     4.0571   337.9181     2.8690   -32.9742  -999.2500
  134.5000     3.6959   332.6244     2.9435   -31.2519  -999.2500
  135.0000     3.6009   319.2483     3.0955   -31.5705  -999.2500
  135.5000     4.0850   290.8880     3.5618   -32.8310  -999.2500
  136.0000     4.6201   249.9094     4.0282   -33.9345  -999.2500
  136.5000     4.8073   219.1831     4.3379   -34.0961  -999.2500
  137.0000     4.9422   202.6525     4.4908   -34.2577  -999.2500
  137.5000     5.0037   193.2119     4.5653   -34.4192  -999.2500
  138.0000     5.0183   201.1369     4.5605   -34.4239  -999.2500
  138.5000     5.0172   206.6882     4.5567   -34.2543  -999.2500
  139.0000     5.0162   209.8896     4.4744   -33.0213  -999.2500
  139.5000     5.0151   210.6940     4.4706   -32.2410  -999.2500
  140.0000     4.9984   210.7317     4.4668   -32.4026  -999.2500
  140.5000     4.9817   210.7626     4.4629   -33.1921  -999.2500
  141.0000     4.9023   213.1594     4.4591   -33.5107  -999.2500
  141.5000     4.7892   219.4994     4.4552   -34.1432  -999.2500
  142.0000     4.7069   229.7826     4.2163   -34.1478  -999.2500
  142.5000     4.6015   244.7977     3.8140   -34.1340  -999.2500
  143.0000     4.3970   271.6424     3.4901   -35.4129  -999.2500
  143.5000     4.1612   304.0076     3.1850   -35.2486  -999.2500
  144.0000     3.8941   332.4296     3.0244   -36.1047  -999.2500
  144.5000     3.7209   343.5173     2.9422   -36.8396  -999.2500
  145.0000     3.6103   345.1104     2.9384   -36.2174  -999.2500
  145.5000     3.6092   335.6845     3.0129   -35.2801  -999.2500
  146.0000     3.7646   316.7879     3.0875   -33.5578  -999.2500
  146.5000     4.2174   304.2004     3.3187   -31.9925  -999.2500
