~VERSION INFORMATION
 VERS.                2.0:   CWLS LOG ASCII STANDARD - VERSION 2.0
 WRAP.                 NO:   ONE LINE PER DEPTH STEP
~WELL INFORMATION
#MNEM.UNIT      DATA TYPE    INFORMATION
#----------   ------------   ------------------------------
 STRT.F            2.0000:   START DEPTH
 STOP.F          565.0000:   STOP DEPTH
 STEP.F            0.5000:   STEP LENGTH
 NULL.          -999.2500:   NO VALUE
 COMP.       F D SERV INC:   COMPANY
 WELL. NAVAL PETROLEUM RESERVE 3 SX-3 #86-2 SX3:   WELL
 FLD .             TEAPOT:   FIELD
 LOC .       S3 T38N R78W:   LOCATION
 CNTY.            NATRONA:   COUNTY
 STAT.            WYOMING:   STATE
 CTRY. UNITED STATES OF AMERICA:   COUNTRY
 SRVC.     Atlas Wireline:   SERVICE COMPANY
 DATE.        23-OCT-1992:   LOGDATE
 API .       490252255400:   API NUMBER
~CURVE INFORMATION
#MNEM.UNIT       API CODE    CURVE DESCRIPTION
#----------   ------------   ------------------------------
 DEPT.F                  :   
 GRR .GAPI   07 310 01 00:   GAMMA RAY
 RILD.OHMM   07 120 46 00:   INDUCTION LOG DEEP RESISTIVITY
 RILM.OHMM   07 120 44 00:   RESITIVITY LONG MEDIUM
~PARAMETER INFORMATION
#MNEM.UNIT          VALUE    DESCRIPTION
#----------   ------------   ------------------------------
 PD  .                 GL:   PERMANENT DATUM
 EPD .F              5153:   ELEVATION PERMANENT DATUM
 LMF .                 KB:   LOG MEASURED FROM
 DAPD.F                10:   FEET ABOVE PERMANENT DATUM
 DMF .                 KB:   DRILLING MEASURED FROM
 EKB .F              5153:   KELLING BUSHING
 EDF .F              5152:   DRILLING FLOOR
 EGL .F              5143:   GROUND LEVEL
 DATE.        23-OCT-1992:   RUN DATE
 RUN .                  1:   RUN NUMBER
 DD  .F               575:   DEPTH DRILLER
 DL  .F               574:   DEPTH LOGGER
 BLI .F               566:   BOTTOM LOG INTERVAL
 CS  .IN            8.625:   CASING SIZE
 CBD .F                94:   CASING BOTTOM DRILLER
 CBL .F                98:   CASING BOTTOM LOGGER
 BS  .IN            7.875:   BIT SIZE
 BSD .F               575:   BIT SIZE AT DEPTH
 DFT .           AIR FOAM:   DRILLING FLUID TYPE
 TCS .HRS               1:   TIME CURCULATED STOPPED
 MRT .F                70:   MAXIMUM RECORDED TEMPERATURE
 LUN .            HL-6274:   LOGGING UNIT NUMBER
 LUL .             CASPER:   LOGGING UNIT LOCATION
 ENGI.             RAUTIO:   RECORDING ENGINEER
 WITN.        GARY STRONG:   WITNESSED BY
 CLNT.            A2DTECH:   CLIENT CODE
 ORIG.           5" PRINT:   ORIGIN OF DATA
 UWI .       490252255400:   UNIQUE WELL ID
 DICO. A2D Technologies, Inc.:   DIGITIZING COMPANY
~OTHER INFORMATION
~A    DEPT      GRR      RILD       RILM   
# ...
  457.0000    85.4110    25.6626    24.0584
  457.5000    89.0257    25.4855    23.5613
  458.0000    89.6351    24.9615    23.0745
  458.5000    88.7430    24.7892    22.7403
  459.0000    87.5507    24.2795    22.2836
  459.5000    88.7607    24.1120    22.1271
  460.0000    92.0728    23.6162    22.1241
  460.5000    96.5861    23.4532    21.9687
  461.0000    97.7962    23.4532    21.9657
  461.5000    96.9041    23.1307    21.8114
  462.0000    95.4114    22.9604    21.3607
  462.5000    92.9930    22.3178    20.7752
  463.0000    89.5235    21.7330    20.0637
  463.5000    87.9304    21.1393    19.4998
  464.0000    93.3468    20.5618    18.9809
  464.5000    97.5598    20.1390    18.7177
  465.0000    99.6708    20.0000    18.5862
  465.5000   102.6826    19.8620    18.5837
  466.0000   102.6914    19.8620    18.7107
  466.5000   101.4991    19.7249    18.7076
  467.0000   100.6070    19.3017    18.7050
  467.5000    99.1143    18.5117    18.7025
  468.0000    97.3213    18.4052    18.5037
  468.5000    94.8779    18.4052    18.4406
  469.0000    94.0357    18.4052    18.1844
  469.5000    95.5482    18.4052    17.8086
  470.0000    99.1606    18.1520    17.3205
  470.5000    98.2686    17.7788    16.8457
  471.0000    95.8728    17.4132    16.3840
  471.5000    95.5813    16.9375    15.9349
  472.0000    95.5923    16.4748    15.6056
  472.5000    95.3009    16.3423    15.4960
  473.0000    95.3097    16.0247    15.3871
  473.5000    95.3185    15.8043    15.1732
  474.0000    94.1261    15.5869    15.0666
  474.5000    92.0328    15.3725    14.8577
  475.0000    91.0911    15.1610    14.7533
  475.5000    89.9506    15.0564    14.5488
  476.0000    88.7582    15.0564    14.3470
  476.5000    88.7671    14.8493    14.1481
  477.0000    91.7789    14.7468    13.8557
  477.5000    95.0910    14.6451    13.6636
  478.0000    99.9046    14.3440    13.4629
  478.5000   101.7131    14.2450    13.1953
  479.0000    99.3217    14.0490    13.1026
  479.5000    95.4266    13.9521    13.0105
  480.0000    90.9309    13.9521    12.9191
  480.5000    90.0388    13.7602    12.9174
  481.0000    92.0499    13.5709    12.8271
  481.5000    94.8635    13.3842    12.9140
  482.0000    95.1726    13.3842    13.0018
  482.5000    95.7821    13.2002    13.0902
  483.0000    96.6918    13.0186    13.0884
  483.5000    99.4033    13.1091    13.0862
  484.0000   101.8146    13.2002    13.0848
  484.5000   102.4240    13.1091    13.0827
  485.0000   102.1321    13.0186    12.9908
  485.5000   101.8408    12.9287    12.9891
  486.0000   101.8499    12.8395    12.8978
  486.5000   101.8589    12.8395    12.8073
  487.0000   100.6166    12.8395    12.7172
  487.5000    99.4761    12.8395    12.6279
  488.0000    99.7853    12.8395    12.5311
  488.5000   101.2956    12.8395    12.3649
  489.0000   101.6047    12.7509    12.3632
  489.5000   101.6135    12.7509    12.2556
  490.0000   101.9227    12.7509    12.1902
  490.5000   104.0336    12.5755    12.1045
  491.0000   105.2436    12.4887    12.1029
  491.5000   104.6518    12.2320    12.0179
  492.0000   104.3604    12.1475    12.0162
  492.5000   104.0689    12.1475    12.0980
  493.0000   104.3784    12.2320    12.3495
  493.5000   105.5902    12.5755    12.6941
  494.0000   106.8003    13.1091    13.0484
  494.5000   106.2085    13.5709    13.4125
  495.0000   102.9140    13.8558    13.5042
  495.5000    98.4183    13.7602    13.5961
  496.0000    92.4212    13.4773    13.5001
  496.5000    89.1245    13.2002    13.3129
  497.0000    91.2376    13.1091    13.0378
  497.5000    99.6548    12.8395    12.8437
  498.0000   106.8709    12.5755    12.5042
  498.5000   110.0393    12.4026    12.2458
  499.0000   111.2521    12.0637    11.9928
  499.5000   112.4650    11.8157    11.8265
  500.0000   113.0699    11.8157    11.5821
  500.5000   109.9019    11.7341    11.4465
  501.0000   107.5921    11.7341    11.2989
  501.5000   108.1971    11.5727    11.1513
  502.0000   110.0178    11.4876    10.9650
  502.5000   110.9274    11.3348    10.8822
  503.0000   110.9237    11.1789    10.7428
  503.5000   110.6168    11.1789    10.5967
  504.0000   109.7020    10.8735    10.4529
  504.5000   109.0911    10.6499    10.2393
  505.0000   109.7062    10.4309     9.9617
  505.5000   111.2543    10.0759     9.6913
  506.0000   113.3368    10.0286     9.4936
  506.5000   115.1576     9.8782     9.2358
  507.0000   116.0672     9.4296     8.9851
  507.5000   115.7595     8.9232     8.6182
  508.0000   115.1487     8.2133     7.8638
  508.5000   117.2734     7.4044     7.0082
  509.0000   120.9178     6.4036     6.5862
  509.5000   124.8662     6.0179     6.0208
  510.0000   129.0178     5.8544     5.5804
  510.5000   140.3162     5.8965     5.6984
  511.0000   144.3095     5.8977     6.0233
  511.5000   143.6986     6.0646     6.7288
  512.0000   135.1850     6.4186     7.3120
  512.5000   116.0331     6.7391     7.8365
  513.0000   113.2946     7.1659     8.4581
  513.5000   112.9884     7.7884     9.0134
  514.0000   113.2888     8.4650     9.3841
  514.5000   113.5897     9.2644     9.6486
  515.0000   115.1977     9.7265     9.8522
  515.5000   121.1818    10.0017     9.9907
  516.0000   124.2191    10.1433    10.2015
  516.5000   120.5680    10.2868    10.3450
  517.0000   115.7018    10.5049    10.5632
  517.5000   113.8751    10.6586    10.7118
  518.0000   113.5682    10.9551    10.8624
  518.5000   113.8693    11.1106    11.0916
  519.0000   115.3860    11.2679    11.2544
  519.5000   115.9909    11.4274    11.4524
  520.0000   115.9878    11.5891    11.7276
  520.5000   115.9842    11.7531    11.9070
  521.0000   115.6773    11.9194    12.0598
  521.5000   115.3704    12.1721    12.2293
  522.0000   117.1912    12.5166    12.4013
  522.5000   116.8842    12.6061    12.5757
  523.0000   116.5773    12.5212    12.7526
  523.5000   116.2704    12.7873    12.8428
  524.0000   114.7477    12.8788    13.0234
  524.5000   112.2937    12.9710    13.1156
  525.0000   111.0942    12.9736    13.1705
  525.5000   111.3946    13.0743    13.2105
  526.0000   114.1272    13.1758    13.2123
  526.5000   115.0368    13.2547    13.2141
  527.0000   113.2094    13.2574    13.2159
  527.5000   108.6472    13.2601    13.2175
  528.0000   105.6047    13.1713    13.2194
  528.5000   107.1215    13.0824    13.1302
  529.0000   110.1580    12.9947    13.1319
  529.5000   113.1946    12.9980    13.1337
  530.0000   112.5830    13.1820    13.1355
  530.5000   112.5800    13.1847    13.0328
  531.0000   115.0087    13.0963    12.8693
  531.5000   112.5741    12.9973    12.7823
  532.0000   108.9237    12.8323    12.6085
  532.5000   108.6168    12.4849    12.5233
  533.0000   108.6138    12.2307    12.2683
  533.5000   111.9544    12.2331    12.1010
  534.0000   113.7833    12.1506    11.8546
  534.5000   113.3889    12.1537    11.7744
  535.0000   111.3368    11.9889    11.5343
  535.5000   111.9418    11.9085    11.2990
  536.0000   114.9783    11.5856    11.2114
  536.5000   117.4070    11.3497    10.9941
  537.0000   118.6198    11.1125    10.9196
  537.5000   120.7445    10.8922    10.6971
  538.0000   122.2613    10.6704    10.6245
  538.5000   123.4742    10.5263    10.5527
  539.0000   122.5410    10.3831    10.4818
  539.5000   121.9483    10.2429    10.4106
  540.0000   124.3764    10.1036    10.3405
  540.5000   126.8050    10.1062    10.2707
  541.0000   127.7139    10.1082    10.2721
  541.5000   127.1030    10.0404    10.2027
  542.0000   125.5803    10.0425    10.2044
  542.5000   122.5378    10.1144    10.2058
  543.0000   120.4072    10.1165    10.1365
  543.5000   119.7963    10.1190    10.1382
  544.0000   123.2217    10.1211    10.0694
  544.5000   125.8694    10.0533    10.0017
  545.0000   124.3460     9.9854     9.9341
  545.5000   124.0391     9.8501     9.7990
  546.0000   124.0361     9.7841     9.7328
  546.5000   124.3378     9.5853     9.5980
  547.0000   124.0302     9.5873     9.4616
  547.5000   124.0272     9.0724     9.2767
