~VERSION INFORMATION
 VERS.                2.0:   CWLS LOG ASCII STANDARD - VERSION 2.0
 WRAP.                 NO:   ONE LINE PER DEPTH STEP
~WELL INFORMATION
#MNEM.UNIT      DATA TYPE    INFORMATION
#----------   ------------   ------------------------------
 STRT.F           20.5000:   START DEPTH
 STOP.F          544.0000:   STOP DEPTH
 STEP.F            0.5000:   STEP LENGTH
 NULL.          -999.2500:   NO VALUE
 COMP. LAWRENCE/ALLISON INC:   COMPANY
 WELL.    45-65 SX #10-10:   WELL
 FLD .             TEAPOT:   FIELD
 LOC .      S10 T38N R78W:   LOCATION
 CNTY.            NATRONA:   COUNTY
 STAT.            WYOMING:   STATE
 CTRY. UNITED STATES OF AMERICA:   COUNTRY
 SRVC.            Unknown:   SERVICE COMPANY
 DATE.        01-SEP-1984:   LOGDATE
 API .       490251098400:   API NUMBER
~CURVE INFORMATION
#MNEM.UNIT       API CODE    CURVE DESCRIPTION
#----------   ------------   ------------------------------
 DEPT.F                  :   
 GRD .GAPI   45 310 01 00:   GAMMA RAY FROM DENSITY LOG
 CALD.IN     45 280 60 00:   CALIPER
 DEN .G/C3   45 350 01 00:   COMPENSATED BULK DENSTIY
 CORR.G/C3   45 356 01 00:   DENSITY CORRECTION
 CNC .DEC    42 890 03 00:   NEUTRON POROSITY SANDSTONE
 PORD.DEC    45 890 12 00:   POROSITY DENSITY SANDSTONE
 AC  .US/F   60 520 00 00:   ACOUSTIC SONIC
 SPR .MV     07 010 01 00:   SPONTANEOUS POTENTIAL
 RILD.OHMM   07 120 46 00:   INDUCTION LOG DEEP RESISTIVITY
 RILM.OHMM   07 120 44 00:   INDUCTION LOG MEDIUM RESISTIVITY
 RFOC.OHMM   07 220 04 00:   RESISTIVITY FOCUSED LOG
~PARAMETER INFORMATION
#MNEM.UNIT          VALUE    DESCRIPTION
#----------   ------------   ------------------------------
 PD  .                 GL:   PERMANENT DATUM
 EPD .F              5208:   ELEVATION PERMANENT DATUM
 LMF .                 KB:   LOG MEASURED FROM
 DAPD.F                12:   FEET ABOVE PERMANENT DATUM
 DMF .                 KB:   DRILLING MEASURED FROM
 EKB .F              5220:   KELLING BUSHING
 EGL .F              5208:   GROUND LEVEL
 DATE.        1-SEPT-1984:   RUN DATE
 RUN .                  1:   RUN NUMBER
 DD  .F               550:   DEPTH DRILLER
 DL  .F               544:   DEPTH LOGGER
 BLI .F               544:   BOTTOM LOG INTERVAL
 TLI .F                30:   TOP LOG INTERVAL
 CBL .F                44:   CASING BOTTOM LOGGER
 BS  .IN            7.875:   BIT SIZE
 BSD .F               550:   BIT SIZE AT DEPTH
 DFT .          KCL WATER:   DRILLING FLUID TYPE
 MSS .               TANK:   MUD SAMPLE SOURCE
 RMS .OHMM           .236:   RESISTIVITY MUD SAMPLE
 MST .F                75:   MUD SAMPLE TEMPERATURE
 TCS .HRS               3:   TIME CURCULATED STOPPED
 MRT .F               100:   MAXIMUM RECORDED TEMPERATURE
 LUN .               4082:   LOGGING UNIT NUMBER
 LUL .               ROOS:   LOGGING UNIT LOCATION
 ENGI.             MILLER:   RECORDING ENGINEER
 WITN.            JOHNSON:   WITNESSED BY
 CLNT.            A2DTECH:   CLIENT CODE
 ORIG.       2", 5" PRINT:   ORIGIN OF DATA
 UWI .       490251098400:   UNIQUE WELL ID
 DICO. A2D Technologies, Inc.:   DIGITIZING COMPANY
~OTHER INFORMATION
~A   DEPT      GRD       CALD        DEN       CORR          CNC     PORD         AC        SPR       RILD       RILM       RFOC   
# ...
  295.0000    69.1822     8.1322     2.3947     0.0392     0.2011     0.1680    97.7563   -50.1757    26.8604    24.8446    29.6313
  295.5000    67.7810     8.1310     2.4015     0.0357     0.2024     0.1680    98.1990   -49.9565    26.1084    24.2247    29.2839
  296.0000    69.6694     8.1299     2.4104     0.0274     0.2000     0.1695    98.4346   -49.8171    25.3774    23.6202    28.2174
  296.5000    72.2788     8.1287     2.4199     0.0228     0.2035     0.1594    98.3739   -50.2236    24.6670    23.0308    27.4192
  297.0000    73.3820     8.1276     2.4294     0.0492     0.2090     0.1491    97.8721   -50.6257    23.9734    22.4561    26.6464
  297.5000    74.0458     8.1264     2.4391     0.0753     0.2132     0.1440    96.7170   -50.9893    23.3434    21.8954    25.8930
  298.0000    75.7985     8.1252     2.4388     0.0941     0.2123     0.1445    95.4046   -50.8913    22.8057    21.3491    25.3879
  298.5000    78.1075     8.1241     2.4375     0.0898     0.2176     0.1447    94.4955   -50.7751    22.2872    20.8196    24.9170
  299.0000    79.4753     8.1229     2.4362     0.0732     0.2081     0.1450    94.5001   -50.6596    21.7789    20.6612    24.4637
  299.5000    76.5265     8.1218     2.4350     0.0562     0.1981     0.1455    94.8432   -50.5442    21.4156    20.4627    24.1502
  300.0000    74.3712     8.1206     2.4337     0.0393     0.1995     0.1460    95.1863   -50.4240    21.6328    20.7661    23.8890
  300.5000    75.3992     8.1195     2.4314     0.0224     0.1973     0.1469    95.5115   -50.4351    22.0816    21.1072    23.4904
  301.0000    76.5014     8.1183     2.4268     0.0041     0.1911     0.1497    95.6783   -50.7841    22.5308    21.4540    23.4904
  301.5000    77.6115     8.1174     2.4169    -0.0041     0.1877     0.1513    95.8452   -51.1384    22.8570    21.8064    23.9343
  302.0000    78.5947     8.1188     2.4072     0.0086     0.1898     0.1507    96.0364   -51.5035    23.1835    22.1647    24.2780
  302.5000    77.4458     8.1201     2.3986     0.0249     0.1868     0.1578    96.4296   -51.5835    23.5146    22.5288    24.6265
  303.0000    76.1925     8.1215     2.3999     0.0215     0.2002     0.1667    96.8229   -51.5852    23.8505    22.8989    24.9801
  303.5000    76.0166     8.1228     2.3991     0.0153     0.2132     0.1669    97.1499   -51.5843    24.1912    23.2751    25.2829
  304.0000    77.3192     8.1242     2.3863     0.0100     0.2137     0.1664    97.3319   -51.5842    24.5367    23.6575    25.5645
  304.5000    78.6008     8.1255     2.3733     0.0193     0.2140     0.1733    97.5009   -51.5842    24.8871    24.0461    25.8623
  305.0000    79.4624     8.1269     2.3701     0.0293     0.2059     0.1831    97.5724   -51.5842    25.2426    24.3702    26.1635
  305.5000    79.2584     8.1282     2.3674     0.0366     0.1992     0.1854    97.5355   -51.5841    25.6031    24.3702    26.4683
  306.0000    79.0719     8.1296     2.3659     0.0250     0.1997     0.1865    97.4564   -51.5847    25.7520    24.3702    26.7767
  306.5000    78.8845     8.1309     2.3746     0.0224     0.2010     0.1861    97.3778   -51.5338    25.4970    24.2040    26.9661
  307.0000    78.8761     8.1323     2.3850     0.0384     0.2023     0.1765    97.2934   -51.4512    25.1810    23.9972    26.9663
  307.5000    78.8754     8.1336     2.3936     0.0400     0.2075     0.1703    96.9938   -51.3680    24.8689    23.7922    26.7960
  308.0000    78.8834     8.1350     2.3892     0.0068     0.2071     0.1768    96.6738   -51.2848    24.5606    23.5890    25.8887
  308.5000    78.0878     8.1363     2.3730    -0.0230     0.2081     0.1715    96.3962   -51.2016    24.2562    23.3875    24.8223
  309.0000    76.7024     8.1372     2.3689    -0.0105     0.2134     0.1839    96.4454   -51.1185    24.1472    23.0224    25.0372
  309.5000    75.3345     8.1372     2.3724     0.0046     0.2172     0.1856    96.4907   -51.0355    24.1472    22.4581    25.2789
  310.0000    75.8738     8.1372     2.3825     0.0197     0.2153     0.1828    96.5362   -50.9898    24.1472    21.9076    24.7907
  310.5000    76.6516     8.1372     2.3928     0.0278     0.2155     0.1856    96.5833   -50.9901    23.7886    21.3705    24.3259
  311.0000    76.4211     8.1372     2.4066     0.0311     0.2116     0.1655    96.3611   -50.9901    23.3789    20.8467    23.8717
  311.5000    75.9576     8.1372     2.4200     0.0425     0.2064     0.1580    96.0757   -50.9908    22.9763    20.2777    23.4266
  312.0000    75.4821     8.1372     2.4247     0.0557     0.2082     0.1594    95.9505   -50.9931    22.5805    20.3584    22.9899
  312.5000    75.2919     8.1372     2.4190     0.0610     0.2064     0.1535    95.8254   -50.9703    22.2299    20.4646    22.5612
  313.0000    75.6919     8.1372     2.4113     0.0442     0.1936     0.1575    95.7001   -50.5913    22.1431    20.4650    22.4352
  313.5000    76.6572     8.1372     2.4035     0.0283     0.2004     0.1598    95.5658   -50.2222    22.0472    20.4650    22.6830
  314.0000    77.9167     8.1372     2.3957     0.0247     0.1983     0.1591    95.3957   -49.8559    21.9516    20.4649    22.9583
  314.5000    79.0658     8.1372     2.3927     0.0218     0.2016     0.1667    95.8693   -49.4895    21.8565    20.4648    23.2384
  315.0000    77.4528     8.1372     2.3956     0.0216     0.1980     0.1699    96.5157   -49.1239    21.7618    20.4650    23.5247
  315.5000    75.7288     8.1372     2.4001     0.0257     0.2063     0.1655    97.2888   -48.7683    21.6675    20.4649    23.7073
  316.0000    74.3546     8.1372     2.4039     0.0297     0.2057     0.1653    97.8625   -48.5251    21.5297    20.2540    23.1413
  316.5000    75.0465     8.1372     2.4042     0.0321     0.2147     0.1650    97.8765   -48.2747    21.2612    19.8772    22.5591
  317.0000    75.8304     8.1372     2.4047     0.0245     0.2024     0.1643    97.7278   -48.0281    20.9961    19.5073    21.9915
  317.5000    76.6182     8.1372     2.4074     0.0160     0.1969     0.1638    97.5232   -47.9848    20.7344    19.1444    21.4274
  318.0000    77.3906     8.1372     2.4153     0.0250     0.2007     0.1636    97.1048   -47.9516    20.4758    18.7882    21.2257
  318.5000    77.6689     8.1372     2.4230     0.0388     0.1973     0.1587    96.6893   -47.9174    20.2205    18.4386    20.8843
  319.0000    76.1160     8.1372     2.4269     0.0518     0.2063     0.1499    96.1310   -47.8824    19.9684    18.0955    20.5484
  319.5000    74.7791     8.1372     2.4234     0.0449     0.2145     0.1531    95.7735   -47.8489    19.7194    17.7955    20.2179
  320.0000    77.2863     8.1372     2.4097     0.0364     0.2148     0.1507    95.5482   -47.8692    19.4735    17.6366    20.0921
  320.5000    81.3028     8.1372     2.3964     0.0301     0.2157     0.1616    95.3492   -48.1277    19.2307    17.4791    20.0922
  321.0000    80.2354     8.1372     2.3867     0.0262     0.2024     0.1754    95.4252   -48.1972    18.9454    17.3232    20.0940
  321.5000    79.0337     8.1372     2.3949     0.0223     0.1984     0.1678    95.7140   -48.1688    18.6551    17.1683    20.0955
  322.0000    79.1836     8.1372     2.4069     0.0185     0.1991     0.1724    96.0888   -48.1384    18.3692    17.0135    20.0921
  322.5000    79.3381     8.1372     2.4155     0.0157     0.1996     0.1748    96.3777   -48.1080    18.0877    16.8817    19.3079
  323.0000    76.6562     8.1372     2.4141     0.0166     0.1992     0.1574    96.2003   -48.0778    17.8106    16.7046    18.7027
  323.5000    74.0107     8.1372     2.4127     0.0284     0.1956     0.1587    95.6973   -48.0480    17.5376    16.4208    18.1599
  324.0000    76.3294     8.1372     2.4177     0.0401     0.1956     0.1594    95.2462   -48.0163    17.5043    16.2045    18.1711
  324.5000    79.8748     8.1372     2.4301     0.0519     0.1945     0.1530    94.8709   -47.9392    17.3442    16.1390    18.1876
  325.0000    83.5566     8.1372     2.4426     0.0630     0.2014     0.1410    94.7366   -47.8639    17.3442    16.0732    18.2042
