~VERSION INFORMATION
 VERS.                2.0:   CWLS LOG ASCII STANDARD - VERSION 2.0
 WRAP.                 NO:   ONE LINE PER DEPTH STEP
~WELL INFORMATION
#MNEM.UNIT      DATA TYPE    INFORMATION
#----------   ------------   ------------------------------
 STRT.F           32.5000:   START DEPTH
 STOP.F          654.0000:   STOP DEPTH
 STEP.F            0.5000:   STEP LENGTH
 NULL.          -999.2500:   NO VALUE
 COMP. FENIX & SCISSON INC:   COMPANY
 WELL.          NPR #13-2:   WELL
 FLD .             TEAPOT:   FIELD
 LOC .       S2 T38N R78W:   LOCATION
 CNTY.            NATRONA:   COUNTY
 STAT.            WYOMING:   STATE
 CTRY. UNITED STATES OF AMERICA:   COUNTRY
 SRVC.           BIRDWELL:   SERVICE COMPANY
 DATE.        16-JAN-1978:   LOGDATE
 API .       490251055100:   API NUMBER
~CURVE INFORMATION
#MNEM.UNIT       API CODE    CURVE DESCRIPTION
#----------   ------------   ------------------------------
 DEPT.F                  :   
 ILD .OHMM   05 120 46 00:   INDUCTION LOG DEEP
 SN  .OHMM   05 040 16 00:   SHORT NORMAL 16"
 SPR .MV     05 010 01 00:   SPONTANEOUS POTENTIAL FROM RES.
 CALD.IN     45 280 60 00:   CALIPER FROM DENSITY LOG
 CORR.G/C3   45 356 01 00:   DENSITY CORRECTION
 DPHI.DEC    45 890 12 00:   DENSITY POROSITY SANDSTONE
 GRD .GAPI   45 310 01 00:   GAMMA RAY FROM DENSITY LOG
 RHOB.G/C3   45 350 01 00:   BULK DENSITY
~PARAMETER INFORMATION
#MNEM.UNIT          VALUE    DESCRIPTION
#----------   ------------   ------------------------------
 PD  .                 GL:   PERMANENT DATUM
 EPD .F              5091:   ELEVATION PERMANENT DATUM
 LMF .                 KB:   LOG MEASURED FROM
 DAPD.F                 4:   FEET ABOVE PERMANENT DATUM
 DMF .                 KB:   DRILLING MEASURED FROM
 EKB .F              5095:   KELLING BUSHING
 EGL .F              5091:   GROUND LEVEL
 DATE.        16-JAN-1978:   RUN DATE
 RUN .                  1:   RUN NUMBER
 DD  .F               652:   DEPTH DRILLER
 DL  .F               654:   DEPTH LOGGER
 BLI .F               649:   BOTTOM LOG INTERVAL
 TLI .F                30:   TOP LOG INTERVAL
 CS  .IN            8.625:   CASING SIZE
 CBD .F                20:   CASING BOTTOM DRILLER
 CBL .F                34:   CASING BOTTOM LOGGER
 BS  .IN            7.875:   BIT SIZE
 BSD .F               652:   BIT SIZE AT DEPTH
 DFT .                KCL:   DRILLING FLUID TYPE
 DFD .                8.7:   DRILLING FLUID DENSITY
 DFV .                 34:   DRILLING FLUID VISCOSITY
 DFPH.                 10:   DRILLING FLUID PH
 MSS .           FLOWLINE:   MUD SAMPLE SOURCE
 RMS .OHMM            0.3:   RESISTIVITY MUD SAMPLE
 MST .F                62:   MUD SAMPLE TEMPERATURE
 RMF .OHMM           0.26:   RESISTIVITY MUD FILTRATE SAMPLE
 MFST.F                66:   MUD FILTRATE SAMPLE TEMPERATURE
 RMC .OHMM           0.48:   RESISTIVITY MUD CAKE
 MCST.F                66:   MUD CAKE SAMPLE TEMPERATURE
 MFSS.               MEAS:   MUD FILTRATE SAMPLE SOURCE
 MCSS.               MEAS:   MUD CAKE SAMPLE SOURCE
 RMB .OHMM           0.26:   RESISTIVITY MUD AT BHT
 BHT .F                72:   BOTTOM HOLE TEMPERATURE
 TCS .HRS               3:   TIME CURCULATED STOPPED
 MRT .F                72:   MAXIMUM RECORDED TEMPERATURE
 LUN .               3027:   LOGGING UNIT NUMBER
 LUL .                GJT:   LOGGING UNIT LOCATION
 ENGI.           MARTINEZ:   RECORDING ENGINEER
 WITN.         HARRINGTON:   WITNESSED BY
 CLNT.            A2DTECH:   CLIENT CODE
 ORIG.           5" PRINT:   ORIGIN OF DATA
 UWI .       490251055100:   UNIQUE WELL ID
 DICO. A2D Technologies, Inc.:   DIGITIZING COMPANY
~OTHER INFORMATION
~A   DEPT      ILD         SN        SPR       CALD       CORR       DPHI         GRD      RHOB   
# ...
   73.0000     9.8478    10.7702   -32.5249     8.8047     0.0435     0.1576    82.5792     2.3964
   73.5000     9.7792    10.7719   -32.9710     8.8500     0.0405     0.1609    80.9201     2.3979
   74.0000     9.7112    10.7734   -33.1178     8.8803     0.0526     0.1663    81.6742     2.3964
   74.5000     9.5772    10.7003   -33.2636     8.8617     0.0706     0.1702    81.8371     2.3864
   75.0000     9.5765    10.5552   -32.9578     8.8173     0.0976     0.1705    79.5626     2.3784
   75.5000     9.5099    10.4836   -32.8032     8.8029     0.1291     0.1678    79.5988     2.3814
   76.0000     9.5752    10.4128   -32.4985     8.7735     0.1607     0.1664    81.8673     2.3829
   76.5000     9.5746    10.2713   -32.3438     8.7743     0.1928     0.1708    86.5008     2.3799
   77.0000     9.5739    10.2023   -32.4886     8.7749     0.2217     0.1732    84.6908     2.3739
   77.5000     9.5733    10.2037   -32.4842     8.7605     0.2477     0.1738    82.8808     2.3724
   78.0000     9.6391    10.1348   -32.4798     8.7461     0.2628     0.1700    80.9201     2.3754
   78.5000     9.6382    10.0664   -32.3252     8.6998     0.2748     0.1636    79.7134     2.3814
   79.0000     9.7718    10.0678   -32.3208     8.5977     0.2778     0.1600    79.5626     2.3889
   79.5000     9.7711    10.0695   -32.1663     8.5235     0.2748     0.1585    78.6576     2.3964
   80.0000     9.7705    10.0708   -32.1619     8.4342     0.2733     0.1534    77.9035     2.4002
   80.5000     9.8378    10.0722   -32.4580     8.3300     0.2598     0.1498    78.6576     2.4032
   81.0000     9.8369    10.1434   -32.7537     8.2706     0.2387     0.1534    82.2775     2.4070
   81.5000     9.9047    10.1448   -33.0496     8.2713     0.2102     0.1630    85.8974     2.4084
   82.0000     9.9726    10.2165   -33.0450     8.3019     0.1727     0.1702    84.6546     2.3934
   82.5000     9.9032    10.2179   -33.0396     8.3623     0.1361     0.1690    81.3726     2.3769
   83.0000     9.8343    10.2193   -33.0352     8.4378     0.1199     0.1585    82.8808     2.3754
   83.5000     9.7658    10.2915   -32.8807     8.5132     0.1126     0.1485    88.9140     2.3859
   84.0000     9.7650    10.3643   -32.8763     8.5886     0.1111     0.1387    89.5173     2.4054
   84.5000     9.6971    10.3657   -32.8719     8.6491     0.1126     0.1309    87.1041     2.4279
   85.0000     9.6964    10.3671   -32.8675     8.6946     0.1021     0.1408    81.9759     2.4399
   85.5000     9.6958    10.3688   -33.0143     8.7261     0.0811     0.1537    81.9759     2.4369
   86.0000     9.6951    10.3702   -33.0088     8.7557     0.0541     0.1648    81.9759     2.4204
   86.5000     9.6944    10.3716   -33.0044     8.7564     0.0405     0.1642    80.4676     2.3902
   87.0000     9.6938    10.3730   -33.0000     8.7570     0.0403     0.1636    79.8643     2.3874
   87.5000     9.6931    10.3744   -32.9955     8.7576     0.0495     0.1654    79.7134     2.3881
   88.0000     9.7597    10.4478   -32.9910     8.7582     0.0781     0.1648    79.7013     2.3881
   88.5000     9.8272    10.5217   -32.9857     8.7588     0.1181     0.1636    80.0573     2.3881
   89.0000     9.9630    10.4506   -33.1314     8.7593     0.1572     0.1618    87.1041     2.3889
   89.5000     9.8254    10.4520   -33.1270     8.7300     0.1963     0.1585    87.7074     2.3911
   90.0000     9.6229    10.3815   -33.1226     8.7306     0.2417     0.1515    86.5008     2.3979
   90.5000     9.4901    10.3769   -33.1182     8.7312     0.2628     0.1438    84.8416     2.4099
   91.0000     9.3591    10.3128   -33.1138     8.7018     0.2748     0.1318    84.6908     2.4264
   91.5000     9.2940    10.2432   -32.9592     8.6126     0.2838     0.1273    85.7466     2.4369
   92.0000     9.2934    10.1039   -32.8047     8.6132     0.2793     0.1270    85.8974     2.4422
   92.5000     9.2928    10.0357   -32.8003     8.7036     0.2688     0.1300    86.8024     2.4429
   93.0000     9.2921    10.0374   -32.6456     8.7192     0.2598     0.1333    89.8190     2.4414
   93.5000     9.2915    10.0388   -32.6411     8.5172     0.2508     0.1345    86.5008     2.4414
   94.0000     9.2909    10.0401   -32.6358     8.2863     0.2402     0.1339    81.3243     2.4414
   94.5000     9.2902    10.0415   -32.7827     8.2269     0.2202     0.1597    78.5852     2.4189
   95.0000     9.1620     9.9737   -32.9284     8.2125     0.1959     0.1543    77.7526     2.3979
   95.5000     9.1614     9.9751   -33.2243     8.2432     0.1697     0.1489    78.3560     2.4009
   96.0000     9.2243     9.9764   -33.3700     8.3037     0.1667     0.1650    82.2775     2.4114
   96.5000     9.2237     9.9778   -33.3645     8.3941     0.1607     0.1888    86.8024     2.3904
   97.0000     9.2230     9.9792   -33.3601     8.4845     0.1171     0.1816    87.1041     2.3468
   97.5000     9.2223     9.9808   -33.3557     8.5899     0.1006     0.1708    86.1991     2.3506
   98.0000     9.2217     9.9822   -33.3513     8.6653     0.1066     0.1540    85.2941     2.3731
   98.5000     9.2210     9.9835   -33.3468     8.7108     0.1096     0.1372    86.9532     2.4150
   99.0000     9.2204     9.9849   -33.3423     8.7413     0.1036     0.1294    88.3107     2.4364
   99.5000     9.2198    10.0554   -33.3370     8.7719     0.0901     0.1276    88.3107     2.4414
  100.0000     9.0923    10.0170   -33.1832     8.7693     0.0706     0.1411    86.9532     2.4397
  100.5000     9.0946     9.9193   -33.3289     8.7569     0.0493     0.1412    85.2821     2.4324
  101.0000     9.0964     9.8517   -33.3234     8.7440     0.0435     0.1448    84.9925     2.4234
  101.5000     9.0983     9.9208   -33.3190     8.7298     0.0556     0.1459    84.6954     2.4189
  102.0000     9.1633     9.9903   -33.3147     8.7156     0.0676     0.1396    83.1885     2.4204
  102.5000     9.2932    10.0602   -33.4615     8.7163     0.0886     0.1327    82.7375     2.4324
  103.0000     9.4899    10.2716   -33.4560     8.6873     0.1141     0.1315    83.0850     2.4399
  103.5000     9.6240    10.4874   -33.4516     8.6880     0.1366     0.1291    85.4558     2.4421
  104.0000     9.5591    10.7197   -33.4472     8.7037     0.1517     0.1195    88.4739     2.4444
  104.5000     9.4302    11.0088   -33.4428     8.7194     0.1622     0.1081    88.6258     2.4521
  105.0000     9.3667    11.0859   -33.4384     8.7201     0.1697     0.1000    85.3094     2.4799
  105.5000     9.2399    11.1635   -33.4339     8.7209     0.1742     0.0919    84.8580     2.5044
  106.0000     9.1785    11.1643   -33.2784     8.6915     0.1757     0.0547    86.2175     2.5269
  106.5000     9.1804    11.0118   -33.2740     8.6772     0.1757     0.0499    86.8223     2.5472
  107.0000     9.1823    10.8614   -33.1195     8.6782     0.1754     0.0522    86.2204     2.5630
  107.5000     9.1846    10.6393   -33.1151     8.6789     0.1727     0.0673    82.6020     2.5720
  108.0000     9.1864    10.4940   -33.1107     8.6796     0.1381     0.0877    75.0620     2.5532
  108.5000     9.1883    10.2086   -33.1063     8.6954     0.0901     0.1075    69.6336     2.4961
  109.0000     9.1268    10.0000   -33.1019     8.6962     0.0541     0.1261    68.4281     2.4638
  109.5000     9.0653    10.0007   -33.0975     8.6970     0.0661     0.1291    69.1841     2.4518
  110.0000     9.0047    10.0014   -33.0931     8.6977     0.0796     0.1279    81.5536     2.4473
  110.5000     9.0069    10.0714   -32.9384     8.6984     0.0918     0.1291    84.1192     2.4458
  111.0000     9.0713    10.1419   -32.9331     8.6992     0.0961     0.1303    83.5173     2.4450
  111.5000     9.1361    10.2129   -33.0788     8.6848     0.0916     0.1243    83.5189     2.4458
  112.0000     9.2061    10.2844   -33.0744     8.6857     0.0946     0.1216    84.7273     2.4473
  112.5000     9.3965    10.5005   -33.0700     8.6864     0.1006     0.1216    85.9354     2.4503
  113.0000     9.6620    10.6488   -32.7653     8.6871     0.1006     0.1216    85.6352     2.4548
