~VERSION INFORMATION
 VERS.                2.0:   CWLS LOG ASCII STANDARD - VERSION 2.0
 WRAP.                 NO:   ONE LINE PER DEPTH STEP
~WELL INFORMATION
#MNEM.UNIT      DATA TYPE    INFORMATION
#----------   ------------   ------------------------------
 STRT.F           28.0000:   START DEPTH
 STOP.F          884.0000:   STOP DEPTH
 STEP.F            0.5000:   STEP LENGTH
 NULL.          -999.2500:   NO VALUE
 COMP. U S NAVY-INTEX OIL:   COMPANY
 WELL. NPR 3 TEAPOT DOM #43-SX-2:   WELL
 FLD .             TEAPOT:   FIELD
 LOC .       S2 T38N R78W:   LOCATION
 CNTY.            NATRONA:   COUNTY
 STAT.            WYOMING:   STATE
 CTRY. UNITED STATES OF AMERICA:   COUNTRY
 SRVC.       Schlumberger:   SERVICE COMPANY
 DATE.        19-JUL-1963:   LOGDATE
 API .       490250967900:   API NUMBER
~CURVE INFORMATION
#MNEM.UNIT       API CODE    CURVE DESCRIPTION
#----------   ------------   ------------------------------
 DEPT.F                  :   
 ASN .OHMM   05 041 16 00:   AMPLIFIED SHORT NORMAL 16"
 CILD.MMHO   05 110 46 00:   CONDUCTIVITY INDUCTION LOG DEEP
 ILD .OHMM   05 120 46 00:   INDUCTION LOG DEEP
 SPR .MV     05 010 01 00:   SPONTANEOUS POTENTIAL FROM RES.
 GR  .GAPI   30 310 01 00:   GAMMA RAY
~PARAMETER INFORMATION
#MNEM.UNIT          VALUE    DESCRIPTION
#----------   ------------   ------------------------------
 LMF .                 KB:   LOG MEASURED FROM
 DMF .                 KB:   DRILLING MEASURED FROM
 EKB .F              5151:   KELLING BUSHING
 EGL .F              5146:   GROUND LEVEL
 DATE.        19-JUL-1963:   RUN DATE
 RUN .                  1:   RUN NUMBER
 DD  .F               881:   DEPTH DRILLER
 DL  .F               885:   DEPTH LOGGER
 BLI .F               884:   BOTTOM LOG INTERVAL
 TLI .F                30:   TOP LOG INTERVAL
 CS  .IN            8.625:   CASING SIZE
 CBD .F                12:   CASING BOTTOM DRILLER
 BS  .IN             6.75:   BIT SIZE
 BSD .F               881:   BIT SIZE AT DEPTH
 DFT .           GEL- OIL:   DRILLING FLUID TYPE
 DFD .                9.6:   DRILLING FLUID DENSITY
 DFV .                 39:   DRILLING FLUID VISCOSITY
 DFPH.                8.5:   DRILLING FLUID PH
 DFL .                4.4:   DRILLING FLUID LOSS
 RMS .OHMM           2.58:   RESISTIVITY MUD SAMPLE
 MST .F                72:   MUD SAMPLE TEMPERATURE
 RMF .OHMM           2.26:   RESISTIVITY MUD FILTRATE SAMPLE
 MFST.F                72:   MUD FILTRATE SAMPLE TEMPERATURE
 TCS .HRS               3:   TIME CURCULATED STOPPED
 LUN .               4507:   LOGGING UNIT NUMBER
 LUL .             CASPER:   LOGGING UNIT LOCATION
 ENGI.            WINKLER:   RECORDING ENGINEER
 WITN.          JORGENSEN:   WITNESSED BY
 CLNT.            A2DTECH:   CLIENT CODE
 ORIG.      2.5" 5" PRINT:   ORIGIN OF DATA
 UWI .       490250967900:   UNIQUE WELL ID
 DICO. A2D Technologies, Inc.:   DIGITIZING COMPANY
~OTHER INFORMATION
~A   DEPT      ASN         CILD       ILD       SPR         GR   
# ...
  516.0000    10.8810   100.5471    10.3274   -33.9277  -999.2500
  516.5000    11.0322   100.5547    10.1765   -33.8891  -999.2500
  517.0000    10.8813   100.5638    10.1773   -33.6380  -999.2500
  517.5000    10.8814   100.5712    10.1781   -33.9458  -999.2500
  518.0000    10.7305   100.5786    10.1788   -33.9518  -999.2500
  518.5000    10.5796   102.1057    10.1796   -33.9578  -999.2500
  519.0000    10.4287   102.1131    10.0288   -33.9639  -999.2500
  519.5000    10.4289   102.1205    10.0295   -33.9699  -999.2500
  520.0000    10.4290   100.6079    10.0303   -33.8153  -999.2500
  520.5000    10.5802   102.1353    10.0593   -33.6807  -999.2500
  521.0000    10.5955   103.7336    10.1833   -33.3866  -999.2500
  521.5000    10.7316   105.1900    10.1841   -33.3925  -999.2500
  522.0000    10.7317   105.4409    10.1848   -33.3983  -999.2500
  522.5000    10.5431   106.7249    10.1856   -33.7054  -999.2500
  523.0000    10.3846   106.7325    10.1177   -33.7112  -999.2500
  523.5000    10.2790   106.7401     9.9588   -34.0183  -999.2500
  524.0000    10.2792   106.1601     9.8848   -34.0242  -999.2500
  524.5000    10.1282   105.2356     9.7342   -33.7288  -999.2500
  525.0000    10.1178   105.2432     9.5833   -33.4335  -999.2500
  525.5000    10.1034   106.7705     9.4327   -33.4398  -999.2500
  526.0000    10.0890   108.2993     9.4334   -33.5040  -999.2500
  526.5000    10.0747   111.3462     9.2826   -33.7530  -999.2500
  527.0000    10.0603   112.8734     9.2834   -33.4569  -999.2500
  527.5000    10.0460   114.4005     8.9811   -33.4639  -999.2500
  528.0000    10.0316   115.9276     8.8303   -33.4699  -999.2500
  528.5000    10.0172   118.9745     8.6795   -33.4759  -999.2500
  529.0000    10.0029   120.5017     8.3631   -33.3243  -999.2500
  529.5000     9.9885   123.5639     8.2043   -33.1867  -999.2500
  530.0000     9.7674   125.1771     7.8939   -32.8916  -999.2500
  530.5000     9.4654   129.8303     7.6219   -32.8985  -999.2500
  531.0000     9.1635   132.9635     7.4711   -32.9044  -999.2500
  531.5000     8.8615   134.2173     7.4720   -32.9102  -999.2500
  532.0000     8.7106   133.7793     7.4727   -32.9161  -999.2500
  532.5000     8.7107   132.1809     7.6250   -32.9220  -999.2500
  533.0000     8.7713   129.6794     7.6258   -32.9278  -999.2500
  533.5000     8.9255   127.4645     7.7780   -32.9393  -999.2500
  534.0000     9.3245   125.8661     7.7789   -33.2410  -999.2500
  534.5000     9.5980   122.7482     7.9312   -33.2470  -999.2500
  535.0000     9.6833   120.5941     8.0834   -33.2530  -999.2500
  535.5000     9.7388   120.6014     8.2357   -33.2590  -999.2500
  536.0000     9.7893   122.6950     8.3879   -33.2651  -999.2500
  536.5000     9.9204   123.6557     8.5402   -33.2711  -999.2500
  537.0000     9.8078   123.6631     8.2379   -33.2771  -999.2500
  537.5000     9.6966   123.6705     8.2386   -33.1451  -999.2500
  538.0000     9.6489   122.1581     8.2313   -32.9880  -999.2500
  538.5000     9.6033   123.6854     8.0886   -32.9940  -999.2500
  539.0000     9.5888   123.6930     8.0894   -33.0011  -999.2500
  539.5000     9.5890   123.7006     8.0902   -33.0070  -999.2500
  540.0000     9.6194   123.7082     8.1313   -33.0128  -999.2500
  540.5000     9.6497   123.7158     8.2432   -33.3199  -999.2500
  541.0000     9.6801   123.7234     8.3955   -33.3258  -999.2500
  541.5000     9.7406   121.6490     8.3962   -33.6328  -999.2500
  542.0000     9.8012   120.6991     8.5485   -33.6387  -999.2500
  542.5000     9.8920   119.1869     8.6301   -33.6446  -999.2500
  543.0000    10.0130   118.3738     8.7015   -33.3492  -999.2500
  543.5000    10.1959   116.1641     8.7024   -33.3554  -999.2500
  544.0000    10.3456   116.1715     8.8547   -33.3614  -999.2500
  544.5000    10.3760   114.6581     9.0069   -33.3675  -999.2500
  545.0000    10.3459   114.6665     9.0076   -33.2882  -999.2500
  545.5000    10.3461   114.6739     8.8569   -33.0773  -999.2500
  546.0000    10.3462   114.6813     8.8576   -33.0843  -999.2500
  546.5000    10.3162   114.6887     8.8583   -33.0904  -999.2500
  547.0000    10.2539   114.6961     8.7076   -33.3976  -999.2500
  547.5000    10.1352   114.7037     8.7083   -33.4036  -999.2500
  548.0000    10.1313   114.8734     8.7091   -33.4108  -999.2500
  548.5000    10.1053   117.7584     8.7098   -33.4166  -999.2500
  549.0000    10.1356   119.2857     8.7106   -33.4225  -999.2500
  549.5000    10.1444   120.8131     8.7114   -33.4284  -999.2500
  550.0000    10.1158   120.8207     8.5605   -33.4342    71.8378
  550.5000    10.0339   120.8283     8.5614   -33.1389    70.9364
  551.0000     9.9721   120.8359     8.5621   -33.1447    72.5967
  551.5000     9.9249   122.3632     8.4114   -33.1506    72.9009
  552.0000     9.8949   122.3708     8.4121   -33.1566    74.7103
  552.5000     9.8472   123.8982     8.4130   -33.1627    70.3465
  553.0000     9.7743   123.9070     8.2621   -33.2179    66.1326
  553.5000     9.7141   123.9144     8.2630   -33.4759    62.4955
  554.0000     9.6840   123.9218     8.2637   -33.4819    63.5484
  554.5000     9.6539   123.9292     8.2645   -33.7892    68.0999
  555.0000     9.6239   125.4563     8.2652   -33.4929    71.1149
  555.5000     9.5938   125.4637     8.2659   -33.5000    68.2564
  556.0000     9.5637   125.4711     8.2667   -33.5060    65.8497
  556.5000     9.5337   125.4787     8.1159   -33.5120    65.5507
  557.0000     9.5328   125.6786     8.1167   -33.5192    64.9520
  557.5000     9.5340   127.0137     8.1174   -33.5251    65.1055
  558.0000     9.5341   127.0213     8.1182   -33.2289    65.2590
  558.5000     9.5343   127.0289     8.1189   -32.9344    65.4262
  559.0000     9.5042   127.0365     8.1197   -32.9403    68.7295
  559.5000     9.4656   127.0441     7.9688   -32.9461    71.5939
  560.0000     9.4340   127.0517     7.9697   -32.9520    74.3069
  560.5000     9.3909   127.0593     7.9705   -33.2591    70.3949
  561.0000     9.3407   127.0669     7.9712   -33.2781    65.4280
  561.5000     9.3237   127.0758     7.9720   -33.5723    64.0755
  562.0000     9.3239   127.0832     7.9729   -33.5783    63.1741
  562.5000     9.3240   125.5699     8.1251   -33.5216    64.5332
  563.0000     9.3242   125.5782     8.1259   -33.2884    66.7982
  563.5000     9.3243   124.0659     8.1266   -33.2952    66.9488
  564.0000     9.4151   124.0732     8.2789   -33.3012    64.9945
  564.5000     9.5059   121.0411     8.4311   -33.3072    65.5999
  565.0000     9.6269   119.5287     8.4318   -33.3133    66.9582
  565.5000     9.7781   119.3999     8.5841   -33.3193    66.9612
  566.0000     9.8991   117.8015     8.5909   -33.3265    65.0063
  566.5000     9.9899   116.5114     8.7371   -33.3324    66.8165
  567.0000    10.0505   116.1245     8.7157   -33.3382    71.4881
  567.5000    10.0506   115.0064     8.5568   -33.3441    74.8043
  568.0000    10.0548   116.5360     8.4363   -33.0487    70.3106
  568.5000    10.1113   118.0632     8.3906   -33.0546    66.2259
  569.0000    10.0672   119.5903     8.2862   -32.7590    66.0784
  569.5000     9.9737   121.1175     8.2871   -33.0663    64.5663
  570.0000     9.8902   124.1644     8.2172   -33.3735    64.9196
  570.5000     9.8284   125.6915     8.1371   -33.3795    68.6481
  571.0000     9.7667   125.6991     8.1379   -33.3855    71.8137
  571.5000     9.7049   125.7067     8.1388   -33.3916    72.2678
  572.0000     9.6592   125.7143     7.9880   -33.3976    66.6991
  572.5000     9.5813   127.2416     7.9887   -33.4036    61.7322
  573.0000     9.4783   127.2492     7.8379   -33.4096    61.8857
  573.5000     9.4180   129.2781     7.6872   -33.4157    63.2441
  574.0000     9.2973   130.8918     7.6879   -33.1205    69.1205
  574.5000     9.1766   132.5051     7.6887   -33.1265    70.7801
  575.0000     9.0257   134.1185     7.6894   -33.1325    69.8293
  575.5000     8.8446   136.4058     7.6902   -33.1396    68.6775
  576.0000     8.7541   134.8951     7.6909   -33.1455    68.2294
  576.5000     8.7240   133.3827     7.6917   -32.8494    66.7263
