~VERSION INFORMATION
 VERS.                2.0:   CWLS LOG ASCII STANDARD - VERSION 2.0
 WRAP.                 NO:   ONE LINE PER DEPTH STEP
~WELL INFORMATION
#MNEM.UNIT      DATA TYPE    INFORMATION
#----------   ------------   ------------------------------
 STRT.F           15.0000:   START DEPTH
 STOP.F          692.0000:   STOP DEPTH
 STEP.F            0.5000:   STEP LENGTH
 NULL.          -999.2500:   NO VALUE
 COMP.    FENIX & SCISSON:   COMPANY
 WELL. S 15 NPR #3 #73-15:   WELL
 FLD .             TEAPOT:   FIELD
 LOC .      S15 T38N R78W:   LOCATION
 CNTY.            NATRONA:   COUNTY
 STAT.            WYOMING:   STATE
 CTRY. UNITED STATES OF AMERICA:   COUNTRY
 SRVC.              Welex:   SERVICE COMPANY
 DATE.        23-FEB-1977:   LOGDATE
 API .       490251057900:   API NUMBER
~CURVE INFORMATION
#MNEM.UNIT       API CODE    CURVE DESCRIPTION
#----------   ------------   ------------------------------
 DEPT.F                  :   
 SPR .MV     07 010 01 00:   SPONTANEOUS POTENTIAL
 SGRD.OHMM   07 220 05 00:   SHALLOW GUARD RESISTIVITY
 ILD .OHMM   07 120 46 00:   INDUCTION LOG DEEP
 ILM .OHMM   07 120 44 00:   INDUCTION LOG MEDIUM
 CALD.IN     45 280 60 00:   CALIPER
 GRD .GAPI   45 310 01 00:   GAMMA RAY FROM DENSITY LOG
 CORR.G/C3   45 356 01 00:   DENSITY CORRECTION
 DPHI.DEC    45 890 10 00:   DENSITY POROSITY SANDSTONE
 RHOB.G/C3   45 350 01 00:   BULK DENSITY
~PARAMETER INFORMATION
#MNEM.UNIT          VALUE    DESCRIPTION
#----------   ------------   ------------------------------
 PD  .                 GL:   PERMANENT DATUM
 EPD .F              5251:   ELEVATION PERMANENT DATUM
 LMF .                 GL:   LOG MEASURED FROM
 DMF .                 GL:   DRILLING MEASURED FROM
 EGL .F              5251:   GROUND LEVEL
 DATE.            2-23-77:   RUN DATE
 RUN .                  1:   RUN NUMBER
 DD  .F               686:   DEPTH DRILLER
 DL  .F               695:   DEPTH LOGGER
 BLI .F               693:   BOTTOM LOG INTERVAL
 TLI .F                42:   TOP LOG INTERVAL
 CS  .IN            8.625:   CASING SIZE
 CBD .F                42:   CASING BOTTOM DRILLER
 CBL .F                42:   CASING BOTTOM LOGGER
 BS  .IN            7.875:   BIT SIZE
 BSD .F               686:   BIT SIZE AT DEPTH
 DFT .           CHEM GEL:   DRILLING FLUID TYPE
 DFD .                8.8:   DRILLING FLUID DENSITY
 DFV .                 33:   DRILLING FLUID VISCOSITY
 DFPH.                  7:   DRILLING FLUID PH
 DFL .               11.2:   DRILLING FLUID LOSS
 MSS .          FLOW LINE:   MUD SAMPLE SOURCE
 RMS .OHMM            .32:   RESISTIVITY MUD SAMPLE
 MST .F                68:   MUD SAMPLE TEMPERATURE
 RMF .OHMM            .28:   RESISTIVITY MUD FILTRATE SAMPLE
 MFST.F                68:   MUD FILTRATE SAMPLE TEMPERATURE
 RMC .OHMM            .61:   RESISTIVITY MUD CAKE
 MCST.F                68:   MUD CAKE SAMPLE TEMPERATURE
 MFSS.           MEASURED:   MUD FILTRATE SAMPLE SOURCE
 MCSS.           MEASURED:   MUD CAKE SAMPLE SOURCE
 RMB .OHMM           .410:   RESISTIVITY MUD AT BHT
 BHT .F                53:   BOTTOM HOLE TEMPERATURE
 TCS .HRS               2:   TIME CURCULATED STOPPED
 MRT .F                53:   MAXIMUM RECORDED TEMPERATURE
 LUN .               8611:   LOGGING UNIT NUMBER
 LUL .           GILLETTE:   LOGGING UNIT LOCATION
 ENGI.            C. DOAK:   RECORDING ENGINEER
 WITN.         STUEBINGER:   WITNESSED BY
 CLNT.            A2DTECH:   CLIENT CODE
 ORIG. 1", 2.5", 5" PRINT:   ORIGIN OF DATA
 UWI .       490251057900:   UNIQUE WELL ID
 DICO. A2D Technologies, Inc.:   DIGITIZING COMPANY
~OTHER INFORMATION
~A   DEPT      SPR       SGRD        ILD        ILM       CALD         GRD      CORR       DPHI       RHOB   
# ...
  635.5000   -49.7128    12.3548     8.5923    10.2255     7.9745   115.6563     0.0924     0.0649     2.5374
  636.0000   -49.7374    12.6473     8.7715    10.4457     7.9726   117.2675     0.0925     0.0695     2.5308
  636.5000   -49.7620    12.9467     8.8749    10.6779     7.9746   120.2422     0.0919     0.0722     2.5260
  637.0000   -49.7865    13.2532     8.9796    10.8407     7.9781   121.4076     0.0909     0.0718     2.5263
  637.5000   -49.8217    13.5667     9.0854    11.0115     7.9816   120.4028     0.0900     0.0711     2.5288
  638.0000   -49.8725    13.4005     9.1925    11.1849     7.9850   117.9831     0.0891     0.0703     2.5296
  638.5000   -49.9232    13.8073     9.3009    11.2858     7.9884   113.7749     0.0882     0.0715     2.5241
  639.0000   -49.9742    14.2178     9.4106    11.3047     7.9918   110.5784     0.0872     0.0768     2.5192
  639.5000   -50.0251    14.6136     9.5215    11.3229     7.9953   111.5072     0.0863     0.0801     2.5140
  640.0000   -50.0760    14.0840     9.6337    11.3413     7.9987   114.4684     0.0854     0.0793     2.5090
  640.5000   -50.1269    14.2135     9.7365    11.3596     8.0021   113.6640     0.0845     0.0848     2.5042
  641.0000   -50.1778    14.4826     9.7893    11.3780     8.0056   112.1344     0.0847     0.0873     2.5045
  641.5000   -50.2287    14.7567     9.8377    11.3964     8.0090   114.3505     0.0852     0.0850     2.5067
  642.0000   -50.2796    15.1631     9.8864    11.4148     8.0124   117.1834     0.0857     0.0823     2.5089
  642.5000   -50.3305    15.0331     9.9353    11.4336     8.0159   120.0153     0.0861     0.0809     2.5099
  643.0000   -50.3814    14.8000     9.9844    11.4520     8.0193   122.0365     0.0865     0.0838     2.5076
  643.5000   -50.4322    14.5705    10.0338    11.4685     8.0227   115.5264     0.0870     0.0864     2.5056
  644.0000   -50.4831    14.3463    10.1027    11.4851     8.0262   111.3561     0.0874     0.0881     2.5034
  644.5000   -50.5340    14.7279    10.0750    11.5666     8.0296   108.6344     0.0878     0.0873     2.5014
  645.0000   -50.5849    15.1166    10.0301    11.6891     8.0330   108.7239     0.0885     0.0911     2.4969
  645.5000   -50.6358    15.7334     9.9854    11.8107     8.0365   109.9735     0.0864     0.0960     2.4888
  646.0000   -50.6867    15.6054     9.9410    11.9239     8.0399   111.4511     0.0824     0.1008     2.4814
  646.5000   -50.7376    15.3334     9.8967    11.8366     8.0433   110.9993     0.0782     0.1064     2.4722
  647.0000   -50.7884    15.0662     9.8523    11.7515     8.0467   109.4200     0.0783     0.1061     2.4757
  647.5000   -50.8393    14.8036     9.8082    11.6671     8.0505   109.0948     0.0829     0.0955     2.4894
  648.0000   -50.8902    14.5457     9.7644    11.5832     8.0504   110.8100     0.0874     0.0856     2.5115
  648.5000   -50.9411    14.2922     9.7288    11.4961     8.0467   108.2421     0.0877     0.0791     2.5110
  649.0000   -50.9920    14.0840     9.7083    11.6682     8.0434   105.9688     0.0851     0.0811     2.5100
  649.5000   -51.0429    14.7132     9.6880    11.8516     8.0401   105.9443     0.0826     0.0832     2.5080
  650.0000   -51.0938    15.1631     9.6678    12.1472     8.0368   107.3914     0.0801     0.0857     2.5058
  650.5000   -51.1448    14.6642     9.6478    12.1194     8.0335   105.8542     0.0775     0.0865     2.5042
  651.0000   -51.1958    14.3716     9.6279    12.0325     8.0302   107.0211     0.0764     0.0839     2.5089
  651.5000   -51.2464    14.5781     9.6081    11.9461     8.0268   109.2703     0.0766     0.0793     2.5135
  652.0000   -51.2977    14.5534     9.5884    11.8605     8.0235   111.4620     0.0765     0.0798     2.5106
  652.5000   -51.3489    14.2867     9.5685    11.7756     8.0202   113.8074     0.0778     0.0806     2.5108
  653.0000   -51.3884    14.0245     9.4606    11.6915     8.0169   113.6549     0.0796     0.0809     2.5130
  653.5000   -51.3886    13.7668     9.3021    11.6083     8.0135   111.4145     0.0813     0.0795     2.5153
  654.0000   -51.3895    13.5140     9.1446    11.5256     8.0102   109.4591     0.0831     0.0775     2.5174
  654.5000   -51.3891    13.2657     8.9917    11.4437     8.0069   107.6305     0.0848     0.0754     2.5198
  655.0000   -51.3890    13.0816     8.8414    11.3624     8.0036   107.1137     0.0865     0.0769     2.5175
  655.5000   -51.3893    13.0816     8.6936    11.2858     8.0003   108.8886     0.0884     0.0786     2.5153
  656.0000   -51.3890    13.0816     8.5482    11.2858     7.9970   109.6992     0.0883     0.0801     2.5144
  656.5000   -51.3890    12.9627     8.4053    11.2858     7.9936   113.9909     0.0881     0.0801     2.5182
  657.0000   -51.3902    12.7076     8.2463    11.2858     7.9903   120.0714     0.0877     0.0785     2.5163
  657.5000   -51.3747    12.3769     8.1912    11.2043     7.9870   118.9504     0.0874     0.0719     2.5275
  658.0000   -51.3353    12.6075     8.1282    11.0324     7.9837   111.8083     0.0871     0.0657     2.5386
  658.5000   -51.2975    12.4684     8.0656    10.8633     7.9804   108.4753     0.0868     0.0624     2.5376
  659.0000   -51.2594    12.1827     8.0035    10.6967     7.9771   109.4973     0.0865     0.0684     2.5288
  659.5000   -51.2210    11.9035     7.9475    10.5326     7.9736   112.0882     0.0862     0.0743     2.5201
  660.0000   -51.1829    11.6307     8.0147    10.4826     7.9720   114.6320     0.0859     0.0777     2.5157
  660.5000   -51.1447    11.3254     8.0769    10.4826     7.9721   115.2434     0.0856     0.0777     2.5161
  661.0000   -51.1065    11.4243     8.1395    10.4826     7.9721   114.3776     0.0853     0.0783     2.5149
  661.5000   -51.0684    11.6247     8.2463    10.4826     7.9721   113.6872     0.0851     0.0797     2.5120
  662.0000   -51.0302    11.8285     8.2314    10.4826     7.9721   113.1634     0.0847     0.0810     2.5092
  662.5000   -50.9921    12.0360     8.1838    10.4826     7.9721   115.2109     0.0845     0.0824     2.5079
  663.0000   -50.9539    12.2471     8.1365    10.4590     7.9721   117.0994     0.0836     0.0833     2.5106
  663.5000   -50.9157    12.6075     8.0895    10.4379     7.9721   117.7426     0.0823     0.0822     2.5139
  664.0000   -50.8776    12.5350     8.0428    10.4169     7.9721   117.6563     0.0813     0.0801     2.5158
  664.5000   -50.8371    12.3189     7.9963    10.3959     7.9721   121.2678     0.0779     0.0854     2.5059
  665.0000   -50.7981    12.1066     7.9475    10.3750     7.9721   124.4884     0.0723     0.0910     2.4955
  665.5000   -50.7576    11.8979     7.8515    10.3541     7.9721   125.4613     0.0668     0.0967     2.4846
  666.0000   -50.7154    11.6929     7.7510    10.3333     7.9721   124.8281     0.0615     0.1023     2.4741
  666.5000   -50.6875    11.4913     7.6519    10.3124     7.9721   123.5169     0.0569     0.1079     2.4636
  667.0000   -50.6375    11.2933     7.5539    10.2909     7.9721   122.3432     0.0564     0.1142     2.4578
  667.5000   -50.5851    11.0986     7.4573    10.2016     7.9721   123.8641     0.0595     0.1142     2.4618
  668.0000   -51.0593    10.9073     7.3619    10.0451     7.9721   125.6173     0.0639     0.1085     2.4706
  668.5000   -53.3220    10.7193     7.2677     9.8911     7.9721   124.1514     0.0681     0.1031     2.4793
  669.0000   -55.4674    10.6217     7.1747     9.7394     7.9721   121.2684     0.0721     0.0977     2.4875
  669.5000   -57.6300    10.4750     7.0828     9.5904     7.9721   118.3456     0.0762     0.0923     2.4956
  670.0000   -57.7172    10.3303     6.9922     9.4429     7.9721   119.6359     0.0803     0.0869     2.4982
  670.5000   -57.7335    10.1027     6.9027     9.2979     7.9721   121.9992     0.0844     0.0815     2.5082
  671.0000   -57.6578    10.2909     6.8144     9.1549     7.9721   124.8174     0.0883     0.0761     2.5187
  671.5000   -57.6223    10.6779     6.7272     9.0330     7.9721   127.3484     0.0922     0.0742     2.5226
