~VERSION INFORMATION
 VERS.                2.0:   CWLS LOG ASCII STANDARD - VERSION 2.0
 WRAP.                 NO:   ONE LINE PER DEPTH STEP
~WELL INFORMATION
#MNEM.UNIT      DATA TYPE    INFORMATION
#----------   ------------   ------------------------------
 STRT.F          142.0000:   START DEPTH
 STOP.F          940.5000:   STOP DEPTH
 STEP.F            0.5000:   STEP LENGTH
 NULL.          -999.2500:   NO VALUE
 COMP. U S NAVY-INTEX OIL:   COMPANY
 WELL.     RESERVE #44S-2:   WELL
 FLD .             TEAPOT:   FIELD
 LOC .       S2 T38N R78W:   LOCATION
 CNTY.            NATRONA:   COUNTY
 STAT.            WYOMING:   STATE
 CTRY. UNITED STATES OF AMERICA:   COUNTRY
 SRVC. Schlumberger Well Surveying Corp:   SERVICE COMPANY
 DATE.        06-AUG-1959:   LOGDATE
 API .       490250644200:   API NUMBER
~CURVE INFORMATION
#MNEM.UNIT       API CODE    CURVE DESCRIPTION
#----------   ------------   ------------------------------
 DEPT.F                  :   
 ASN .OHMM   05 041 16 00:   AMPLIFIER SHORT NORMAL 16"
 CILD.MMHO   05 110 46 00:   CONDUCTIVITY INDUCTION LOG DEEP
 ILD .OHMM   05 110 46 00:   INDUCTION LOG DEEP
 SPR .MV     05 010 01 00:   SPONTANEOUS POTENTIAL FROM RES.
~PARAMETER INFORMATION
#MNEM.UNIT          VALUE    DESCRIPTION
#----------   ------------   ------------------------------
 LMF .                 KB:   LOG MEASURED FROM
 DMF .                 KB:   DRILLING MEASURED FROM
 EDF .F              5146:   DRILLING FLOOR
 EGL .F              5142:   GROUND LEVEL
 DATE.        06-AUG-1959:   RUN DATE
 RUN .                  1:   RUN NUMBER
 DD  .F               948:   DEPTH DRILLER
 DL  .F               946:   DEPTH LOGGER
 BLI .F               940:   BOTTOM LOG INTERVAL
 TLI .F               143:   TOP LOG INTERVAL
 CBD .F                17:   CASING BOTTOM DRILLER
 BS  .IN             6.75:   BIT SIZE
 BSD .F               948:   BIT SIZE AT DEPTH
 DFT .                GEL:   DRILLING FLUID TYPE
 RMS .OHMM             75:   RESISTIVITY MUD SAMPLE
 MST .F                75:   MUD SAMPLE TEMPERATURE
 TCS .HRS               1:   TIME CURCULATED STOPPED
 LUN .               2754:   LOGGING UNIT NUMBER
 LUL .                 NC:   LOGGING UNIT LOCATION
 ENGI.             QUINBY:   RECORDING ENGINEER
 WITN.             MARTIN:   WITNESSED BY
 CLNT.            A2DTECH:   CLIENT CODE
 ORIG.        2" 5" PRINT:   ORIGIN OF DATA
 UWI .       490250644200:   UNIQUE WELL ID
 DICO. A2D Technologies, Inc.:   DIGITIZING COMPANY
~OTHER INFORMATION
~A   DEPT      ASN       CILD        ILD        SPR   
# ...
  507.0000     8.9241   129.6041     7.7215   -66.7834
  507.5000     8.9682   127.4661     7.7883   -66.6523
  508.0000     8.9816   125.5040     7.8893   -66.6543
  508.5000     9.0016   123.9185     7.9994   -66.5235
  509.0000     9.0389   122.8078     8.1247   -66.5253
  509.5000     9.1031   121.3179     8.1517   -66.5273
  510.0000     9.1599   120.1117     8.1230   -66.5296
  510.5000     9.1561   120.1242     8.1219   -66.5313
  511.0000     9.0891   121.1448     8.0320   -66.5333
  511.5000     9.0629   123.0193     7.9846   -66.6157
  512.0000     8.9940   125.5853     7.9159   -66.6702
  512.5000     8.9645   126.2726     7.9829   -66.6724
  513.0000     8.9366   126.9615     7.9818   -66.7420
  513.5000     8.9123   126.1145     7.9810   -66.8092
  514.0000     8.9593   123.9138     7.9888   -66.8114
  514.5000     9.0770   121.5629     8.1147   -66.8132
  515.0000     9.2913   119.8642     8.2090   -66.8085
  515.5000     9.4761   118.0904     8.3190   -66.6842
  516.0000     9.6173   116.1643     8.4746   -66.6862
  516.5000     9.6432   114.9490     8.6956   -66.6882
  517.0000     9.6609   112.7692     8.8566   -66.6117
  517.5000     9.8733   111.6742     8.9236   -66.5589
  518.0000    10.1382   110.5792     8.9371   -66.5613
  518.5000    10.1375   109.4270     8.9896   -66.4973
  519.0000    10.0821   108.6990     8.9887   -66.5652
  519.5000    10.0063   107.4096     8.7598   -66.7004
  520.0000     9.8320   113.5307     8.3762   -66.7553
  520.5000     9.4610   119.8417     8.1866   -66.8417
  521.0000     9.2461   121.7330     7.9656   -67.0612
  521.5000     9.1540   122.3855     7.8987   -67.1476
  522.0000     9.1357   122.3937     7.8978   -67.2421
  522.5000     9.1131   122.4042     7.8968   -67.1676
  523.0000     9.0911   121.7353     7.8960   -66.9798
  523.5000     9.0687   122.4242     7.9630   -66.9822
  524.0000     9.0314   123.1142     7.9619   -66.9840
  524.5000     9.0106   123.4321     7.9611   -66.9860
  525.0000     8.9860   124.5475     7.9602   -66.9883
  525.5000     8.9362   125.8604     7.9592   -66.9900
  526.0000     8.9030   125.8688     7.9584   -66.9920
  526.5000     8.8661   126.5579     7.9575   -66.9940
  527.0000     8.8002   127.2466     7.9123   -66.9960
  527.5000     8.7636   127.4095     7.8878   -66.9981
  528.0000     8.7051   127.9466     7.8190   -66.8670
  528.5000     8.6661   128.6346     7.8182   -66.7358
  529.0000     8.6201   128.6448     7.8173   -66.7382
  529.5000     8.6234   128.6566     7.7484   -66.6782
  530.0000     8.6585   129.3439     7.7476   -66.6089
  530.5000     8.7045   129.3541     7.7467   -66.4784
  531.0000     8.6908   129.3643     7.7457   -66.4801
  531.5000     8.6846   129.7992     7.7196   -66.4820
  532.0000     8.6634   130.0641     7.6762   -66.3511
  532.5000     8.6497   130.0735     7.6753   -66.2197
  533.0000     8.6448   130.7625     7.6744   -66.0892
  533.5000     8.6359   130.7741     7.7412   -66.0186
  534.0000     8.6222   131.4615     7.7030   -65.9362
  534.5000     8.6221   131.4717     7.6716   -65.6964
  535.0000     8.6084   131.4819     7.6706   -65.6383
  535.5000     8.6010   131.4921     7.7377   -65.5670
  536.0000     8.5810   131.5028     7.7368   -65.5695
  536.5000     8.5809   131.1494     7.7357   -65.5711
  537.0000     8.6442   130.0544     7.7597   -65.5732
  537.5000     8.8076   128.8192     7.8019   -65.5751
  538.0000     8.9599   127.1855     7.8010   -65.7101
  538.5000     9.0101   126.0575     7.8681   -65.7122
  539.0000     9.0409   124.0993     7.9348   -65.7141
  539.5000     9.0408   123.4268     7.9708   -65.7161
  540.0000     9.0542   122.7606     8.0130   -65.7183
  540.5000     9.0676   122.0916     8.0678   -65.7201
  541.0000     9.0748   121.4219     8.0974   -65.7221
  541.5000     9.0968   121.5566     8.1339   -65.7244
  542.0000     9.1079   122.4253     8.2007   -65.5931
  542.5000     9.1077   123.5407     8.1999   -65.4621
  543.0000     9.0917   124.6561     8.2668   -65.4641
  543.5000     9.0126   125.7715     8.2659   -65.3328
  544.0000     8.9019   126.8869     8.2473   -65.2023
  544.5000     8.7955   128.0023     8.1962   -65.2041
  545.0000     8.7069   129.1176     8.0914   -65.2061
  545.5000     8.6660   130.3392     8.0473   -65.0754
  546.0000     8.6190   131.3484     7.9221   -65.0213
  546.5000     8.5906   132.4293     7.8535   -64.9461
  547.0000     8.5165   133.0854     7.7847   -64.8155
  547.5000     8.4424   134.4514     7.7158   -64.8172
  548.0000     8.3635   135.8191     7.6002   -64.8192
  548.5000     8.2722   137.3427     7.4428   -64.8211
  549.0000     8.1168   138.7194     7.3740   -64.8231
  549.5000     7.9972   139.9228     7.3053   -64.8253
  550.0000     7.9133   141.9685     7.3722   -64.8271
  550.5000     7.9255   142.6564     7.4069   -64.8291
  551.0000     8.2112   139.2753     7.5062   -64.9644
  551.5000     8.3871   137.4038     7.5729   -64.9661
  552.0000     8.4141   135.2127     7.6400   -64.9681
  552.5000     8.4325   133.6822     7.7114   -64.9705
  553.0000     8.5087   131.6651     7.7739   -65.0133
  553.5000     8.6061   130.5018     7.8637   -65.1071
  554.0000     8.6846   128.7963     7.9077   -65.2420
  554.5000     8.6302   127.7013     8.0160   -65.2440
  555.0000     8.5994   126.4606     8.0417   -65.2462
  555.5000     8.7115   126.1901     8.1085   -65.1835
  556.0000     8.8618   125.8007     8.1755   -65.1011
  556.5000     8.9895   125.3575     8.1746   -64.8534
  557.0000     9.0225   125.1407     8.1736   -64.8032
  557.5000     9.0508   125.1532     8.1728   -64.7240
  558.0000     9.0629   125.1629     8.1680   -64.7261
  558.5000     8.9814   125.0498     8.1030   -64.7281
  559.0000     8.9417   125.1844     8.0344   -64.7301
  559.5000     8.9108   126.0859     7.9656   -64.7320
  560.0000     8.8726   128.6425     7.8969   -64.7340
  560.5000     8.8354   129.9668     7.8122   -64.7362
  561.0000     8.8045   130.8732     7.7593   -64.7380
  561.5000     8.7735   131.3431     7.7241   -64.8870
  562.0000     8.7328   130.9593     7.6897   -65.0083
  562.5000     8.7093   130.6831     7.6887   -65.1928
  563.0000     8.6882   130.6956     7.6879   -65.2793
  563.5000     8.6659   130.7047     7.6903   -65.4129
  564.0000     8.6683   129.2941     7.7540   -65.4149
  564.5000     8.6807   128.0119     7.8426   -65.4170
  565.0000     8.7710   126.8665     7.9557   -65.4189
  565.5000     8.9253   125.3158     7.9949   -65.4209
  566.0000     9.0977   123.1448     8.1049   -65.4231
  566.5000     9.4157   120.9446     8.2921   -65.3644
  567.0000     9.7490   118.5597     8.3929   -65.2938
  567.5000     9.8798   117.2227     8.5708   -65.2962
  568.0000    10.0105   115.0225     8.7642   -65.2500
  568.5000    10.2730   112.4823     8.8862   -65.0339
  569.0000    10.4115   110.6222     9.1072   -65.0359
  569.5000    10.5648   107.7466     9.3721   -64.9046
  570.0000    10.7452   105.7920     9.4814   -64.9070
  570.5000    10.9392   104.0216     9.6418   -64.9801
  571.0000    11.1603   101.6726     9.8161   -65.0439
  571.5000    11.4206    98.9425     9.9556   -65.0461
  572.0000    11.5348    96.7423    10.0715   -65.0479
  572.5000    11.6904    94.9166    10.3843   -65.0499
  573.0000    11.8415    93.6990    10.6492   -64.9192
  573.5000    11.9948    92.1774    10.8639   -64.9209
  574.0000    12.1626    90.4253    10.9245   -64.9229
  574.5000    12.2656    88.6515    10.9236   -64.7919
  575.0000    12.3758    87.5005    10.9905   -64.7606
  575.5000    12.3637    86.7703    10.9465   -64.6629
  576.0000    12.1301    86.9593    10.9209   -64.5319
  576.5000    11.9456    88.2105    10.8521   -64.5133
  577.0000    11.7519    89.1901    10.7776   -64.4029
  577.5000    11.5921    90.3452    10.6347   -64.2719
  578.0000    11.4797    92.3142    10.4422   -64.1409
  578.5000    11.2168    93.4288    10.2448   -64.1433
  579.0000    11.0542    95.0479    10.0956   -64.1450
  579.5000    11.0033    96.1244     9.9646   -64.1470
