~VERSION INFORMATION
 VERS.                2.0:   CWLS LOG ASCII STANDARD - VERSION 2.0
 WRAP.                 NO:   ONE LINE PER DEPTH STEP
~WELL INFORMATION
#MNEM.UNIT      DATA TYPE    INFORMATION
#----------   ------------   ------------------------------
 STRT.F           28.0000:   START DEPTH
 STOP.F          636.0000:   STOP DEPTH
 STEP.F            0.5000:   STEP LENGTH
 NULL.          -999.2500:   NO VALUE
 COMP. FENIX & SCISSON INC:   COMPANY
 WELL.    NPR-3 #12S14-14:   WELL
 FLD .             TEAPOT:   FIELD
 LOC .      S14 T38N R78W:   LOCATION
 CNTY.            NATRONA:   COUNTY
 STAT.            WYOMING:   STATE
 CTRY. UNITED STATES OF AMERICA:   COUNTRY
 SRVC.           BIRDWELL:   SERVICE COMPANY
 DATE.        21-JUN-1978:   LOGDATE
 API .       490251065000:   API NUMBER
~CURVE INFORMATION
#MNEM.UNIT       API CODE    CURVE DESCRIPTION
#----------   ------------   ------------------------------
 DEPT.F                  :   
 SPR .MV     07 010 01 00:   SPONTANEOUS POTENTIAL
 ILD .OHMM   07 120 46 00:   INDUCTION LOG DEEP
 SN  .OHMM   07 040 16 00:   SHORT NORMAL 16"
 GRD .GAPI   45 310 01 00:   GAMMA RAY FROM DENSITY LOG
 CORR.G/C3   45 356 01 00:   DENSITY CORRECTION
 DEN .G/C3   45 350 01 00:   COMPENSATED BULK DENSTIY
 DPHI.DEC    45 890 12 00:   DENSITY POROSITY SANDSTONE
~PARAMETER INFORMATION
#MNEM.UNIT          VALUE    DESCRIPTION
#----------   ------------   ------------------------------
 PD  .                 GL:   PERMANENT DATUM
 EPD .F              5237:   ELEVATION PERMANENT DATUM
 LMF .                 KB:   LOG MEASURED FROM
 DMF .                 KB:   DRILLING MEASURED FROM
 EKB .F              5241:   KELLING BUSHING
 EGL .F              5237:   GROUND LEVEL
 DATE.        21-JUN-1978:   RUN DATE
 RUN .                  1:   RUN NUMBER
 DD  .F               637:   DEPTH DRILLER
 DL  .F               642:   DEPTH LOGGER
 BLI .F               636:   BOTTOM LOG INTERVAL
 TLI .F                40:   TOP LOG INTERVAL
 CS  .IN            8.625:   CASING SIZE
 CBD .F                40:   CASING BOTTOM DRILLER
 CBL .F                40:   CASING BOTTOM LOGGER
 BS  .IN            7.875:   BIT SIZE
 BSD .F               637:   BIT SIZE AT DEPTH
 DFT .                KCL:   DRILLING FLUID TYPE
 DFD .                8.7:   DRILLING FLUID DENSITY
 DFV .                 32:   DRILLING FLUID VISCOSITY
 DFPH.                 10:   DRILLING FLUID PH
 MSS .           FLOWLINE:   MUD SAMPLE SOURCE
 RMS .OHMM            .18:   RESISTIVITY MUD SAMPLE
 MST .F                84:   MUD SAMPLE TEMPERATURE
 RMF .OHMM            .17:   RESISTIVITY MUD FILTRATE SAMPLE
 MFST.F                72:   MUD FILTRATE SAMPLE TEMPERATURE
 RMC .OHMM            .28:   RESISTIVITY MUD CAKE
 MCST.F                82:   MUD CAKE SAMPLE TEMPERATURE
 MFSS.               MEAS:   MUD FILTRATE SAMPLE SOURCE
 MCSS.               MEAS:   MUD CAKE SAMPLE SOURCE
 BHT .F                72:   BOTTOM HOLE TEMPERATURE
 TCS .HRS            0230:   TIME CURCULATED STOPPED
 MRT .F                72:   MAXIMUM RECORDED TEMPERATURE
 LUN .               2958:   LOGGING UNIT NUMBER
 LUL .               CASP:   LOGGING UNIT LOCATION
 ENGI.             MILLER:   RECORDING ENGINEER
 WITN.           MCGINLEY:   WITNESSED BY
 CLNT.            A2DTECH:   CLIENT CODE
 ORIG.           5" PRINT:   ORIGIN OF DATA
 UWI .       490251065000:   UNIQUE WELL ID
 DICO. A2D Technologies, Inc.:   DIGITIZING COMPANY
~OTHER INFORMATION
~A   DEPT      SPR        ILD         SN        GRD       CORR        DEN       DPHI   
# ...
  119.0000   -47.5128    10.2738    10.1973    72.6481     0.0112     2.4233     0.1494
  119.5000   -48.6538     9.7935     9.9241    79.5520     0.0081     2.4292     0.1456
  120.0000   -49.6834     8.7946     9.5259    85.1046     0.0066     2.4336     0.1411
  120.5000   -50.4175     7.6380     9.2706    87.2037     0.0050     2.4366     0.1375
  121.0000   -51.3010     7.3898     8.9602    87.0506     0.0050     2.4372     0.1373
  121.5000   -52.3340     7.2415     8.5415    85.2458     0.0049     2.4282     0.1423
  122.0000   -53.2175     6.9616     8.1988    84.6422     0.0048     2.4282     0.1429
  122.5000   -53.3569     6.3241     7.7621    85.2405     0.0048     2.4282     0.1432
  123.0000   -53.1908     5.9058     7.5541    85.2368     0.0047     2.4245     0.1442
  123.5000   -53.1774     5.7872     7.5045    85.2338     0.0047     2.4170     0.1488
  124.0000   -53.3169     5.7505     7.5084    87.4831     0.0046     2.4155     0.1522
  124.5000   -53.3002     5.7935     7.4086    89.8825     0.0046     2.4222     0.1474
  125.0000   -53.2868     5.7569     7.3600    88.8285     0.0045     2.4237     0.1471
  125.5000   -53.2735     5.8007     7.2130    86.7234     0.0044     2.4334     0.1415
  126.0000   -53.2601     5.8039     7.2160    85.2189     0.0044     2.4341     0.1385
  126.5000   -53.2468     5.8071     7.2190    85.2159     0.0043     2.4348     0.1367
  127.0000   -53.2334     5.8103     7.1716    85.8142     0.0043     2.4348     0.1349
  127.5000   -53.2201     5.8135     7.1753    86.1115     0.0042     2.4341     0.1379
  128.0000   -53.2067     5.7767     7.2279    85.5072     0.0041     2.4310     0.1403
  128.5000   -53.0439     5.8198     7.2309    85.3541     0.0041     2.4333     0.1421
  129.0000   -53.0305     5.7432     7.1842    85.2009     0.0010     2.4385     0.1391
  129.5000   -53.0172     5.6677     7.1871    84.5973    -0.0020     2.4460     0.1356
  130.0000   -53.1566     5.6318     7.0916    84.4442    -0.0066     2.4355     0.1323
  130.5000   -53.1399     5.6349     7.0451    84.5914    -0.0126     2.4280     0.1440
  131.0000   -53.1266     5.5225     7.0487    87.1409    -0.0127     2.4242     0.1416
  131.5000   -53.1132     5.5255     7.0024    89.9908    -0.0083     2.4130     0.1473
  132.0000   -53.0999     5.5285     6.9572    85.7836    -0.0038     2.4279     0.1524
  132.5000   -53.0865     5.5316     6.8655    83.8286     0.0021     2.4362     0.1437
  133.0000   -53.0732     5.5729     6.8683    84.8767     0.0035     2.4399     0.1371
  133.5000   -53.0598     5.6535     6.8239    87.4263     0.0035     2.4421     0.1341
  134.0000   -53.1959     5.6957     6.8267    89.2258     0.0034     2.4421     0.1317
  134.5000   -53.1824     5.6989     6.8295    85.4683     0.0019     2.4338     0.1401
  135.0000   -53.1689     5.7415     6.8324    82.1620    -0.0012     2.4323     0.1437
  135.5000   -53.3054     5.8244     6.8352    80.8077    -0.0043     2.4308     0.1381
  136.0000   -53.2915     5.8276     6.7910    83.9579    -0.0073     2.4226     0.1480
  136.5000   -53.2781     5.7900     6.7938    89.3603    -0.0074     2.4218     0.1468
  137.0000   -53.2620     5.8340     6.8436    89.0570    -0.0074     2.4248     0.1432
  137.5000   -53.2486     5.8777     6.8464    85.1501    -0.0075     2.4308     0.1402
  138.0000   -53.2353     5.9216     6.8493    83.3453    -0.0060     2.4293     0.1405
  138.5000   -53.2219     5.9659     6.8995    83.3423    -0.0046     2.4255     0.1429
  139.0000   -53.0591     6.0105     6.9023    83.3393    -0.0047     2.4262     0.1447
  139.5000   -53.0457     6.0554     6.9052    82.7357    -0.0047     2.4359     0.1390
  140.0000   -53.0324     6.1007     6.9080    81.5315    -0.0078     2.4434     0.1336
  140.5000   -53.0190     6.1463     6.9117    82.7397    -0.0078     2.4426     0.1322
  141.0000   -53.0057     6.1922     7.0114    86.3453    -0.0079     2.4307     0.1375
  141.5000   -52.9923     6.1956     7.1124    87.9865    -0.0080     2.4269     0.1441
  142.0000   -52.9790     6.1558     7.1129    86.5946    -0.0063     2.4269     0.1436
  142.5000   -52.9656     6.1161     7.1158    84.7948    -0.0048     2.4329     0.1409
  143.0000   -52.9523     6.0787     7.0650    83.5856    -0.0036     2.4306     0.1418
  143.5000   -52.9389     6.0822     7.0186    82.3764    -0.0022     2.4276     0.1451
  144.0000   -52.9256     6.0855     6.9725    82.9189     0.0007     2.4308     0.1406
  144.5000   -52.9122     6.0889     6.9337    83.7793     0.0036     2.4435     0.1355
  145.0000   -52.8988     6.0922     6.9366    84.3794     0.0036     2.4488     0.1310
  145.5000   -52.8855     6.0956     6.9395    84.8293     0.0035     2.4548     0.1275
  146.0000   -53.0250     6.0989     6.8946    85.0993     0.0020     2.4597     0.1260
  146.5000   -53.0083     6.1024     6.9458    80.8913     0.0004     2.4455     0.1311
  147.0000   -52.9949     6.1063     6.9487    74.7322     0.0004     2.4454     0.1344
  147.5000   -53.1315     6.1097     6.9515    71.5760     0.0003     2.4529     0.1263
  148.0000   -53.1177     6.1131     6.9544    70.0723    -0.0028     2.4522     0.1338
  148.5000   -52.9549     6.1588     7.0054    78.4769    -0.0028     2.4364     0.1362
  149.0000   -52.9415     6.1189     7.1056    86.2818    -0.0029     2.4327     0.1404
  149.5000   -52.7787     6.1647     7.1577    88.3809    -0.0029     2.4312     0.1443
  150.0000   -52.9138     6.1683     7.2094    86.8531    -0.0030     2.4373     0.1392
  150.5000   -52.9021     6.1288     7.0665    82.6709    -0.0030     2.4395     0.1356
  151.0000   -52.8904     6.1324     7.0703    83.4202    -0.0031     2.4393     0.1347
  151.5000   -52.7292     6.0924     7.0742    83.2685    -0.0001     2.4393     0.1369
  152.0000   -52.7175     6.0960     7.0780    82.6664     0.0028     2.4385     0.1381
  152.5000   -52.5560     6.0989     7.0818    81.4637     0.0030     2.4385     0.1384
  153.0000   -52.5417     6.0591     7.0856    82.5133     0.0072     2.4415     0.1369
  153.5000   -52.5300     6.1047     7.0894    83.4130     0.0087     2.4460     0.1324
  154.0000   -52.5183     6.1498     7.0933    81.9097     0.0086     2.4452     0.1297
  154.5000   -52.5066     6.1527     7.0980    79.0553     0.0086     2.4452     0.1339
  155.0000   -52.4949     6.1556     7.1510    80.2550     0.0068     2.4512     0.1297
  155.5000   -52.4832     6.1585     7.1548    83.2565     0.0025     2.4541     0.1267
  156.0000   -52.4715     6.1616     7.1587    86.2584    -0.0005     2.4563     0.1250
  156.5000   -52.4598     6.1651     7.1625    83.2535    -0.0021     2.4563     0.1247
  157.0000   -52.4481     6.1680     7.1664    82.6514    -0.0036     2.4547     0.1262
  157.5000   -52.5859     6.1709     7.1702    82.6499    -0.0052     2.4449     0.1262
  158.0000   -52.5739     6.1738     7.1741    81.8976    -0.0052     2.4390     0.1355
  158.5000   -52.4126     6.1767     7.1287    80.5448    -0.0053     2.4330     0.1394
  159.0000   -52.3983     6.1372     7.1326    80.0928    -0.0038     2.4300     0.1421
  159.5000   -52.3866     6.0136     7.1365    80.0913     0.0006     2.4323     0.1436
  160.0000   -52.3749     5.9347     7.1411    85.0448     0.0051     2.4345     0.1397
  160.5000   -52.3632     5.8561     6.9987    89.0973     0.0020     2.4382     0.1361
  161.0000   -52.3515     5.8589     6.9535    89.2464    -0.0010     2.4380     0.1349
  161.5000   -52.3398     5.8213     6.8629    87.7430    -0.0055     2.4313     0.1370
  162.0000   -52.3281     5.7840     6.8185    84.2880    -0.0071     2.4238     0.1430
  162.5000   -52.3164     5.7477     6.7753    82.6349    -0.0041     2.4261     0.1457
  163.0000   -52.3047     5.7504     6.7798    82.0328     0.0003     2.4299     0.1458
  163.5000   -52.2930     5.7531     6.7835    81.7314     0.0018     2.4344     0.1395
  164.0000   -52.4308     5.7558     6.7871    84.7325     0.0032     2.4413     0.1314
