~VERSION INFORMATION
 VERS.                2.0:   CWLS LOG ASCII STANDARD - VERSION 2.0
 WRAP.                 NO:   ONE LINE PER DEPTH STEP
~WELL INFORMATION
#MNEM.UNIT      DATA TYPE    INFORMATION
#----------   ------------   ------------------------------
 STRT.F           20.0000:   START DEPTH
 STOP.F          677.0000:   STOP DEPTH
 STEP.F            0.5000:   STEP LENGTH
 NULL.          -999.2500:   NO VALUE
 COMP. FENIX & SCISSON INC:   COMPANY
 WELL. 11 WI NPR 3 #36-26 SX:   WELL
 FLD .             TEAPOT:   FIELD
 LOC .      S11 T38N R78W:   LOCATION
 CNTY.            NATRONA:   COUNTY
 STAT.            WYOMING:   STATE
 CTRY. UNITED STATES OF AMERICA:   COUNTRY
 SRVC.      Dresser Atlas:   SERVICE COMPANY
 DATE.        06-AUG-1980:   LOGDATE
 API .       490251084100:   API NUMBER
~CURVE INFORMATION
#MNEM.UNIT       API CODE    CURVE DESCRIPTION
#----------   ------------   ------------------------------
 DEPT.F                  :   
 SPR .MV     07 010 01 00:   SPONTANEOUS POTENTIAL
 SFL .OHMM   07 220 01 00:   SHALLOW FOCUSED LOG RESISTIVITY
 ILD .OHMM   07 120 46 00:   INDUCTION LOG DEEP
 ILM .OHMM   07 120 44 00:   INDUCTION LOG MEDIUM
 GRD .GAPI   45 310 01 00:   GAMMA RAY FROM DENSITY LOG
 RHOB.G/C3   45 350 01 00:   BULK DENSITY
 CALD.IN     45 280 60 00:   CALIPER
 CORR.G/C3   45 356 01 00:   DENSITY CORRECTION
 DPOR.DEC    45 890 12 00:   DENSITY POROSITY SANDSTONE
 NPOR.DEC    42 890 03 00:   NEUTRON POROSITY SANDSTONE
~PARAMETER INFORMATION
#MNEM.UNIT          VALUE    DESCRIPTION
#----------   ------------   ------------------------------
 PD  .                 GL:   PERMANENT DATUM
 EPD .F              5191:   ELEVATION PERMANENT DATUM
 LMF .                 KB:   LOG MEASURED FROM
 DAPD.F                 5:   FEET ABOVE PERMANENT DATUM
 DMF .                 KB:   DRILLING MEASURED FROM
 EKB .F              5196:   KELLING BUSHING
 EGL .F              5191:   GROUND LEVEL
 DATE.             8-6-80:   RUN DATE
 RUN .                  1:   RUN NUMBER
 DD  .F               680:   DEPTH DRILLER
 DL  .F               679:   DEPTH LOGGER
 BLI .F               676:   BOTTOM LOG INTERVAL
 TLI .F                20:   TOP LOG INTERVAL
 BS  .IN            7.875:   BIT SIZE
 BSD .F               680:   BIT SIZE AT DEPTH
 DFT .                KCL:   DRILLING FLUID TYPE
 DFD .                9.4:   DRILLING FLUID DENSITY
 DFV .                 45:   DRILLING FLUID VISCOSITY
 DFPH.                 12:   DRILLING FLUID PH
 MSS .           FLOWLINE:   MUD SAMPLE SOURCE
 RMS .OHMM            .11:   RESISTIVITY MUD SAMPLE
 MST .F                65:   MUD SAMPLE TEMPERATURE
 RMF .OHMM             .1:   RESISTIVITY MUD FILTRATE SAMPLE
 MFST.F                60:   MUD FILTRATE SAMPLE TEMPERATURE
 RMC .OHMM            .17:   RESISTIVITY MUD CAKE
 MCST.F                65:   MUD CAKE SAMPLE TEMPERATURE
 MFSS.               MEAS:   MUD FILTRATE SAMPLE SOURCE
 MCSS.              CHART:   MUD CAKE SAMPLE SOURCE
 TCS .HRS              .5:   TIME CURCULATED STOPPED
 MRT .F               100:   MAXIMUM RECORDED TEMPERATURE
 LUN .               6240:   LOGGING UNIT NUMBER
 LUL .               RVTN:   LOGGING UNIT LOCATION
 ENGI.            K. RALL:   RECORDING ENGINEER
 WITN.     AMAND/MCINTYRE:   WITNESSED BY
 CLNT.            A2DTECH:   CLIENT CODE
 ORIG.        2" 5" PRINT:   ORIGIN OF DATA
 UWI .       490251084100:   UNIQUE WELL ID
 DICO. A2D Technologies, Inc.:   DIGITIZING COMPANY
~OTHER INFORMATION
~A   DEPT       SPR       SFL         ILD         ILM      GRD       RHOB       CALD       CORR       DPOR       NPOR   
# ...
  656.5000   -68.8640     9.6682     9.0841     8.1925   120.8701     2.4856     7.9146     0.0391     0.1080     0.2735
  657.0000   -69.6016     9.6682     8.8378     8.1925   120.2409     2.4988     7.9018     0.0517     0.0978     0.2846
  657.5000   -70.2559     9.6682     8.1483     7.7783   121.3006     2.5203     7.8890     0.0642     0.0847     0.2774
  658.0000   -70.4706     9.6682     7.5126     6.9281   123.7666     2.5440     7.8760     0.0753     0.0798     0.2676
  658.5000   -70.5842     8.8998     6.9265     6.1709   126.2242     2.5173     7.8642     0.0623     0.1215     0.2642
  659.0000   -70.6958     7.4942     6.4953     5.7030   127.8469     2.4761     7.8758     0.0161     0.1565     0.2714
  659.5000   -70.7756     6.2099     6.3904     5.6699   127.3732     2.4130     7.8883    -0.0081     0.1752     0.2714
  660.0000   -70.7235     5.4150     6.3868     5.8802   127.0253     2.3706     7.9006    -0.0163     0.1915     0.2686
  660.5000   -70.6758     5.4150     6.6455     6.1492   127.4042     2.3539     7.9130    -0.0071     0.1913     0.2772
  661.0000   -70.6294     7.4228     6.9396     6.4635   132.7503     2.3547     7.9244    -0.0007     0.1637     0.2876
  661.5000   -70.4872     9.4136     7.2519     6.7938   137.0026     2.3980     7.9247    -0.0003     0.1343     0.2946
  662.0000   -69.6921    11.0990     7.5822     7.1410   141.0304     2.4485     7.9247     0.0098     0.1099     0.2787
  662.5000   -68.2473    10.7149     7.9646     7.5060   145.0496     2.4992     7.9246     0.0318     0.1023     0.2588
  663.0000   -66.4305    10.3974     8.3615     7.8896   146.5617     2.5136     7.9246     0.0352     0.0947     0.2549
  663.5000   -65.6204    10.3569     8.7791     8.2928   145.1643     2.5234     7.9246     0.0342     0.0886     0.2566
  664.0000   -64.8631    10.3166     9.1024     8.7167   143.7538     2.5315     7.9246     0.0336     0.0886     0.2584
  664.5000   -64.9963    10.2765     9.3335     9.0140   143.8848     2.5220     7.9246     0.0279     0.1000     0.2563
  665.0000   -65.8370    10.2365     9.5704     9.1678   144.5403     2.5045     7.9246     0.0221     0.1129     0.2514
  665.5000   -66.6703    10.2170     9.8133     9.3243   144.4150     2.4850     7.9246     0.0154     0.1252     0.2465
  666.0000   -66.4588    10.5185    10.0624     9.4834   144.2769     2.4619     7.9246     0.0017     0.1386     0.2383
  666.5000   -65.7819    10.7526    10.3178     9.6453   144.0866     2.4458     7.9246    -0.0040     0.1401     0.2335
  667.0000   -65.0971    10.9919    10.6000     9.8099   143.5681     2.4801     7.9258     0.0199     0.1054     0.2457
  667.5000   -64.4099    11.2365    10.7107     9.9773  -999.2500     2.5043     7.9282     0.0267     0.1042     0.2531
  668.0000   -63.7581    11.4866    10.8318    10.1476  -999.2500     2.4723     7.9304     0.0053     0.1360     0.2523
  668.5000  -999.2500    11.6216    10.9543    10.3208  -999.2500     2.4303     7.9328    -0.0180     0.1469     0.2439
  669.0000  -999.2500    11.6216    11.0782    10.4969  -999.2500     2.4445     7.9351    -0.0183     0.1250     0.2348
  669.5000  -999.2500    11.6216    11.2035    10.6761  -999.2500     2.4772     7.9374     0.0075     0.1106     0.2328
  670.0000  -999.2500    11.6216    11.3302    10.8584  -999.2500     2.4957     7.9397     0.0160     0.1131     0.2476
  670.5000  -999.2500    11.8607    11.4579    11.0436  -999.2500     2.4842     7.9420     0.0174     0.1158  -999.2500
  671.0000  -999.2500    12.1377    11.5684    11.2321  -999.2500     2.4823     7.9443     0.0126     0.1185  -999.2500
  671.5000  -999.2500    12.4211    11.6622    11.3052  -999.2500     2.4844     7.9466     0.0069     0.1277  -999.2500
  672.0000  -999.2500    12.6250    11.7292    11.3178  -999.2500     2.4666     7.9489     0.0012     0.1409  -999.2500
  672.5000  -999.2500    12.4012    11.7101    11.3298  -999.2500     2.4492     7.9512    -0.0045     0.1318  -999.2500
  673.0000  -999.2500    12.1617    11.6954    11.3418  -999.2500     2.4402     7.9535    -0.0061     0.1154  -999.2500
  673.5000  -999.2500    11.9469    11.6808    11.3538  -999.2500     2.4759     7.9558     0.0152     0.1070  -999.2500
  674.0000  -999.2500    11.9469    11.6662    11.3658  -999.2500     2.4971     7.9581     0.0336     0.1160  -999.2500
  674.5000  -999.2500    11.9469    11.6517    11.3779  -999.2500     2.4901     7.9604     0.0317     0.1194  -999.2500
  675.0000  -999.2500    11.9469    11.6370    11.3900  -999.2500     2.4833     7.9627     0.0294     0.1077  -999.2500
  675.5000  -999.2500  -999.2500    11.6221    11.4020  -999.2500     2.4910     7.9650     0.0403  -999.2500  -999.2500
  676.0000  -999.2500  -999.2500  -999.2500  -999.2500  -999.2500     2.4944     7.9654     0.0389  -999.2500  -999.2500
  676.5000  -999.2500  -999.2500  -999.2500  -999.2500  -999.2500     2.4694     7.9654     0.0279  -999.2500  -999.2500
  677.0000  -999.2500  -999.2500  -999.2500  -999.2500  -999.2500     2.4584     7.9654     0.0188  -999.2500  -999.2500
