~VERSION INFORMATION
 VERS.                2.0:   CWLS LOG ASCII STANDARD - VERSION 2.0
 WRAP.                 NO:   ONE LINE PER DEPTH STEP
~WELL INFORMATION
#MNEM.UNIT      DATA TYPE    INFORMATION
#----------   ------------   ------------------------------
 STRT.F           36.0000:   START DEPTH
 STOP.F          442.0000:   STOP DEPTH
 STEP.F            0.5000:   STEP LENGTH
 NULL.          -999.2500:   NO VALUE
 COMP.    FENIX & SCISSON:   COMPANY
 WELL.      NPR #66-SX-10:   WELL
 FLD .             TEAPOT:   FIELD
 LOC .      S10 T38N R78W:   LOCATION
 CNTY.            NATRONA:   COUNTY
 STAT.            WYOMING:   STATE
 CTRY. UNITED STATES OF AMERICA:   COUNTRY
 SRVC.              Welex:   SERVICE COMPANY
 DATE.        19-APR-1977:   LOGDATE
 API .       490251036100:   API NUMBER
~CURVE INFORMATION
#MNEM.UNIT       API CODE    CURVE DESCRIPTION
#----------   ------------   ------------------------------
 DEPT.F                  :   
 CALD.IN     45 280 60 00:   CALIPER FROM DENSITY LOG
 DPHI.DEC    45 890 12 00:   DENSITY POROSITY SANDSTONE
 DRHO.G/C3   45 356 01 00:   DENSITY CORRECTION
 GRD .GAPI   45 310 01 00:   GAMMA RAY FROM DENSITY LOG
 RHOB.G/C3   45 350 01 00:   BULK DENSITY
 ILD .OHMM   07 120 46 00:   INDUCTION LOG DEEP
 ILM .OHMM   07 120 44 00:   INDUCTION LOG MEDIUM
 SGRD.OHMM   07 221 05 00:   SHALLOW SHORT GUARD RESISTIVITY
 SPR .MV     07 010 01 00:   SPONTANEOUS POTENTIAL
~PARAMETER INFORMATION
#MNEM.UNIT          VALUE    DESCRIPTION
#----------   ------------   ------------------------------
 PD  .                 GL:   PERMANENT DATUM
 EPD .F              5200:   ELEVATION PERMANENT DATUM
 LMF .                 GL:   LOG MEASURED FROM
 DMF .                 GL:   DRILLING MEASURED FROM
 EGL .F              5200:   GROUND LEVEL
 DATE.        19-APR-1977:   RUN DATE
 RUN .                  1:   RUN NUMBER
 DD  .F               476:   DEPTH DRILLER
 DL  .F               447:   DEPTH LOGGER
 BLI .F               445:   BOTTOM LOG INTERVAL
 TLI .F                35:   TOP LOG INTERVAL
 CS  .IN            8.625:   CASING SIZE
 CBD .F                42:   CASING BOTTOM DRILLER
 CBL .F                42:   CASING BOTTOM LOGGER
 BS  .IN            7.875:   BIT SIZE
 BSD .F               476:   BIT SIZE AT DEPTH
 DFT .            KCL MUD:   DRILLING FLUID TYPE
 DFD .                8.8:   DRILLING FLUID DENSITY
 DFV .                 37:   DRILLING FLUID VISCOSITY
 MSS .           FLOWLINE:   MUD SAMPLE SOURCE
 RMS .OHMM           1.06:   RESISTIVITY MUD SAMPLE
 MST .F                48:   MUD SAMPLE TEMPERATURE
 RMF .OHMM           1.03:   RESISTIVITY MUD FILTRATE SAMPLE
 MFST.F                48:   MUD FILTRATE SAMPLE TEMPERATURE
 RMC .OHMM           1.18:   RESISTIVITY MUD CAKE
 MCST.F                48:   MUD CAKE SAMPLE TEMPERATURE
 MFSS.               MEAS:   MUD FILTRATE SAMPLE SOURCE
 MCSS.               MEAS:   MUD CAKE SAMPLE SOURCE
 RMB .OHMM           0.86:   RESISTIVITY MUD AT BHT
 BHT .F                59:   BOTTOM HOLE TEMPERATURE
 TCS .HRS               5:   TIME CURCULATED STOPPED
 MRT .F                59:   MAXIMUM RECORDED TEMPERATURE
 LUN .               8611:   LOGGING UNIT NUMBER
 LUL .             CASPER:   LOGGING UNIT LOCATION
 ENGI.               DOAK:   RECORDING ENGINEER
 WITN.        MR. R. LYON:   WITNESSED BY
 CLNT.            A2DTECH:   CLIENT CODE
 ORIG.      2.5" 5" PRINT:   ORIGIN OF DATA
 UWI .       490251036100:   UNIQUE WELL ID
 DICO. A2D Technologies, Inc.:   DIGITIZING COMPANY
~OTHER INFORMATION
~A   DEPT     CALD       DPHI       DRHO         GRD      RHOB        ILD        ILM       SGRD        SPR   
   36.0000  -999.2500  -999.2500  -999.2500    93.8869  -999.2500  -999.2500  -999.2500  -999.2500  -999.2500
   36.5000  -999.2500  -999.2500  -999.2500    91.9784  -999.2500  -999.2500  -999.2500  -999.2500  -999.2500
   37.0000  -999.2500  -999.2500  -999.2500    90.4984  -999.2500  -999.2500  -999.2500  -999.2500  -999.2500
   37.5000  -999.2500  -999.2500  -999.2500    89.2969  -999.2500  -999.2500  -999.2500  -999.2500  -999.2500
   38.0000  -999.2500  -999.2500  -999.2500    88.6213  -999.2500  -999.2500  -999.2500  -999.2500  -999.2500
   38.5000  -999.2500  -999.2500  -999.2500    93.3779  -999.2500  -999.2500  -999.2500  -999.2500  -999.2500
   39.0000  -999.2500  -999.2500  -999.2500    93.0977  -999.2500  -999.2500  -999.2500  -999.2500  -999.2500
   39.5000  -999.2500  -999.2500  -999.2500    91.1892  -999.2500  -999.2500  -999.2500  -999.2500  -999.2500
   40.0000  -999.2500  -999.2500  -999.2500    84.2478  -999.2500  -999.2500  -999.2500  -999.2500  -999.2500
   40.5000  -999.2500  -999.2500  -999.2500    63.3919  -999.2500  -999.2500  -999.2500  -999.2500  -999.2500
   41.0000  -999.2500  -999.2500  -999.2500    58.0788  -999.2500  -999.2500  -999.2500  -999.2500  -999.2500
   41.5000  -999.2500  -999.2500  -999.2500    57.3545  -999.2500  -999.2500  -999.2500  -999.2500  -999.2500
   42.0000     8.0134  -999.2500     0.1131    65.2197     2.0283     1.6563     0.4765    46.0366   -26.5867
   42.5000     8.0294  -999.2500     0.0781    76.7816     1.9724     1.7372    14.4148     7.9680   -26.4528
   43.0000     8.0156  -999.2500     0.0555    80.7941     1.9567     1.9215   123.6307     0.8319   -26.7654
   43.5000     7.9876  -999.2500     0.0375    83.6224     1.9694     2.3855   124.9680     0.4692   -26.8181
   44.0000    13.1762  -999.2500     0.0481    82.4541     2.0553     2.6308   127.0112     1.3623   -26.7965
   44.5000    13.2379  -999.2500     0.0572    78.7692     2.0563     2.7031   133.4119     2.1949   -26.5177
   45.0000    13.2677  -999.2500     0.0634    75.5285     2.0517     3.1658   148.4161     2.3966   -26.5338
   45.5000    13.3134  -999.2500     0.0559    74.5081     2.0418     3.5274   172.8839     2.5124   -26.2546
   46.0000    13.3442  -999.2500     0.0484    76.6105     2.0280     3.6167   180.1602     2.6879   -26.2714
   46.5000    13.3751  -999.2500     0.0409    76.4681     2.0213     3.6132   170.2265     2.8978   -26.2876
   47.0000    13.3911  -999.2500     0.0348    75.2997     2.0146     3.6103   164.2517     3.1802   -26.5988
   47.5000    13.4220  -999.2500     0.0305    73.9833     2.0162     3.5586   158.6773     3.4483   -26.6150
   48.0000    13.4381  -999.2500     0.0261    72.8150     2.0289     3.5077   154.2822     3.6273   -26.6313
   48.5000    13.4689  -999.2500     0.0247    72.6788     2.0498     3.5049   154.1589     4.0189   -26.5428
   49.0000    13.4850  -999.2500     0.0247    74.0308     2.0730     3.5021   151.9481     4.4960   -26.3655
   49.5000    13.5162  -999.2500     0.0278    76.1190     2.0932     3.4993   153.9126     4.7312   -26.3850
   50.0000    13.4436     0.2952     0.0370    77.7632     2.1231     3.6923   155.9024     4.7950   -26.4012
   50.5000    12.3808     0.2591     0.0461    77.5979     2.2069     4.0119   162.2869     4.9017   -26.4174
   51.0000    11.1851     0.2313     0.0507    75.4304     2.2695     4.3592   173.6065     4.9929   -26.7318
   51.5000    10.4622     0.2135     0.0553    73.5219     2.2942     4.6626   193.4756     5.1298   -26.7477
   52.0000     8.5867     0.1978     0.0554    69.9851     2.3107     4.8335   221.9986     5.3082   -27.0585
   52.5000     8.3072     0.1913     0.0509    66.8923     2.3234     4.8959   247.4488     5.6082   -27.3693
   53.0000     8.1899     0.1838     0.0495    67.0562     2.3361     4.8914   264.6029     6.0686   -27.6801
   53.5000     8.0825     0.1766     0.0571    68.2562     2.3474     4.8874   276.2733     6.5807   -27.9910
   54.0000     7.9271     0.1785     0.0617    71.0846     2.3549     4.8173   295.0300     7.3333   -28.5968
   54.5000     7.8398     0.1870     0.0603    74.5377     2.3445     4.7193   277.2761     7.9521   -29.2026
   55.0000     7.7672     0.1825     0.0618    81.5378     2.3363     4.5856   206.7103     6.4746   -29.5134
   55.5000     8.2709     0.1801     0.0649    84.4584     2.3356     4.4834   155.1855     5.6439   -29.2252
   56.0000     8.4496     0.1774     0.0665    86.2506     2.3574     4.3051    86.0378     5.4872   -28.9322
   56.5000     8.4357     0.1738     0.0545    89.9670     2.3589     4.1860     5.1734     5.7115   -28.6760
   57.0000     8.4374     0.1681     0.0440    95.9039     2.3575     4.1260     3.4707     5.9450   -28.9882
   57.5000     8.4534     0.1603     0.0351   105.0974     2.3650     4.1228     3.4272     6.1937   -29.4322
   58.0000     8.4335     0.1334     0.0351   110.8863     2.4150     4.2333     3.8648     6.3538   -30.5762
   58.5000     7.9982     0.1309     0.0322   112.6784     2.4240     4.3467     4.3663     6.2619   -31.4916
   59.0000     7.9404     0.1355     0.0232   112.9903     2.4047     4.5865     5.1390     6.2563   -32.4071
   59.5000     7.9417     0.1394     0.0158   113.0294     2.3988     4.8396     5.7271     6.2508   -33.0275
   60.0000     7.9578     0.1346     0.0143   114.9503     2.4025     5.0375     5.4186     6.3318   -33.5103
   60.5000     7.9738     0.1244     0.0159   116.5944     2.4309     5.1760     5.3409     6.4399   -33.8215
   61.0000     7.9899     0.1184     0.0190   116.0181     2.4527     5.3182     5.4099     6.6164   -34.1327
   61.5000     8.0060     0.1160     0.0206   113.8136     2.4609     5.4644     5.5551     6.8361   -34.1520
   62.0000     8.0221     0.1181     0.0207   113.8294     2.4490     5.5997     6.0242     7.0801   -34.1679
   62.5000     8.0234     0.1213     0.0177   113.4011     2.4424     5.6909     6.7253     7.3741   -33.8864
   63.0000     8.0397     0.1258     0.0148   109.7161     2.4357     5.8240     7.2985     7.6334   -33.0196
   63.5000     8.0410     0.1306     0.0118   110.9699     2.4275     5.8186     7.1232     7.4099   -30.6756
   64.0000     8.0423     0.1365     0.0119   114.9099     2.4179     5.8138     6.4841     7.1065   -33.3463
   64.5000     8.0584     0.1368     0.0135   114.6527     2.4097     5.7305     6.1460     7.0042   -33.9521
   65.0000     8.0446     0.1330     0.0151   113.7803     2.4180     5.7258     5.9947     6.9981   -34.2629
   65.5000     8.0462     0.1308     0.0167   112.6120     2.4262     5.7996     6.2120     6.9920   -34.2788
   66.0000     8.0179     0.1332     0.0107   111.7357     2.4196     5.8743     6.4410     7.0825   -34.3088
   66.5000     8.0045     0.1322     0.0032   112.0515     2.4204     5.9492     6.6573     7.1730   -34.6342
   67.0000     7.9765     0.1292    -0.0027   112.2154     2.4242     6.1087     7.0343     7.2655   -34.9174
   67.5000     7.9479     0.1221    -0.0072   111.1950     2.4317     6.3585     7.4326     7.4598   -35.2286
   68.0000     7.9200     0.1155    -0.0086   109.8434     2.4422     6.6185     7.7471     7.7691   -35.3156
   68.5000     7.9213     0.1113    -0.0055   111.2307     2.4504     6.8891     8.2687     8.3194   -35.5560
   69.0000     7.9226     0.1083     0.0006   111.6866     2.4587     7.0738     8.4907     8.9103   -35.5723
   69.5000     7.9091     0.1154     0.0052   111.4104     2.4632     7.2635     8.4839     9.5638   -35.8835
   70.0000     7.9104     0.1214     0.0038   110.5380     2.4655     7.4581     8.3622    10.1658   -35.8997
   70.5000     7.9117     0.1234    -0.0007   108.3335     2.4482     7.5544     8.3556    10.1559   -36.0580
   71.0000     7.8982     0.1228    -0.0021   106.4210     2.4432     7.6519     8.3489    10.0094   -36.2271
   71.5000     7.8847     0.1210    -0.0020   108.2171     2.4433     7.6453     8.3422    10.0005   -36.4140
   72.0000     7.8568     0.1183    -0.0035   105.8645     2.4471     7.6391     8.3355    10.2925   -36.5575
