~VERSION INFORMATION
 VERS.                2.0:   CWLS LOG ASCII STANDARD - VERSION 2.0
 WRAP.                 NO:   ONE LINE PER DEPTH STEP
~WELL INFORMATION
#MNEM.UNIT      DATA TYPE    INFORMATION
#----------   ------------   ------------------------------
 STRT.F           70.0000:   START DEPTH
 STOP.F         1236.0000:   STOP DEPTH
 STEP.F            0.5000:   STEP LENGTH
 NULL.          -999.2500:   NO VALUE
 COMP. U S NAVY/INTEX OIL CO:   COMPANY
 WELL. NAVAL PETROLEUM TE ##3 75S-11:   WELL
 FLD .             TEAPOT:   FIELD
 LOC .      S11 T38N R78W:   LOCATION
 CNTY.            NATRONA:   COUNTY
 STAT.            WYOMING:   STATE
 CTRY. UNITED STATES OF AMERICA:   COUNTRY
 SRVC.         Lane Wells:   SERVICE COMPANY
 DATE.        04-MAR-1960:   LOGDATE
 API .       490250633900:   API NUMBER
~CURVE INFORMATION
#MNEM.UNIT       API CODE    CURVE DESCRIPTION
#----------   ------------   ------------------------------
 DEPT.F                  :   
 GR  .GAPI   30 310 01 00:   GAMMA RAY
 SPR .MV     05 010 01 00:   SPONTANEOUS POTENTIAL FROM RES.
 ILD .OHMM   05 120 46 00:   INDUCTION LOG DEEP
 CILD.MMHO   05 110 46 00:   CONDUCTIVITY INDUCTION LOG DEEP
 ASN .OHMM   05 041 18 00:   AMPLIFIED SHORT NORMAL 18"
~PARAMETER INFORMATION
#MNEM.UNIT          VALUE    DESCRIPTION
#----------   ------------   ------------------------------
 PD  .                 GL:   PERMANENT DATUM
 EPD .F              5252:   ELEVATION PERMANENT DATUM
 LMF .                 KB:   LOG MEASURED FROM
 DAPD.F                 5:   FEET ABOVE PERMANENT DATUM
 DMF .                 KB:   DRILLING MEASURED FROM
 EKB .F              5257:   KELLING BUSHING
 EGL .F              5252:   GROUND LEVEL
 DATE.             3-4-60:   RUN DATE
 RUN .                  1:   RUN NUMBER
 DD  .F              1239:   DEPTH DRILLER
 DL  .F              1238:   DEPTH LOGGER
 BLI .F              1236:   BOTTOM LOG INTERVAL
 TLI .F                70:   TOP LOG INTERVAL
 CS  .IN            8.625:   CASING SIZE
 CBD .F                12:   CASING BOTTOM DRILLER
 BS  .IN            7.875:   BIT SIZE
 BSD .F              1239:   BIT SIZE AT DEPTH
 DFT .                GEL:   DRILLING FLUID TYPE
 DFD .                9.2:   DRILLING FLUID DENSITY
 DFV .                 34:   DRILLING FLUID VISCOSITY
 DFPH.                7.5:   DRILLING FLUID PH
 DFL .                8.5:   DRILLING FLUID LOSS
 MSS .                PIT:   MUD SAMPLE SOURCE
 RMS .OHMM              3:   RESISTIVITY MUD SAMPLE
 MST .F                52:   MUD SAMPLE TEMPERATURE
 RMF .OHMM            2.8:   RESISTIVITY MUD FILTRATE SAMPLE
 MFST.F                55:   MUD FILTRATE SAMPLE TEMPERATURE
 RMC .OHMM            3.3:   RESISTIVITY MUD CAKE
 MCST.F                55:   MUD CAKE SAMPLE TEMPERATURE
 MFSS.                MUD:   MUD FILTRATE SAMPLE SOURCE
 MCSS.              PRESS:   MUD CAKE SAMPLE SOURCE
 RMB .OHMM            2.2:   RESISTIVITY MUD AT BHT
 BHT .F                77:   BOTTOM HOLE TEMPERATURE
 TCS .HRS              .5:   TIME CURCULATED STOPPED
 MRT .F                77:   MAXIMUM RECORDED TEMPERATURE
 LUN .               4474:   LOGGING UNIT NUMBER
 LUL .             CASPER:   LOGGING UNIT LOCATION
 ENGI.      GRIGGS/NELSON:   RECORDING ENGINEER
 WITN.  JORGENSEN/HOLLAND:   WITNESSED BY
 CLNT.            A2DTECH:   CLIENT CODE
 ORIG.       2", 5" PRINT:   ORIGIN OF DATA
 UWI .       490250633900:   UNIQUE WELL ID
 DICO. A2D Technologies, Inc.:   DIGITIZING COMPANY
~OTHER INFORMATION
~A   DEPT       GR        SPR          ILD      CILD         ASN 
# ...
  131.0000  -999.2500   -36.9311     5.6541   188.4084     6.3787
  131.5000  -999.2500   -37.0184     5.7052   185.2973     6.5218
  132.0000  -999.2500   -37.1067     5.7562   182.1856     6.6686
  132.5000  -999.2500   -37.1944     5.8073   179.0803     6.8157
  133.0000  -999.2500   -37.2820     5.8584   175.9411     6.9629
  133.5000  -999.2500   -37.3696     5.9095   173.8096     7.1146
  134.0000  -999.2500   -37.4572     5.9607   171.9563     7.1550
  134.5000  -999.2500   -37.5448     6.0137   170.1222     7.1639
  135.0000  -999.2500   -37.6013     5.9873   168.2841     7.1463
  135.5000  -999.2500   -37.6218     5.9430   169.3980     7.0262
  136.0000  -999.2500   -37.6425     5.8982   171.2364     6.9001
  136.5000  -999.2500   -37.6632     5.8536   173.0748     6.7739
  137.0000  -999.2500   -37.6838     5.8090   174.9133     6.6479
  137.5000  -999.2500   -37.7045     5.7644   176.7517     6.5217
  138.0000  -999.2500   -37.7253     5.7199   178.5901     6.3946
  138.5000  -999.2500   -37.7457     5.6753   180.4285     6.2643
  139.0000  -999.2500   -37.7681     5.6307   182.4118     6.2546
  139.5000  -999.2500   -37.6740     5.5862   183.5408     6.2504
  140.0000  -999.2500   -37.5159     5.5416   184.7664     6.2460
  140.5000  -999.2500   -37.3563     5.4970   185.9921     6.2370
  141.0000  -999.2500   -37.1966     5.4525   187.2177     6.0985
  141.5000  -999.2500   -37.0370     5.4078   189.8629     5.9509
  142.0000  -999.2500   -36.8771     5.3634   193.9993     5.8035
  142.5000  -999.2500   -36.7096     5.3185   198.1357     5.6566
  143.0000  -999.2500   -36.7998     5.3238   202.2722     5.5091
  143.5000  -999.2500   -36.9642     5.3713   204.1468     5.4430
  144.0000  -999.2500   -37.1303     5.4193   204.1468     5.5545
  144.5000  -999.2500   -37.2959     5.4673   199.8234     5.7517
  145.0000  -999.2500   -37.4614     5.5153   195.7788     5.9498
  145.5000  -999.2500   -37.6268     5.5632   191.7343     6.1480
  146.0000  -999.2500   -37.7924     5.6112   187.6898     6.3464
  146.5000  -999.2500   -37.9588     5.6591   183.9604     6.5451
  147.0000  -999.2500   -38.1252     5.7071   182.1220     6.7292
  147.5000  -999.2500   -38.0578     5.7552   180.6006     6.7136
  148.0000  -999.2500   -37.9644     5.8033   180.6006     6.6095
  148.5000  -999.2500   -37.8707     5.8423   181.0647     6.5070
  149.0000  -999.2500   -37.7776     5.8226   183.3627     6.4049
  149.5000  -999.2500   -37.6845     5.7222   185.6608     6.3013
  150.0000  -999.2500   -37.5915     5.6240   187.9588     6.1720
  150.5000  -999.2500   -37.4984     5.5259   190.6506     6.0315
  151.0000  -999.2500   -37.4051     5.4278   194.6100     5.8910
  151.5000  -999.2500   -37.3114     5.3297   198.5240     5.7503
  152.0000  -999.2500   -37.2290     5.2315   202.4467     5.6098
  152.5000  -999.2500   -37.2789     5.1327   206.3686     5.4691
  153.0000  -999.2500   -37.3305     5.1014   210.2906     5.3284
  153.5000  -999.2500   -37.3814     5.0830   214.2125     5.1890
  154.0000  -999.2500   -37.4322     5.0648   218.1345     5.0853
  154.5000  -999.2500   -37.4829     5.0464   220.4688     5.0525
  155.0000  -999.2500   -37.5337     5.0280   222.5698     5.0183
  155.5000  -999.2500   -37.5844     5.0096   224.6708     4.9845
  156.0000  -999.2500   -37.6352     4.9913   226.0765     4.9505
  156.5000  -999.2500   -37.6857     4.9728   226.5361     4.9164
  157.0000  -999.2500   -37.7367     4.9543   226.9977     4.8823
  157.5000  -999.2500   -37.8008     4.9366   227.4612     4.8634
  158.0000  -999.2500   -37.9184     4.9474   227.4367     4.8453
  158.5000  -999.2500   -38.0330     4.9598   226.9185     4.8328
  159.0000  -999.2500   -38.1476     4.9721   226.3988     4.8567
  159.5000  -999.2500   -38.2622     4.9844   225.8731     4.9143
  160.0000  -999.2500   -38.3776     4.9966   223.5996     4.9721
  160.5000  -999.2500   -38.4952     5.0089   221.3935     5.0299
  161.0000  -999.2500   -38.3855     5.0211   219.1874     5.0878
  161.5000  -999.2500   -38.2458     5.0334   216.9910     5.1454
  162.0000  -999.2500   -38.1055     5.0457   215.0371     5.2040
  162.5000  -999.2500   -37.9659     5.0579   215.5255     5.1996
  163.0000  -999.2500   -37.8263     5.0702   215.9833     5.1592
  163.5000  -999.2500   -37.6864     5.0824   216.4429     5.1180
  164.0000  -999.2500   -37.5455     5.0948   217.0895     5.0769
  164.5000  -999.2500   -37.4155     5.1070   218.6653     5.0358
  165.0000  -999.2500   -37.5163     5.1101   220.2410     4.9947
  165.5000  -999.2500   -37.6262     5.0697   221.8168     4.9536
  166.0000  -999.2500   -37.7351     5.0302   221.9287     4.9122
  166.5000  -999.2500   -37.8436     4.9908   221.4691     4.8716
  167.0000  -999.2500   -37.9522     4.9514   221.0095     4.8802
  167.5000  -999.2500   -38.0608     4.9118   220.5499     4.9610
  168.0000  -999.2500   -38.1694     4.8730   218.4039     5.0421
  168.5000  -999.2500   -38.2779     4.8747   215.7776     5.1229
  169.0000  -999.2500   -38.3866     4.9816   213.1513     5.2033
  169.5000  -999.2500   -38.4956     5.0867   209.6582     5.2792
  170.0000  -999.2500   -38.6038     5.1918   204.4056     5.5296
  170.5000  -999.2500   -38.6735     5.2969   199.1529     5.8066
  171.0000  -999.2500   -38.5765     5.4019   193.9003     6.0843
  171.5000  -999.2500   -38.4831     5.5070   188.6463     6.3618
  172.0000  -999.2500   -38.3899     5.6120   183.3898     6.6391
  172.5000  -999.2500   -38.2969     5.7172   178.1425     6.9157
  173.0000  -999.2500   -38.2037     5.8230   174.3699     7.0721
  173.5000  -999.2500   -38.1106     5.9275   174.1248     6.9278
  174.0000  -999.2500   -38.0183     5.9205   175.8295     6.7726
  174.5000  -999.2500   -37.9551     5.8935   177.5541     6.6172
  175.0000  -999.2500   -38.0031     5.8672   179.2723     6.4623
  175.5000  -999.2500   -38.0560     5.8409   180.9882     6.3071
  176.0000  -999.2500   -38.1091     5.8145   182.7040     6.1519
  176.5000  -999.2500   -38.1410     5.7888   184.4199     6.0054
  177.0000  -999.2500   -38.1671     5.7619   186.0221     5.9859
  177.5000  -999.2500   -38.2294     5.8403   183.4574     6.0032
  178.0000  -999.2500   -38.2904     5.8415   180.9904     6.0734
  178.5000  -999.2500   -38.3276     5.8923   178.5355     6.1902
  179.0000  -999.2500   -38.4769     5.9766   176.0845     6.3137
  179.5000  -999.2500   -38.6329     6.0615   173.6333     6.4521
  180.0000  -999.2500   -38.7882     6.1464   171.1821     6.5936
  180.5000  -999.2500   -38.9440     6.2314   168.7309     6.7351
  181.0000  -999.2500   -39.0998     6.3162   166.2796     6.8765
  181.5000  -999.2500   -39.2133     6.3910   164.0639     7.0179
  182.0000  -999.2500   -38.9874     6.4161   162.8383     7.1653
  182.5000  -999.2500   -38.7569     6.4422   161.6127     7.2093
  183.0000  -999.2500   -38.5275     6.4685   160.8349     7.1644
  183.5000  -999.2500   -38.2984     6.4948   161.5034     7.0908
  184.0000  -999.2500   -38.0691     6.5211   162.1719     7.0171
  184.5000  -999.2500   -37.8298     6.5472   162.8405     6.9624
  185.0000  -999.2500   -37.8114     6.5615   163.5086     6.9966
  185.5000  -999.2500   -37.8615     6.5420   164.1930     7.0537
  186.0000  -999.2500   -37.9135     6.5236   163.1686     7.1090
  186.5000  -999.2500   -37.9650     6.5052   161.7930     7.1638
  187.0000  -999.2500   -38.0164     6.4868   160.4142     7.2082
  187.5000  -999.2500   -38.0677     6.4640   159.0354     7.2308
  188.0000  -999.2500   -38.1190     6.4333   159.5820     7.2539
  188.5000  -999.2500   -38.1704     6.4026   160.3991     7.2773
  189.0000  -999.2500   -38.2217     6.3720   161.2162     7.3070
  189.5000  -999.2500   -38.2731     6.3413   162.0333     7.3076
  190.0000  -999.2500   -38.3244     6.3107   163.3511     7.2286
  190.5000  -999.2500   -38.3758     6.2801   165.2977     7.1424
  191.0000  -999.2500   -38.4272     6.2495   167.2442     7.0567
  191.5000  -999.2500   -38.4784     6.2188   169.1908     6.9708
