~VERSION INFORMATION
 VERS.                2.0:   CWLS LOG ASCII STANDARD - VERSION 2.0
 WRAP.                 NO:   ONE LINE PER DEPTH STEP
~WELL INFORMATION
#MNEM.UNIT      DATA TYPE    INFORMATION
#----------   ------------   ------------------------------
 STRT.F            0.0000:   START DEPTH
 STOP.F          400.0000:   STOP DEPTH
 STEP.F            0.5000:   STEP LENGTH
 NULL.          -999.2500:   NO VALUE
 COMP. DEPARTMENT OF ENERGY:   COMPANY
 WELL. NPR 3 #55-56 SX 3 C5:   WELL
 FLD .        TEAPOT EAST:   FIELD
 LOC .       S3 T38N R78W:   LOCATION
 CNTY.            NATRONA:   COUNTY
 STAT.            WYOMING:   STATE
 CTRY. UNITED STATES OF AMERICA:   COUNTRY
 SRVC.      Dresser Atlas:   SERVICE COMPANY
 DATE.        03-JUL-1985:   LOGDATE
 API .       490251134300:   API NUMBER
~CURVE INFORMATION
#MNEM.UNIT       API CODE    CURVE DESCRIPTION
#----------   ------------   ------------------------------
 DEPT.F                  :   
 GRR .GAPI   07 310 01 00:   GAMMA RAY
 RILD.OHMM   07 120 46 00:   INDUCTION LOG DEEP RESISTIVITY
 RILM.OHMM   07 120 44 00:   INDUCTION LOG DEEP RESISTIVITY
 CALD.IN     45 280 60 00:   CALIPER FROM DENSITY LOG
 CORR.G/C3   45 356 01 00:   DENSITY CORRECTION
 DEN .G/C3   45 350 01 00:   COMPENSATED BULK DENSTIY
 NPOR.DEC    42 890 03 00:   NEUTRON POROSITY SANDSTONE
 PORD.DEC    45 890 12 00:   POROSITY DENSITY SANDSTONE
~PARAMETER INFORMATION
#MNEM.UNIT          VALUE    DESCRIPTION
#----------   ------------   ------------------------------
 PD  .                 GL:   PERMANENT DATUM
 EPD .F              5168:   ELEVATION PERMANENT DATUM
 LMF .                 GL:   LOG MEASURED FROM
 DMF .                 GL:   DRILLING MEASURED FROM
 EGL .F              5168:   GROUND LEVEL
 DATE.        03-JUL-1985:   RUN DATE
 RUN .                  1:   RUN NUMBER
 DD  .F               402:   DEPTH DRILLER
 DL  .F               402:   DEPTH LOGGER
 BLI .F               394:   BOTTOM LOG INTERVAL
 CS  .IN                7:   CASING SIZE
 CBD .F                80:   CASING BOTTOM DRILLER
 CBL .F                84:   CASING BOTTOM LOGGER
 BS  .IN            4.875:   BIT SIZE
 BSD .F               402:   BIT SIZE AT DEPTH
 DFT .                OIL:   DRILLING FLUID TYPE
 TCS .HRS               3:   TIME CURCULATED STOPPED
 MRT .F               148:   MAXIMUM RECORDED TEMPERATURE
 LUN .               6274:   LOGGING UNIT NUMBER
 LUL .               GLTE:   LOGGING UNIT LOCATION
 ENGI.             RAUTIO:   RECORDING ENGINEER
 WITN.             GROOMS:   WITNESSED BY
 CLNT.            A2DTECH:   CLIENT CODE
 ORIG.           5" PRINT:   ORIGIN OF DATA
 UWI .       490251134300:   UNIQUE WELL ID
 DICO. A2D Technologies, Inc.:   DIGITIZING COMPANY
~OTHER INFORMATION
~A    DEPT      GRR      RILD       RILM       CALD       CORR        DEN       NPOR       PORD   
# ...
  283.5000    79.9548     3.4112     3.5705     6.1869     0.0617     2.3186     0.2026     0.2028
  284.0000    79.3354     3.4343     3.5451     6.1862     0.0533     2.3411     0.2053     0.1865
  284.5000    78.7131     3.5547     3.6186     6.1854     0.0578     2.3516     0.2065     0.1816
  285.0000    79.3062     3.7050     3.8513     6.1847     0.0623     2.3358     0.2044     0.1909
  285.5000    79.8957     3.8617     4.0991     6.1838     0.0652     2.3103     0.2023     0.2076
  286.0000    80.4852     3.9971     4.2139     6.1831     0.0697     2.2945     0.2137     0.2128
  286.5000    77.1434     4.1087     4.3313     6.1823     0.0727     2.3106     0.2080     0.2106
  287.0000    74.4096     4.2528     4.3603     6.1816     0.0741     2.3215     0.1995     0.2016
  287.5000    72.5822     4.3114     4.4202     6.1659     0.0741     2.3253     0.1959     0.1971
  288.0000    74.0780     4.3405     4.4499     6.1651     0.0546     2.3253     0.1941     0.1958
  288.5000    80.7097     4.3698     4.4794     6.1644     0.0424     2.3267     0.1941     0.1955
  289.0000    85.8368     4.3689     4.4782     6.1637     0.0456     2.3297     0.1978     0.1943
  289.5000    87.0574     4.3376     4.4770     6.1479     0.0710     2.3320     0.2018     0.1925
  290.0000    87.3119     4.3067     4.4757     6.1770     0.0889     2.3267     0.2038     0.1955
  290.5000    87.5956     4.3059     4.4435     6.1913     0.0994     2.3230     0.1998     0.1992
  291.0000    88.1887     4.2752     4.4423     6.2058     0.0514     2.3307     0.1977     0.1955
  291.5000    89.0766     4.2448     4.4411     6.2049     0.0319     2.3432     0.1962     0.1871
  292.0000    88.1555     4.2439     4.4399     6.2193     0.0289     2.3500     0.1959     0.1826
  292.5000    86.9322     4.2431     4.4387     6.2184     0.0199     2.3357     0.2019     0.1805
  293.0000    86.6190     4.2422     4.4374     6.2177     0.0109     2.3252     0.2095     0.1887
  293.5000    88.1118     4.2709     4.4723     6.2170     0.0003     2.3222     0.2155     0.1963
  294.0000    88.7009     4.2997     4.5283     6.2012    -0.0041     2.3267     0.2189     0.1998
  294.5000    87.7764     4.3614     4.6225     6.2005     0.0198     2.3349     0.2182     0.1931
  295.0000    86.2235     4.4547     4.6863     6.1695     0.0377     2.3424     0.2164     0.1886
  295.5000    85.0272     4.5420     4.7835     6.1538     0.0317     2.3469     0.2158     0.1853
  296.0000    85.6167     4.6366     4.8831     6.1380     0.0122     2.3492     0.2176     0.1832
  296.5000    87.4146     4.7660     5.0195     6.1373     0.0032     2.3379     0.2194     0.1850
  297.0000    89.2125     4.8655     5.0884     6.1366     0.0002     2.3251     0.2182     0.1910
  297.5000    91.0104     5.0013     5.1943     6.1358     0.0001     2.3161     0.2170     0.2002
  298.0000    91.6036     5.1407     5.3024     6.1351     0.0016     2.3116     0.2182     0.2052
  298.5000    89.4703     5.2842     5.3776     6.1344     0.0031     2.3153     0.2206     0.2034
  299.0000    88.2471     5.3942     5.4548     6.1336     0.0046     2.3183     0.2225     0.2016
  299.5000    89.1386     5.4685     5.5621     6.1327     0.0060     2.3101     0.2242     0.2043
  300.0000    90.9366     5.5054     5.5998     6.1320    -0.0015     2.2830     0.2242     0.2197
  300.5000    88.4229     5.5812     5.5979     6.1313    -0.0165     2.2754     0.2254     0.2260
  301.0000    86.3202     5.5800     5.5963     6.1305    -0.0285     2.2800     0.2272     0.2273
  301.5000    85.4505     5.5786     5.6736     6.1362    -0.0330     2.2853     0.2284     0.2224
  302.0000    86.6442     5.6376     5.7113     6.1454    -0.0286     2.2868     0.2272     0.2203
  302.5000    91.1611     5.6937     5.7097     6.1545    -0.0181     2.2875     0.2260     0.2203
  303.0000    93.8654     5.6532     5.7082     6.1636    -0.0137     2.2897     0.2263     0.2182
  303.5000    93.5485     5.6520     5.7066     6.1720    -0.0122     2.2920     0.2273     0.2164
  304.0000    92.6274     5.6116     5.7449     6.1711    -0.0122     2.2912     0.2281     0.2185
  304.5000    92.9184     5.6105     5.7429     6.1703    -0.0137     2.2845     0.2275     0.2230
  305.0000    93.2024     5.6486     5.7414     6.1696    -0.0123     2.2799     0.2272     0.2248
  305.5000    92.2809     5.6472     5.7398     6.1689     0.0042     2.2833     0.2302     0.2242
  306.0000    90.7070     5.6461     5.7383     6.1682     0.0146     2.2897     0.2339     0.2191
  306.5000    88.9258     5.6845     5.7367     6.1674     0.0123     2.2889     0.2357     0.2194
  307.0000    88.0047     5.7226     5.7756     6.1665    -0.0018     2.2874     0.2373     0.2209
  307.5000    87.3857     5.8014     5.7736     6.1658    -0.0193     2.2855     0.2376     0.2215
  308.0000    90.6942     5.8812     5.8529     6.1651    -0.0179     2.2944     0.2339     0.2167
  308.5000    92.4921     5.9206     5.9347     6.1644    -0.0210     2.2982     0.2321     0.2149
  309.0000    93.3837     5.9609     6.0624     6.1486    -0.0480     2.3004     0.2333     0.2125
  309.5000    91.1893     6.0012     6.1828     6.1479    -0.0601     2.3078     0.2349     0.2064
  310.0000    87.9125     6.0418     6.2678     6.1622    -0.0258     2.3146     0.2355     0.2019
  310.5000    86.3871     6.0402     6.3534     6.1614    -0.0019     2.3183     0.2364     0.2004
  311.0000    87.5808     6.0811     6.3960     6.1607     0.0055     2.3120     0.2370     0.2052
  311.5000    88.1740     6.0798     6.3943     6.1599    -0.0006     2.2984     0.2340     0.2140
  312.0000    87.2492     6.0786     6.3926     6.1592    -0.0022     2.2904     0.2321     0.2197
  312.5000    86.0260     6.0773     6.3908     6.1584     0.0202     2.2896     0.2315     0.2176
  313.0000    85.7091     6.1181     6.3891     6.1577     0.0336     2.2993     0.2337     0.2131
  313.5000    87.2049     6.1169     6.3873     6.1569     0.0200     2.3120     0.2349     0.2052
  314.0000    90.8155     6.1582     6.3856     6.1562     0.0065     2.3255     0.2346     0.1962
  314.5000    93.2296     6.2429     6.5181     6.1554     0.0034     2.3315     0.2343     0.1919
  315.0000    94.4114     6.4173     6.7002     6.1546     0.0213     2.3360     0.2340     0.1888
  315.5000    94.0908     6.6424     7.0817     6.1539     0.0242     2.3407     0.2325     0.1838
  316.0000    85.6168     6.9232     7.7499     6.1531     0.0226     2.3486     0.2261     0.1777
  316.5000    80.1640     7.2233     8.3639     6.1524     0.0180     2.3591     0.2086     0.1684
  317.0000    79.5450     7.5730     8.8402     6.1517     0.0149     2.3741     0.1802     0.1615
  317.5000    78.6239     7.7844     9.0872     6.1658     0.0118     2.3958     0.1458     0.1470
  318.0000    77.7028     7.8915     9.2120     6.1652     0.0102     2.4581     0.1362     0.1084
  318.5000    77.6880     7.8354     8.5846     6.1643     0.0161     2.4889     0.1332     0.0972
  319.0000    78.2779     7.7797     7.9963     6.1636     0.0310     2.4956     0.1314     0.0936
  319.5000    80.0754     7.5130     7.4184     6.1629     0.0414     2.4978     0.1308     0.0921
  320.0000    81.9134     7.1555     7.0150     6.1621     0.0473     2.4977     0.1395     0.0918
  320.5000    84.7222     6.7680     6.5874     6.1614     0.0337     2.4902     0.1561     0.0966
  321.0000    88.4867     6.3489     6.1860     6.1605     0.0037     2.4699     0.1869     0.1114
  321.5000    91.4931     6.0543     5.9315     6.1598    -0.0102     2.4488     0.2087     0.1283
  322.0000    91.7841     5.8875     5.8074     6.1591    -0.0189     2.4173     0.2223     0.1458
  322.5000    90.2551     5.7651     5.8058     6.1583    -0.0011     2.3887     0.2244     0.1600
  323.0000    89.0319     5.7639     5.8043     6.1576     0.0078     2.3639     0.2241     0.1711
  323.5000    88.1107     5.7628     5.8027     6.1569     0.0152     2.3548     0.2283     0.1771
