~VERSION INFORMATION
 VERS.                2.0:   CWLS LOG ASCII STANDARD - VERSION 2.0
 WRAP.                 NO:   ONE LINE PER DEPTH STEP
~WELL INFORMATION
#MNEM.UNIT      DATA TYPE    INFORMATION
#----------   ------------   ------------------------------
 STRT.F           34.0000:   START DEPTH
 STOP.F          510.0000:   STOP DEPTH
 STEP.F            0.5000:   STEP LENGTH
 NULL.          -999.2500:   NO VALUE
 COMP. LAWRENCE/ALLISON INC:   COMPANY
 WELL.      58-36 SX #3-3:   WELL
 FLD .             TEAPOT:   FIELD
 LOC .       S3 T38N R78W:   LOCATION
 CNTY.            NATRONA:   COUNTY
 STAT.            WYOMING:   STATE
 CTRY. UNITED STATES OF AMERICA:   COUNTRY
 SRVC.           Gearhart:   SERVICE COMPANY
 DATE.        17-SEP-1987:   LOGDATE
 API .       490251116300:   API NUMBER
~CURVE INFORMATION
#MNEM.UNIT       API CODE    CURVE DESCRIPTION
#----------   ------------   ------------------------------
 DEPT.F                  :   
 SPR .MV     07 010 01 00:   SPONTANEOUS POTENTIAL
 RLL .OHMM   07 220 00 00:   LATEROLOG RESISTIVITY
 RILD.OHMM   07 120 46 00:   INDUCTION LOG DEEP RESISTIVITY
 RILM.OHMM   07 120 44 00:   INDUCTION LOG MEDIUM RESISTIVITY
 GRR .GAPI   07 310 01 00:   GAMMA RAY FROM RES. LOG.
~PARAMETER INFORMATION
#MNEM.UNIT          VALUE    DESCRIPTION
#----------   ------------   ------------------------------
 PD  .                 GL:   PERMANENT DATUM
 EPD .F              5205:   ELEVATION PERMANENT DATUM
 LMF .                 KB:   LOG MEASURED FROM
 DAPD.F                 8:   FEET ABOVE PERMANENT DATUM
 DMF .                 KB:   DRILLING MEASURED FROM
 EKB .F              5213:   KELLING BUSHING
 EDF .F              5211:   DRILLING FLOOR
 EGL .F              5205:   GROUND LEVEL
 DATE.            9-17-87:   RUN DATE
 RUN .                  1:   RUN NUMBER
 DD  .F               521:   DEPTH DRILLER
 DL  .F               512:   DEPTH LOGGER
 BLI .F               510:   BOTTOM LOG INTERVAL
 TLI .F                30:   TOP LOG INTERVAL
 CS  .IN            8.625:   CASING SIZE
 CBD .F                52:   CASING BOTTOM DRILLER
 CBL .F                52:   CASING BOTTOM LOGGER
 BS  .IN            7.875:   BIT SIZE
 BSD .F               521:   BIT SIZE AT DEPTH
 DFT .          KCL WATER:   DRILLING FLUID TYPE
 DFD .                8.8:   DRILLING FLUID DENSITY
 MSS .            MUD PIT:   MUD SAMPLE SOURCE
 RMS .OHMM            .60:   RESISTIVITY MUD SAMPLE
 MST .F                41:   MUD SAMPLE TEMPERATURE
 TCS .HRS            0630:   TIME CURCULATED STOPPED
 TLAB.HRS            0918:   TIME LOGGER AT BOTTOM
 MRT .F                80:   MAXIMUM RECORDED TEMPERATURE
 LUN .               7650:   LOGGING UNIT NUMBER
 LUL .           GILLETTE:   LOGGING UNIT LOCATION
 ENGI.         WEATHERMON:   RECORDING ENGINEER
 WITN.             STRONG:   WITNESSED BY
 CLNT.            A2DTECH:   CLIENT CODE
 ORIG. 1", 2.5", 5" PRINT:   ORIGIN OF DATA
 UWI .       490251116300:   UNIQUE WELL ID
 DICO. A2D Technologies, Inc.:   DIGITIZING COMPANY
~OTHER INFORMATION
~A   DEPT      SPR        RLL       RILD       RILM        GRR   
# ...
  156.0000   -86.3896     9.7535     8.4878     8.2551    97.0509
  156.5000   -86.8005     9.5881     8.5175     8.1409   100.4806
  157.0000   -87.2121     9.4455     8.5572     7.9908   103.9195
  157.5000   -87.6230     9.3050     8.5971     7.9548   107.2638
  158.0000   -88.0350     9.1667     8.6466     7.9548   106.9953
  158.5000   -88.3765     9.0315     8.5289     7.8991   104.6634
  159.0000   -88.7265     8.9540     8.3755     7.8026   102.3603
  159.5000   -89.0768     8.9228     8.1851     7.7028   100.5176
  160.0000   -89.4273     8.8903     8.0351     7.5489   101.3466
  160.5000   -89.7910     8.8330     7.9271     7.2734   102.5976
  161.0000   -90.3224     8.6848     7.7332     7.0117   103.8670
  161.5000   -90.8789     8.4878     7.4848     6.7593   104.0111
  162.0000   -91.4381     8.2942     7.2450     6.5160   102.7199
  162.5000   -92.0032     8.1026     7.0129     6.2812   101.6140
  163.0000   -92.3735     7.6588     6.9010     6.0558   100.5207
  163.5000   -92.7411     7.2405     6.8477     5.9466    99.0998
  164.0000   -93.1103     6.9271     6.7954     5.9124    95.8105
  164.5000   -93.4798     7.1719     6.8213     6.0380    95.2367
  165.0000   -93.8493     7.4014     6.8633     6.1943    99.1559
  165.5000   -94.2188     7.6427     6.9070     6.3549   103.4158
  166.0000   -94.5883     7.8814     7.0315     6.5195   106.2465
  166.5000   -94.9578     8.3828     7.2119     6.6556   107.9840
  167.0000   -95.3273     8.4878     7.3961     6.7870   106.7231
  167.5000   -95.6969     8.5036     7.5848     6.9212   105.3149
  168.0000   -96.0665     8.5283     7.8087     7.0520   105.4654
  168.5000   -96.4342     8.5532     7.8000     7.1460   106.0600
  169.0000   -96.7554     8.5781     7.7896     7.2373   105.2992
  169.5000   -96.9882     8.6030     7.7792     7.3299   102.6831
  170.0000   -97.2262     8.6281     7.7689     7.4562   101.2978
  170.5000   -97.3961     8.6466     7.7586     7.4134    99.8821
  171.0000   -97.6065     8.6466     7.7489     7.3241    98.4712
  171.5000   -97.8168     8.5244     7.7369     7.2358    97.0481
  172.0000   -98.0275     8.4347     7.6027     7.1485    97.6382
  172.5000   -98.2369     8.3460     7.4037     7.0623    99.9859
  173.0000   -98.5497     8.2583     7.2118     6.9327   100.0278
  173.5000   -98.8851     8.1790     7.0264     6.7996    99.5522
  174.0000   -99.1327     8.0117     6.8587     6.6157    99.2828
  174.5000   -99.2307     7.8275     6.4861     6.2286   102.6326
  175.0000   -99.2951     7.6654     6.1626     5.8641   106.5532
  175.5000   -99.2884     7.4669     5.8552     5.5210   106.9704
  176.0000   -99.9076     6.9314     5.5938     5.1979   106.5997
  176.5000  -100.7271     6.4341     5.8051     4.8680   106.2222
  177.0000  -100.7025     6.0243     5.7641     4.7406   105.4918
  177.5000  -100.6652     6.2148     5.6985     4.6476   102.6006
  178.0000  -100.6300     6.4366     5.7982     4.9868    99.3086
  178.5000  -100.5951     7.0137     6.0010     5.3108    96.5248
  179.0000  -100.5602     7.6426     6.2602     5.6557   100.1600
  179.5000  -100.5253     8.0169     6.5306     5.8838   103.9805
  180.0000  -100.4904     8.1790     6.8126     6.0815   107.7735
  180.5000  -100.4555     8.2307     7.1069     6.2540   111.5448
  181.0000  -100.4206     8.3270     7.3127     6.4316   113.7571
  181.5000  -100.3855     8.4244     7.5548     6.5915   113.1665
  182.0000  -100.3505     8.5229     7.7088     6.7202   110.2418
  182.5000  -100.3349     8.6466     7.7879     6.8505   107.3692
  183.0000  -100.0342     8.6144     7.8678     6.9861   104.4829
  183.5000   -99.6896     8.5668     7.9486     7.0233   104.0230
  184.0000   -99.4182     8.7063     8.0302     7.0694   103.6612
  184.5000   -99.3214     8.8912     8.1126     7.1162   103.7890
  185.0000   -99.4017     9.0799     8.1958     7.1641   103.9503
  185.5000   -99.4954     9.2727     8.2800     7.2889   104.0536
  186.0000   -99.4947     9.4695     8.3456     7.4749   103.1548
  186.5000   -99.4950     9.7535     8.3810     7.6653   101.7939
  187.0000   -99.4947     9.6819     8.4165     7.6653   101.8840
  187.5000   -99.4985     9.5625     8.4522     7.6686   104.8819
  188.0000   -99.5085     9.4447     8.4878     7.6848   108.0665
  188.5000   -99.2991     9.3986     8.4878     7.7010   109.1882
  189.0000   -99.2947     9.5364     8.4878     7.7174   108.3557
  189.5000   -99.3111     9.6520     8.4882     7.7337   107.2438
  190.0000   -99.4020     9.7694     8.4678     7.7501   106.5731
  190.5000   -99.5006     9.8877     8.4431     7.7664   106.1217
  191.0000   -99.3124    10.0284     8.4186     7.7827   105.6715
  191.5000   -99.7259     9.9472     8.3942     7.7999   105.2193
  192.0000   -99.7037     9.8195     8.3698     7.8084   104.7770
  192.5000   -99.6961     9.6934     8.3455     7.7226   104.6796
  193.0000   -99.6990     9.5744     8.3086     7.6628   106.9981
  193.5000   -99.7418     9.5093     8.2079     7.6035   109.3650
  194.0000   -99.7842     9.4093     8.1097     7.5449   111.4657
  194.5000   -99.8261     9.3103     8.0124     7.4866   111.7424
  195.0000   -99.8689     9.2124     7.9164     7.4288   111.4304
  195.5000   -99.9402     9.1409     7.8215     7.3526   108.9376
  196.0000  -100.1151     8.9908     7.6368     7.2255   106.4939
  196.5000  -100.2840     8.8202     7.4533     7.1005   104.6809
  197.0000  -100.4547     8.6529     7.1263     6.9870   104.4897
  197.5000  -100.5045     8.4449     6.8299     6.7954   106.8264
  198.0000  -100.5051     8.0217     6.5471     6.3635   108.8911
  198.5000  -100.5061     7.6200     6.2760     5.9879   109.3637
  199.0000  -100.4983     7.2350     5.8834     5.5772   109.8010
  199.5000  -100.8642     6.9085     5.5011     5.0171   110.5771
  200.0000  -101.3638     6.4220     4.9585     4.5133   112.5222
  200.5000  -101.8734     6.0436     4.3989     4.0601   114.4532
  201.0000  -102.3783     5.5680     3.9024     3.6524   115.4761
  201.5000  -102.9497     5.1298     3.4620     3.3255   116.4893
  202.0000  -102.9738     4.6272     3.0706     2.9963   117.5022
  202.5000  -103.0174     4.1363     2.9102     2.6997   117.6319
  203.0000  -103.0647     3.6960     2.8026     2.5097   112.8226
  203.5000  -103.1112     3.3037     2.7550     2.3843   107.8234
  204.0000  -103.0557     3.2367     2.7406     2.4757   102.9298
  204.5000  -102.4688     3.8276     2.8741     2.5813    99.5006
  205.0000  -101.8805     4.0888     3.0008     2.7026   102.3761
  205.5000  -101.3032     4.2584     3.1533     2.8310   106.7599
  206.0000  -100.8881     4.7502     3.5093     3.0222   110.8637
  206.5000   -99.9493     5.6759     3.9057     3.3730   112.4471
  207.0000   -99.5048     5.9845     4.2929     3.7646   111.5724
  207.5000   -99.4952     6.5012     4.6603     4.2015   110.5384
  208.0000   -99.4302     7.7213     5.0592     4.6892   109.5839
  208.5000   -99.0071     7.6299     5.4928     5.2335   113.9702
  209.0000   -98.5854     7.4799     5.9380     5.3841   118.9767
  209.5000   -98.1648     7.3328     6.1788     5.4890   120.6832
  210.0000   -97.7443     7.1887     6.2517     5.5501   121.7603
  210.5000   -97.3238     7.1177     6.2517     5.6298   122.3579
  211.0000   -96.9022     7.3001     6.2517     5.7107   121.2281
  211.5000   -96.4772     7.4444     6.1287     5.7515   117.1453
  212.0000   -96.0861     7.5920     5.9571     5.6256   113.1254
  212.5000   -96.5045     7.7248     5.7903     5.4827   112.5522
  213.0000   -96.9603     7.3727     5.6282     5.3654   115.1526
  213.5000   -97.4086     6.9740     5.4707     5.2183   118.4159
  214.0000   -97.6161     6.5969     5.3175     5.0752   121.2163
  214.5000   -97.2677     6.2401     5.1960     4.9361   121.9400
  215.0000   -96.9296     5.9027     5.1043     4.8008   122.7063
  215.5000   -96.5912     5.6985     5.0052     4.6692   123.3809
  216.0000   -96.2530     5.9933     5.1114     4.5623   122.1847
  216.5000   -95.9153     6.4412     5.3306     4.7109   120.1274
