~VERSION INFORMATION
 VERS.                2.0:   CWLS LOG ASCII STANDARD - VERSION 2.0
 WRAP.                 NO:   ONE LINE PER DEPTH STEP
~WELL INFORMATION
#MNEM.UNIT      DATA TYPE    INFORMATION
#----------   ------------   ------------------------------
 STRT.F           29.0000:   START DEPTH
 STOP.F          642.0000:   STOP DEPTH
 STEP.F            0.5000:   STEP LENGTH
 NULL.          -999.2500:   NO VALUE
 COMP. FENIX & SCISSON INC:   COMPANY
 WELL.    NPR-3 SX #21-10:   WELL
 FLD .  TEAPOT DOME NPR 3:   FIELD
 LOC .      S10 T38N R78W:   LOCATION
 CNTY.            NATRONA:   COUNTY
 STAT.            WYOMING:   STATE
 CTRY. UNITED STATES OF AMERICA:   COUNTRY
 SRVC.            Unknown:   SERVICE COMPANY
 DATE.        03-JUL-1978:   LOGDATE
 API .       490251065400:   API NUMBER
~CURVE INFORMATION
#MNEM.UNIT       API CODE    CURVE DESCRIPTION
#----------   ------------   ------------------------------
 DEPT.F                  :   
 SPR .MV     05 010 01 00:   SPONTANEOUS POTENTIAL FROM RES.
 SN  .OHMM   05 040 16 00:   SHORT NORMAL 16"
 ILD .OHMM   05 120 46 00:   INDUCTION LOG DEEP
 CALD.IN     45 280 60 00:   CALIPER FROM DENSITY
 GRD .GAPI   45 310 01 00:   GAMMA RAY FROM DENSITY LOG
 CORR.G/C3   45 356 01 00:   DENSITY CORRECTION
 DPHI.DEC    45 890 12 00:   DENSITY POROSITY SANDSTONE
 DEN .G/C3   45 350 01 00:   COMPENSATED BULK DENSTIY
~PARAMETER INFORMATION
#MNEM.UNIT          VALUE    DESCRIPTION
#----------   ------------   ------------------------------
 PD  .                 GL:   PERMANENT DATUM
 EPD .F              5253:   ELEVATION PERMANENT DATUM
 LMF .                 KB:   LOG MEASURED FROM
 DAPD.F                 4:   FEET ABOVE PERMANENT DATUM
 DMF .                 KB:   DRILLING MEASURED FROM
 EKB .F              5257:   KELLING BUSHING
 EGL .F              5253:   GROUND LEVEL
 DATE.           7-3-1978:   RUN DATE
 RUN .                  1:   RUN NUMBER
 DD  .F               650:   DEPTH DRILLER
 DL  .F               648:   DEPTH LOGGER
 BLI .F               642:   BOTTOM LOG INTERVAL
 TLI .F                40:   TOP LOG INTERVAL
 CS  .IN            8.625:   CASING SIZE
 CBD .F                40:   CASING BOTTOM DRILLER
 CBL .F                40:   CASING BOTTOM LOGGER
 BS  .IN            7.875:   BIT SIZE
 BSD .F               650:   BIT SIZE AT DEPTH
 DFT .                KCL:   DRILLING FLUID TYPE
 DFD .                8.6:   DRILLING FLUID DENSITY
 DFV .                 32:   DRILLING FLUID VISCOSITY
 DFPH.                  9:   DRILLING FLUID PH
 MSS .           FLOWLINE:   MUD SAMPLE SOURCE
 RMS .OHMM            .24:   RESISTIVITY MUD SAMPLE
 MST .F                88:   MUD SAMPLE TEMPERATURE
 RMF .OHMM            .24:   RESISTIVITY MUD FILTRATE SAMPLE
 MFST.F                94:   MUD FILTRATE SAMPLE TEMPERATURE
 RMC .OHMM            .46:   RESISTIVITY MUD CAKE
 MCST.F                96:   MUD CAKE SAMPLE TEMPERATURE
 MFSS.               MEAS:   MUD FILTRATE SAMPLE SOURCE
 MCSS.               MEAS:   MUD CAKE SAMPLE SOURCE
 TCS .HRS               2:   TIME CURCULATED STOPPED
 LUN .               2958:   LOGGING UNIT NUMBER
 LUL .               CASP:   LOGGING UNIT LOCATION
 CLNT.            A2DTECH:   CLIENT CODE
 ORIG.           5" PRINT:   ORIGIN OF DATA
 UWI .       490251065400:   UNIQUE WELL ID
 DICO. A2D Technologies, Inc.:   DIGITIZING COMPANY
~OTHER INFORMATION
~A   DEPT      SPR         SN        ILD       CALD        GRD       CORR       DPHI        DEN   
# ...
  596.0000   -32.8272    11.0051    11.9631     8.0354   102.8916     0.0025     0.1344     2.4765
  596.5000   -32.9469    11.0177    11.9782     8.0358   106.2913     0.0025     0.1341     2.4660
  597.0000   -33.3642    11.0303    11.9903     8.0363   106.5936     0.0040     0.1392     2.4668
  597.5000   -33.4838    10.9670    12.0025     8.0367   106.6010     0.0159     0.1341     2.4555
  598.0000   -33.9011    10.9799    12.0146     8.0372   106.7558     0.0278     0.1185     2.4638
  598.5000   -34.3112    10.9927    12.0267     8.0376   111.3355     0.0352     0.1176     2.4854
  599.0000   -34.4381    11.0056    12.0389     8.0381   112.5209     0.0367     0.1153     2.4914
  599.5000   -34.6993    11.0208    12.0510     8.0385   109.8753     0.0337     0.1117     2.4929
  600.0000   -34.9408    11.0333    12.0632     8.0389   108.9970     0.0291     0.1237     2.5056
  600.5000   -35.2464    11.0701    12.0732     8.0389   110.1770     0.0291     0.1225     2.5086
  601.0000   -35.0683    11.1070    12.0832     8.0374   110.3245     0.0291     0.1258     2.4809
  601.5000   -35.0449    11.1438    12.0927     8.0240   110.1770     0.0291     0.1240     2.4809
  602.0000   -35.1761    11.1716    11.9396     8.0240   110.4720     0.0290     0.1201     2.4840
  602.5000   -35.4503    11.1064    11.7837     8.0240   111.5044     0.0335     0.1204     2.4868
  603.0000   -35.5699    10.8980    11.7148     8.0240   111.5044     0.0350     0.1234     2.4868
  603.5000   -35.9929    10.9127    11.5642     8.0240   110.6730     0.0379     0.1261     2.4793
  604.0000   -36.1190    10.7044    11.4919     8.0389   108.8496     0.0439     0.1270     2.4778
  604.5000   -36.0948    10.6418    11.4224     8.0389   108.5546     0.0349     0.1195     2.4837
  605.0000   -36.0714    10.3705    11.2755     8.0389   108.5546     0.0229     0.1129     2.4957
  605.5000   -36.4944    10.3099    11.2074     8.0389   108.5546     0.0109     0.1213     2.5009
  606.0000   -36.6198    10.1165    11.1419     8.0389   108.9970     0.0048     0.1267     2.4762
  606.5000   -37.0370    10.1302    11.1509     8.0539   110.6195     0.0033     0.1255     2.4806
  607.0000   -37.1682    10.1439    11.0813     8.0539   111.5044     0.0018     0.1249     2.4806
  607.5000   -37.5854    10.0877    11.0162     8.0539   111.3569     0.0018     0.1253     2.4836
  608.0000   -37.7108    10.1018    10.9497     8.0539   106.1947     0.0033     0.1327     2.4798
  608.5000   -38.2826    10.1155    10.8837     8.0389   107.2271     0.0047     0.1316     2.4663
  609.0000   -38.7115    10.1294    10.6687     8.0389   109.7345     0.0077     0.1281     2.4633
  609.5000   -38.8368    10.1434    10.3890     8.0389   111.2094     0.0092     0.1288     2.4775
  610.0000   -39.2599    10.0870    10.1760     8.0539   108.9970     0.0106     0.1321     2.4776
  610.5000   -39.3852     9.9627    10.0541     8.0988   108.4071     0.0106     0.1321     2.4685
  611.0000   -39.8024     9.9112     9.7912     8.1138   108.5546     0.0106     0.1228     2.4662
  611.5000   -39.9278     9.7219     9.5332     8.1287   109.0079     0.0105     0.1198     2.4759
  612.0000   -40.3512     9.6684     9.3442     8.1437   109.3097     0.0105     0.1201     2.4886
  612.5000   -40.4762     9.4806     9.0999     8.1437   109.7838     0.0105     0.1261     2.4885
  613.0000   -40.8992     9.2358     8.9828     8.1287   113.2743     0.0089     0.1279     2.4863
  613.5000   -41.0634     8.9387     8.8065     8.1287   115.7817     0.0059     0.1237     2.4821
  614.0000   -41.5906     8.5300     8.5745     8.1287   115.7817     0.0044     0.1225     2.4781
  614.5000   -42.0136     8.2528     8.1781     8.1287   115.6342     0.0044     0.1339     2.4833
  615.0000   -42.5854     7.9299     7.7465     8.1138   113.1268     0.0058     0.1357     2.4698
  615.5000   -43.1631     7.6196     7.3377     8.1138   112.6844     0.0073     0.1360     2.4623
  616.0000   -43.7349     7.2214     6.7619     8.1138   113.8643     0.0103     0.1444     2.4645
  616.5000   -43.8603     6.7043     6.2312     8.1287   119.1740     0.0162     0.1507     2.4518
  617.0000   -43.9857     6.1798     5.9024     8.1437   121.6814     0.0311     0.1513     2.4353
  617.5000   -43.9564     6.1053     5.9072     8.1437   124.0413     0.0460     0.1510     2.4353
  618.0000   -43.7842     6.2552     5.9562     8.1437   130.9734     0.0505     0.1476     2.4397
  618.5000   -43.7607     6.5600     6.1322     8.1437   133.3333     0.0310     0.1129     2.4532
  619.0000   -43.7373     6.9884     6.7068     8.1437   132.0059     0.0325     0.1051     2.5003
  619.5000   -43.7143     7.8120     8.2466     8.1430   123.8938     0.0325     0.1006     2.5249
  620.0000   -43.6905     9.4191     9.4705     8.1437   113.5693     0.0280     0.0881     2.5458
  620.5000   -43.6667    10.2434    10.2232     8.1430   113.8643     0.0219     0.0995     2.5398
  621.0000   -43.6429    10.2573    10.5896     8.1123   115.9292     0.0204     0.1040     2.5308
  621.5000   -43.6163    10.1974    10.3817     8.0539   116.5202     0.0204     0.1079     2.5256
  622.0000   -43.5929    10.1412    10.2462     8.0539   116.8220     0.0233     0.1070     2.5143
  622.5000   -44.0159    10.2285    10.2566     8.0539   117.8910     0.0278     0.1058     2.5098
  623.0000   -44.1413    10.4559    10.2649     8.0539   119.7856     0.0294     0.1040     2.5038
  623.5000   -44.5702    10.6151    10.3442     8.0539   116.3717     0.0307     0.1022     2.5016
  624.0000   -45.4337    10.8512    10.3526     8.0689   115.7817     0.0277     0.0989     2.5316
  624.5000   -45.7083    10.9409    10.5771     8.0988   115.0443     0.0217     0.0972     2.5247
  625.0000   -45.2381    11.1075    10.6588     8.0988   114.3068     0.0217     0.1016     2.5278
  625.5000   -45.9882    11.2768    10.8898     8.1138   115.0443     0.0216     0.1055     2.5247
  626.0000   -47.4622    11.3703    11.1260     8.0988   116.2242     0.0216     0.1052     2.5119
  626.5000   -48.5846    11.5437    11.5249     8.1138   116.3717     0.0201     0.1052     2.5126
  627.0000   -48.5612    11.6424    11.9427     8.1138   116.0767     0.0201     0.1059     2.5141
  627.5000   -48.6924    11.6581    12.2809     8.1437   115.6342     0.0200     0.1074     2.5133
  628.0000   -49.1096    11.7545    12.3057     8.1437   116.0767     0.0200     0.1166     2.5006
  628.5000   -49.0862    11.7705    12.5596     8.1437   116.5192     0.0200     0.1154     2.4894
  629.0000   -49.0627    11.8678    12.5699     8.1437   117.8466     0.0184     0.1034     2.5028
  629.5000   -49.0393    12.0485    12.6669     8.1437   120.6490     0.0154     0.0950     2.5185
  630.0000   -49.1647    12.4014    12.6772     8.1287   122.1239     0.0094     0.0988     2.5245
  630.5000   -49.5877    12.6772    12.6876     8.1287   122.7139     0.0064     0.1098     2.5177
  631.0000   -50.1595    12.7820    12.7855     8.1302   122.1239     0.0064     0.1086     2.5072
  631.5000   -50.8802    12.7993    12.8843     8.1587   120.3540     0.0078     0.1083     2.5049
  632.0000   -52.3448    12.8167    12.9838     8.1587   112.6844     0.0093     0.1116     2.5072
  632.5000   -54.1071    12.8340    12.8168     8.1587   108.9970     0.0123     0.1170     2.5049
  633.0000   -55.4325    12.8515    12.7367     8.1587   107.6696     0.0167     0.1238     2.4824
  633.5000   -56.5901    12.8690    12.7497     8.1587   108.1121     0.0197     0.1185     2.4832
  634.0000   -57.7513    12.8867    12.7601     8.1437   107.9646     0.0181     0.1179     2.4914
  634.5000   -58.9183    12.9044    12.7704     8.1287   107.0796     0.0166     0.1185     2.4943
  635.0000   -60.0854    12.9257    12.7808     8.1287   107.3746     0.0166     0.1131     2.4943
  635.5000   -61.2524    12.9432    12.7036     8.1138   112.3894     0.0181     0.1125     2.4942
  636.0000   -62.4195    12.9608    12.6268     8.1138   113.2743     0.0165     0.1146     2.4928
