~VERSION INFORMATION
 VERS.                2.0:   CWLS LOG ASCII STANDARD - VERSION 2.0
 WRAP.                 NO:   ONE LINE PER DEPTH STEP
~WELL INFORMATION
#MNEM.UNIT      DATA TYPE    INFORMATION
#----------   ------------   ------------------------------
 STRT.F            1.0000:   START DEPTH
 STOP.F          600.0000:   STOP DEPTH
 STEP.F            0.5000:   STEP LENGTH
 NULL.          -999.2500:   NO VALUE
 COMP.       F D SERV INC:   COMPANY
 WELL.    62-1 SX-3 #62-3:   WELL
 FLD .             TEAPOT:   FIELD
 LOC .       S3 T38N R78W:   LOCATION
 CNTY.            NATRONA:   COUNTY
 STAT.            WYOMING:   STATE
 CTRY. UNITED STATES OF AMERICA:   COUNTRY
 SRVC.     Atlas Wireline:   SERVICE COMPANY
 DATE.        05-MAY-1992:   LOGDATE
 API .       490252250800:   API NUMBER
~CURVE INFORMATION
#MNEM.UNIT       API CODE    CURVE DESCRIPTION
#----------   ------------   ------------------------------
 DEPT.F                  :   
 GRR .GAPI   07 310 01 00:   GAMMA RAY
 RILD.OHMM   07 120 46 00:   INDUCTION LOG DEEP RESISTIVITY
 RILM.OHMM   07 120 44 00:   INDUCTION LOG MEDIUM RESISTIVITY
~PARAMETER INFORMATION
#MNEM.UNIT          VALUE    DESCRIPTION
#----------   ------------   ------------------------------
 PD  .                 GL:   PERMANENT DATUM
 EPD .F              5159:   ELEVATION PERMANENT DATUM
 LMF .                 KB:   LOG MEASURED FROM
 DAPD.F                 5:   FEET ABOVE PERMANENT DATUM
 DMF .                 KB:   DRILLING MEASURED FROM
 EKB .F              5164:   KELLING BUSHING
 EGL .F              5159:   GROUND LEVEL
 DATE.        06-MAY-1992:   RUN DATE
 RUN .                  1:   RUN NUMBER
 DD  .F               605:   DEPTH DRILLER
 DL  .F               609:   DEPTH LOGGER
 BLI .F               607:   BOTTOM LOG INTERVAL
 CS  .IN            8.625:   CASING SIZE
 CBD .F                51:   CASING BOTTOM DRILLER
 CBL .F                51:   CASING BOTTOM LOGGER
 BS  .IN            7.875:   BIT SIZE
 BSD .F               605:   BIT SIZE AT DEPTH
 DFT .                AIR:   DRILLING FLUID TYPE
 TCS .HRS               3:   TIME CURCULATED STOPPED
 LUN .            HL-6272:   LOGGING UNIT NUMBER
 LUL .             CASPER:   LOGGING UNIT LOCATION
 ENGI.             ZIEGER:   RECORDING ENGINEER
 WITN.             STRONG:   WITNESSED BY
 CLNT.            A2DTECH:   CLIENT CODE
 ORIG.           5" PRINT:   ORIGIN OF DATA
 UWI .       490252250800:   UNIQUE WELL ID
 DICO. A2D Technologies, Inc.:   DIGITIZING COMPANY
~OTHER INFORMATION
~A    DEPT      GRR      RILD       RILM   
# ...
  274.0000   129.2325     6.9699     7.1364
  274.5000   127.7062     7.1647     7.2851
  275.0000   130.1044     7.2716     7.3340
  275.5000   130.3936     7.3630     7.3315
  276.0000   129.1609     7.4119     7.4843
  276.5000   127.9327     7.5137     7.5351
  277.0000   127.0070     7.5646     7.5325
  277.5000   127.8968     7.6686     7.6366
  278.0000   132.7200     7.7734     7.6874
  278.5000   135.1227     7.7713     7.7389
  279.0000   133.5350     7.8234     7.7368
  279.5000   131.3666     7.8765     7.7347
  280.0000   127.8028     7.9293     7.7326
  280.5000   125.3643     7.9266     7.7303
  281.0000   123.8335     7.9244     7.7824
  281.5000   122.0002     7.9222     7.8346
  282.0000   122.8900     7.9755     7.8319
  282.5000   128.9235     7.9732     7.8298
  283.0000   131.0236     7.9710     7.8276
  283.5000   128.8876     7.9688     7.8807
  284.0000   122.8183     7.9666     7.8780
  284.5000   120.0772     8.0201     7.8758
  285.0000   123.0850     8.0178     7.8737
  285.5000   127.3031     8.0151     7.8715
  286.0000   126.3775     7.9573     7.8694
  286.5000   122.7287     7.9551     7.8672
  287.0000   120.8954     7.9529     7.7562
  287.5000   125.1135     7.9507     7.7002
  288.0000   130.2876     7.9486     7.6447
  288.5000   133.2790     7.8912     7.4829
  289.0000   132.1756     7.6724     7.2768
  289.5000   126.8528     7.1049     7.0748
  290.0000   123.8091     6.7181     6.8781
  290.5000   127.4221     6.3084     6.5034
  291.0000   127.7112     5.9650     6.2790
  291.5000   125.8734     5.6403     5.8958
  292.0000   126.1580     5.1509     5.3464
  292.5000   128.2581     4.6712     4.7811
  293.0000   129.4505     4.0348     3.8246
  293.5000   130.3403     3.5322     3.3729
  294.0000   130.9320     3.0681     3.0374
  294.5000   130.9096     2.7023     2.6787
  295.0000   129.6814     2.5017     2.4804
  295.5000   129.9667     2.3902     2.4284
  296.0000   128.4353     2.3896     2.5138
  296.5000   123.5762     2.4393     2.6572
  297.0000   116.2810     2.4728     2.7698
  297.5000   114.7658     2.6320     3.0571
  298.0000   123.6671     2.9209     3.4944
  298.5000   128.0948     3.4272     4.0036
  299.0000   127.1130     4.1061     4.4432
  299.5000   126.7925     4.8514     4.8970
  300.0000   129.9698     5.4057     5.1764
  300.5000   135.6561     5.7623     5.6113
  301.0000   139.7447     6.1394     6.0718
  301.5000   140.0273     6.3098     6.0698
  302.0000   140.0055     6.4398     6.1164
  302.5000   139.6820     6.4366     6.1507
  303.0000   139.6611     6.4336     6.1463
  303.5000   139.6400     6.3851     6.1461
  304.0000   141.1679     6.2945     6.1017
  304.5000   143.3354     6.1944     6.0572
  305.0000   144.4188     5.8860     5.8316
  305.5000   141.3669     5.2808     5.2461
  306.0000   142.2538     4.5922     4.7083
  306.5000   143.4432     4.1348     4.2396
  307.0000   144.3300     4.0194     4.0646
  307.5000   144.9195     3.9619     4.0070
  308.0000   145.2012     3.9325     4.0340
  308.5000   142.1494     3.9306     4.1174
  309.0000   139.1028     3.9287     4.2619
  309.5000   136.0562     4.0102     4.4423
  310.0000   133.6147     4.1214     4.6627
  310.5000   132.9887     4.3853     4.9627
  311.0000   135.3884     4.7320     5.2454
  311.5000   140.5112     5.1418     5.3918
  312.0000   143.5240     5.5872     5.6989
  312.5000   144.1003     6.0289     5.9401
  313.0000   144.3820     6.4157     6.2348
  313.5000   144.3559     6.6868     6.5899
  314.0000   142.2170     6.9228     6.8688
  314.5000   141.8935     7.1670     7.2117
  315.0000   142.1804     7.4286     7.5182
  315.5000   143.0673     7.5641     7.6769
  316.0000   137.2923     7.6133     7.7219
  316.5000   122.4454     7.4515     7.5064
  317.0000   109.1113     7.1931     7.1467
  317.5000   104.5519     6.9922     6.8996
  318.0000   110.5824     6.7497     6.7077
  318.5000   127.8082     6.7465     6.7528
  319.0000   137.1670     6.7432     6.7031
  319.5000   138.3570     6.5549     6.5166
  320.0000   138.3355     6.1538     6.1612
  320.5000   138.6173     5.8177     5.9482
  321.0000   140.4117     5.4617     5.6238
  321.5000   140.6934     5.1634     5.2436
  322.0000   140.6717     4.9843     5.0272
  322.5000   140.6465     4.9474     4.9215
  323.0000   140.6256     4.9450     4.9542
  323.5000   140.6047     4.9426     5.2000
  324.0000   142.7018     5.1893     5.4961
  324.5000   146.3118     5.4188     5.7288
  325.0000   142.9626     5.7991     6.0130
  325.5000   139.3109     6.2498     6.3175
  326.0000   137.7823     6.6507     6.6751
  326.5000   140.4794     6.8838     6.8636
  327.0000   141.9713     7.0257     7.0483
  327.5000   142.8634     7.0713     7.0946
  328.0000   143.1399     7.0671     7.1423
  328.5000   146.1447     7.0637     7.1898
  329.0000   148.2418     7.0603     7.1867
  329.5000   148.2209     7.1071     7.1842
  330.0000   150.0353     7.1533     7.1817
  330.5000   152.1493     7.1998     7.2301
  331.0000   151.7641     7.2466     7.2270
  331.5000   143.8962     7.2422     7.2245
  332.0000   141.7625     7.2387     7.2220
  332.5000   145.0647     7.2352     7.2195
  333.0000   146.2593     7.2318     7.2170
  333.5000   145.0229     7.2283     7.1644
  334.0000   144.0943     7.2247     7.1620
  334.5000   144.6786     7.2212     7.1595
  335.0000   147.0783     7.1676     7.1570
  335.5000   149.4780     7.1635     7.1546
  336.0000   149.4571     7.1104     7.1521
  336.5000   148.5285     7.1574     7.1496
  337.0000   147.2973     7.1035     7.1412
  337.5000   146.0661     7.0019     7.0950
  338.0000   145.7348     6.8064     6.8972
  338.5000   146.0333     6.6162     6.6125
  339.0000   147.2138     6.3868     6.2956
  339.5000   148.1433     6.0801     5.9109
  340.0000   149.8899     5.7881     5.5886
  340.5000   150.7820     5.5874     5.4331
  341.0000   151.9662     5.5848     5.5852
  341.5000   149.5247     5.5821     5.7411
  342.0000   147.0832     5.5794     5.9836
  342.5000   146.4624     5.4614     6.0238
  343.0000   148.2518     5.3833     5.8558
  343.5000   149.4464     5.2330     5.5751
  344.0000   149.7281     5.1223     5.2711
  344.5000   148.1891     5.0490     4.9836
  345.0000   147.2605     4.9768     4.8113
  345.5000   149.3576     5.0092     4.8433
  346.0000   151.4547     5.0418     4.9785
  346.5000   151.4339     5.0746     5.2257
  347.0000   148.6898     5.1076     5.4088
  347.5000   146.2177     5.2486     5.6457
  348.0000   144.3790     5.4319     5.8764
  348.5000   142.8280     5.7005     6.1247
  349.0000   141.9445     6.0241     6.3839
  349.5000   143.1391     6.3668     6.5621
  350.0000   145.3775     6.5593     6.7458
  350.5000   147.0962     6.6558     6.6984
  351.0000   148.8380     6.6242     6.6546
  351.5000   146.0963     6.1816     6.3426
  352.0000   141.5428     5.7639     5.7351
  352.5000   136.9893     5.3744     5.0920
  353.0000   134.2512     5.0815     4.5527
  353.5000   137.3144     4.9403     4.5195
  354.0000   141.0552     4.9043     4.7425
  354.5000   147.5160     4.9027     4.9426
  355.0000   148.7151     4.9010     5.1511
  355.5000   145.0656     4.9680     5.3690
  356.0000   138.6967     5.1781     5.7130
  356.5000   131.7226     5.5111     6.1223
  357.0000   129.8923     5.8654     6.5153
  357.5000   133.5082     6.2861     7.0309
  358.0000   138.9396     6.6927     7.4303
  358.5000   141.3453     7.0785     7.6366
  359.0000   143.7547     7.3333     7.6863
  359.5000   146.7618     7.5225     7.8449
  360.0000   142.8134     7.5724     7.8959
  360.5000   135.2342     7.6233     7.8920
  361.0000   130.6807     7.6201     7.8881
  361.5000   132.4951     7.6713     7.8836
  362.0000   134.0110     7.6681     7.8798
  362.5000   136.3849     7.6654     7.8760
  363.0000   139.3920     7.7170     7.8175
  363.5000   140.8936     7.7137     7.8138
  364.0000   134.2184     7.6576     7.8100
  364.5000   129.9675     7.6549     7.8063
