~VERSION INFORMATION
 VERS.                2.0:   CWLS LOG ASCII STANDARD - VERSION 2.0
 WRAP.                 NO:   ONE LINE PER DEPTH STEP
~WELL INFORMATION
#MNEM.UNIT      DATA TYPE    INFORMATION
#----------   ------------   ------------------------------
 STRT.F           16.0000:   START DEPTH
 STOP.F          900.0000:   STOP DEPTH
 STEP.F            0.5000:   STEP LENGTH
 NULL.          -999.2500:   NO VALUE
 COMP. FENIX & SCISSON INC:   COMPANY
 WELL.    NPR-3 #65S15-15:   WELL
 FLD .             TEAPOT:   FIELD
 LOC .      S15 T38N R78W:   LOCATION
 CNTY.            NATRONA:   COUNTY
 STAT.            WYOMING:   STATE
 CTRY. UNITED STATES OF AMERICA:   COUNTRY
 SRVC.            Unknown:   SERVICE COMPANY
 DATE.        11-MAY-1978:   LOGDATE
 API .       490251062400:   API NUMBER
~CURVE INFORMATION
#MNEM.UNIT       API CODE    CURVE DESCRIPTION
#----------   ------------   ------------------------------
 DEPT.F                  :   
 RHOB.G/C3   45 350 01 00:   BULK DENSITY
 DPHI.DEC    45 890 12 00:   DENSITY POROSITY SANDSTONE
 CORR.G/C3   45 356 01 00:   DENSITY CORRECTION
 GRD .GAPI   45 310 01 00:   GAMMA RAY FROM DENSITY LOG
 CALD.IN     45 280 60 00:   CALIPER FROM DENSITY LOG
 SPR .MV     05 010 01 00:   SPONTANEOUS POTENTIAL FROM RES.
 SN  .OHMM   05 040 16 00:   SHORT NORMAL 16"
 IL  .OHMM   05 120 00 00:   INDUCTION LOG
~PARAMETER INFORMATION
#MNEM.UNIT          VALUE    DESCRIPTION
#----------   ------------   ------------------------------
 PD  .                 GL:   PERMANENT DATUM
 EPD .F              5289:   ELEVATION PERMANENT DATUM
 LMF .                 KB:   LOG MEASURED FROM
 DAPD.F                 4:   FEET ABOVE PERMANENT DATUM
 DMF .                 KB:   DRILLING MEASURED FROM
 EKB .F              5293:   KELLING BUSHING
 EDF .F                  :   DRILLING FLOOR
 EGL .F              5289:   GROUND LEVEL
 DATE.          5-11-1978:   RUN DATE
 RUN .                  1:   RUN NUMBER
 DD  .F               887:   DEPTH DRILLER
 DL  .F               889:   DEPTH LOGGER
 BLI .F               883:   BOTTOM LOG INTERVAL
 TLI .F                40:   TOP LOG INTERVAL
 CS  .IN            8.625:   CASING SIZE
 CBD .F                40:   CASING BOTTOM DRILLER
 CBL .F                40:   CASING BOTTOM LOGGER
 BS  .IN            7.875:   BIT SIZE
 BSD .F               887:   BIT SIZE AT DEPTH
 DFT .                KCL:   DRILLING FLUID TYPE
 DFD .                8.6:   DRILLING FLUID DENSITY
 DFV .                 30:   DRILLING FLUID VISCOSITY
 DFPH.                9.5:   DRILLING FLUID PH
 DFL .                  8:   DRILLING FLUID LOSS
 MSS .                   :   MUD SAMPLE SOURCE
 RMS .OHMM            .42:   RESISTIVITY MUD SAMPLE
 MST .F                68:   MUD SAMPLE TEMPERATURE
 RMF .OHMM            .38:   RESISTIVITY MUD FILTRATE SAMPLE
 MFST.F                68:   MUD FILTRATE SAMPLE TEMPERATURE
 RMC .OHMM            .68:   RESISTIVITY MUD CAKE
 MCST.F                66:   MUD CAKE SAMPLE TEMPERATURE
 MFSS.           MEASURED:   MUD FILTRATE SAMPLE SOURCE
 MCSS.                   :   MUD CAKE SAMPLE SOURCE
 RMB .OHMM               :   RESISTIVITY MUD AT BHT
 BHT .F                72:   BOTTOM HOLE TEMPERATURE
 TCS .HRS               2:   TIME CURCULATED STOPPED
 TLAB.HRS                :   TIME LOGGER AT BOTTOM
 MRT .F                72:   MAXIMUM RECORDED TEMPERATURE
 LUN .              CASP.:   LOGGING UNIT NUMBER
 LUL .               2958:   LOGGING UNIT LOCATION
 ENGI.             MILLER:   RECORDING ENGINEER
 WITN.           MCGINLEY:   WITNESSED BY
 CLNT.            A2DTECH:   CLIENT CODE
 ORIG.      2" & 5" PRINT:   ORIGIN OF DATA
 UWI .       490251062400:   UNIQUE WELL ID
 DICO. A2D Technologies, Inc.:   DIGITIZING COMPANY
 OS  .                   :   OTHER SERVICES
 PWI .                   :   PRIMARY WELL IDENTIFIER
 R1  .                   :   REMARKS 1
 R2  .                   :   REMARKS 2
~OTHER INFORMATION
~A   DEPT     RHOB       DPHI       CORR         GRD      CALD        SPR         SN         IL   
# ...
  502.0000     2.4639     0.1308     0.0025    70.2573     7.4717   -40.7894     8.7193     7.8785
  502.5000     2.4625     0.1280     0.0037    69.9630     7.4691   -40.7834     8.6724     7.8123
  503.0000     2.4628     0.1250     0.0040    76.6795     7.4667   -40.7773     8.6273     7.7467
  503.5000     2.4650     0.1281     0.0028    77.1867     7.4706   -40.7712     8.5824     7.7096
  504.0000     2.4667     0.1327    -0.0027    77.5703     7.4852   -40.7651     8.5377     7.7027
  504.5000     2.4618     0.1352    -0.0064    77.3226     7.4997   -40.7590     8.4932     7.6961
  505.0000     2.4566     0.1309    -0.0006    76.9520     7.5141   -40.7529     8.4517     7.6896
  505.5000     2.4548     0.1258     0.0045    76.5877     7.5286   -40.7467     8.4348     7.6830
  506.0000     2.4620     0.1206     0.0066    76.1535     7.5431   -40.7415     8.4180     7.6765
  506.5000     2.4720     0.1158     0.0084    74.5486     7.5575   -40.7872     8.4012     7.6699
  507.0000     2.4822     0.1152     0.0105    72.1509     7.5649   -40.9241     8.3844     7.6634
  507.5000     2.4870     0.1152     0.0172    70.0795     7.5351   -41.0597     8.3677     7.6569
  508.0000     2.4870     0.1157     0.0197    70.8090     7.4761   -41.1956     8.3510     7.6505
  508.5000     2.4859     0.1168     0.0177    71.8622     7.4190   -41.3309     8.3343     7.6404
  509.0000     2.4839     0.1220     0.0124    72.9427     7.3843   -41.4669     8.3176     7.6414
  509.5000     2.4783     0.1285     0.0071    73.9965     7.3485   -41.5478     8.3010     7.4395
  510.0000     2.4723     0.1264     0.0018    73.7607     7.3125   -41.5791     8.1289     7.2847
  510.5000     2.4663     0.1292    -0.0035    72.0224     7.2766   -41.6090     7.9402     7.1329
  511.0000     2.4625     0.1310    -0.0076    70.2794     7.2406   -41.6389     7.7559     6.9843
  511.5000     2.4614     0.1300    -0.0075    69.9031     7.2060   -41.6688     7.5758     6.8387
  512.0000     2.4603     0.1292    -0.0075    72.6068     7.1930   -41.6993     7.4000     6.7769
  512.5000     2.4594     0.1393    -0.0060    75.7867     7.1810   -41.7325     7.2282     6.7769
  513.0000     2.4530     0.1355     0.0003    76.4581     7.1688   -41.6115     7.0963     6.7769
  513.5000     2.4506     0.1318     0.0051    74.1465     7.1565   -41.4683     7.2227     6.7769
  514.0000     2.4557     0.1296     0.0068    73.7284     7.1470   -41.3247     7.3654     6.7769
  514.5000     2.4609     0.1278     0.0084    71.6627     7.1730   -41.1815     7.5111     6.8691
  515.0000     2.4642     0.1264     0.0055    70.2141     7.1986   -41.0383     7.6592     6.9774
  515.5000     2.4668     0.1314     0.0027    70.8584     7.2239   -40.8952     7.8545     7.0876
  516.0000     2.4642     0.1307     0.0058    72.2777     7.2492   -40.7520     7.8529     7.2293
  516.5000     2.4622     0.1285     0.0093    73.2719     7.2745   -40.6089     7.8529     7.2277
  517.0000     2.4635     0.1264     0.0127    73.3335     7.2999   -40.4658     7.8529     7.2284
  517.5000     2.4646     0.1231     0.0182    73.4112     7.3253   -40.3225     7.8529     7.2283
  518.0000     2.4709     0.1192     0.0264    73.4864     7.3459   -40.1791     7.8527     7.2282
  518.5000     2.4778     0.1164     0.0345    73.5661     7.3348   -40.0378     7.8529     7.2282
  519.0000     2.4842     0.1164     0.0380    73.5994     7.2778   -39.9487     7.8513     7.2282
  519.5000     2.4848     0.1140     0.0369    72.7956     7.2219   -39.9827     7.9332     7.2282
  520.0000     2.4850     0.1164     0.0358    71.8003     7.1664   -40.0142     7.9976     7.2282
  520.5000     2.4848     0.1175     0.0347    71.7351     7.1229   -40.0461     8.0627     7.2282
  521.0000     2.4844     0.1150     0.0336    71.6828     7.1150   -40.0779     8.1284     7.2282
  521.5000     2.4840     0.1124     0.0324    70.2074     7.1061   -40.1097     8.1941     7.2282
  522.0000     2.4863     0.1098     0.0313    68.2334     7.0804   -40.1416     8.2226     7.2282
  522.5000     2.4893     0.1103     0.0302    66.7926     7.0522   -40.1734     8.2132     7.2282
  523.0000     2.4910     0.1122     0.0291    68.1966     7.0246   -40.2052     8.2070     7.2282
  523.5000     2.4910     0.1113     0.0280    71.0429     7.0206   -40.2370     8.2008     7.2282
  524.0000     2.4910     0.1121     0.0269    74.2808     7.0647   -40.2688     8.1946     7.2287
  524.5000     2.4909     0.1150     0.0242    75.4399     7.1083   -40.3008     8.1884     7.2446
  525.0000     2.4883     0.1178     0.0209    75.0102     7.1144   -40.3341     8.1822     7.2600
  525.5000     2.4829     0.1207     0.0187    74.9257     7.0970   -40.2988     8.1760     7.2756
  526.0000     2.4776     0.1235     0.0196    75.1510     7.1111   -40.2493     8.1698     7.2911
  526.5000     2.4730     0.1233     0.0206    74.9706     7.1723   -40.1994     8.1636     7.3067
  527.0000     2.4702     0.1204     0.0253    74.5497     7.2327   -40.1497     8.1574     7.3223
  527.5000     2.4701     0.1177     0.0304    75.4272     7.2656   -40.1001     8.1513     7.3380
  528.0000     2.4766     0.1160     0.0356    76.8903     7.2651   -40.0504     8.1370     7.3543
  528.5000     2.4832     0.1143     0.0404    78.2123     7.2675   -40.0008     8.0840     7.3626
  529.0000     2.4870     0.1148     0.0394    78.1531     7.3083   -39.9511     8.0320     7.2399
  529.5000     2.4870     0.1164     0.0366    78.0710     7.3479   -39.9015     7.9804     7.1553
  530.0000     2.4828     0.1193     0.0271    77.7533     7.3875   -39.8518     7.9291     7.0718
  530.5000     2.4770     0.1174     0.0185    76.9165     7.4048   -39.8022     7.8782     6.9892
  531.0000     2.4793     0.1148     0.0166    76.1552     7.4051   -39.7525     7.8275     6.9076
  531.5000     2.4820     0.1120     0.0149    75.8396     7.4057   -39.7029     7.7772     6.8396
  532.0000     2.4846     0.1129     0.0131    75.9493     7.4357   -39.6531     7.7273     6.9083
  532.5000     2.4872     0.1203     0.0114    76.8033     7.5158   -39.6032     7.6776     6.9153
  533.0000     2.4861     0.1229     0.0096    77.6530     7.5959   -39.5493     7.6386     6.9224
  533.5000     2.4775     0.1215     0.0085    78.5045     7.6244   -39.6703     7.6389     6.9295
  534.0000     2.4725     0.1223     0.0085    77.9823     7.6249   -39.8394     7.6389     6.9365
  534.5000     2.4733     0.1231     0.0085    75.8915     7.6248   -40.0095     7.6389     6.9436
  535.0000     2.4749     0.1224     0.0086    74.4819     7.6247   -40.1793     7.6389     6.9508
  535.5000     2.4731     0.1217     0.0118    75.3212     7.6247   -40.3489     7.6391     6.9582
  536.0000     2.4711     0.1227     0.0150    76.3245     7.6248   -40.5188     7.6389     6.9668
  536.5000     2.4748     0.1221     0.0183    76.6270     7.6282   -40.6880     7.6389     6.7963
  537.0000     2.4730     0.1187     0.0215    73.1942     7.6396   -40.8585     7.4639     6.5740
  537.5000     2.4737     0.1156     0.0237    69.9468     7.6508   -40.8983     7.2860     6.3586
  538.0000     2.4771     0.1187     0.0227    70.4633     7.6621   -40.8321     7.1124     6.1505
  538.5000     2.4790     0.1219     0.0191    73.8395     7.6735   -40.7642     6.9429     5.9570
  539.0000     2.4730     0.1252     0.0154    77.4045     7.6837   -40.6962     6.7772     5.9809
  539.5000     2.4740     0.1297     0.0118    79.5865     7.6635   -40.6283     6.6160     6.0104
  540.0000     2.4679     0.1345     0.0081    81.0614     7.6419   -40.5604     6.4105     6.0399
  540.5000     2.4602     0.1392     0.0046    83.2498     7.6204   -40.4926     6.4667     6.0693
  541.0000     2.4538     0.1354     0.0040    84.5370     7.5989   -40.4247     6.5728     6.0989
  541.5000     2.4558     0.1315     0.0036    84.7990     7.5775   -40.3568     6.6816     6.1286
  542.0000     2.4604     0.1276     0.0032    84.4755     7.5558   -40.2889     6.7921     6.1585
