~VERSION INFORMATION
 VERS.                2.0:   CWLS LOG ASCII STANDARD - VERSION 2.0
 WRAP.                 NO:   ONE LINE PER DEPTH STEP
~WELL INFORMATION
#MNEM.UNIT      DATA TYPE    INFORMATION
#----------   ------------   ------------------------------
 STRT.F           27.0000:   START DEPTH
 STOP.F          760.0000:   STOP DEPTH
 STEP.F            0.5000:   STEP LENGTH
 NULL.          -999.2500:   NO VALUE
 COMP. FENIX & SCISSON INC:   COMPANY
 WELL.    NPR #3 #33-S-14:   WELL
 FLD .             TEAPOT:   FIELD
 LOC .      S14 T38N R78W:   LOCATION
 CNTY.            NATRONA:   COUNTY
 STAT.            WYOMING:   STATE
 CTRY. UNITED STATES OF AMERICA:   COUNTRY
 SRVC.              Welex:   SERVICE COMPANY
 DATE.        02-FEB-1977:   LOGDATE
 API .       490251027700:   API NUMBER
~CURVE INFORMATION
#MNEM.UNIT       API CODE    CURVE DESCRIPTION
#----------   ------------   ------------------------------
 DEPT.F                  :   
 SPR .MV     07 010 01 00:   SPONTANEOUS POTENTIAL
 SGRD.OHMM   07 220 05 00:   SHALLOW RESISTIVITY
 ILD .OHMM   07 120 46 00:   INDUCTION LOG DEEP
 ILM .OHMM   07 120 44 00:   INDUCTION LOG MEDIUM
 GRD .GAPI   45 310 01 00:   GAMMA RAY FROM DENSITY LOG
 CALD.IN     45 280 60 00:   CALIPER
 RHOB.G/C3   45 350 01 00:   BULK DENSITY
 CORR.G/C3   45 356 01 00:   DENSITY CORRECTION
 DPHI.DEC    45 890 00 00:   DENSITY POROSITY
~PARAMETER INFORMATION
#MNEM.UNIT          VALUE    DESCRIPTION
#----------   ------------   ------------------------------
 PD  .                 GL:   PERMANENT DATUM
 EPD .F              5219:   ELEVATION PERMANENT DATUM
 LMF .                 GL:   LOG MEASURED FROM
 DMF .                 GL:   DRILLING MEASURED FROM
 EKB .F              5224:   KELLING BUSHING
 EGL .F              5219:   GROUND LEVEL
 DATE.           2-2-1977:   RUN DATE
 RUN .                  1:   RUN NUMBER
 DD  .F               761:   DEPTH DRILLER
 DL  .F               762:   DEPTH LOGGER
 BLI .F               760:   BOTTOM LOG INTERVAL
 TLI .F                25:   TOP LOG INTERVAL
 CS  .IN            8.625:   CASING SIZE
 CBD .F              42.5:   CASING BOTTOM DRILLER
 CBL .F                46:   CASING BOTTOM LOGGER
 BS  .IN            7.875:   BIT SIZE
 BSD .F               761:   BIT SIZE AT DEPTH
 DFT .           CHEM-GEL:   DRILLING FLUID TYPE
 DFD .                8.9:   DRILLING FLUID DENSITY
 DFV .                 37:   DRILLING FLUID VISCOSITY
 DFPH.                  7:   DRILLING FLUID PH
 DFL .                8.4:   DRILLING FLUID LOSS
 MSS .          FLOW LINE:   MUD SAMPLE SOURCE
 RMS .OHMM           .231:   RESISTIVITY MUD SAMPLE
 MST .F                45:   MUD SAMPLE TEMPERATURE
 RMF .OHMM           .322:   RESISTIVITY MUD FILTRATE SAMPLE
 MFST.F                45:   MUD FILTRATE SAMPLE TEMPERATURE
 RMC .OHMM           .439:   RESISTIVITY MUD CAKE
 MCST.F                45:   MUD CAKE SAMPLE TEMPERATURE
 MFSS.           MEASURED:   MUD FILTRATE SAMPLE SOURCE
 MCSS.           MEASURED:   MUD CAKE SAMPLE SOURCE
 RMB .OHMM           .182:   RESISTIVITY MUD AT BHT
 BHT .F                57:   BOTTOM HOLE TEMPERATURE
 TCS .HRS             5.5:   TIME CURCULATED STOPPED
 MRT .F                57:   MAXIMUM RECORDED TEMPERATURE
 LUN .               8611:   LOGGING UNIT NUMBER
 LUL .           GILLETTE:   LOGGING UNIT LOCATION
 ENGI.             LAWSON:   RECORDING ENGINEER
 WITN. VOORHEES/RHOADES/JAPP/PETTINGILL/STUEBINGER:   WITNESSED BY
 CLNT.            A2DTECH:   CLIENT CODE
 ORIG.     1", 2.5" PRINT:   ORIGIN OF DATA
 UWI .       490251027700:   UNIQUE WELL ID
 DICO. A2D Technologies, Inc.:   DIGITIZING COMPANY
~OTHER INFORMATION
~A   DEPT      SPR       SGRD        ILD        ILM        GRD       CALD         RHOB      CORR      DPHI   
# ...
  538.0000   -32.6609     8.0041     5.8954     6.5714   120.9310     8.5482     2.4756     0.0636     0.0973
  538.5000   -32.3882     8.6546     6.1591     6.8643   121.1666     8.5462     2.4785     0.0634     0.0983
  539.0000   -32.1085     9.6725     6.4346     7.1702   122.2804     8.5442     2.4815     0.0633     0.0971
  539.5000   -31.8814    10.3111     6.7224     7.4898   123.5494     8.5422     2.4845     0.0631     0.0950
  540.0000   -31.6287    10.9343     7.0230     7.5595   125.5399     8.5402     2.4850     0.0629     0.0928
  540.5000   -31.8640    10.7390     7.0848     7.6299   127.5442     8.5372     2.4854     0.0628     0.0915
  541.0000   -32.0887    10.3589     7.0032     7.4696   129.4507     8.5295     2.4846     0.0626     0.0934
  541.5000   -32.2562     9.9923     6.8693     7.3127   129.8155     8.5220     2.4822     0.0625     0.0953
  542.0000   -32.3955     9.6571     6.7380     7.1590   128.4717     8.5145     2.4796     0.0624     0.0978
  542.5000   -32.5648     9.4048     6.6104     7.0086   127.1402     8.5069     2.4671     0.0622     0.1041
  543.0000   -32.7181     9.1591     6.4836     6.8613   125.8230     8.4994     2.4535     0.0621     0.1103
  543.5000   -32.8748     9.0147     6.2231     6.7172   124.4767     8.4919     2.4451     0.0620     0.1166
  544.0000   -33.0434     9.0147     5.9410     6.5766   125.0845     8.4844     2.4389     0.0619     0.1198
  544.5000   -33.1691     8.8219     5.6719     6.4385   126.6600     8.4768     2.4329     0.0618     0.1223
  545.0000   -33.2305     8.5867     5.4150     6.3034   128.2656     8.4693     2.4270     0.0617     0.1248
  545.5000   -33.3031     8.3578     5.1697     6.0718   129.8737     8.4618     2.4210     0.0615     0.1274
  546.0000   -33.3773     8.1349     4.9356     5.7080   131.5311     8.4543     2.4150     0.0614     0.1299
  546.5000   -33.4425     7.9180     4.7122     5.3658   130.3621     8.4467     2.4086     0.0613     0.1261
  547.0000   -33.5141     6.2084     4.5660     5.0394   128.6480     8.4392     2.4256     0.0612     0.1209
  547.5000   -33.3507     4.6047     4.6949     5.1429   126.9229     8.4317     2.4463     0.0611     0.1157
  548.0000   -33.1082     4.7786     4.8274     5.3512   125.2046     8.4241     2.4555     0.0610     0.1132
  548.5000   -32.8665     7.4207     4.9636     5.5680   123.5161     8.4166     2.4552     0.0609     0.1131
  549.0000   -32.6289     9.0676     5.1270     5.8334   122.8177     8.4091     2.4550     0.0608     0.1129
  549.5000   -32.3874     9.4436     5.3932     6.1114   125.0373     8.4023     2.4594     0.0606     0.1089
  550.0000   -32.1484     9.8352     5.6734     6.4027   129.2872     8.3977     2.4639     0.0605     0.1038
  550.5000   -31.9100    10.0847     5.9682     6.7079   133.8321     8.3932     2.4676     0.0599     0.1049
  551.0000   -31.6641    10.1088     6.2780     7.0848   135.5481     8.3886     2.4653     0.0592     0.1061
  551.5000   -31.4363    10.1329     6.5363     7.1923   135.1794     8.3840     2.4631     0.0586     0.1074
  552.0000   -31.1701    10.1571     6.7135     7.3246   134.7666     8.3795     2.4610     0.0579     0.1086
  552.5000   -31.1707    10.1814     6.8953     7.4594   134.3542     8.3749     2.4632     0.0572     0.1097
  553.0000   -31.1857    10.2057     6.9652     7.5967   133.9371     8.3703     2.4702     0.0565     0.1054
  553.5000   -31.2136    10.2300     6.9770     7.7365   133.0710     8.3658     2.4771     0.0558     0.1015
  554.0000   -31.2330    10.2544     6.9882     7.8788   131.4071     8.3612     2.4820     0.0552     0.0976
  554.5000   -31.2551    10.2789     7.0008     8.0585   129.7334     8.3566     2.4780     0.0545     0.0972
  555.0000   -31.2775    10.3035     7.0134     8.0405   129.3675     8.3521     2.4741     0.0538     0.1012
  555.5000   -31.2991    10.3280     7.0261     8.0054   130.3712     8.3472     2.4702     0.0531     0.1052
  556.0000   -31.3211    10.3527     7.0388     7.9695   131.3797     8.3867     2.4663     0.0530     0.1050
  556.5000   -31.3428    10.3774     7.0515     7.9338   130.0081     8.4576     2.4685     0.0560     0.1015
  557.0000   -31.3646    10.4022     7.0642     7.8981   128.3084     8.4678     2.4752     0.0590     0.0980
  557.5000   -31.3863    10.4270     7.0770     7.8625   126.6168     8.4496     2.4818     0.0619     0.0945
  558.0000   -31.4080    10.4519     7.0897     7.8272   124.9040     8.4305     2.4886     0.0649     0.0910
  558.5000   -31.4297    10.4768     7.1025     7.7731   124.4941     8.4218     2.4953     0.0678     0.0875
  559.0000   -31.4516    10.5018     7.1153     7.7904   127.0490     8.4198     2.5007     0.0708     0.0877
  559.5000   -31.4729    10.5268     7.1283     7.8364   128.8014     8.4179     2.4975     0.0737     0.0890
  560.0000   -31.4949    10.5517     7.1411     7.8827   129.8064     8.4161     2.4943     0.0767     0.0903
  560.5000   -31.5172    10.5777     7.1544     7.9293   129.0419     8.4142     2.4944     0.0796     0.0912
  561.0000   -31.5355    10.6027     7.1674     7.9760   128.3100     8.4124     2.4959     0.0826     0.0890
  561.5000   -31.5828    10.6271     7.1792     8.0228   127.5694     8.4105     2.4975     0.0855     0.0869
  562.0000   -31.6534    10.6497     7.1927     8.0697   126.8511     8.4087     2.4990     0.0885     0.0847
  562.5000   -31.7187    10.6183     7.2057     8.1168   126.8423     8.4070     2.5006     0.0914     0.0826
  563.0000   -31.7858    10.5900     7.2173     8.1642   128.4012     8.4050     2.5023     0.0943     0.0847
  563.5000   -31.8542    10.5613     7.0685     8.2157   129.9363     8.3881     2.4950     0.0948     0.0899
  564.0000   -31.9116    10.5320     6.9372     8.0395   131.4454     8.3088     2.4852     0.0907     0.0951
  564.5000   -32.0359    10.5023     6.8083     7.8535   132.2890     8.2282     2.4800     0.0866     0.0989
  565.0000   -32.2055    10.4732     6.6818     7.6718   131.3720     8.2648     2.4810     0.0825     0.0983
  565.5000   -32.3651    10.4304     6.5577     7.4941   130.4999     8.3645     2.4815     0.0784     0.0978
  566.0000   -32.5236    10.3640     6.4358     7.3204   130.0733     8.4676     2.4731     0.0743     0.1032
  566.5000   -32.6853    10.2957     6.3162     7.1506   131.4028     8.4205     2.4640     0.0703     0.1088
  567.0000   -32.8448    10.2267     6.1896     7.0848   132.6543     8.3030     2.4549     0.0662     0.1127
  567.5000   -33.0060    10.1644     6.0305     7.0848   132.8556     8.2825     2.4450     0.0624     0.1153
  568.0000   -33.1665    10.1064     5.8754     7.0090   130.9462     8.3396     2.4418     0.0606     0.1184
  568.5000   -33.3234    10.0383     5.7243     6.6880   129.0673     8.3785     2.4354     0.0588     0.1213
  569.0000   -33.4932     9.9743     5.5772     6.4069   127.7447     8.3457     2.4284     0.0570     0.1242
  569.5000   -33.7036     9.9107     5.4343     6.2098   128.0964     8.3133     2.4213     0.0552     0.1270
  570.0000   -33.8957     9.1834     5.2947     5.9964   129.2273     8.3270     2.4209     0.0534     0.1243
  570.5000   -33.5118     5.0444     5.1708     6.0796   130.3421     8.3539     2.4356     0.0553     0.1187
  571.0000   -33.1645     5.1778     5.2150     6.1753   130.3702     8.3819     2.4691     0.0604     0.1131
  571.5000   -32.7953     7.5344     5.2557     6.2726   128.9607     8.3439     2.5026     0.0656     0.1075
  572.0000   -32.4327    10.0750     5.2967     6.3714   127.5494     8.2981     2.5117     0.0707     0.1004
  572.5000   -32.3355    10.1853     5.3379     6.4718   126.2466     8.2838     2.5079     0.0759     0.0930
  573.0000   -32.3394    10.3053     5.4286     6.5737   127.9609     8.3276     2.5052     0.0811     0.0856
  573.5000   -32.3419    10.4268     5.6177     6.6773   129.5430     8.3717     2.5113     0.0862     0.0798
  574.0000   -32.3340    10.3618     5.8126     6.7824   128.1949     8.3489     2.5175     0.0914     0.0751
