~VERSION INFORMATION
 VERS.                2.0:   CWLS LOG ASCII STANDARD - VERSION 2.0
 WRAP.                 NO:   ONE LINE PER DEPTH STEP
~WELL INFORMATION
#MNEM.UNIT      DATA TYPE    INFORMATION
#----------   ------------   ------------------------------
 STRT.F            0.0000:   START DEPTH
 STOP.F         1110.0000:   STOP DEPTH
 STEP.F            0.5000:   STEP LENGTH
 NULL.          -999.2500:   NO VALUE
 COMP. FENIX & SCISSON INC:   COMPANY
 WELL. NAVAL PETROLEUM RESERVE 3 SX-1 #63-14:   WELL
 FLD .       TEA POT DOME:   FIELD
 LOC .      S14 T38N R78W:   LOCATION
 CNTY.            NATRONA:   COUNTY
 STAT.            WYOMING:   STATE
 CTRY. UNITED STATES OF AMERICA:   COUNTRY
 SRVC.            Unknown:   SERVICE COMPANY
 DATE.        15-APR-1978:   LOGDATE
 API .       490251061500:   API NUMBER
~CURVE INFORMATION
#MNEM.UNIT       API CODE    CURVE DESCRIPTION
#----------   ------------   ------------------------------
 DEPT.F                  :   
 NPHI.DEC    42 890 03 00:   NEUTRON POROSITY SANDSTONE
 GRD .GAPI   45 310 01 00:   GAMMA RAY FROM DENSITY LOG
 CALD.IN     45 280 60 00:   CALIPER FROM DENSITY LOG
 RHOB.G/C3   45 350 01 00:   BULK DENSITY
 DPHI.DEC    45 890 12 00:   DENSITY POROSITY SANDSTONE
 CORR.G/C3   45 356 01 00:   DENSITY CORRECTION
 SPR .MV     05 010 01 00:   SPONTANEOUS POTENTIAL FROM RES.
 SN  .OHMM   05 040 16 00:   SHORT NORMAL 16"
 ILD .OHMM   05 120 46 00:   INDUCTION LOG DEEP
~PARAMETER INFORMATION
#MNEM.UNIT          VALUE    DESCRIPTION
#----------   ------------   ------------------------------
 PD  .                 GL:   PERMANENT DATUM
 EPD .F              5253:   ELEVATION PERMANENT DATUM
 LMF .                 KB:   LOG MEASURED FROM
 DAPD.F                 4:   FEET ABOVE PERMANENT DATUM
 DMF .                 KB:   DRILLING MEASURED FROM
 EKB .F              5257:   KELLING BUSHING
 EGL .F              5253:   GROUND LEVEL
 DATE.          4-15-1978:   RUN DATE
 RUN .                  1:   RUN NUMBER
 DD  .F              1095:   DEPTH DRILLER
 DL  .F              1102:   DEPTH LOGGER
 BLI .F              1100:   BOTTOM LOG INTERVAL
 TLI .F               850:   TOP LOG INTERVAL
 CS  .IN            9.625:   CASING SIZE
 CBD .F                40:   CASING BOTTOM DRILLER
 CBL .F                40:   CASING BOTTOM LOGGER
 BS  .IN            7.875:   BIT SIZE
 BSD .F              1095:   BIT SIZE AT DEPTH
 DFT .                KCL:   DRILLING FLUID TYPE
 DFD .                8.6:   DRILLING FLUID DENSITY
 DFV .                 30:   DRILLING FLUID VISCOSITY
 DFPH.                 10:   DRILLING FLUID PH
 DFL .                  8:   DRILLING FLUID LOSS
 MSS .           FLOWLINE:   MUD SAMPLE SOURCE
 RMS .OHMM            .46:   RESISTIVITY MUD SAMPLE
 MST .F                58:   MUD SAMPLE TEMPERATURE
 RMF .OHMM             .5:   RESISTIVITY MUD FILTRATE SAMPLE
 MFST.F                60:   MUD FILTRATE SAMPLE TEMPERATURE
 RMC .OHMM             .5:   RESISTIVITY MUD CAKE
 MCST.F                60:   MUD CAKE SAMPLE TEMPERATURE
 MFSS.           MEASURED:   MUD FILTRATE SAMPLE SOURCE
 RMB .OHMM            .33:   RESISTIVITY MUD AT BHT
 BHT .F                80:   BOTTOM HOLE TEMPERATURE
 TCS .HRS               6:   TIME CURCULATED STOPPED
 MRT .F                80:   MAXIMUM RECORDED TEMPERATURE
 LUN .               2958:   LOGGING UNIT NUMBER
 LUL .               CASP:   LOGGING UNIT LOCATION
 ENGI.             MILLER:   RECORDING ENGINEER
 WITN.           MCGINLEY:   WITNESSED BY
 CLNT.            A2DTECH:   CLIENT CODE
 ORIG.      2" & 5" PRINT:   ORIGIN OF DATA
 UWI .       490251061500:   UNIQUE WELL ID
 DICO. A2D Technologies, Inc.:   DIGITIZING COMPANY
~OTHER INFORMATION
~A    DEPT    NPHI         GRD      CALD       RHOB       DPHI       CORR        SPR         SN        ILD   
# ...
  730.0000  -999.2500    88.7421     7.7132     2.4181     0.1290     0.0405   -49.6008     7.6337     7.4218
  730.5000  -999.2500    86.4825     7.7275     2.4181     0.1306     0.0405   -49.6008     7.5963     7.3845
  731.0000  -999.2500    86.0719     7.7826     2.4183     0.1313     0.0405   -49.6008     7.5590     7.3473
  731.5000  -999.2500    88.4920     7.7924     2.4185     0.1306     0.0405   -49.6008     7.5218     7.3104
  732.0000  -999.2500    90.0735     7.7739     2.4187     0.1298     0.0405   -49.6008     7.4961     7.2899
  732.5000  -999.2500    86.5784     7.7190     2.4188     0.1305     0.0405   -49.6008     7.4872     7.2815
  733.0000  -999.2500    84.7906     7.6647     2.4181     0.1316     0.0405   -49.6008     7.4783     7.2731
  733.5000  -999.2500    84.2714     7.6790     2.4259     0.1286     0.0406   -49.6008     7.4695     7.2646
  734.0000  -999.2500    84.2661     7.7060     2.4382     0.1230     0.0419   -49.6008     7.4606     7.2561
  734.5000  -999.2500    85.5682     7.7609     2.4468     0.1174     0.0481   -49.6008     7.4518     7.2477
  735.0000  -999.2500    88.3973     7.8168     2.4494     0.1119     0.0521   -49.6008     7.4430     7.2392
  735.5000  -999.2500    89.7311     7.8721     2.4503     0.1100     0.0495   -49.6008     7.4342     7.2307
  736.0000  -999.2500    84.1187     7.9072     2.4495     0.1127     0.0470   -49.6008     7.4254     7.2223
  736.5000  -999.2500    74.1912     7.8247     2.4352     0.1172     0.0446   -49.6008     7.4167     7.2139
  737.0000  -999.2500    72.1120     7.7572     2.4320     0.1217     0.0426   -49.6008     7.4079     7.2055
  737.5000  -999.2500    72.1383     7.7753     2.4319     0.1264     0.0440   -49.6008     7.3991     7.1971
  738.0000  -999.2500    72.8274     7.8701     2.4320     0.1240     0.0452   -49.6008     7.3904     7.1887
  738.5000  -999.2500    75.0077     7.9643     2.4321     0.1215     0.0465   -49.6008     7.3818     7.1801
  739.0000  -999.2500    78.0140     7.9900     2.4232     0.1241     0.0478   -49.6008     7.3729     7.1718
  739.5000  -999.2500    81.0487     7.9788     2.4120     0.1304     0.0472   -49.6008     7.3654     7.1635
  740.0000  -999.2500    84.0551     7.9669     2.4066     0.1342     0.0438   -49.6008     7.2400     7.0427
  740.5000  -999.2500    86.2111     7.9550     2.4026     0.1372     0.0404   -49.6008     7.0913     6.8981
  741.0000  -999.2500    81.8047     7.9431     2.4009     0.1368     0.0370   -49.6008     6.9457     6.7564
  741.5000  -999.2500    80.1625     7.9309     2.4111     0.1326     0.0376   -49.6008     6.8030     6.6176
  742.0000  -999.2500    80.1928     7.9192     2.4249     0.1268     0.0399   -49.6008     6.6633     6.4816
  742.5000  -999.2500    80.2650     7.9835     2.4352     0.1210     0.0457   -49.6008     6.5264     6.3485
  743.0000  -999.2500    79.8286     8.0278     2.4355     0.1196     0.0479   -49.6008     6.3538     6.1806
  743.5000  -999.2500    78.9494     8.0487     2.4339     0.1202     0.0467   -49.6008     6.3828     6.2088
  744.0000  -999.2500    78.6784     8.0690     2.4323     0.1232     0.0455   -49.6008     6.4240     6.2490
  744.5000  -999.2500    76.8484     8.0776     2.4308     0.1272     0.0443   -49.6008     6.4655     6.2893
  745.0000  -999.2500    76.1583     8.0777     2.4329     0.1265     0.0430   -49.6008     6.5073     6.3300
  745.5000  -999.2500    75.5943     8.0781     2.4356     0.1255     0.0439   -49.6008     6.5494     6.3711
  746.0000  -999.2500    75.3057     8.0397     2.4384     0.1220     0.0463   -49.6008     6.5922     6.4122
  746.5000  -999.2500    75.5260     7.9771     2.4390     0.1195     0.0487   -49.6008     6.6213     6.4386
  747.0000  -999.2500    76.5439     7.9143     2.4394     0.1184     0.0511   -49.6008     6.6582     6.4712
  747.5000  -999.2500    77.5557     7.8755     2.4397     0.1172     0.0516   -49.6008     6.6954     6.5043
  748.0000  -999.2500    78.0440     7.8694     2.4403     0.1181     0.0495   -49.6008     6.7328     6.5374
  748.5000  -999.2500    77.5070     7.8632     2.4420     0.1208     0.0472   -49.6008     6.7704     6.5708
  749.0000  -999.2500    76.7305     7.8637     2.4437     0.1199     0.0520   -49.6008     6.8082     6.6043
  749.5000  -999.2500    77.4855     7.8870     2.4439     0.1194     0.0601   -49.6011     6.8462     6.6380
  750.0000  -999.2500    80.8076     7.8963     2.4439     0.1201     0.0639   -49.5896     6.8844     6.6719
  750.5000  -999.2500    80.8505     7.8919     2.4439     0.1208     0.0658   -49.5769     6.9228     6.7059
  751.0000  -999.2500    80.7867     7.8876     2.4447     0.1203     0.0678   -49.5641     6.9615     6.7404
  751.5000  -999.2500    80.7264     7.8832     2.4482     0.1190     0.0697   -49.5514     7.0003     6.7767
  752.0000  -999.2500    81.0166     7.8787     2.4557     0.1131     0.0716   -49.5387     7.0394     6.7632
  752.5000  -999.2500    81.4023     7.8787     2.4610     0.1072     0.0778   -49.5260     7.0963     6.7480
  753.0000  -999.2500    83.7101     7.8779     2.4602     0.1062     0.0878   -49.5132     7.0900     6.7330
  753.5000  -999.2500    88.5773     7.8330     2.4574     0.1071     0.0971   -49.5005     7.0788     6.7181
  754.0000  -999.2500    88.6690     7.7983     2.4538     0.1089     0.0985   -49.4878     7.0675     6.7033
  754.5000  -999.2500    88.6721     7.7989     2.4503     0.1127     0.1002   -49.4751     7.0563     6.6884
  755.0000  -999.2500    88.6439     7.7988     2.4474     0.1160     0.0999   -49.4624     7.0451     6.6736
  755.5000  -999.2500    89.7265     7.7839     2.4458     0.1159     0.0988   -49.4497     7.0339     6.6588
  756.0000  -999.2500    91.0058     7.7571     2.4443     0.1157     0.0990   -49.4369     7.0227     6.6417
  756.5000  -999.2500    90.5947     7.7493     2.4433     0.1172     0.0995   -49.4240     7.0115     6.6230
  757.0000  -999.2500    90.3393     7.7807     2.4461     0.1205     0.1000   -49.4114     7.0004     6.6044
  757.5000  -999.2500    91.0581     7.8124     2.4489     0.1152     0.1005   -49.4113     6.9893     6.5858
  758.0000  -999.2500    92.1299     7.8132     2.4516     0.1140     0.1000   -49.4733     6.9782     6.5672
  758.5000  -999.2500    93.2385     7.8058     2.4544     0.1140     0.0992   -49.5344     6.9671     6.5487
  759.0000  -999.2500    93.4106     7.8005     2.4572     0.1131     0.0984   -49.5952     6.9560     6.5303
  759.5000  -999.2500    91.8565     7.8632     2.4599     0.1107     0.0976   -49.6561     6.9450     6.5119
  760.0000  -999.2500    90.2072     7.9302     2.4604     0.1102     0.0968   -49.7169     6.9339     6.4936
  760.5000  -999.2500    88.8213     7.9970     2.4609     0.1114     0.0960   -49.7780     6.9229     6.4753
  761.0000  -999.2500    89.5773     8.0636     2.4612     0.1116     0.0952   -49.8226     6.9119     6.4571
  761.5000  -999.2500    90.7909     8.1307     2.4623     0.1082     0.0947   -49.8581     6.9009     6.4390
  762.0000  -999.2500    92.0269     8.1574     2.4635     0.1052     0.0952   -49.8936     6.8899     6.4212
  762.5000  -999.2500    92.4830     8.1429     2.4639     0.1049     0.0957   -49.9290     6.8790     6.3952
  763.0000  -999.2500    92.5110     8.1255     2.4618     0.1059     0.0962   -49.9644     6.8681     6.3460
  763.5000  -999.2500    90.5912     8.0489     2.4502     0.1088     0.0975   -49.9998     6.8572     6.2970
  764.0000  -999.2500    87.1991     7.9371     2.4494     0.1104     0.1022   -50.0353     6.8465     6.2483
  764.5000  -999.2500    85.0732     7.8238     2.4488     0.1104     0.1069   -50.0707     6.8117     6.2001
  765.0000  -999.2500    83.4463     7.6850     2.4429     0.1157     0.1077   -50.1061     6.7413     6.1522
  765.5000  -999.2500    82.8033     7.5055     2.4372     0.1172     0.1045   -50.1416     6.6713     6.1047
  766.0000  -999.2500    82.3776     7.4174     2.4266     0.1228     0.0933   -50.1770     6.6020     6.0575
