~VERSION INFORMATION
 VERS.                2.0:   CWLS LOG ASCII STANDARD - VERSION 2.0
 WRAP.                 NO:   ONE LINE PER DEPTH STEP
~WELL INFORMATION
#MNEM.UNIT      DATA TYPE    INFORMATION
#----------   ------------   ------------------------------
 STRT.F           92.0000:   START DEPTH
 STOP.F          810.0000:   STOP DEPTH
 STEP.F            0.5000:   STEP LENGTH
 NULL.          -999.2500:   NO VALUE
 COMP. U S NAVY/INTEX OIL CO:   COMPANY
 WELL. NPR #3 #86 S 34-34:   WELL
 FLD .        EAST TEAPOT:   FIELD
 LOC .      S34 T39N R78W:   LOCATION
 CNTY.            NATRONA:   COUNTY
 STAT.            WYOMING:   STATE
 CTRY. UNITED STATES OF AMERICA:   COUNTRY
 SRVC. Schlumberger Well Surveying Corp:   SERVICE COMPANY
 DATE.        22-JUL-1962:   LOGDATE
 API .       490250652900:   API NUMBER
~CURVE INFORMATION
#MNEM.UNIT       API CODE    CURVE DESCRIPTION
#----------   ------------   ------------------------------
 DEPT.F                  :   
 GR  .GAPI   30 310 01 00:   GAMMA RAY
 SPR .MV     05 010 01 00:   SPONTANEOUS POTENTIAL FROM RES.
 CILD.MMHO   05 110 46 00:   CONDUCTIVITY INDUCTION LOG DEEP
 ASN .OHMM   05 041 16 00:   AMPLIFIED SHORT NORMAL 16"
 ILD .OHMM   05 120 46 00:   INDUCTION LOG DEEP
 CALM.IN     15 280 01 00:   CALIPER FROM MICRO LOG
~PARAMETER INFORMATION
#MNEM.UNIT          VALUE    DESCRIPTION
#----------   ------------   ------------------------------
 PD  .                 GL:   PERMANENT DATUM
 EPD .F              5094:   ELEVATION PERMANENT DATUM
 LMF .                 KB:   LOG MEASURED FROM
 DAPD.F                 5:   FEET ABOVE PERMANENT DATUM
 DMF .                 KB:   DRILLING MEASURED FROM
 EKB .F              5099:   KELLING BUSHING
 EGL .F              5094:   GROUND LEVEL
 DATE.            7-22-62:   RUN DATE
 RUN .                  1:   RUN NUMBER
 DD  .F               810:   DEPTH DRILLER
 DL  .F               811:   DEPTH LOGGER
 BLI .F               810:   BOTTOM LOG INTERVAL
 TLI .F               100:   TOP LOG INTERVAL
 BS  .IN             6.75:   BIT SIZE
 BSD .F               810:   BIT SIZE AT DEPTH
 DFT .                GEL:   DRILLING FLUID TYPE
 DFD .               10.3:   DRILLING FLUID DENSITY
 DFV .                 43:   DRILLING FLUID VISCOSITY
 RMS .OHMM              4:   RESISTIVITY MUD SAMPLE
 MST .F                75:   MUD SAMPLE TEMPERATURE
 RMF .OHMM            2.9:   RESISTIVITY MUD FILTRATE SAMPLE
 MFST.F                75:   MUD FILTRATE SAMPLE TEMPERATURE
 RMC .OHMM            3.8:   RESISTIVITY MUD CAKE
 MCST.F                75:   MUD CAKE SAMPLE TEMPERATURE
 TCS .HRS               1:   TIME CURCULATED STOPPED
 LUN .               2503:   LOGGING UNIT NUMBER
 ENGI.           ELLERMAN:   RECORDING ENGINEER
 WITN.          JORGENSON:   WITNESSED BY
 CLNT.            A2DTECH:   CLIENT CODE
 ORIG.   1", 2", 5" PRINT:   ORIGIN OF DATA
 UWI .       490250652900:   UNIQUE WELL ID
 DICO. A2D Technologies, Inc.:   DIGITIZING COMPANY
~OTHER INFORMATION
~A   DEPT       GR        SPR       CILD        ASN        ILD       CALM   
# ...
  456.0000  -999.2500   -32.7040   124.4762     8.5734     8.0933  -999.2500
  456.5000  -999.2500   -32.3880   126.9084     8.4637     7.9791  -999.2500
  457.0000  -999.2500   -32.0729   129.3406     8.3657     7.8645  -999.2500
  457.5000  -999.2500   -31.7577   131.7728     8.2681     7.7501  -999.2500
  458.0000  -999.2500   -31.4426   134.2050     8.1703     7.6353  -999.2500
  458.5000  -999.2500   -31.1599   136.6372     8.0726     7.5210  -999.2500
  459.0000  -999.2500   -31.1357   139.0695     7.9749     7.4220  -999.2500
  459.5000  -999.2500   -31.1163   140.6274     7.8768     7.4243  -999.2500
  460.0000  -999.2500   -31.0961   141.7608     7.7790     7.4247  -999.2500
  460.5000  -999.2500   -31.0756   141.7458     7.6926     7.4247  -999.2500
  461.0000  -999.2500   -31.0552   141.7527     7.7206     7.4246  -999.2500
  461.5000  -999.2500   -31.0347   140.2431     7.8055     7.4245  -999.2500
  462.0000  -999.2500   -31.0142   138.1572     7.8890     7.4251  -999.2500
  462.5000  -999.2500   -30.9936   136.0703     7.9725     7.4631  -999.2500
  463.0000  -999.2500   -30.9722   133.9856     8.0561     7.5977  -999.2500
  463.5000  -999.2500   -30.9570   131.9008     8.1397     7.7307  -999.2500
  464.0000  -999.2500   -31.1176   129.8161     8.2234     7.8637  -999.2500
  464.5000  -999.2500   -31.2889   127.7313     8.3070     7.9968  -999.2500
  465.0000  -999.2500   -31.4604   125.6465     8.3178     8.1300  -999.2500
  465.5000  -999.2500   -31.6302   123.9020     8.3171     8.2541  -999.2500
  466.0000  -999.2500   -31.7698   123.1665     8.3225     8.2761  -999.2500
  466.5000  -999.2500   -31.6462   122.4304     8.4400     8.2947  -999.2500
  467.0000  -999.2500   -31.9753   121.6971     8.5583     8.3137  -999.2500
  467.5000  -999.2500   -32.7857   120.9761     8.6585     8.3327  -999.2500
  468.0000  -999.2500   -33.5915   121.8168     8.6883     8.3524  -999.2500
  468.5000  -999.2500   -34.3922   122.6409     8.7116     8.3262  -999.2500
  469.0000  -999.2500   -34.9081   123.4650     8.6645     8.2731  -999.2500
  469.5000  -999.2500   -35.0846   124.2891     8.6161     8.2194  -999.2500
  470.0000  -999.2500   -34.8078   125.1132     8.5680     8.1657  -999.2500
  470.5000  -999.2500   -34.5266   125.9373     8.5198     8.1120  -999.2500
  471.0000  -999.2500   -34.2473   126.7614     8.4714     8.0584  -999.2500
  471.5000  -999.2500   -33.9679   127.5855     8.4235     8.0047  -999.2500
  472.0000  -999.2500   -33.6885   128.4095     8.4210     7.9510  -999.2500
  472.5000  -999.2500   -33.4148   129.2835     8.4332     7.8968  -999.2500
  473.0000  -999.2500   -33.3669   130.3219     8.4488     7.8429  -999.2500
  473.5000  -999.2500   -33.7838   130.3219     8.4644     7.8624  -999.2500
  474.0000  -999.2500   -34.1926   130.3219     8.4801     7.8873  -999.2500
  474.5000  -999.2500   -34.5963   129.2835     8.4954     7.9123  -999.2500
  475.0000  -999.2500   -34.8913   126.4798     8.5099     7.9346  -999.2500
  475.5000  -999.2500   -34.8853   123.3894     8.5346     8.0634  -999.2500
  476.0000  -999.2500   -34.8889   120.2991     8.7187     8.2295  -999.2500
  476.5000  -999.2500   -35.0334   118.1752     8.8984     8.3980  -999.2500
  477.0000  -999.2500   -35.3511   116.1794     9.0769     8.5665  -999.2500
  477.5000  -999.2500   -35.6719   114.1835     9.2553     8.7349  -999.2500
  478.0000  -999.2500   -35.5247   112.1877     9.4315     8.9033  -999.2500
  478.5000  -999.2500   -35.2979   110.1918     9.5800     9.0717  -999.2500
  479.0000  -999.2500   -35.0694   108.1960     9.7208     9.2401  -999.2500
  479.5000  -999.2500   -34.8420   106.2002     9.8613     9.4085  -999.2500
  480.0000  -999.2500   -34.6147   104.2043    10.0037     9.5768  -999.2500
  480.5000  -999.2500   -34.3874   102.2085    10.2095     9.7430  -999.2500
  481.0000  -999.2500   -34.1601   100.2126    10.4024     9.9038  -999.2500
  481.5000  -999.2500   -33.9325    98.2168    10.5740    10.0640  -999.2500
  482.0000  -999.2500   -33.6959    96.2209    10.7459    10.2242  -999.2500
  482.5000  -999.2500   -33.6427    94.2251    10.9166    10.3844  -999.2500
  483.0000  -999.2500   -33.6964    92.2292    11.0663    10.5447  -999.2500
  483.5000  -999.2500   -34.1728    90.2334    11.2049    10.7050  -999.2500
  484.0000  -999.2500   -34.6560    88.2375    11.3552    10.8657  -999.2500
  484.5000  -999.2500   -35.0660    87.2612    11.5059    11.0259  -999.2500
  485.0000  -999.2500   -34.6008    86.6173    11.6560    11.1629  -999.2500
  485.5000  -999.2500   -34.1301    85.9735    11.8010    11.1291  -999.2500
  486.0000  -999.2500   -33.6649    85.3297    11.8838    11.0982  -999.2500
  486.5000  -999.2500   -33.1953    84.6314    11.9745    11.0679  -999.2500
  487.0000  -999.2500   -33.0653    85.7253    11.9108    11.0375  -999.2500
  487.5000  -999.2500   -33.1257    86.9312    11.7961    11.0074  -999.2500
  488.0000  -999.2500   -33.1898    88.1348    11.6801    10.9777  -999.2500
  488.5000  -999.2500   -33.2541    89.3368    11.5644    10.9507  -999.2500
  489.0000  -999.2500   -33.3181    90.5386    11.4487    10.8655  -999.2500
  489.5000  -999.2500   -33.3820    91.7404    11.3331    10.7813  -999.2500
  490.0000  -999.2500   -33.4459    92.4765    11.2175    10.6977  -999.2500
  490.5000  -999.2500   -33.5100    93.1411    11.1018    10.6142  -999.2500
  491.0000  -999.2500   -33.5753    93.8056    10.9857    10.5306  -999.2500
  491.5000  -999.2500   -33.6393    94.4702    10.8680    10.4472  -999.2500
  492.0000  -999.2500   -33.4576    95.1385    10.8977    10.3629  -999.2500
  492.5000  -999.2500   -33.2418    95.7960    10.9532    10.3327  -999.2500
  493.0000  -999.2500   -33.6777    95.5547    11.0093    10.3322  -999.2500
  493.5000  -999.2500   -34.1906    94.7215    11.0650    10.3322  -999.2500
  494.0000  -999.2500   -34.6723    93.8974    11.1210    10.3323  -999.2500
  494.5000  -999.2500   -34.7483    93.0733    11.1769    10.3323  -999.2500
  495.0000  -999.2500   -34.8108    92.2503    11.2292    10.3323  -999.2500
  495.5000  -999.2500   -34.8777    93.3907    11.1158    10.3323  -999.2500
  496.0000  -999.2500   -34.7788    94.7909    10.7035    10.3324  -999.2500
  496.5000  -999.2500   -34.6459    96.2650    10.4371    10.3322  -999.2500
  497.0000  -999.2500   -34.5128    97.7226    10.4740    10.3328  -999.2500
  497.5000  -999.2500   -34.3793    99.1801    10.5065    10.2491  -999.2500
  498.0000  -999.2500   -34.1766   100.6381    10.5359    10.0974  -999.2500
  498.5000  -999.2500   -33.5751   102.0961    10.3631     9.9453  -999.2500
  499.0000  -999.2500   -32.9714   103.5541    10.2053     9.7931  -999.2500
  499.5000  -999.2500   -32.3440   105.0121    10.1376     9.6411  -999.2500
  500.0000  -999.2500   -32.1957   106.4701    10.0678     9.4888     6.7116
  500.5000  -999.2500   -32.1914   107.6513     9.9960     9.3311     6.7116
  501.0000  -999.2500   -32.1980   108.2154     9.9344     9.2683     6.7116
  501.5000  -999.2500   -32.4400   108.7795     9.8487     9.2318     6.7116
  502.0000  -999.2500   -32.7059   109.3436     9.7830     9.1962     6.7116
  502.5000  -999.2500   -32.8271   109.9074     9.7590     9.1604     6.7116
  503.0000  -999.2500   -32.8513   110.4735     9.7342     9.1245     6.7116
  503.5000  -999.2500   -32.8738   110.9100     9.7088     9.0886     6.7116
  504.0000  -999.2500   -32.8960   111.3158     9.6594     9.0527     6.7116
  504.5000  -999.2500   -32.9184   111.7206     9.5028     9.0166     6.7116
  505.0000  -999.2500   -32.9408   112.1256     9.3415     8.9830     6.7106
  505.5000  -999.2500   -32.9634   112.5306     9.3977     8.9821     6.7066
  506.0000  -999.2500   -32.9861   112.9355     9.4620     8.9823     6.7026
  506.5000  -999.2500   -33.0068   113.3405     9.4529     8.9824     6.6987
  507.0000  -999.2500   -32.9344   113.7072     9.4300     8.9824     6.6947
  507.5000  -999.2500   -32.6664   112.5485     9.3041     8.9824     6.6901
