~VERSION INFORMATION
 VERS.                2.0:   CWLS LOG ASCII STANDARD - VERSION 2.0
 WRAP.                 NO:   ONE LINE PER DEPTH STEP
~WELL INFORMATION
#MNEM.UNIT      DATA TYPE    INFORMATION
#----------   ------------   ------------------------------
 STRT.F           18.0000:   START DEPTH
 STOP.F         2312.0000:   STOP DEPTH
 STEP.F            0.5000:   STEP LENGTH
 NULL.          -999.2500:   NO VALUE
 COMP. FENIX & SCISSON INC:   COMPANY
 WELL.  NPR 3 #51 SHX -15:   WELL
 FLD .             TEAPOT:   FIELD
 LOC .      S15 T38N R78W:   LOCATION
 CNTY.            NATRONA:   COUNTY
 STAT.            WYOMING:   STATE
 CTRY. UNITED STATES OF AMERICA:   COUNTRY
 SRVC.            Unknown:   SERVICE COMPANY
 DATE.        14-MAR-1978:   LOGDATE
 API .       490251060000:   API NUMBER
~CURVE INFORMATION
#MNEM.UNIT       API CODE    CURVE DESCRIPTION
#----------   ------------   ------------------------------
 DEPT.F                  :   
 ILD .OHMM   05 120 46 00:   INDUCTION LOG DEEP
 CILD.MMHO   05 110 46 00:   CONDUCTIVITY INDUCTION LOG DEEP
 CALD.IN     45 280 60 00:   CALIPER FROM DENSITY LOG
 GRD .GAPI   45 310 01 00:   GAMMA RAY FROM DENSITY LOG
 CORR.G/C3   45 356 01 00:   DENSITY CORRECTION
 RHOB.G/C3   45 350 01 00:   BULK DENSITY
 DPHI.DEC    45 890 12 00:   DENSITY POROSITY SANDSTONE
~PARAMETER INFORMATION
#MNEM.UNIT          VALUE    DESCRIPTION
#----------   ------------   ------------------------------
 PD  .                 GL:   PERMANENT DATUM
 EPD .F              5223:   ELEVATION PERMANENT DATUM
 LMF .                 KB:   LOG MEASURED FROM
 DAPD.F                10:   FEET ABOVE PERMANENT DATUM
 DMF .                 KB:   DRILLING MEASURED FROM
 EKB .F              5233:   KELLING BUSHING
 EGL .F              5223:   GROUND LEVEL
 DATE.            3-14-78:   RUN DATE
 RUN .                  1:   RUN NUMBER
 DD  .F              2323:   DEPTH DRILLER
 DL  .F              2314:   DEPTH LOGGER
 BLI .F              2312:   BOTTOM LOG INTERVAL
 TLI .F                20:   TOP LOG INTERVAL
 CS  .IN                9:   CASING SIZE
 CBD .F               680:   CASING BOTTOM DRILLER
 CBL .F               682:   CASING BOTTOM LOGGER
 BS  .IN            7.875:   BIT SIZE
 BSD .F              2323:   BIT SIZE AT DEPTH
 DFT .           AIR MIST:   DRILLING FLUID TYPE
 TCS .HRS               2:   TIME CURCULATED STOPPED
 LUN .               2958:   LOGGING UNIT NUMBER
 LUL .               CASP:   LOGGING UNIT LOCATION
 ENGI.             MILLER:   RECORDING ENGINEER
 WITN.           MCGINLEY:   WITNESSED BY
 CLNT.            A2DTECH:   CLIENT CODE
 ORIG.       2", 5" PRINT:   ORIGIN OF DATA
 UWI .       490251060000:   UNIQUE WELL ID
 DICO. A2D Technologies, Inc.:   DIGITIZING COMPANY
~OTHER INFORMATION
~A   DEPT      ILD       CILD       CALD         GRD      CORR       RHOB       DPHI   
# ...
 1110.0000  -999.2500  -999.2500     9.8642    80.1318    -0.0112     2.5170     0.0882
 1110.5000  -999.2500  -999.2500     9.8642    84.9958    -0.0085     2.5120     0.0895
 1111.0000  -999.2500  -999.2500     9.8642    86.2381    -0.0079     2.5082     0.0904
 1111.5000  -999.2500  -999.2500     9.8642    84.9926    -0.0090     2.5097     0.0880
 1112.0000  -999.2500  -999.2500     9.8642    85.8024    -0.0100     2.5140     0.0846
 1112.5000  -999.2500  -999.2500     9.8642    87.1071    -0.0110     2.5182     0.0860
 1113.0000  -999.2500  -999.2500     9.8642    84.1112    -0.0121     2.5175     0.0867
 1113.5000  -999.2500  -999.2500     9.8642    80.4300    -0.0131     2.5153     0.0841
 1114.0000  -999.2500  -999.2500     9.8642    77.0086    -0.0129     2.5199     0.0844
 1114.5000  -999.2500  -999.2500     9.8642    79.8121    -0.0118     2.5242     0.0816
 1115.0000  -999.2500  -999.2500     9.8642    81.0978    -0.0108     2.5184     0.0868
 1115.5000  -999.2500  -999.2500     9.8642    74.4877    -0.0096     2.5097     0.0912
 1116.0000  -999.2500  -999.2500     9.8642    79.1278    -0.0126     2.5180     0.0868
 1116.5000  -999.2500  -999.2500     9.8642    86.8186    -0.0167     2.5068     0.0952
 1117.0000  -999.2500  -999.2500     9.8642    82.6626    -0.0146     2.4947     0.0972
 1117.5000  -999.2500  -999.2500     9.8642    76.4416    -0.0114     2.5005     0.0876
 1118.0000  -999.2500  -999.2500     9.8642    77.7182    -0.0115     2.5120     0.0860
 1118.5000  -999.2500  -999.2500     9.8642    78.6037    -0.0115     2.5142     0.0907
 1119.0000  -999.2500  -999.2500     9.8642    82.6400    -0.0115     2.5092     0.0923
 1119.5000  -999.2500  -999.2500     9.8642    87.0754    -0.0092     2.5061     0.0936
 1120.0000  -999.2500  -999.2500     9.8642    93.9627    -0.0068     2.5107     0.0891
 1120.5000  -999.2500  -999.2500     9.8642    92.1204    -0.0044     2.5158     0.0855
 1121.0000  -999.2500  -999.2500     9.8642    87.1026    -0.0020     2.5173     0.0829
 1121.5000  -999.2500  -999.2500     9.8642    85.9718     0.0004     2.5228     0.0819
 1122.0000  -999.2500  -999.2500     9.8642    85.2297     0.0022     2.5232     0.0840
 1122.5000  -999.2500  -999.2500     9.8642    84.6276     0.0003     2.5126     0.0944
 1123.0000  -999.2500  -999.2500     9.8642    85.1653    -0.0017     2.5128     0.0923
 1123.5000  -999.2500  -999.2500     9.8642    86.1507    -0.0046     2.5131     0.0896
 1124.0000  -999.2500  -999.2500     9.8643    91.4251    -0.0133     2.5048     0.0965
 1124.5000  -999.2500  -999.2500     9.8642    88.4810    -0.0197     2.4962     0.0991
 1125.0000  -999.2500  -999.2500     9.8632    83.5995    -0.0196     2.4925     0.1018
 1125.5000  -999.2500  -999.2500     9.8974    81.5044    -0.0153     2.4900     0.1032
 1126.0000  -999.2500  -999.2500     9.9382    81.5125    -0.0092     2.4988     0.0909
 1126.5000  -999.2500  -999.2500     9.9630    78.8113    -0.0070     2.5114     0.0872
 1127.0000  -999.2500  -999.2500     9.9608    82.1249    -0.0062     2.5166     0.0871
 1127.5000  -999.2500  -999.2500     9.9588    83.4860    -0.0053     2.5057     0.0875
 1128.0000  -999.2500  -999.2500     9.9569    82.5315    -0.0006     2.5112     0.0839
 1128.5000  -999.2500  -999.2500     9.9549    87.7524     0.0039     2.5215     0.0764
 1129.0000  -999.2500  -999.2500     9.9529    93.1553     0.0031     2.5297     0.0796
 1129.5000  -999.2500  -999.2500     9.9509    97.9000     0.0015     2.5226     0.0860
 1130.0000  -999.2500  -999.2500     9.9489    97.7928    -0.0001     2.5100     0.0909
 1130.5000  -999.2500  -999.2500     9.9469    97.7757    -0.0017     2.4975     0.0955
 1131.0000  -999.2500  -999.2500     9.9450    97.6595    -0.0033     2.4884     0.0980
 1131.5000  -999.2500  -999.2500     9.9430    94.6938    -0.0007     2.4970     0.0935
 1132.0000  -999.2500  -999.2500     9.9410    91.3265     0.0025     2.5024     0.0952
 1132.5000  -999.2500  -999.2500     9.9390    89.0404     0.0010     2.4964     0.0888
 1133.0000  -999.2500  -999.2500     9.9370    86.7220    -0.0007     2.5073     0.0901
 1133.5000  -999.2500  -999.2500     9.9350    85.0345    -0.0025     2.5093     0.0923
 1134.0000  -999.2500  -999.2500     9.9331    86.2712    -0.0034     2.5032     0.0944
 1134.5000  -999.2500  -999.2500     9.9311    94.7351    -0.0010     2.4967     0.0948
 1135.0000  -999.2500  -999.2500     9.9291    96.8838     0.0016     2.5072     0.0915
 1135.5000  -999.2500  -999.2500     9.9271    98.7476     0.0041     2.5107     0.0860
 1136.0000  -999.2500  -999.2500     9.9251   100.2414     0.0065     2.5241     0.0756
 1136.5000  -999.2500  -999.2500     9.9245    98.5106     0.0075     2.5347     0.0792
 1137.0000  -999.2500  -999.2500     9.9265    96.2003     0.0021     2.5179     0.0880
 1137.5000  -999.2500  -999.2500     9.9285    90.1229    -0.0032     2.5047     0.0938
 1138.0000  -999.2500  -999.2500     9.9304    79.5591    -0.0073     2.4913     0.0992
 1138.5000  -999.2500  -999.2500     9.9324    81.6009    -0.0055     2.4869     0.1007
 1139.0000  -999.2500  -999.2500     9.9344    85.5677    -0.0037     2.4892     0.1020
 1139.5000  -999.2500  -999.2500     9.9363    86.6095    -0.0020     2.4917     0.1016
 1140.0000  -999.2500  -999.2500     9.9383    86.4113    -0.0003     2.4860     0.0950
 1140.5000  -999.2500  -999.2500     9.9402    86.2042     0.0014     2.4992     0.0906
 1141.0000  -999.2500  -999.2500     9.9422    86.5241     0.0008     2.5105     0.0919
 1141.5000  -999.2500  -999.2500     9.9442    89.9940    -0.0038     2.5060     0.0937
 1142.0000  -999.2500  -999.2500     9.9461    94.1285    -0.0085     2.5017     0.0959
 1142.5000  -999.2500  -999.2500     9.9481    89.4594    -0.0095     2.4974     0.0979
 1143.0000  -999.2500  -999.2500     9.9501    82.7479    -0.0078     2.4932     0.1000
 1143.5000  -999.2500  -999.2500     9.9520    82.1151    -0.0059     2.4890     0.1003
 1144.0000  -999.2500  -999.2500     9.9540    88.5197    -0.0040     2.4937     0.0989
 1144.5000  -999.2500  -999.2500     9.9559    93.5556    -0.0022     2.5054     0.0957
 1145.0000  -999.2500  -999.2500     9.9579    85.8990    -0.0004     2.5102     0.0924
 1145.5000  -999.2500  -999.2500     9.9599    68.4279    -0.0004     2.5110     0.0909
 1146.0000  -999.2500  -999.2500     9.9618    62.7762    -0.0021     2.5122     0.0877
 1146.5000  -999.2500  -999.2500     9.9636    64.5867    -0.0037     2.5024     0.0920
 1147.0000  -999.2500  -999.2500     9.9636    78.2505    -0.0054     2.5066     0.0888
 1147.5000  -999.2500  -999.2500     9.9636    85.4867    -0.0070     2.5099     0.0891
 1148.0000  -999.2500  -999.2500     9.9636    90.8367    -0.0087     2.5022     0.0889
 1148.5000  -999.2500  -999.2500     9.9636    91.1553    -0.0086     2.4939     0.0884
 1149.0000  -999.2500  -999.2500     9.9636    87.8280    -0.0067     2.4997     0.0892
 1149.5000  -999.2500  -999.2500     9.9636    83.3197    -0.0044     2.5083     0.0940
 1150.0000  -999.2500  -999.2500     9.9636    79.9697    -0.0089     2.5026     0.1007
 1150.5000  -999.2500  -999.2500     9.9636    93.4609    -0.0142     2.4967     0.1040
 1151.0000  -999.2500  -999.2500     9.9636    91.6703    -0.0143     2.4910     0.0985
 1151.5000  -999.2500  -999.2500     9.9636    88.4358    -0.0127     2.4915     0.0960
 1152.0000  -999.2500  -999.2500     9.9636    90.5727    -0.0110     2.5007     0.0896
 1152.5000  -999.2500  -999.2500     9.9636    93.8992    -0.0096     2.5080     0.0888
 1153.0000  -999.2500  -999.2500     9.9636    97.4020    -0.0106     2.5112     0.0880
 1153.5000  -999.2500  -999.2500     9.9636    97.6646    -0.0115     2.5122     0.0902
 1154.0000  -999.2500  -999.2500     9.9636    98.8640    -0.0074     2.5040     0.0922
 1154.5000  -999.2500  -999.2500     9.9636   100.4462    -0.0027     2.5037     0.0928
 1155.0000  -999.2500  -999.2500     9.9636    99.7277    -0.0032     2.5087     0.0881
