~VERSION INFORMATION
 VERS.                2.0:   CWLS LOG ASCII STANDARD - VERSION 2.0
 WRAP.                 NO:   ONE LINE PER DEPTH STEP
~WELL INFORMATION
#MNEM.UNIT      DATA TYPE    INFORMATION
#----------   ------------   ------------------------------
 STRT.F           66.0000:   START DEPTH
 STOP.F         1030.5000:   STOP DEPTH
 STEP.F            0.5000:   STEP LENGTH
 NULL.          -999.2500:   NO VALUE
 COMP. U S NAVY/INTEX OIL CO:   COMPANY
 WELL.      NRP-3 #68S-11:   WELL
 FLD .             TEAPOT:   FIELD
 LOC .      S11 T38N R78W:   LOCATION
 CNTY.            NATRONA:   COUNTY
 STAT.            WYOMING:   STATE
 CTRY. UNITED STATES OF AMERICA:   COUNTRY
 SRVC.       Schlumberger:   SERVICE COMPANY
 DATE.        07-JUL-1962:   LOGDATE
 API .       490250632700:   API NUMBER
~CURVE INFORMATION
#MNEM.UNIT       API CODE    CURVE DESCRIPTION
#----------   ------------   ------------------------------
 DEPT.F                  :   
 SPR .MV     05 010 01 00:   SPONTANEOUS POTENTIAL FROM RES.
 ASN .OHMM   05 041 16 00:   AMPLIFIED SHORT NORMAL 16"
 ILD .OHMM   05 120 46 00:   INDUCTION LOG DEEP
 CILD.MMHO   05 110 46 00:   CONDUCTIVITY INDUCTION LOG DEEP
 GRN .GAPI   35 310 30 00:   GAMMA RAY
 GR  .GAPI   81 310 01 00:   GAMMA RAY
~PARAMETER INFORMATION
#MNEM.UNIT          VALUE    DESCRIPTION
#----------   ------------   ------------------------------
 LMF .                 KB:   LOG MEASURED FROM
 DMF .                 KB:   DRILLING MEASURED FROM
 EKB .F              5226:   KELLING BUSHING
 EGL .F              5221:   GROUND LEVEL
 DATE.           7-7-1962:   RUN DATE
 RUN .                  1:   RUN NUMBER
 DD  .F              1030:   DEPTH DRILLER
 DL  .F              1031:   DEPTH LOGGER
 BLI .F              1030:   BOTTOM LOG INTERVAL
 TLI .F                90:   TOP LOG INTERVAL
 CBD .F                10:   CASING BOTTOM DRILLER
 BS  .IN             6.75:   BIT SIZE
 BSD .F              1030:   BIT SIZE AT DEPTH
 DFT .            GEL-OIL:   DRILLING FLUID TYPE
 DFD .               10.2:   DRILLING FLUID DENSITY
 DFV .                 50:   DRILLING FLUID VISCOSITY
 DFL .                3.6:   DRILLING FLUID LOSS
 RMS .OHMM           5.06:   RESISTIVITY MUD SAMPLE
 MST .F                71:   MUD SAMPLE TEMPERATURE
 RMF .OHMM           4.89:   RESISTIVITY MUD FILTRATE SAMPLE
 MFST.F                71:   MUD FILTRATE SAMPLE TEMPERATURE
 RMC .OHMM           4.85:   RESISTIVITY MUD CAKE
 MCST.F                71:   MUD CAKE SAMPLE TEMPERATURE
 MFSS.                  M:   MUD FILTRATE SAMPLE SOURCE
 MCSS.                  M:   MUD CAKE SAMPLE SOURCE
 RMB .OHMM           4.54:   RESISTIVITY MUD AT BHT
 BHT .F                82:   BOTTOM HOLE TEMPERATURE
 TCS .HRS               1:   TIME CURCULATED STOPPED
 MRT .F                82:   MAXIMUM RECORDED TEMPERATURE
 LUN .               2503:   LOGGING UNIT NUMBER
 LUL .              CSPR.:   LOGGING UNIT LOCATION
 ENGI.             KNOBEL:   RECORDING ENGINEER
 WITN.          JORGENSEN:   WITNESSED BY
 CLNT.            A2DTECH:   CLIENT CODE
 ORIG.      2" & 5" PRINT:   ORIGIN OF DATA
 UWI .       490250632700:   UNIQUE WELL ID
 DICO. A2D Technologies, Inc.:   DIGITIZING COMPANY
~OTHER INFORMATION
~A   DEPT      SPR        ASN        ILD       CILD        GRN          GR  
# ...
  690.0000   -32.8299     7.8447     7.7793   143.0863  -999.2500   105.4496
  690.5000   -32.7380     7.8813     7.7622   143.0863  -999.2500   104.0462
  691.0000   -32.6461     7.9164     7.7454   143.0863  -999.2500   107.1295
  691.5000   -32.5540     7.9285     7.7635   143.0863  -999.2500   111.5947
  692.0000   -32.4600     7.8970     7.8365   143.0863  -999.2500   116.1684
  692.5000   -32.4226     7.8658     7.9227   141.6925  -999.2500   120.8466
  693.0000   -32.3988     7.8773     8.0112   139.2135  -999.2500   122.4872
  693.5000   -32.3754     7.9988     8.0998   136.7345  -999.2500   123.5208
  694.0000   -32.3520     8.1376     8.1882   134.2555  -999.2500   120.5395
  694.5000   -32.3284     8.3085     8.2767   131.7415  -999.2500   116.8333
  695.0000   -32.3048     8.4793     8.3881   129.1251  -999.2500   114.2553
  695.5000   -32.2812     8.6498     8.5459   126.4867  -999.2500   113.5985
  696.0000   -32.2587     8.8190     8.7032   123.8524  -999.2500   112.9253
  696.5000   -32.2889     8.9781     8.8604   121.2185  -999.2500   112.3709
  697.0000   -32.4392     9.1075     9.0176   118.5845  -999.2500   111.8158
  697.5000   -32.5874     9.2377     9.1747   115.9269  -999.2500   111.3869
  698.0000   -32.7358     9.3788     9.3319   113.9340  -999.2500   112.9005
  698.5000   -32.8841     9.5677     9.4891   112.1274  -999.2500   114.4958
  699.0000   -33.0326     9.7607     9.6463   110.3368  -999.2500   113.1835
  699.5000   -33.1811     9.9522     9.8035   108.5443  -999.2500   110.6441
  700.0000   -33.3266    10.2867     9.9607   106.7519  -999.2500   108.0418
  700.5000   -33.3922    10.4949    10.1163   104.9594  -999.2500   105.2988
  701.0000   -33.2407    10.4891    10.2622   103.1670  -999.2500   106.3442
  701.5000   -33.0937    10.7922    10.3748   101.3746  -999.2500   111.5430
  702.0000   -32.9459    11.0133    10.4890    99.5821  -999.2500   116.3620
  702.5000   -32.7957    11.1335    10.6037    97.7897  -999.2500   120.6979
  703.0000   -32.6500    11.2514    10.7183    97.9451  -999.2500   120.1202
  703.5000   -33.0493    11.3706    10.6597    98.8538  -999.2500   110.7168
  704.0000   -33.5267    11.4956    10.5875    99.7625  -999.2500   103.6880
  704.5000   -33.3227    11.4329    10.5128   100.6712  -999.2500    98.5505
  705.0000   -32.8965    11.3144    10.4309   101.5798  -999.2500   100.7202
  705.5000   -32.4661    11.1945    10.3476   102.4885  -999.2500   102.9170
  706.0000   -32.7422    11.0749    10.2643   103.3972  -999.2500   108.6580
  706.5000   -33.0481    10.9554    10.1810   104.3059  -999.2500   114.4938
  707.0000   -33.0855    10.8358    10.0976   105.2146  -999.2500   118.0825
  707.5000   -33.1277    10.7163    10.0136   106.1233  -999.2500   116.4266
  708.0000   -33.1706    10.5970     9.9320   107.0320  -999.2500   113.6894
  708.5000   -33.2148    10.4765     9.9595   106.9249  -999.2500   116.2258
  709.0000   -33.1082    10.4520     9.9934   106.5122  -999.2500   118.3018
  709.5000   -32.8744    10.4950    10.0269   106.0938  -999.2500   113.7376
  710.0000   -32.6409    10.5391    10.0602   105.6775  -999.2500   108.5028
  710.5000   -32.4393    10.5833    10.0939   105.2544  -999.2500   105.9441
  711.0000   -32.4773    10.6274    10.1275   105.6916  -999.2500   107.3140
  711.5000   -32.5114    10.6719    10.0736   106.1350  -999.2500   108.6115
  712.0000   -32.5446    10.7187    10.0055   106.5801  -999.2500   108.9183
  712.5000   -32.5782    10.6380     9.9374   107.0243  -999.2500   108.1434
  713.0000   -32.6112    10.5297     9.8694   107.4686  -999.2500   108.7955
  713.5000   -32.6108    10.4224     9.8069   107.9128  -999.2500   109.8072
  714.0000   -32.4103    10.3186     9.6910   108.3571  -999.2500   111.1566
  714.5000   -32.2105    10.1438     9.5764   108.8013  -999.2500   113.2042
  715.0000   -32.0118     9.7868     9.4622   109.2367  -999.2500   114.7241
  715.5000   -31.8266     9.6323     9.3479   111.2259  -999.2500   112.6501
  716.0000   -31.7366     9.4905     9.2337   113.1763  -999.2500   110.5708
  716.5000   -31.6438     9.3522     9.1195   115.1266  -999.2500   112.3187
  717.0000   -31.5506     9.2496     9.0094   117.0770  -999.2500   116.8333
  717.5000   -31.4574     9.1495     8.9086   119.0274  -999.2500   118.0688
  718.0000   -31.3638     9.0612     8.8086   120.9777  -999.2500   115.6282
  718.5000   -31.2668     8.9874     8.7085   122.9281  -999.2500   112.2812
  719.0000   -31.3246     8.9135     8.6089   124.8784  -999.2500   113.3415
  719.5000   -31.4203     8.8393     8.5326   125.5210  -999.2500   115.0635
  720.0000   -31.5168     8.7640     8.5341   125.9375  -999.2500   114.8942
  720.5000   -31.6133     8.8163     8.5343   126.3540  -999.2500   113.7055
  721.0000   -31.7089     8.8300     8.5343   126.7705  -999.2500   111.5261
  721.5000   -31.8077     8.7174     8.5343   127.1870  -999.2500   106.6537
  722.0000   -31.6897     8.6085     8.5341   127.6034  -999.2500   102.9652
  722.5000   -31.4303     8.6320     8.5332   128.0199  -999.2500   101.2059
  723.0000   -31.1688     8.6731     8.5719   127.5690  -999.2500   103.1795
  723.5000   -30.9069     8.7145     8.6147   126.7122  -999.2500   107.4471
  724.0000   -30.6454     8.7083     8.6577   125.8554  -999.2500   110.7303
  724.5000   -30.3833     8.5057     8.7005   124.9987  -999.2500   111.3824
  725.0000   -30.1199     8.3941     8.7434   124.1419  -999.2500   112.0528
  725.5000   -29.8722     8.6661     8.7867   123.2855  -999.2500   112.1237
  726.0000   -29.9726     8.9874     8.8305   122.4133  -999.2500   112.1204
  726.5000   -30.0881     8.8581     8.8051   123.1447  -999.2500   112.1095
  727.0000   -30.2022     8.7262     8.7738   124.5089  -999.2500   112.1505
  727.5000   -30.3158     8.7059     8.7448   127.1073  -999.2500   114.2185
  728.0000   -30.4297     8.7147     8.5448   130.8556  -999.2500   116.4669
  728.5000   -30.5446     8.5812     8.2849   134.6040  -999.2500   116.4598
  729.0000   -30.6466     8.3202     8.0233   138.3523  -999.2500   116.3288
  729.5000   -30.4987     8.1391     7.7627   141.3842  -999.2500   116.1738
  730.0000   -30.3420     7.9760     7.5240   143.7906  -999.2500   118.4854
  730.5000   -30.1863     7.8140     7.4668   146.1969  -999.2500   119.9716
  731.0000   -30.0308     7.5880     7.4047   148.6032  -999.2500   116.8161
  731.5000   -29.8762     7.3046     7.3418   151.0024  -999.2500   109.1411
  732.0000   -29.7162     7.1923     7.3186   152.9790  -999.2500   104.5370
  732.5000   -29.8634     7.5248     7.2971   152.3809  -999.2500   103.7937
  733.0000   -30.1737     7.7654     7.2752   151.8109  -999.2500   105.6750
  733.5000   -30.4888     7.6405     7.2538   151.2398  -999.2500   109.7051
  734.0000   -30.8067     7.5306     7.2540   150.6686  -999.2500   115.2511
  734.5000   -30.8016     7.4817     7.3443   150.0974  -999.2500   122.4076
  735.0000   -30.7399     7.4788     7.4338   149.5262  -999.2500   127.7588
  735.5000   -30.6771     7.5078     7.5231   148.7674  -999.2500   128.7444
  736.0000   -30.6145     7.5370     7.6122   147.1729  -999.2500   121.8612
  736.5000   -30.5526     7.5568     7.7022   145.5780  -999.2500   114.3433
  737.0000   -30.4944     7.5290     7.7373   143.9823  -999.2500   113.1031
  737.5000   -30.6525     7.5014     7.7379   142.3873  -999.2500   116.4337
  738.0000   -31.1042     7.4856     7.7377   140.7922  -999.2500   119.8335
  738.5000   -31.1158     7.6432     7.7379   139.1972  -999.2500   119.2562
  739.0000   -30.9207     7.8069     7.7513   137.6022  -999.2500   117.4447
  739.5000   -30.7224     7.9710     7.8242   136.0071  -999.2500   116.7128
  740.0000   -30.7794     8.0240     7.8951   134.4121  -999.2500   118.5328
  740.5000   -31.3468     8.0472     7.9228   134.1261  -999.2500   117.6880
  741.0000   -31.5266     8.0704     7.8872   134.1261  -999.2500   116.4527
  741.5000   -31.7537     8.0693     7.8525   134.8429  -999.2500   115.1274
