~VERSION INFORMATION
 VERS.                2.0:   CWLS LOG ASCII STANDARD - VERSION 2.0
 WRAP.                 NO:   ONE LINE PER DEPTH STEP
~WELL INFORMATION
#MNEM.UNIT      DATA TYPE    INFORMATION
#----------   ------------   ------------------------------
 STRT.F            0.0000:   START DEPTH
 STOP.F         3994.5000:   STOP DEPTH
 STEP.F            0.5000:   STEP LENGTH
 NULL.          -999.2500:   NO VALUE
 COMP. LAWRENCE/ALLISON INC:   COMPANY
 WELL. STX 10 #36SHX10-10:   WELL
 FLD .         LOST HILLS:   FIELD
 LOC .      S10 T38N R78W:   LOCATION
 CNTY.            NATRONA:   COUNTY
 STAT.            WYOMING:   STATE
 CTRY. UNITED STATES OF AMERICA:   COUNTRY
 SRVC.              Welex:   SERVICE COMPANY
 DATE.        20-MAR-1980:   LOGDATE
 API .       490251095600:   API NUMBER
~CURVE INFORMATION
#MNEM.UNIT       API CODE    CURVE DESCRIPTION
#----------   ------------   ------------------------------
 DEPT.F                  :   
 GRD .GAPI   45 310 01 00:   GAMMA RAY FROM DENSITY LOG
 CALD.IN     45 280 60 00:   CALIPER
 RHOB.G/C3   45 350 01 00:   BULK DENSITY
 CORR.G/C3   45 356 01 00:   DENSITY CORRECTION
 DPHI.DEC    45 890 12 00:   DENSITY POROSITY SANDSTONE
 GR  .GAPI   81 310 01 00:   GAMMA RAY FROM CEMENT LOG
~PARAMETER INFORMATION
#MNEM.UNIT          VALUE    DESCRIPTION
#----------   ------------   ------------------------------
 PD  .                 GL:   PERMANENT DATUM
 EPD .F              5224:   ELEVATION PERMANENT DATUM
 LMF .                 KB:   LOG MEASURED FROM
 DAPD.F                10:   FEET ABOVE PERMANENT DATUM
 DMF .                 KB:   DRILLING MEASURED FROM
 EKB .F              5234:   KELLING BUSHING
 EGL .F              5224:   GROUND LEVEL
 DATE.            3-20-80:   RUN DATE
 RUN .                  1:   RUN NUMBER
 DD  .F              1000:   DEPTH DRILLER
 DL  .F               954:   DEPTH LOGGER
 BLI .F               952:   BOTTOM LOG INTERVAL
 TLI .F               654:   TOP LOG INTERVAL
 CS  .IN            9.625:   CASING SIZE
 BS  .IN             8.75:   BIT SIZE
 BSD .F              1000:   BIT SIZE AT DEPTH
 DFT .                OIL:   DRILLING FLUID TYPE
 TCS .HRS               2:   TIME CURCULATED STOPPED
 MRT .F                94:   MAXIMUM RECORDED TEMPERATURE
 ENGI.            TOTHILL:   RECORDING ENGINEER
 WITN.           DINSMORE:   WITNESSED BY
 CLNT.            A2DTECH:   CLIENT CODE
 ORIG.           5" PRINT:   ORIGIN OF DATA
 UWI .       490251095600:   UNIQUE WELL ID
 DICO. A2D Technologies, Inc.:   DIGITIZING COMPANY
~OTHER INFORMATION
~A    DEPT     GRD       CALD       RHOB       CORR       DPHI          GR  
# ...
  884.0000    62.8441     8.6146     2.5042     0.0287     0.0860  -999.2500
  884.5000    63.6199     8.6124     2.4966     0.0221     0.0891  -999.2500
  885.0000    64.4782     8.6102     2.4965     0.0331     0.0866  -999.2500
  885.5000    63.5076     8.6118     2.5144     0.0446     0.0772  -999.2500
  886.0000    62.2160     8.6169     2.5288     0.0554     0.0686  -999.2500
  886.5000    60.9065     8.6220     2.5357     0.0589     0.0654  -999.2500
  887.0000    61.5038     8.6272     2.5310     0.0525     0.0675  -999.2500
  887.5000    62.3859     8.6323     2.5176     0.0390     0.0748  -999.2500
  888.0000    63.2668     8.6374     2.4996     0.0210     0.0859  -999.2500
  888.5000    64.1458     8.6425     2.4954     0.0099     0.0892  -999.2500
  889.0000    65.0286     8.6478     2.5025     0.0124     0.0867  -999.2500
  889.5000    65.8913     8.6477     2.5008     0.0130     0.0843  -999.2500
  890.0000    65.9285     8.6464     2.5069     0.0180     0.0818  -999.2500
  890.5000    65.9242     8.6450     2.5200     0.0319     0.0772  -999.2500
  891.0000    65.9203     8.6437     2.5248     0.0355     0.0726  -999.2500
  891.5000    66.1305     8.6423     2.5210     0.0271     0.0711  -999.2500
  892.0000    66.4762     8.6409     2.5137     0.0243     0.0790  -999.2500
  892.5000    66.8128     8.6396     2.5329     0.0360     0.0695  -999.2500
  893.0000    66.5566     8.6382     2.5263     0.0400     0.0683  -999.2500
  893.5000    66.2311     8.6368     2.5135     0.0350     0.0749  -999.2500
  894.0000    65.9447     8.6355     2.5213     0.0292     0.0803  -999.2500
  894.5000    66.3374     8.6341     2.5078     0.0229     0.0785  -999.2500
  895.0000    66.7500     8.6327     2.5136     0.0165     0.0814  -999.2500
  895.5000    67.1583     8.6313     2.5128     0.0203     0.0775  -999.2500
  896.0000    67.5740     8.6300     2.5174     0.0170     0.0759  -999.2500
  896.5000    67.5402     8.6290     2.4982     0.0018     0.0902  -999.2500
  897.0000    67.4024     8.6270     2.4872    -0.0092     0.0953  -999.2500
  897.5000    67.7100     8.6241     2.4793    -0.0124     0.0982  -999.2500
  898.0000    68.0519     8.6212     2.4886    -0.0053     0.0917  -999.2500
  898.5000    68.3104     8.6182     2.5029     0.0144     0.0833  -999.2500
  899.0000    68.0990     8.6153     2.5082     0.0270     0.0807  -999.2500
  899.5000    68.2198     8.6123     2.4956     0.0160     0.0902  -999.2500
  900.0000    68.6910     8.6095     2.4940     0.0114     0.0945  -999.2500
  900.5000    69.1206     8.6123     2.5011     0.0216     0.0862  -999.2500
  901.0000    69.4291     8.6158     2.5082     0.0267     0.0786  -999.2500
  901.5000    68.2251     8.6194     2.5142     0.0257     0.0767  -999.2500
  902.0000    67.0490     8.6229     2.5092     0.0257     0.0789  -999.2500
  902.5000    66.2156     8.6264     2.5033     0.0181     0.0882  -999.2500
  903.0000    66.5847     8.6300     2.4800    -0.0020     0.1029  -999.2500
  903.5000    66.6859     8.6335     2.4641    -0.0160     0.1082  -999.2500
  904.0000    66.1783     8.6371     2.4685    -0.0124     0.1050  -999.2500
  904.5000    65.6805     8.6406     2.4639    -0.0161     0.1078  -999.2500
  905.0000    65.6447     8.6441     2.4677    -0.0111     0.1059  -999.2500
  905.5000    66.0784     8.6477     2.4835     0.0032     0.0890  -999.2500
  906.0000    66.5015     8.6482     2.4913     0.0176     0.0926  -999.2500
  906.5000    66.8519     8.6474     2.4964     0.0075     0.0884  -999.2500
  907.0000    67.4782     8.6465     2.5217     0.0361     0.0706  -999.2500
  907.5000    68.0989     8.6457     2.5504     0.0639     0.0523  -999.2500
  908.0000    68.6377     8.6448     2.5629     0.0676     0.0471  -999.2500
  908.5000    67.9059     8.6440     2.5539     0.0610     0.0532  -999.2500
  909.0000    67.1127     8.6431     2.5578     0.0668     0.0519  -999.2500
  909.5000    66.7069     8.6423     2.5531     0.0676     0.0549  -999.2500
  910.0000    67.6409     8.6414     2.5404     0.0572     0.0600  -999.2500
  910.5000    68.5359     8.6405     2.5446     0.0558     0.0597  -999.2500
  911.0000    69.4228     8.6397     2.5389     0.0529     0.0620  -999.2500
  911.5000    70.1110     8.6388     2.5390     0.0587     0.0604  -999.2500
  912.0000    69.6628     8.6380     2.5458     0.0497     0.0583  -999.2500
  912.5000    69.0228     8.6371     2.5218     0.0344     0.0711  -999.2500
  913.0000    68.3747     8.6363     2.5135     0.0225     0.0786  -999.2500
  913.5000    67.7233     8.6354     2.5066     0.0147     0.0822  -999.2500
  914.0000    67.1460     8.6346     2.4994     0.0113     0.0854  -999.2500
  914.5000    67.6525     8.6337     2.5032     0.0101     0.0862  -999.2500
  915.0000    68.1850     8.6329     2.4992     0.0090     0.0882  -999.2500
  915.5000    68.7061     8.6320     2.4913     0.0081     0.0910  -999.2500
  916.0000    69.5821     8.6312     2.4917     0.0109     0.0885  -999.2500
  916.5000    70.4173     8.6303     2.5066     0.0175     0.0824  -999.2500
  917.0000    69.9559     8.6295     2.5122     0.0242     0.0778  -999.2500
  917.5000    69.4352     8.6291     2.5177     0.0309     0.0752  -999.2500
  918.0000    68.9114     8.6297     2.5222     0.0337     0.0796  -999.2500
  918.5000    68.3790     8.6304     2.4939     0.0114     0.0921  -999.2500
  919.0000    68.6101     8.6310     2.4660    -0.0067     0.1047  -999.2500
  919.5000    68.9774     8.6316     2.4585    -0.0162     0.1129  -999.2500
  920.0000    69.1426     8.6323     2.4516    -0.0239     0.1174  -999.2500
  920.5000    68.8482     8.6329     2.4601    -0.0108     0.1108  -999.2500
  921.0000    68.5625     8.6335     2.4767     0.0052     0.1010  -999.2500
  921.5000    68.2763     8.6342     2.4935     0.0213     0.0912  -999.2500
  922.0000    67.9889     8.6348     2.5022     0.0341     0.0839  -999.2500
  922.5000    67.7133     8.6354     2.5095     0.0326     0.0782  -999.2500
  923.0000    67.8261     8.6361     2.5014     0.0303     0.0845  -999.2500
  923.5000    67.9855     8.6367     2.4972     0.0213     0.0886  -999.2500
  924.0000    67.4269     8.6373     2.5069     0.0346     0.0795  -999.2500
  924.5000    66.4924     8.6379     2.5271     0.0586     0.0679  -999.2500
  925.0000    65.8934     8.6386     2.5444     0.0703     0.0591  -999.2500
  925.5000    66.9790     8.6392     2.5285     0.0544     0.0666  -999.2500
  926.0000    68.1919     8.6398     2.5094     0.0370     0.0760  -999.2500
  926.5000    67.5060     8.6405     2.4987     0.0366     0.0798  -999.2500
  927.0000    66.8387     8.6411     2.5141     0.0273     0.0771  -999.2500
  927.5000    66.1857     8.6417     2.4858     0.0060     0.0938  -999.2500
  928.0000    66.1454     8.6424     2.4764     0.0005     0.1014  -999.2500
  928.5000    67.3566     8.6430     2.4734     0.0084     0.0979  -999.2500
  929.0000    67.8070     8.6436     2.4915     0.0214     0.0918  -999.2500
  929.5000    68.2952     8.6442     2.5094     0.0346     0.0801  -999.2500
  930.0000    68.7895     8.6449     2.5277     0.0476     0.0681  -999.2500
  930.5000    69.2848     8.6455     2.5370     0.0547     0.0634  -999.2500
  931.0000    69.7803     8.6461     2.5293     0.0463     0.0689  -999.2500
  931.5000    70.2750     8.6468     2.5192     0.0379     0.0750  -999.2500
  932.0000    70.7517     8.6474     2.5063     0.0259     0.0846  -999.2500
  932.5000    71.0995     8.6480     2.4934     0.0137     0.0941  -999.2500
  933.0000    71.4532     8.6487     2.4802     0.0013     0.0998  -999.2500
  933.5000    71.8102     8.6488     2.4765    -0.0032     0.0997  -999.2500
  934.0000    72.1709     8.6488     2.4793     0.0012     0.0978  -999.2500
  934.5000    71.6601     8.6488     2.4840     0.0056     0.0990  -999.2500
  935.0000    70.9803     8.6488     2.4887     0.0100     0.0926  -999.2500
  935.5000    70.6928     8.6488     2.4925     0.0099     0.0925  -999.2500
