~VERSION INFORMATION
 VERS.                2.0:   CWLS LOG ASCII STANDARD - VERSION 2.0
 WRAP.                 NO:   ONE LINE PER DEPTH STEP
~WELL INFORMATION
#MNEM.UNIT      DATA TYPE    INFORMATION
#----------   ------------   ------------------------------
 STRT.F            0.0000:   START DEPTH
 STOP.F          547.0000:   STOP DEPTH
 STEP.F            0.1000:   STEP LENGTH
 NULL.          -999.2500:   NO VALUE
 COMP.       F D SERV INC:   COMPANY
 WELL.    87-5 SX 3 #87-3:   WELL
 FLD .             TEAPOT:   FIELD
 LOC .       S3 T38N R78W:   LOCATION
 CNTY.            NATRONA:   COUNTY
 STAT.            WYOMING:   STATE
 CTRY. UNITED STATES OF AMERICA:   COUNTRY
 SRVC.     Atlas Wireline:   SERVICE COMPANY
 DATE.        31-OCT-1992:   LOGDATE
 API .       490252254800:   API NUMBER
~CURVE INFORMATION
#MNEM.UNIT       API CODE    CURVE DESCRIPTION
#----------   ------------   ------------------------------
 DEPT.F                  :   
 GRR .GAPI   07 310 01 00:   GAMMA RAY
 RILD.OHMM   07 120 46 00:   INDUCTION LOG DEEP RESISTIVITY
 RILM.OHMM   07 120 44 00:   INDUCTION LOG MEDIUM RESISTIVITY
~PARAMETER INFORMATION
#MNEM.UNIT          VALUE    DESCRIPTION
#----------   ------------   ------------------------------
 PD  .                 GL:   PERMANENT DATUM
 EPD .F              5119:   ELEVATION PERMANENT DATUM
 LMF .                 KB:   LOG MEASURED FROM
 DAPD.F                10:   FEET ABOVE PERMANENT DATUM
 DMF .                 KB:   DRILLING MEASURED FROM
 EKB .F              5129:   KELLING BUSHING
 EDF .F              5128:   DRILLING FLOOR
 EGL .F              5119:   GROUND LEVEL
 DATE.        31-OCT-1992:   RUN DATE
 RUN .                  1:   RUN NUMBER
 DD  .F               568:   DEPTH DRILLER
 DL  .F               555:   DEPTH LOGGER
 BLI .F               547:   BOTTOM LOG INTERVAL
 TLI .F                71:   TOP LOG INTERVAL
 CS  .IN            8.625:   CASING SIZE
 CBD .F                70:   CASING BOTTOM DRILLER
 CBL .F                71:   CASING BOTTOM LOGGER
 BS  .IN            7.875:   BIT SIZE
 BSD .F               568:   BIT SIZE AT DEPTH
 DFT .           AIR FOAM:   DRILLING FLUID TYPE
 TCS .HRS               2:   TIME CURCULATED STOPPED
 MRT .F                64:   MAXIMUM RECORDED TEMPERATURE
 LUN .            HL-6274:   LOGGING UNIT NUMBER
 LUL .             CASPER:   LOGGING UNIT LOCATION
 ENGI.        P.RASHUSSEN:   RECORDING ENGINEER
 WITN.     BRUCE ANDERSON:   WITNESSED BY
 CLNT.            A2DTECH:   CLIENT CODE
 ORIG.           5" PRINT:   ORIGIN OF DATA
 UWI .       490252254800:   UNIQUE WELL ID
 DICO. A2D Technologies, Inc.:   DIGITIZING COMPANY
~OTHER INFORMATION
~A    DEPT      GRR      RILD       RILM   
# ...
  218.4000   126.0447     7.6639     8.0139
  218.5000   125.8361     7.6634     8.0070
  218.6000   125.8355     7.6630     7.9572
  218.7000   126.3391     7.6626     7.9131
  218.8000   127.0508     7.6222     7.8323
  218.9000   127.9679     7.5334     7.7409
  219.0000   128.7749     7.4480     7.6034
  219.1000   129.2271     7.3982     7.3906
  219.2000   129.4811     7.2879     7.2137
  219.3000   129.7765     7.1887     7.1323
  219.4000   129.7760     7.1050     7.0809
  219.5000   129.6115     7.0114     7.0157
  219.6000   129.1266     6.8893     6.9492
  219.7000   128.4943     6.7544     6.9083
  219.8000   128.1883     6.6185     6.8673
  219.9000   127.0415     6.5164     6.7879
  220.0000   126.1508     6.4584     6.7087
  220.1000   125.3056     6.4205     6.6770
  220.2000   124.4168     6.3860     6.6609
  220.3000   123.3225     6.4051     6.6298
  220.4000   122.0492     6.3677     6.6282
  220.5000   120.6646     6.3284     6.5371
  220.6000   120.1995     6.2445     6.5056
  220.7000   120.0564     6.2132     6.4909
  220.8000   120.0558     6.2008     6.4743
  220.9000   120.2260     6.1838     6.4275
  221.0000   120.7345     6.1573     6.3538
  221.1000   121.2680     6.1545     6.3107
  221.2000   121.9933     6.1142     6.3104
  221.3000   122.5633     6.0828     6.2862
  221.4000   123.2158     6.0472     6.2658
  221.5000   123.9788     6.0290     6.2560
  221.6000   124.6956     6.0186     6.2215
  221.7000   125.2097     5.9867     6.2211
  221.8000   125.9642     5.9865     6.2208
  221.9000   126.3217     5.9864     6.2204
  222.0000   126.8831     5.9618     6.2375
  222.1000   127.3317     5.9444     6.2633
  222.2000   127.3870     5.9442     6.2662
  222.3000   127.6409     5.9441     6.3065
  222.4000   128.8472     5.9439     6.3062
  222.5000   128.8467     5.9437     6.3316
  222.6000   128.8461     5.9436     6.3683
  222.7000   128.9601     5.9434     6.4053
  222.8000   129.0828     5.9432     6.4424
  222.9000   128.8443     5.9431     6.4829
  223.0000   128.8436     5.9429     6.4826
  223.1000   128.8431     5.9428     6.5373
  223.2000   128.8425     5.9683     6.5933
  223.3000   128.8419     5.9840     6.6316
  223.4000   128.8413     5.9839     6.6700
  223.5000   128.8144     5.9890     6.7111
  223.6000   128.5365     6.0254     6.7477
  223.7000   128.5360     6.0253     6.7869
  223.8000   128.5354     6.0788     6.8262
  223.9000   128.6687     6.1297     6.8516
  224.0000   128.9226     6.1654     6.8576
  224.1000   129.1765     6.1951     6.8988
  224.2000   129.4434     6.1949     6.9375
  224.3000   129.6844     6.2301     6.9777
  224.4000   129.7457     6.2950     7.0182
  224.5000   129.7451     6.3470     7.0433
  224.6000   129.9338     6.3839     7.0505
  224.7000   130.3966     6.4283     7.0919
  224.8000   130.6537     6.5039     7.0915
  224.9000   130.6531     6.5416     7.1241
  225.0000   130.8548     6.6105     7.1654
  225.1000   130.9554     6.6879     7.1900
  225.2000   131.0592     6.7501     7.1896
  225.3000   131.3131     6.7977     7.1892
  225.4000   131.5670     6.8767     7.1887
  225.5000   131.8633     6.9241     7.1884
  225.6000   132.0749     6.9903     7.1880
  225.7000   132.1657     7.0722     7.2056
  225.8000   132.1651     7.1195     7.2376
  225.9000   132.0993     7.1193     7.2372
  226.0000   131.8442     7.1204     7.2367
  226.1000   131.5562     7.1687     7.2720
  226.2000   131.1121     7.2036     7.3142
  226.3000   130.6025     7.2185     7.3373
  226.4000   130.0928     7.2371     7.3479
  226.5000   129.5083     7.2687     7.3905
  226.6000   128.7700     7.2706     7.4392
  226.7000   128.2142     7.3191     7.4388
  226.8000   127.7508     7.3189     7.4384
  226.9000   127.4236     7.3187     7.4587
  227.0000   127.1684     7.3185     7.5019
  227.1000   126.9979     7.3297     7.5455
  227.2000   126.9973     7.3694     7.5941
  227.3000   126.9966     7.3691     7.5938
  227.4000   127.2372     7.3690     7.6242
  227.5000   127.2989     7.3980     7.6461
  227.6000   127.7281     7.4201     7.6457
  227.7000   128.3025     7.4323     7.6501
  227.8000   128.6470     7.4717     7.6984
  227.9000   129.4209     7.4714     7.6980
  228.0000   129.4203     7.4713     7.7299
  228.1000   129.4197     7.4710     7.7748
  228.2000   129.1132     7.4491     7.7901
  228.3000   128.7075     7.4187     7.7443
  228.4000   128.5074     7.4138     7.6958
  228.5000   128.5068     7.3667     7.6954
  228.6000   128.5061     7.3665     7.6950
  228.7000   128.0823     7.3663     7.6945
  228.8000   127.4100     7.3661     7.6941
  228.9000   126.0774     7.3659     7.6937
  229.0000   124.2347     7.3657     7.6932
  229.1000   123.0088     7.3654     7.6928
  229.2000   122.4327     7.3254     7.7269
  229.3000   122.4322     7.3138     7.7459
  229.4000   122.4316     7.3136     7.7454
  229.5000   122.4310     7.3134     7.7369
  229.6000   122.4304     7.3070     7.6907
  229.7000   122.4297     7.2622     7.6902
  229.8000   122.4291     7.2620     7.6898
  229.9000   122.4285     7.2618     7.6628
  230.0000   122.4279     7.2616     7.6354
  230.1000   122.9599     7.2461     7.6350
  230.2000   123.8090     7.1968     7.6342
  230.3000   124.3174     7.1105     7.5810
  230.4000   124.8534     7.1103     7.5448
  230.5000   126.0566     7.1101     7.5004
  230.6000   129.2465     7.1099     7.4563
  230.7000   132.6352     7.0940     7.4222
  230.8000   134.7504     7.0601     7.4218
  230.9000   135.2589     7.0599     7.4213
  231.0000   135.7754     7.0191     7.4210
  231.1000   135.7748     6.9781     7.3929
  231.2000   135.7742     6.9374     7.3685
  231.3000   135.6210     6.9129     7.3681
  231.4000   135.3659     6.9127     7.3677
  231.5000   135.1108     6.9125     7.3672
  231.6000   134.8613     6.9123     7.3669
  231.7000   134.8606     6.9121     7.3379
  231.8000   134.6488     6.9119     7.2948
  231.9000   134.5560     6.8949     7.2519
  232.0000   134.5554     6.8635     7.2125
  232.1000   134.4904     6.8622     7.2121
  232.2000   134.2507     6.8154     7.1746
  232.3000   135.1605     6.8152     7.1612
  232.4000   136.2647     6.7899     7.1197
  232.5000   137.0208     6.7502     7.0488
  232.6000   137.5292     6.7202     7.0115
  232.7000   137.8895     6.7164     7.0111
  232.8000   137.9140     6.6267     6.9737
  232.9000   138.1917     6.5612     6.9327
  233.0000   138.1912     6.5097     6.8712
  233.1000   138.1906     6.4374     6.8037
  233.2000   138.0572     6.3543     6.7587
  233.3000   137.8021     6.3493     6.6744
  233.4000   137.5121     6.2658     6.6378
  233.5000   136.9742     6.1714     6.5706
  233.6000   136.4928     6.0642     6.4939
  233.7000   135.9832     5.9753     6.4181
  233.8000   135.1888     5.8962     6.3431
  233.9000   134.3569     5.7936     6.2658
  234.0000   133.7137     5.6818     6.2654
  234.1000   132.4182     5.5942     6.2098
  234.2000   130.4172     5.5192     6.1373
  234.3000   128.7825     5.4394     6.0656
  234.4000   127.1025     5.3633     5.9948
  234.5000   125.8361     5.3256     5.9234
  234.6000   125.3265     5.2245     5.8224
  234.7000   124.8273     5.1968     5.7210
  234.8000   124.8266     5.1240     5.6405
  234.9000   124.8261     5.0500     5.5620
  235.0000   124.8255     4.9913     5.4650
  235.1000   124.8249     4.9332     5.3694
  235.2000   124.8243     4.8716     5.2217
  235.3000   124.8387     4.8192     5.1002
  235.4000   125.1265     4.8038     5.0240
  235.5000   125.3465     4.8037     4.9823
  235.6000   125.6004     4.8036     4.9369
  235.7000   125.7317     4.7995     4.9374
  235.8000   125.8048     4.7699     4.9709
  235.9000   126.0340     4.7698     4.9949
  236.0000   124.8194     4.7696     5.0239
  236.1000   123.8978     4.7695     5.0531
  236.2000   123.2417     4.7694     5.0824
  236.3000   122.7320     4.7692     5.1119
  236.4000   122.3891     4.7691     5.1458
  236.5000   122.3885     4.7959     5.1714
