~VERSION INFORMATION
 VERS.                2.0:   CWLS LOG ASCII STANDARD - VERSION 2.0
 WRAP.                 NO:   ONE LINE PER DEPTH STEP
~WELL INFORMATION
#MNEM.UNIT      DATA TYPE    INFORMATION
#----------   ------------   ------------------------------
 STRT.F            0.0000:   START DEPTH
 STOP.F          752.0000:   STOP DEPTH
 STEP.F            0.1000:   STEP LENGTH
 NULL.          -999.2500:   NO VALUE
 COMP. BROWN JOHN E&C INC:   COMPANY
 WELL. N P R 3 STX-34 #53-1-34:   WELL
 FLD .             TEAPOT:   FIELD
 LOC .      S34 T39N R78W:   LOCATION
 CNTY.            NATRONA:   COUNTY
 STAT.            WYOMING:   STATE
 CTRY. UNITED STATES OF AMERICA:   COUNTRY
 SRVC.     Atlas Wireline:   SERVICE COMPANY
 DATE.        29-OCT-1991:   LOGDATE
 API .       490252248700:   API NUMBER
~CURVE INFORMATION
#MNEM.UNIT       API CODE    CURVE DESCRIPTION
#----------   ------------   ------------------------------
 DEPT.F                  :   
 GRR .GAPI   07 310 01 00:   GAMMA RAY
 RILD.OHMM   07 120 46 00:   INDUCTION LOG DEEP RESISTIVITY
 RILM.OHMM   07 120 44 00:   RESITIVITY LONG MEDIUM
~PARAMETER INFORMATION
#MNEM.UNIT          VALUE    DESCRIPTION
#----------   ------------   ------------------------------
 PD  .                 GL:   PERMANENT DATUM
 EPD .F              5067:   ELEVATION PERMANENT DATUM
 LMF .                 KB:   LOG MEASURED FROM
 DAPD.F                10:   FEET ABOVE PERMANENT DATUM
 DMF .                 KB:   DRILLING MEASURED FROM
 EKB .F              5077:   KELLING BUSHING
 EGL .F              5067:   GROUND LEVEL
 DATE.        29-OCT-1991:   RUN DATE
 RUN .                  1:   RUN NUMBER
 DD  .F               760:   DEPTH DRILLER
 DL  .F               760:   DEPTH LOGGER
 BLI .F               758:   BOTTOM LOG INTERVAL
 TLI .F                 0:   TOP LOG INTERVAL
 CS  .IN            9.625:   CASING SIZE
 CBD .F                52:   CASING BOTTOM DRILLER
 CBL .F                52:   CASING BOTTOM LOGGER
 BS  .IN             8.75:   BIT SIZE
 BSD .F               760:   BIT SIZE AT DEPTH
 DFT .        AIR DRILLED:   DRILLING FLUID TYPE
 MRT .F               154:   MAXIMUM RECORDED TEMPERATURE
 LUN .            HL 6307:   LOGGING UNIT NUMBER
 LUL .             CASPER:   LOGGING UNIT LOCATION
 ENGI.          RASMUSSEN:   RECORDING ENGINEER
 WITN.        GARY STRONG:   WITNESSED BY
 CLNT.            A2DTECH:   CLIENT CODE
 ORIG.           5" PRINT:   ORIGIN OF DATA
 UWI .       490252248700:   UNIQUE WELL ID
 DICO. A2D Technologies, Inc.:   DIGITIZING COMPANY
~OTHER INFORMATION
~A    DEPT      GRR      RILD       RILM   
# ...
  691.6000   119.8192     8.7438     8.7541
  691.7000   120.4732     8.7440     8.7541
  691.8000   121.2274     8.7441     8.7541
  691.9000   122.0769     8.7442     8.7541
  692.0000   123.3525     8.7443     8.7541
  692.1000   125.0818     8.7445     8.7869
  692.2000   126.4489     8.7446     8.8153
  692.3000   127.1306     8.7737     8.8153
  692.4000   127.2908     8.8060     8.8153
  692.5000   127.2920     8.8061     8.8153
  692.6000   127.2933     8.8063     8.8572
  692.7000   127.5340     8.8064     8.8770
  692.8000   127.5982     8.8065     8.8770
  692.9000   127.7358     8.8066     8.8872
  693.0000   127.9032     8.8240     8.9391
  693.1000   127.9375     8.8685     8.9905
  693.2000   128.2083     8.8686     9.0017
  693.3000   128.4417     8.9164     9.0017
  693.4000   128.6939     8.9309     9.0017
  693.5000   128.9460     8.9310     9.0103
  693.6000   129.1982     8.9471     9.0646
  693.7000   129.4762     8.9938     9.0646
  693.8000   130.0310     8.9939     9.1041
  693.9000   130.2571     9.0408     9.1281
  694.0000   130.8561     9.0934     9.1281
  694.1000   131.3666     9.1721     9.1350
  694.2000   131.7590     9.2789     9.1919
  694.3000   132.4946     9.3869     9.2412
  694.4000   133.0640     9.5106     9.2948
  694.5000   134.8082     9.6555     9.3210
  694.6000   136.4840     9.7868     9.3374
  694.7000   137.0744     9.8484     9.3862
  694.8000   136.5736     9.8773     9.3862
  694.9000   136.0505     9.9870     9.4835
  695.0000   134.8867     9.9871     9.5180
  695.1000   134.2559     9.9873     9.5444
  695.2000   133.5045     9.9874     9.5996
  695.3000   132.6457     9.9875     9.6552
  695.4000   131.5873     9.9877     9.7192
  695.5000   130.3221     9.9888     9.7675
  695.6000   127.9349    10.0579     9.7872
  695.7000   126.3093    10.0580     9.8124
  695.8000   124.6063    10.0581     9.8692
  695.9000   122.8015    10.0583     9.9246
  696.0000   120.7868    10.0584     9.9246
  696.1000   119.7713    10.0585     9.9720
  696.2000   119.7725    10.1163     9.9941
  696.3000   119.7737    10.1292    10.0178
  696.4000   119.7749    10.1293    10.0640
  696.5000   119.9617    10.1295    10.0640
  696.6000   120.4236    10.1393    10.0640
  696.7000   120.6863    10.2006    10.1101
  696.8000   120.9278    10.2008    10.1344
  696.9000   121.1801    10.2455    10.1565
  697.0000   121.5694    10.2724    10.2053
  697.1000   122.0725    10.2726    10.2053
  697.2000   122.6096    10.2808    10.2053
  697.3000   123.4167    10.3448    10.2053
  697.4000   123.8841    10.3449    10.2053
  697.5000   124.7504    10.3450    10.2256
  697.6000   125.4955    10.3452    10.2848
  697.7000   126.1551    10.3453    10.3486
  697.8000   127.1069    10.3518    10.3486
  697.9000   127.6600    10.4180    10.3486
  698.0000   128.1128    10.4181    10.3795
  698.1000   128.4417    10.4183    10.4210
  698.2000   128.6939    10.4480    10.4210
  698.3000   128.8040    10.4915    10.4210
  698.4000   128.5543    10.4916    10.4751
  698.5000   128.2725    10.4918    10.4940
  698.6000   128.2735    10.4919    10.4940
  698.7000   127.9408    10.4921    10.5106
  698.8000   127.5554    10.4922    10.5674
  698.9000   127.2419    10.5078    10.5674
  699.0000   126.7292    10.5659    10.6201
  699.1000   125.8592    10.5661    10.6413
  699.2000   125.0149    10.5662    10.6689
  699.3000   124.4915    10.5663    10.7158
  699.4000   124.3498    10.5665    10.7158
  699.5000   124.3510    10.5804    10.7158
  699.6000   124.3522    10.6418    10.7672
  699.7000   124.3536    10.6980    10.7907
  699.8000   124.3546    10.7541    10.7907
  699.9000   124.3558    10.8102    10.8167
  700.0000   124.8275    10.8664    10.9423
  700.1000   126.0001    10.8885    10.9716
  700.2000   127.1727    10.9378    11.0009
  700.3000   128.3454    11.0407    11.0302
  700.4000   129.5838    11.0399    11.0596
  700.5000   131.2787    11.1023    11.0889
  700.6000   133.0043    11.1161    11.1182
  700.7000   134.3044    11.1523    11.1475
  700.8000   135.8596    11.1928    11.1768
  700.9000   136.1032    11.1922    11.2062
  701.0000   136.1634    11.1915    11.2355
  701.1000   136.0238    11.1909    11.2648
  701.2000   135.7733    11.1903    11.2726
  701.3000   135.4852    11.1897    11.3063
  701.4000   134.9556    11.2108    11.3510
  701.5000   134.4821    11.2753    11.3507
  701.6000   133.7950    11.3452    11.3503
  701.7000   133.0422    11.3446    11.3500
  701.8000   132.2893    11.3440    11.3497
  701.9000   131.5362    11.3771    11.3494
  702.0000   130.7232    11.4223    11.3491
  702.1000   129.1072    11.4283    11.3531
  702.2000   127.8885    11.5010    11.4280
  702.3000   127.0126    11.5004    11.4277
  702.4000   126.2597    11.4998    11.4274
  702.5000   125.5066    11.4992    11.4565
  702.6000   124.6754    11.4985    11.5069
  702.7000   123.7760    11.4979    11.5065
  702.8000   122.4255    11.4971    11.5062
  702.9000   121.1636    11.4966    11.5059
  703.0000   120.0890    11.4959    11.5465
  703.1000   118.8718    11.4953    11.5859
  703.2000   118.0225    11.4947    11.5856
  703.3000   117.5852    11.4940    11.5853
  703.4000   117.4185    11.4933    11.6515
  703.5000   117.5349    11.4927    11.6659
  703.6000   117.7867    11.4921    11.6656
  703.7000   118.0254    11.4914    11.6652
  703.8000   118.0261    11.4908    11.6649
  703.9000   118.4523    11.4902    11.6646
  704.0000   118.6324    11.4894    11.6643
  704.1000   118.7428    11.4889    11.6140
  704.2000   118.9362    11.4882    11.5824
  704.3000   118.9438    11.4876    11.5821
  704.4000   119.2400    11.4869    11.5817
  704.5000   119.6541    11.4863    11.5814
  704.6000   120.0016    11.4857    11.5811
  704.7000   120.1495    11.4850    11.5808
  704.8000   120.2025    11.4844    11.5804
  704.9000   120.4553    11.4837    11.5801
  705.0000   120.9581    11.4831    11.5798
  705.1000   121.4610    11.4824    11.5794
  705.2000   122.1131    11.4818    11.5791
  705.3000   122.8671    11.4812    11.5788
  705.4000   123.6675    11.4805    11.5785
  705.5000   124.6929    11.4799    11.5782
  705.6000   125.4317    11.4792    11.5778
  705.7000   126.5750    11.4786    11.5775
  705.8000   127.4017    11.4780    11.5772
  705.9000   127.9046    11.4773    11.5769
  706.0000   128.3267    11.4767    11.5766
  706.1000   127.7223    11.4760    11.5762
  706.2000   127.2428    11.4754    11.5759
  706.3000   126.7412    11.4747    11.5756
  706.4000   126.2395    11.4741    11.5753
  706.5000   125.6521    11.4735    11.5749
  706.6000   124.9677    11.4728    11.5746
  706.7000   124.7002    11.4722    11.5743
  706.8000   124.7008    11.4715    11.5740
  706.9000   124.8839    11.4708    11.5736
  707.0000   125.1357    11.4703    11.5733
  707.1000   125.3077    11.4696    11.5730
  707.2000   125.3366    11.4690    11.5727
  707.3000   125.6115    11.4683    11.5634
  707.4000   125.6121    11.4677    11.4914
  707.5000   125.6127    11.4670    11.4911
  707.6000   125.4883    11.4664    11.4908
  707.7000   125.3113    11.4658    11.4905
  707.8000   125.2897    11.4651    11.4902
  707.9000   125.0101    11.4498    11.4898
  708.0000   125.0106    11.3840    11.4895
  708.1000   124.8408    11.3833    11.4892
  708.2000   124.5902    11.3295    11.4889
  708.3000   124.2720    11.3028    11.4573
  708.4000   123.7380    11.3022    11.4082
  708.5000   122.5931    11.2890    11.4042
  708.6000   121.0825    11.2222    11.3281
  708.7000   119.6545    11.1577    11.3278
  708.8000   117.9479    11.1429    11.2857
  708.9000   115.9337    11.1422    11.2483
  709.0000   114.7090    11.1416    11.2334
  709.1000   114.1248    11.1410    11.1694
  709.2000   113.9155    11.1403    11.1690
  709.3000   113.8233    11.0781    11.1687
  709.4000   113.8239    11.0616    11.1296
  709.5000   113.8800    11.0609    11.0903
  709.6000   114.1439    11.0385    11.0781
  709.7000   115.3387    10.9827    11.0125
