~VERSION INFORMATION
 VERS.                2.0:   CWLS LOG ASCII STANDARD - VERSION 2.0
 WRAP.                 NO:   ONE LINE PER DEPTH STEP
~WELL INFORMATION
#MNEM.UNIT      DATA TYPE    INFORMATION
#----------   ------------   ------------------------------
 STRT.F           80.0000:   START DEPTH
 STOP.F          814.0000:   STOP DEPTH
 STEP.F            0.5000:   STEP LENGTH
 NULL.          -999.2500:   NO VALUE
 COMP.          U.S. NAVY:   COMPANY
 WELL. RES 3 TEAPOT DOM #17-S-35:   WELL
 FLD .             TEAPOT:   FIELD
 LOC .      S35 T39N R78W:   LOCATION
 CNTY.            NATRONA:   COUNTY
 STAT.            WYOMING:   STATE
 CTRY. UNITED STATES OF AMERICA:   COUNTRY
 SRVC. Schlumberger Well Surveying Corp:   SERVICE COMPANY
 DATE.        20-JUL-1952:   LOGDATE
 API .       490250650200:   API NUMBER
~CURVE INFORMATION
#MNEM.UNIT       API CODE    CURVE DESCRIPTION
#----------   ------------   ------------------------------
 DEPT.F                  :   
 SPR .MV     05 010 01 00:   SPONTANEOUS POTENTIAL FROM RES.
 ILD .OHMM   05 120 46 00:   INDUCTION LOG DEEP
 ASN .OHMM   05 041 16 00:   AMPLIFIED SHORT NORMAL 16"
 CILD.MMHO   05 110 46 00:   CONDUCTIVITY INDUCTION LOG DEEP
 GR  .GAPI   30 310 01 00:   GAMMA RAY
~PARAMETER INFORMATION
#MNEM.UNIT          VALUE    DESCRIPTION
#----------   ------------   ------------------------------
 PD  .                 KB:   PERMANENT DATUM
 LMF .                 KB:   LOG MEASURED FROM
 DMF .                 KB:   DRILLING MEASURED FROM
 EKB .F              5101:   KELLING BUSHING
 EGL .F              5096:   GROUND LEVEL
 DATE.        20-JUL-1962:   RUN DATE
 RUN .                  1:   RUN NUMBER
 DD  .F               815:   DEPTH DRILLER
 DL  .F               815:   DEPTH LOGGER
 BLI .F               814:   BOTTOM LOG INTERVAL
 TLI .F                80:   TOP LOG INTERVAL
 BS  .IN             6.75:   BIT SIZE
 BSD .F               815:   BIT SIZE AT DEPTH
 DFT .       OIL EMULSION:   DRILLING FLUID TYPE
 DFD .               10.0:   DRILLING FLUID DENSITY
 DFV .                 45:   DRILLING FLUID VISCOSITY
 DFL .                2.7:   DRILLING FLUID LOSS
 RMS .OHMM           3.64:   RESISTIVITY MUD SAMPLE
 MST .F                89:   MUD SAMPLE TEMPERATURE
 RMF .OHMM           3.01:   RESISTIVITY MUD FILTRATE SAMPLE
 MFST.F                89:   MUD FILTRATE SAMPLE TEMPERATURE
 RMC .OHMM           3.41:   RESISTIVITY MUD CAKE
 MCST.F                89:   MUD CAKE SAMPLE TEMPERATURE
 RMB .OHMM           3.41:   RESISTIVITY MUD AT BHT
 BHT .F                89:   BOTTOM HOLE TEMPERATURE
 TCS .HRS              .5:   TIME CURCULATED STOPPED
 LUN .               2503:   LOGGING UNIT NUMBER
 LUL .               CSPR:   LOGGING UNIT LOCATION
 ENGI.             DANNER:   RECORDING ENGINEER
 WITN.          JORGENSEN:   WITNESSED BY
 CLNT.            A2DTECH:   CLIENT CODE
 ORIG.           5" PRINT:   ORIGIN OF DATA
 UWI .       490250650200:   UNIQUE WELL ID
 DICO. A2D Technologies, Inc.:   DIGITIZING COMPANY
~OTHER INFORMATION
~A   DEPT      SPR          ILD        ASN      CILD        GR   
# ...
  385.0000   -49.1531     8.0022     7.8426   129.0167  -999.2500
  385.5000   -49.1577     7.8403     7.6687   130.5023  -999.2500
  386.0000   -49.1624     7.6784     7.5734   132.1287  -999.2500
  386.5000   -49.3241     7.5951     7.5882   134.5304  -999.2500
  387.0000   -49.1706     7.5118     7.5873   137.7170  -999.2500
  387.5000   -49.4904     7.4285     7.6023   139.3338  -999.2500
  388.0000   -49.9660     7.4238     7.5697   140.9505  -999.2500
  388.5000   -49.9707     7.4191     7.5530   141.7823  -999.2500
  389.0000   -49.9753     7.4144     7.5363   141.0326  -999.2500
  389.5000   -49.5091     7.4895     7.5039   140.2946  -999.2500
  390.0000   -48.8858     7.5634     7.5187   139.5565  -999.2500
  390.5000   -48.4183     7.5576     7.6278   138.0336  -999.2500
  391.0000   -48.8951     7.6327     7.7370   134.9525  -999.2500
  391.5000   -49.2138     7.7066     7.8775   132.6446  -999.2500
  392.0000   -49.5324     7.8580     7.9552   129.5518  -999.2500
  392.5000   -49.8511     7.8533     7.9860   128.0171  -999.2500
  393.0000   -49.8557     7.8486     7.9062   128.0757  -999.2500
  393.5000   -49.8604     7.8439     7.8109   128.1226  -999.2500
  394.0000   -49.8651     7.9190     7.8571   128.9544  -999.2500
  394.5000   -50.0267     7.9918     7.9505   129.0013  -999.2500
  395.0000   -50.0314     7.9871     7.9496   129.0482  -999.2500
  395.5000   -50.0361     8.0622     7.8543   129.8801  -999.2500
  396.0000   -49.7268     8.1350     7.7435   131.4968  -999.2500
  396.5000   -49.5589     8.1303     7.8996   131.5437  -999.2500
  397.0000   -49.0874     8.1256     7.9615   131.5906  -999.2500
  397.5000   -48.4849     8.1997     7.9923   132.4225  -999.2500
  398.0000   -48.1756     8.2736     8.0228   132.4694  -999.2500
  398.5000   -48.0233     8.3475     8.0688   131.7196  -999.2500
  399.0000   -48.0291     8.4214     8.1307   130.9816  -999.2500
  399.5000   -48.0338     8.4953     8.2084   127.9005  -999.2500
  400.0000   -48.0373     8.6478     8.3465   123.2378  -999.2500
  400.5000   -47.9509     8.7703     8.4884   118.3645  -999.2500
  401.0000   -47.9068     8.8927     8.5988   116.2009  -999.2500
  401.5000   -48.0816     9.1910     8.7249   115.4317  -999.2500
  402.0000   -48.2528     9.3459     8.8510   114.6625  -999.2500
  402.5000   -48.5811     9.2648     8.9142   114.6789  -999.2500
  403.0000   -48.7523     9.1839     8.9143   114.6947  -999.2500
  403.5000   -48.7665     9.1029     8.8515   114.7106  -999.2500
  404.0000   -48.9378     9.0219     8.7887   115.5114  -999.2500
  404.5000   -49.2660     9.0987     8.7573   117.0971  -999.2500
  405.0000   -49.4372     9.1744     8.7417   118.6828  -999.2500
  405.5000   -49.6085     9.2512     8.8521   120.2685  -999.2500
  406.0000   -49.6227     9.3274     9.1043   119.4994  -999.2500
  406.5000   -49.6370     9.4823     9.2934   114.0207  -999.2500
  407.0000   -49.4907     9.7152     9.4825   110.8969  -999.2500
  407.5000   -49.3479     9.8706     9.6559   107.7730  -999.2500
  408.0000   -49.1847    10.1035     9.8608   106.2190  -999.2500
  408.5000   -48.7485    10.2589    10.0128   104.6610  -999.2500
  409.0000   -48.4487    10.4918    10.2007   103.1109  -999.2500
  409.5000   -48.1490    10.6473    10.4880   101.5569  -999.2500
  410.0000   -48.3203    10.8807    10.8010    99.2180  -999.2500
  410.5000   -48.6485    11.0350    11.0269    96.8790  -999.2500
  411.0000   -49.2907    11.1905    11.1846    95.1700  -999.2500
  411.5000   -49.7759    11.2667    11.1847    92.1972  -999.2500
  412.0000   -50.2611    11.1851    11.1849    90.5496  -999.2500
  412.5000   -50.4323    11.2613    11.1850    89.0891  -999.2500
  413.0000   -50.6035    11.1804    11.1852    88.3201  -999.2500
  413.5000   -50.4572    11.1785    11.4216    87.5429  -999.2500
  414.0000   -50.1575    11.1761    11.4217    87.5668  -999.2500
  414.5000   -50.0148    11.0165    11.2644    88.3676  -999.2500
  415.0000   -50.3466    10.9277    11.1858    89.1684  -999.2500
  415.5000   -50.5178    10.6974    10.8710    90.7541  -999.2500
  416.0000   -50.5320    10.6164    10.6350    92.3398  -999.2500
  416.5000   -50.3893    10.5354    10.6351    93.9255  -999.2500
  417.0000   -50.0896    10.4544    10.6353    95.5112  -999.2500
  417.5000   -49.7899    10.2948    10.5567    96.3120  -999.2500
  418.0000   -49.4866    10.2138    10.4781    98.6826  -999.2500
  418.5000   -49.0334    10.1328    10.5570   100.2683  -999.2500
  419.0000   -48.8871    10.0518    10.5572   101.0691  -999.2500
  419.5000   -48.9049    10.0494    10.4786    99.5150  -999.2500
  420.0000   -49.0762    10.0471    10.3213    97.1761  -999.2500
  420.5000   -49.2474     9.9661    10.2427    96.4031  -999.2500
  421.0000   -49.5756     9.9637    10.2429    97.2078  -999.2500
  421.5000   -49.9038     9.8827    10.2430    98.0086  -999.2500
  422.0000   -50.2285     9.8803    10.1058    98.8093  -999.2500
  422.5000   -49.7718     9.8779     9.8969    98.8252  -999.2500
  423.0000   -49.6290     9.8756     9.8183    99.6260  -999.2500
  423.5000   -49.4710     9.8732     9.7555   101.2117  -999.2500
  424.0000   -49.1866     9.8708     9.6769   104.3672  -999.2500
  424.5000   -49.2009     9.8684     9.5983   106.8945  -999.2500
  425.0000   -49.2151     9.7874     9.5512   108.3203  -999.2500
  425.5000   -49.0723     9.7851     9.5829   108.3359  -999.2500
  426.0000   -49.0866     9.8613     9.6460   108.3517  -999.2500
  426.5000   -49.1008     9.8589     9.6777   108.3673  -999.2500
  427.0000   -48.9576     9.7779     9.6306   108.3831  -999.2500
  427.5000   -48.8154     9.7756     9.5772   107.6138  -999.2500
  428.0000   -48.8296     9.6946     9.4837   107.6297  -999.2500
  428.5000   -48.8438     9.6922     9.3564   106.8603  -999.2500
  429.0000   -48.8581     9.6112     9.2671   106.8765  -999.2500
  429.5000   -49.0293     9.6088     9.2534   106.8923  -999.2500
  430.0000   -49.2006     9.5126     9.2546   106.9082  -999.2500
  430.5000   -49.3718     9.2901     9.2694   108.4939  -999.2500
  431.0000   -49.3860     9.1195     9.2375   111.6494  -999.2500
  431.5000   -49.4003     8.9623     9.0650   114.0201  -999.2500
  432.0000   -49.2540     8.8051     8.9235   117.1756  -999.2500
  432.5000   -49.1148     8.5731     8.7346   119.5463  -999.2500
  433.0000   -48.9685     8.3333     8.4041   121.9169  -999.2500
  433.5000   -48.6723     8.0967     8.1680   125.8574  -999.2500
  434.0000   -48.5260     7.9371     7.9635   130.5828  -999.2500
  434.5000   -48.5439     7.9347     7.8061   133.7384  -999.2500
  435.0000   -48.5581     7.9323     7.7748   136.8939  -999.2500
  435.5000   -48.2548     7.9300     7.8222   136.9098  -999.2500
  436.0000   -47.9551     8.0063     8.0901   136.1407  -999.2500
  436.5000   -47.9729     8.2397     8.3265   132.2319  -999.2500
  437.0000   -47.8266     8.3945     8.4999   128.3231  -999.2500
  437.5000   -47.8414     8.6280     8.6890   124.4143  -999.2500
  438.0000   -47.8556     8.9401     8.8624   121.2864  -999.2500
  438.5000   -47.8697     9.1736     8.9885   118.0246  -999.2500
  439.0000   -47.8838     9.3284     9.1147   115.0387  -999.2500
  439.5000   -47.8979     9.4047     9.1778   112.6192  -999.2500
  440.0000   -47.9121     9.4023     9.1937   109.5239  -999.2500
  440.5000   -47.9263     9.3999     9.1309   105.6671  -999.2500
  441.0000   -48.0976     9.3975     9.0838   105.6829  -999.2500
  441.5000   -48.4258     9.3951     9.1312   109.6234  -999.2500
  442.0000   -48.9110     9.4720     9.2259   113.5639  -999.2500
  442.5000   -49.3962     9.4690     9.0685   115.9345  -999.2500
  443.0000   -49.7244     9.4666     9.0057   117.5202  -999.2500
  443.5000   -50.0526     9.4643     9.0688   116.7504  -999.2500
  444.0000   -50.0669     9.4619     9.1635   115.1971  -999.2500
  444.5000   -50.2381     9.4595     9.2424   114.4280  -999.2500
  445.0000   -50.4094     9.4571     9.3055   113.6550  -999.2500
  445.5000   -50.4236     9.3761     9.2585   112.1049  -999.2500
