~VERSION INFORMATION
 VERS.                2.0:   CWLS LOG ASCII STANDARD - VERSION 2.0
 WRAP.                 NO:   ONE LINE PER DEPTH STEP
~WELL INFORMATION
#MNEM.UNIT      DATA TYPE    INFORMATION
#----------   ------------   ------------------------------
 STRT.F           80.0000:   START DEPTH
 STOP.F         1056.0000:   STOP DEPTH
 STEP.F            0.5000:   STEP LENGTH
 NULL.          -999.2500:   NO VALUE
 COMP. U S NAVY-INTEX OIL:   COMPANY
 WELL.      NPR 3 #68-S-2:   WELL
 FLD .        TEAPOT DOME:   FIELD
 LOC .       S2 T38N R78W:   LOCATION
 CNTY.            NATRONA:   COUNTY
 STAT.            WYOMING:   STATE
 CTRY. UNITED STATES OF AMERICA:   COUNTRY
 SRVC.       Schlumberger:   SERVICE COMPANY
 DATE.        21-JUL-1964:   LOGDATE
 API .       490250638800:   API NUMBER
~CURVE INFORMATION
#MNEM.UNIT       API CODE    CURVE DESCRIPTION
#----------   ------------   ------------------------------
 DEPT.F                  :   
 SPR .MV     05 010 01 00:   SPONTANEOUS POTENTIAL FROM RES.
 ASN .OHMM   05 041 16 00:   AMPLIFIED SHORT NORMAL 16"
 ILD .OHMM   05 120 46 00:   INDUCTION LOG DEEP
 CILD.MMHO   05 110 46 00:   CONDUCTIVITY INDUCTION LOG DEEP
 GR  .GAPI   30 310 01 00:   GAMMA RAY
 CALS.IN     60 280 50 00:   CALIPER FROM SONIC LOG
 DT  .US/F   60 520 00 00:   INTERVAL TRANSIT TIME
~PARAMETER INFORMATION
#MNEM.UNIT          VALUE    DESCRIPTION
#----------   ------------   ------------------------------
 PD  .                 GL:   PERMANENT DATUM
 EPD .F              5201:   ELEVATION PERMANENT DATUM
 LMF .                 KB:   LOG MEASURED FROM
 DAPD.F                 5:   FEET ABOVE PERMANENT DATUM
 DMF .                 KB:   DRILLING MEASURED FROM
 EKB .F              5206:   KELLING BUSHING
 EGL .F              5201:   GROUND LEVEL
 DATE.          8-12-1964:   RUN DATE
 RUN .                  1:   RUN NUMBER
 DD  .F              1055:   DEPTH DRILLER
 DL  .F              1057:   DEPTH LOGGER
 BLI .F              1055:   BOTTOM LOG INTERVAL
 TLI .F               450:   TOP LOG INTERVAL
 CS  .IN              4.5:   CASING SIZE
 BS  .IN             6.75:   BIT SIZE
 DFT .            GEL OIL:   DRILLING FLUID TYPE
 DFD .                9.3:   DRILLING FLUID DENSITY
 DFV .                 48:   DRILLING FLUID VISCOSITY
 DFPH.                 10:   DRILLING FLUID PH
 DFL .                 10:   DRILLING FLUID LOSS
 MSS .           FLOWLINE:   MUD SAMPLE SOURCE
 RMS .OHMM           1.07:   RESISTIVITY MUD SAMPLE
 MST .F                95:   MUD SAMPLE TEMPERATURE
 RMF .OHMM            .67:   RESISTIVITY MUD FILTRATE SAMPLE
 MFST.F                95:   MUD FILTRATE SAMPLE TEMPERATURE
 RMC .OHMM           1.44:   RESISTIVITY MUD CAKE
 MCST.F                95:   MUD CAKE SAMPLE TEMPERATURE
 MFSS.                 FP:   MUD FILTRATE SAMPLE SOURCE
 MCSS.                 FP:   MUD CAKE SAMPLE SOURCE
 TCS .HRS               1:   TIME CURCULATED STOPPED
 LUN .               4507:   LOGGING UNIT NUMBER
 LUL .               CSPR:   LOGGING UNIT LOCATION
 ENGI.             DANNER:   RECORDING ENGINEER
 WITN.         JORGENESEN:   WITNESSED BY
 CLNT.            A2DTECH:   CLIENT CODE
 ORIG.           2" PRINT:   ORIGIN OF DATA
 UWI .       490250638800:   UNIQUE WELL ID
 DICO. A2D Technologies, Inc.:   DIGITIZING COMPANY
~OTHER INFORMATION
~A   DEPT      SPR          ASN        ILD      CILD        GR       CALS         DT   
# ...
  216.5000   -40.2384     7.5912     6.3136   155.3461  -999.2500  -999.2500  -999.2500
  217.0000   -40.3875     7.5991     6.4371   152.4032  -999.2500  -999.2500  -999.2500
  217.5000   -40.6234     7.6424     6.5993   150.4775  -999.2500  -999.2500  -999.2500
  218.0000   -40.6855     7.7266     6.6917   149.1218  -999.2500  -999.2500  -999.2500
  218.5000   -40.8346     7.7932     6.8862   147.1833  -999.2500  -999.2500  -999.2500
  219.0000   -40.8346     7.9367     6.9935   145.7911  -999.2500  -999.2500  -999.2500
  219.5000   -40.8346     8.1448     7.1894   143.3815  -999.2500  -999.2500  -999.2500
  220.0000   -40.8346     8.3928     7.3603   140.9722  -999.2500  -999.2500  -999.2500
  220.5000   -40.8346     8.5219     7.5062   137.6079  -999.2500  -999.2500  -999.2500
  221.0000   -40.8346     8.5498     7.6347   134.5161  -999.2500  -999.2500  -999.2500
  221.5000   -40.6855     8.6151     7.7096   131.5117  -999.2500  -999.2500  -999.2500
  222.0000   -40.5365     8.7558     7.7096   130.0446  -999.2500  -999.2500  -999.2500
  222.5000   -40.3875     8.9293     7.7096   130.7844  -999.2500  -999.2500  -999.2500
  223.0000   -40.1838     9.0624     7.6073   132.2694  -999.2500  -999.2500  -999.2500
  223.5000   -40.0894     8.8090     7.5599   133.0096  -999.2500  -999.2500  -999.2500
  224.0000   -40.0894     8.6579     7.4401   134.9405  -999.2500  -999.2500  -999.2500
  224.5000   -40.0894     8.7780     7.3191   137.0449  -999.2500  -999.2500  -999.2500
  225.0000   -40.0894     8.8380     7.2605   138.9505  -999.2500  -999.2500  -999.2500
  225.5000   -40.0223     8.7633     7.1519   140.7701  -999.2500  -999.2500  -999.2500
  226.0000   -39.9404     8.5997     7.0359   142.0188  -999.2500  -999.2500  -999.2500
  226.5000   -40.0894     8.4709     7.0359   144.1473  -999.2500  -999.2500  -999.2500
  227.0000   -40.0894     8.4339     7.0359   144.1444  -999.2500  -999.2500  -999.2500
  227.5000   -40.0894     8.4490     7.0359   144.1404  -999.2500  -999.2500  -999.2500
  228.0000   -40.0894     8.4340     7.0359   143.7401  -999.2500  -999.2500  -999.2500
  228.5000   -40.2384     8.3818     7.0359   142.6451  -999.2500  -999.2500  -999.2500
  229.0000   -40.3875     8.3109     7.0359   141.8968  -999.2500  -999.2500  -999.2500
  229.5000   -40.6855     8.3297     7.0359   141.8936  -999.2500  -999.2500  -999.2500
  230.0000   -40.6855     8.3738     7.0359   141.8899  -999.2500  -999.2500  -999.2500
  230.5000   -40.6855     8.4049     7.0359   141.8862  -999.2500  -999.2500  -999.2500
  231.0000   -40.5017     8.4051     7.0359   141.8825  -999.2500  -999.2500  -999.2500
  231.5000   -40.2384     8.4052     7.0359   141.8784  -999.2500  -999.2500  -999.2500
  232.0000   -40.1689     8.4054     7.0010   142.2222  -999.2500  -999.2500  -999.2500
  232.5000   -40.0894     8.3906     6.9611   142.6774  -999.2500  -999.2500  -999.2500
  233.0000   -40.0894     8.3735     6.8862   144.0990  -999.2500  -999.2500  -999.2500
  233.5000   -40.0422     8.3459     6.8625   144.0960  -999.2500  -999.2500  -999.2500
  234.0000   -39.9404     8.3104     6.7365   144.8362  -999.2500  -999.2500  -999.2500
  234.5000   -39.9404     8.2562     6.6954   145.2418  -999.2500  -999.2500  -999.2500
  235.0000   -39.9404     8.1994     6.6617   146.4409  -999.2500  -999.2500  -999.2500
  235.5000   -40.0894     8.1120     6.6617   147.0573  -999.2500  -999.2500  -999.2500
  236.0000   -40.0894     8.0618     6.7665   148.0952  -999.2500  -999.2500  -999.2500
  236.5000   -40.0894     8.0751     6.8862   148.5505  -999.2500  -999.2500  -999.2500
  237.0000   -40.0894     8.0928     6.9336   149.2782  -999.2500  -999.2500  -999.2500
  237.5000   -40.0894     8.1172     6.9611   149.0886  -999.2500  -999.2500  -999.2500
  238.0000   -40.0894     8.1499     6.9611   147.0384  -999.2500  -999.2500  -999.2500
  238.5000   -40.0894     8.2424     6.9611   146.3157  -999.2500  -999.2500  -999.2500
  239.0000   -40.0745     8.3253     6.9611   144.7247  -999.2500  -999.2500  -999.2500
  239.5000   -39.9404     8.3477     6.9611   144.5846  -999.2500  -999.2500  -999.2500
  240.0000   -39.8907     8.0480     6.9611   145.7837  -999.2500  -999.2500  -999.2500
  240.5000   -39.7914     8.1894     6.9611   147.0200  -999.2500  -999.2500  -999.2500
  241.0000   -39.7914     8.3181     6.8862   148.1821  -999.2500  -999.2500  -999.2500
  241.5000   -39.8187     8.2431     6.8862   149.2452  -999.2500  -999.2500  -999.2500
  242.0000   -39.9404     8.0973     6.8114   149.2406  -999.2500  -999.2500  -999.2500
  242.5000   -40.0894     8.0038     6.8114   149.9814  -999.2500  -999.2500  -999.2500
  243.0000   -40.0894     7.9951     6.8114   149.9529  -999.2500  -999.2500  -999.2500
  243.5000   -40.0894     8.0652     6.8114   149.2299  -999.2500  -999.2500  -999.2500
  244.0000   -40.0894     8.1380     6.8114   148.2837  -999.2500  -999.2500  -999.2500
  244.5000   -40.0894     8.2032     6.8862   146.9901  -999.2500  -999.2500  -999.2500
  245.0000   -40.0894     8.3343     6.9236   145.8705  -999.2500  -999.2500  -999.2500
  245.5000   -40.0894     8.4016     6.9611   143.9199  -999.2500  -999.2500  -999.2500
  246.0000   -40.0894     8.3590     7.0359   141.7702  -999.2500  -999.2500  -999.2500
  246.5000   -39.9404     8.2748     7.0621   140.7627  -999.2500  -999.2500  -999.2500
  247.0000   -39.7914     8.2449     7.1856   139.5312  -999.2500  -999.2500  -999.2500
  247.5000   -39.7044     8.3051     7.1856   139.0936  -999.2500  -999.2500  -999.2500
  248.0000   -39.6423     8.4608     7.2605   138.7797  -999.2500  -999.2500  -999.2500
  248.5000   -39.6423     8.7420     7.3353   138.7756  -999.2500  -999.2500  -999.2500
  249.0000   -39.4933     8.9053     7.5175   138.4499  -999.2500  -999.2500  -999.2500
  249.5000   -39.5008     9.0335     7.7133   137.9127  -999.2500  -999.2500  -999.2500
  250.0000   -39.6423     9.0405     7.8343   135.2927  -999.2500  -999.2500  -999.2500
  250.5000   -39.6423     8.9831     7.8593   131.8539  -999.2500  -999.2500  -999.2500
  251.0000   -39.9404     8.9508     7.8593   129.8286  -999.2500  -999.2500  -999.2500
  251.5000   -40.0894     8.9660     7.8593   129.8251  -999.2500  -999.2500  -999.2500
  252.0000   -40.2583     9.1376     7.8593   129.8214  -999.2500  -999.2500  -999.2500
  252.5000   -40.5365     9.4370     7.7844   129.8171  -999.2500  -999.2500  -999.2500
  253.0000   -40.5365     9.5661     7.7844   129.0700  -999.2500  -999.2500  -999.2500
  253.5000   -40.5365     9.6156     7.8593   127.5781  -999.2500  -999.2500  -999.2500
  254.0000   -40.6259     9.6264     7.8593   126.3839  -999.2500  -999.2500  -999.2500
  254.5000   -40.5365     9.5882     7.8593   126.0826  -999.2500  -999.2500  -999.2500
  255.0000   -40.5365     9.4907     7.8593   126.8225  -999.2500  -999.2500  -999.2500
  255.5000   -40.3204     9.2670     7.8593   129.3862  -999.2500  -999.2500  -999.2500
  256.0000   -40.2285     9.1910     7.8593   131.3293  -999.2500  -999.2500  -999.2500
  256.5000   -40.0894     9.1474     7.8593   132.7634  -999.2500  -999.2500  -999.2500
  257.0000   -40.0447     9.1476     7.8368   132.9837  -999.2500  -999.2500  -999.2500
  257.5000   -39.9404     9.1477     7.7844   133.5007  -999.2500  -999.2500  -999.2500
  258.0000   -39.7914     9.1628     7.6697   133.4971  -999.2500  -999.2500  -999.2500
  258.5000   -39.7690     9.1437     7.5374   134.3489  -999.2500  -999.2500  -999.2500
  259.0000   -39.6423     9.0366     7.2605   135.7212  -999.2500  -999.2500  -999.2500
  259.5000   -39.4933     8.7413     7.1569   137.4914  -999.2500  -999.2500  -999.2500
  260.0000   -39.4933     8.5967     6.9611   139.4345  -999.2500  -999.2500  -999.2500
  260.5000   -39.4933     8.5189     6.9149   142.7539  -999.2500  -999.2500  -999.2500
  261.0000   -39.4933     8.4446     6.7939   147.3886  -999.2500  -999.2500  -999.2500
  261.5000   -39.4933     8.3211     6.7365   150.5837  -999.2500  -999.2500  -999.2500
