~VERSION INFORMATION
 VERS.                2.0:   CWLS LOG ASCII STANDARD - VERSION 2.0
 WRAP.                 NO:   ONE LINE PER DEPTH STEP
~WELL INFORMATION
#MNEM.UNIT      DATA TYPE    INFORMATION
#----------   ------------   ------------------------------
 STRT.F          714.0000:   START DEPTH
 STOP.F         1640.0000:   STOP DEPTH
 STEP.F            0.5000:   STEP LENGTH
 NULL.          -999.2500:   NO VALUE
 COMP. BROWN JOHN E&C INC:   COMPANY
 WELL. NPR 3 STX-15 #83-15:   WELL
 FLD .             TEAPOT:   FIELD
 LOC .      S15 T38N R78W:   LOCATION
 CNTY.            NATRONA:   COUNTY
 STAT.            WYOMING:   STATE
 CTRY. UNITED STATES OF AMERICA:   COUNTRY
 SRVC.            Unknown:   SERVICE COMPANY
 DATE.        30-AUG-1991:   LOGDATE
 API .       490251111300:   API NUMBER
~CURVE INFORMATION
#MNEM.UNIT       API CODE    CURVE DESCRIPTION
#----------   ------------   ------------------------------
 DEPT.F                  :   
 TGAS.UNITS  91 830 01 00:   TOTAL GAS FROM HOTWIRE
 C1  .VF     91 831 01 00:   METHANE
 C2  .VF     91 832 01 00:   ETHANE
 C3  .VF     91 833 01 00:   PROPANE
 C4  .VF     91 834 01 00:   BUTANE
 ROP .MIN/FT 91 810 01 00:   RAT OF DRILLING PENETRATION
~PARAMETER INFORMATION
#MNEM.UNIT          VALUE    DESCRIPTION
#----------   ------------   ------------------------------
 EKB .F              5265:   KELLING BUSHING
 EGL .F              5255:   GROUND LEVEL
 DATE.            5-30-91:   RUN DATE
 DD  .F              1626:   DEPTH DRILLER
 TCS .HRS            1200:   TIME CURCULATED STOPPED
 TLAB.HRS            1815:   TIME LOGGER AT BOTTOM
 ENGI.               HUSK:   RECORDING ENGINEER
 WITN.              TOWER:   WITNESSED BY
 CLNT.            A2DTECH:   CLIENT CODE
 ORIG.           5" PRINT:   ORIGIN OF DATA
 UWI .       490251111300:   UNIQUE WELL ID
 DICO. A2D Technologies, Inc.:   DIGITIZING COMPANY
~OTHER INFORMATION
~A   DEPT     TGAS         C1         C2         C3         C4          ROP 
# ...
 1598.0000   235.0184   126.1140    22.6938  -999.2500    15.8885     0.6434
 1598.5000   240.5480   130.7182    24.9336  -999.2500    16.4536     0.6417
 1599.0000   246.0485   136.2031    27.3801  -999.2500    17.0173     0.6280
 1599.5000   251.5691   141.6868    28.9182  -999.2500    17.5820     0.6167
 1600.0000   257.0746   147.1717    30.6108  -999.2500    19.0023     0.6055
 1600.5000   262.5930   152.6554    32.1485  -999.2500  -999.2500     0.5941
 1601.0000   268.1022   158.1400    32.7105  -999.2500  -999.2500     0.5829
 1601.5000   273.6179   163.6237    33.2355  -999.2500  -999.2500     0.5716
 1602.0000   276.9968   169.1082    33.7457  -999.2500  -999.2500     0.5604
 1602.5000   275.7974   174.5920    34.2708  -999.2500  -999.2500     0.5490
 1603.0000   274.6035   180.0764    36.1449  -999.2500  -999.2500     0.5378
 1603.5000   273.4065   185.5604    39.3984  -999.2500  -999.2500     0.5265
 1604.0000   274.2399   189.4769    42.6361  -999.2500  -999.2500     0.5153
 1604.5000   279.0168   192.7220    45.8900  -999.2500  -999.2500     0.5039
 1605.0000   283.8103   195.9662    49.1272  -999.2500  -999.2500     0.4927
 1605.5000   288.5824   199.2117    52.3817  -999.2500  -999.2500     0.4814
 1606.0000   293.3817   202.4555    55.9437  -999.2500  -999.2500     0.4674
 1606.5000   298.1498   205.7018    56.4190  -999.2500  -999.2500     0.4704
 1607.0000   300.7032   208.9452    57.0770  -999.2500  -999.2500     0.4746
 1607.5000   299.3549   212.1920    57.7513  -999.2500  -999.2500     0.4787
 1608.0000   303.4172   215.1106    58.4100  -999.2500  -999.2500     0.4829
 1608.5000   313.0744   215.7238    59.0832  -999.2500  -999.2500     0.4870
 1609.0000   313.0983   216.2766    59.7442  -999.2500  -999.2500     0.4912
 1609.5000   313.0769   216.8317    60.4147  -999.2500  -999.2500     0.4953
 1610.0000   313.0988   217.3845    61.0770  -999.2500  -999.2500     0.4995
 1610.5000   313.0777   217.9395    61.7463  -999.2500  -999.2500     0.5046
 1611.0000   313.0967   218.4924    62.4102  -999.2500  -999.2500     0.4979
 1611.5000   313.0790   219.0472    63.0787  -999.2500  -999.2500     0.4888
 1612.0000   313.0951   219.6002    63.7438  -999.2500  -999.2500     0.4798
 1612.5000   313.0830   219.0888    64.4113  -999.2500  -999.2500     0.4707
 1613.0000   313.0949   218.1195    65.0771  -999.2500  -999.2500     0.4617
 1613.5000   313.0870   217.6598    65.7440  -999.2500  -999.2500     0.4525
 1614.0000   313.0948   218.3864    66.4100  -999.2500  -999.2500     0.4435
 1614.5000   313.0907   219.1133    67.0759  -999.2500  -999.2500     0.4344
 1615.0000   313.0941   219.7674    67.7421  -999.2500  -999.2500     0.4254
 1615.5000   313.0914   221.2721    68.4078  -999.2500  -999.2500     0.4163
 1616.0000   313.0952   222.6403    69.0742  -999.2500  -999.2500     0.4051
 1616.5000   313.0951   224.0063    69.7397  -999.2500  -999.2500     0.4050
 1617.0000   313.0948   225.3759    70.4061  -999.2500  -999.2500     0.4051
 1617.5000   313.0946   226.7412    71.0713  -999.2500  -999.2500     0.4050
 1618.0000   313.0943   228.1110    71.7372  -999.2500  -999.2500     0.4051
 1618.5000   313.0946   229.0207    72.4032  -999.2500  -999.2500     0.4050
 1619.0000   313.0942   228.8722    73.0689  -999.2500  -999.2500     0.4051
 1619.5000   313.0948   228.7191    73.7356  -999.2500  -999.2500     0.4050
 1620.0000   313.0939   228.5703    74.4002  -999.2500  -999.2500     0.4051
 1620.5000   313.0952   228.4171    74.9989  -999.2500  -999.2500     0.4164
 1621.0000   313.0936   228.2678    74.9957  -999.2500  -999.2500     0.4316
 1621.5000   313.0955   228.1152    75.0003  -999.2500  -999.2500     0.4467
 1622.0000   313.0932   227.9659    74.9947  -999.2500  -999.2500     0.4619
 1622.5000   313.0959   227.8137    75.0018  -999.2500  -999.2500     0.4771
 1623.0000   313.0928   227.6641    74.9939  -999.2500  -999.2500     0.4922
 1623.5000   313.0962   227.5125    75.0031  -999.2500  -999.2500     0.5074
 1624.0000   312.6880   227.3626    74.9932  -999.2500  -999.2500     0.5225
 1624.5000   311.4958   227.2112    75.0041  -999.2500  -999.2500     0.5377
 1625.0000   310.2960   227.0612    74.9930  -999.2500  -999.2500     0.5529
 1625.5000   309.1040   226.9099    72.6245  -999.2500  -999.2500     0.5680
 1626.0000  -999.2500   226.7449    72.6133  -999.2500  -999.2500     0.5794
 1626.5000  -999.2500  -999.2500  -999.2500  -999.2500  -999.2500     0.5794
 1627.0000  -999.2500  -999.2500  -999.2500  -999.2500  -999.2500     0.5794
 1627.5000  -999.2500  -999.2500  -999.2500  -999.2500  -999.2500     0.5794
 1628.0000  -999.2500  -999.2500  -999.2500  -999.2500  -999.2500     0.5794
 1628.5000  -999.2500  -999.2500  -999.2500  -999.2500  -999.2500     0.5794
 1629.0000  -999.2500  -999.2500  -999.2500  -999.2500  -999.2500     0.5794
 1629.5000  -999.2500  -999.2500  -999.2500  -999.2500  -999.2500     0.5794
 1630.0000  -999.2500  -999.2500  -999.2500  -999.2500  -999.2500     0.5794
 1630.5000  -999.2500  -999.2500  -999.2500  -999.2500  -999.2500     0.5794
 1631.0000  -999.2500  -999.2500  -999.2500  -999.2500  -999.2500     0.5794
 1631.5000  -999.2500  -999.2500  -999.2500  -999.2500  -999.2500     0.5794
 1632.0000  -999.2500  -999.2500  -999.2500  -999.2500  -999.2500     0.5794
 1632.5000  -999.2500  -999.2500  -999.2500  -999.2500  -999.2500     0.5794
 1633.0000  -999.2500  -999.2500  -999.2500  -999.2500  -999.2500     0.5794
 1633.5000  -999.2500  -999.2500  -999.2500  -999.2500  -999.2500     0.5794
 1634.0000  -999.2500  -999.2500  -999.2500  -999.2500  -999.2500     0.5794
 1634.5000  -999.2500  -999.2500  -999.2500  -999.2500  -999.2500     0.5794
 1635.0000  -999.2500  -999.2500  -999.2500  -999.2500  -999.2500     0.5794
 1635.5000  -999.2500  -999.2500  -999.2500  -999.2500  -999.2500     0.5794
 1636.0000  -999.2500  -999.2500  -999.2500  -999.2500  -999.2500     0.5794
 1636.5000  -999.2500  -999.2500  -999.2500  -999.2500  -999.2500     0.5689
 1637.0000  -999.2500  -999.2500  -999.2500  -999.2500  -999.2500     0.5549
 1637.5000  -999.2500  -999.2500  -999.2500  -999.2500  -999.2500     0.5409
 1638.0000  -999.2500  -999.2500  -999.2500  -999.2500  -999.2500     0.5269
 1638.5000  -999.2500  -999.2500  -999.2500  -999.2500  -999.2500     0.5128
 1639.0000  -999.2500  -999.2500  -999.2500  -999.2500  -999.2500     0.4989
 1639.5000  -999.2500  -999.2500  -999.2500  -999.2500  -999.2500     0.4848
 1640.0000  -999.2500  -999.2500  -999.2500  -999.2500  -999.2500     0.4673
