~VERSION INFORMATION
 VERS.                2.0:   CWLS LOG ASCII STANDARD - VERSION 2.0
 WRAP.                 NO:   ONE LINE PER DEPTH STEP
~WELL INFORMATION
#MNEM.UNIT      DATA TYPE    INFORMATION
#----------   ------------   ------------------------------
 STRT.F           15.0000:   START DEPTH
 STOP.F          550.0000:   STOP DEPTH
 STEP.F            0.5000:   STEP LENGTH
 NULL.          -999.2500:   NO VALUE
 COMP. LAWRENCE/ALLISON INC:   COMPANY
 WELL. NPR 3 #43-21 SX 10:   WELL
 FLD .             TEAPOT:   FIELD
 LOC .      S10 T38N R78W:   LOCATION
 CNTY.            NATRONA:   COUNTY
 STAT.            WYOMING:   STATE
 CTRY. UNITED STATES OF AMERICA:   COUNTRY
 SRVC.           Gearhart:   SERVICE COMPANY
 DATE.        05-JUL-1986:   LOGDATE
 API .       490251110100:   API NUMBER
~CURVE INFORMATION
#MNEM.UNIT       API CODE    CURVE DESCRIPTION
#----------   ------------   ------------------------------
 DEPT.F                  :   
 GRR .GAPI   07 310 01 00:   GAMMA RAY
 RILD.OHMM   07 120 46 00:   INDUCTION LOG DEEP
 RILM.OHMM   07 120 44 00:   INDUCTION LOG MEDIUM
~PARAMETER INFORMATION
#MNEM.UNIT          VALUE    DESCRIPTION
#----------   ------------   ------------------------------
 PD  .                 GL:   PERMANENT DATUM
 EPD .F              5205:   ELEVATION PERMANENT DATUM
 LMF .                 KB:   LOG MEASURED FROM
 DAPD.F                 5:   FEET ABOVE PERMANENT DATUM
 DMF .                 KB:   DRILLING MEASURED FROM
 EKB .F              5210:   KELLING BUSHING
 EGL .F              5205:   GROUND LEVEL
 DATE.        05-JUL-1986:   RUN DATE
 RUN .                  1:   RUN NUMBER
 DD  .F               560:   DEPTH DRILLER
 DL  .F               560:   DEPTH LOGGER
 BLI .F               550:   BOTTOM LOG INTERVAL
 TLI .F                15:   TOP LOG INTERVAL
 CS  .IN            8.625:   CASING SIZE
 CBD .F                47:   CASING BOTTOM DRILLER
 CBL .F                47:   CASING BOTTOM LOGGER
 BS  .IN            7.875:   BIT SIZE
 BSD .F               560:   BIT SIZE AT DEPTH
 DFT .                AIR:   DRILLING FLUID TYPE
 TCS .HRS            2100:   TIME CURCULATED STOPPED
 TLAB.HRS            2230:   TIME LOGGER AT BOTTOM
 MRT .F                83:   MAXIMUM RECORDED TEMPERATURE
 LUN .               7609:   LOGGING UNIT NUMBER
 LUL .           GILLETTE:   LOGGING UNIT LOCATION
 ENGI.              BAUER:   RECORDING ENGINEER
 WITN.              FIVAS:   WITNESSED BY
 CLNT.            A2DTECH:   CLIENT CODE
 ORIG.           5" PRINT:   ORIGIN OF DATA
 UWI .       490251110100:   UNIQUE WELL ID
 DICO. A2D Technologies, Inc.:   DIGITIZING COMPANY
~OTHER INFORMATION
~A   DEPT      GRR       RILD       RILM   
# ...
  106.0000   114.3854     8.6917     8.7604
  106.5000   114.6852     8.6911     8.8222
  107.0000   114.0700     8.7519     8.8222
  107.5000   113.3993     8.7512     8.8222
  108.0000   112.1258     8.9369     8.9470
  108.5000   110.2496     9.0627     9.0736
  109.0000   106.5530     9.1905     9.1415
  109.5000   100.5581     9.2546     9.3322
  110.0000   100.0306     9.4509     9.4687
  110.5000   100.7083     9.6516     9.5982
  111.0000   103.1314     9.8565     9.8077
  111.5000   105.5231    10.0659     9.9467
  112.0000   106.7600    10.2794    10.1588
  112.5000   107.9149    10.4241    10.4425
  113.0000   105.7555    10.5710    10.5967
  113.5000   104.8199    10.7952    10.8227
  114.0000   102.3846    11.1021    11.0462
  114.5000    99.6712    11.4177    11.2814
  115.0000    99.3607    11.6601    11.4491
  115.5000    99.6662    11.9077    11.6933
  116.0000   101.1832    12.0753    12.0178
  116.5000   100.5571    12.2455    12.1973
  117.0000    98.4231    12.4179    12.3702
  117.5000    96.5905    12.5928    12.5352
  118.0000    94.4535    12.5916    12.7126
  118.5000    94.4474    12.5908    12.7126
  119.0000    95.9634    12.5899    12.7126
  119.5000    97.4794    12.5890    12.7126
  120.0000    99.6042    12.5881    12.7126
  120.5000   101.4245    12.5872    12.7004
  121.0000   102.9405    12.5863    12.6112
  121.5000   103.8772    12.4974    12.4474
  122.0000   102.9283    12.0651    12.3603
  122.5000    99.2692    11.8960    12.2738
  123.0000    96.8278    11.8951    12.0895
  123.5000    95.6041    11.8110    11.9337
  124.0000    94.3359    11.6454    11.8501
  124.5000    96.2007    11.7267    11.8501
  125.0000    98.0211    11.8086    11.8501
  125.5000    99.5373    11.8910    11.8501
  126.0000    99.5880    11.8901    11.8646
  126.5000    95.8718    11.8893    11.9485
  127.0000    91.9084    11.8884    12.0178
  127.5000    89.4669    11.8876    11.9337
  128.0000    88.2432    11.8868    11.8501
  128.5000    89.4547    11.7201    11.8344
  129.0000    91.8839    11.5558    11.6848
  129.5000    95.5308    11.4741    11.6848
  130.0000    98.8733    11.3132    11.5217
  130.5000   102.8245    11.3124    11.3610
  131.0000   104.0376    11.2324    11.2814
  131.5000   103.7256    11.0749    11.1240
  132.0000   100.0665    10.9196    11.0462
  132.5000    98.5383    10.8424    10.8920
  133.0000    97.3146    10.7657    10.8158
  133.5000    96.6996    10.6896    10.7401
  134.0000    97.3024    10.6889    10.7401
  134.5000    98.2110    10.6133    10.5902
  135.0000    96.9857    10.6125    10.5161
  135.5000    95.7620    10.5375    10.4425
  136.0000    95.1470    10.4630    10.3694
  136.5000    96.6630    10.4623    10.2968
  137.0000    98.7878    10.3883    10.2968
  137.5000    99.6965    10.3148    10.2968
  138.0000    97.8624    10.3141    10.2968
  138.5000    94.8121    10.2412    10.2968
  139.0000    94.1972    10.0976    10.1531
  139.5000    94.1911    10.0262    10.1531
  140.0000    95.4026    10.0255    10.0820
  140.5000    96.6142     9.9546    10.0820
  141.0000    97.8257     9.9539    10.0820
  141.5000    99.6461     9.9532    10.0820
  142.0000    99.9460     9.8828    10.0820
  142.5000    99.9383     9.8130     9.9413
  143.0000   100.2382     9.7436     9.8026
  143.5000   100.2305     9.4729     9.5982
  144.0000    99.9200     9.3401     9.3322
  144.5000    99.0007     9.2091     9.2020
  145.0000    98.6902     9.0800     9.0736
  145.5000   100.5105     8.8900     8.8844
  146.0000   102.9397     8.7653     8.8222
  146.5000   100.1939     8.7034     8.8222
  147.0000    94.0995     8.7028     8.8222
  147.5000    91.9625     8.7021     8.7604
  148.0000    91.3491     8.7015     8.7604
  148.5000    95.9077     8.7009     8.7604
  149.0000    99.8590     8.7003     8.8222
  149.5000   100.4632     8.6997     8.8222
  150.0000   100.4351     8.7604     8.8149
  150.5000   100.1489     8.7189     8.7268
  151.0000   102.2768     8.7591     8.6965
  151.5000   104.1002     8.7585     8.6953
  152.0000   106.5325     8.7579     8.6941
  152.5000   107.4434     8.7573     8.7545
  153.0000   106.5264     8.7567     8.8150
  153.5000   105.6101     8.8180     8.8134
  154.0000   104.9982     8.8795     8.8746
  154.5000   103.4731     8.9415     8.9359
  155.0000    99.5127     8.9407     8.9977
  155.5000    96.4655     9.0032     9.0598
  156.0000    96.4625     9.0661     9.0582
  156.5000    99.1992     9.1294     9.1211
  157.0000   101.6314     9.1931     9.1841
  157.5000   102.8461     9.2572     9.1825
  158.0000   104.0607     9.2564     9.1812
  158.5000   104.9709     9.2558     9.1800
  159.0000   104.9678     9.2551     9.1787
  159.5000   104.0515     9.2545     9.2424
  160.0000   103.4397     9.1890     9.2408
  160.5000   101.9146     9.1884     9.2395
  161.0000   100.0850     9.1878     9.2382
  161.5000    99.4739     9.1871     9.2369
  162.0000   100.9922     9.1865     9.2356
  162.5000   102.5112     9.1858     9.1696
  163.0000   101.5949     9.1852     9.1042
  163.5000   100.6794     9.1845     9.1029
  164.0000   101.5889     9.1196     9.1016
  164.5000   103.4123     9.1190     9.1003
  165.0000   104.6269     9.0545     9.0990
  165.5000   104.6239     8.9905     9.0341
  166.0000   104.6208     8.9898     9.0328
  166.5000   105.8354     8.9263     8.9683
  167.0000   107.9633     8.9256     8.9671
  167.5000   109.7867     8.9250     8.9030
  168.0000   110.3933     8.9244     8.9018
  168.5000   108.5630     8.8613     8.8382
  169.0000   107.9511     8.8607     8.7751
  169.5000   108.2525     8.7980     8.6515
  170.0000   108.2495     8.6747     8.5295
  170.5000   103.6802     8.5530     8.4094
  171.0000    94.8492     8.3740     8.2909
  171.5000    90.2799     8.1988     8.1740
  172.0000    88.4504     7.9153     7.9464
  172.5000    92.4047     7.6415     7.7796
  173.0000    97.5767     7.5344     7.5100
  173.5000   101.5311     7.3767     7.3523
  174.0000   103.6591     7.1718     7.1980
  174.5000   104.5693     7.1211     7.0966
  175.0000   104.8706     7.1206     7.0459
  175.5000   104.8675     7.1201     7.0946
  176.0000   103.9512     7.2203     7.1939
  176.5000   103.6437     7.3736     7.2947
  177.0000   105.7716     7.5302     7.3972
  177.5000   108.8127     7.6900     7.5537
  178.0000   111.8538     7.7983     7.7676
  178.5000   110.9375     7.9081     7.9878
  179.0000   109.7168     7.9633     8.0433
  179.5000   108.8005     8.0188     8.1557
  180.0000   107.8842     8.0748     8.0974
  180.5000   106.9679     8.0669     8.0963
  181.0000   106.0517     8.0737     8.0952
  181.5000   107.2663     8.0731     8.0940
  182.0000   108.4810     8.0725     8.0362
  182.5000   108.4778     8.0154     7.9788
  183.0000   108.7792     7.9588     7.8664
  183.5000   109.6894     7.6835     7.8102
  184.0000   110.9040     7.3659     7.5928
  184.5000   111.8142     7.1111     7.2274
  185.0000   111.8112     6.8652     6.7361
  185.5000   111.8081     6.3542     6.4119
  186.0000   110.5874     6.0488     6.1898
  186.5000   106.0182     5.8808     6.0174
  187.0000   103.5798     5.8392     5.8911
  187.5000   101.4459     5.7573     5.7270
  188.0000   101.4186     5.7975     5.7262
  188.5000   103.2664     5.9623     5.8886
  189.0000   103.2633     6.1750     6.1412
  189.5000   103.8690     6.4405     6.4047
  190.0000   105.6925     6.7173     6.7741
  190.5000   108.7336     7.0060     7.1647
  191.0000   111.7747     7.3071     7.3163
  191.5000   110.2496     7.5148     7.4711
  192.0000   107.5068     7.7285     7.5760
  192.5000   107.1994     7.8925     7.8454
  193.0000   109.6316     8.0036     8.4746
  193.5000   112.6727     8.1163     9.7517
  194.0000   112.3653     8.1730    14.2488
  194.5000   108.1004     8.2880    17.9640
  195.0000   103.5312     8.3459    22.1756
  195.5000   103.5007     8.4041    24.8103
  196.0000   109.6134     8.4628    24.6332
  196.5000   114.1765     8.5819    16.9727
