~VERSION INFORMATION
 VERS.                2.0:   CWLS LOG ASCII STANDARD - VERSION 2.0
 WRAP.                 NO:   ONE LINE PER DEPTH STEP
~WELL INFORMATION
#MNEM.UNIT      DATA TYPE    INFORMATION
#----------   ------------   ------------------------------
 STRT.F           70.0000:   START DEPTH
 STOP.F         1236.0000:   STOP DEPTH
 STEP.F            0.5000:   STEP LENGTH
 NULL.          -999.2500:   NO VALUE
 COMP. U S NAVY/INTEX OIL CO:   COMPANY
 WELL. NAVAL PETROLEUM TE ##3 75S-11:   WELL
 FLD .             TEAPOT:   FIELD
 LOC .      S11 T38N R78W:   LOCATION
 CNTY.            NATRONA:   COUNTY
 STAT.            WYOMING:   STATE
 CTRY. UNITED STATES OF AMERICA:   COUNTRY
 SRVC.         Lane Wells:   SERVICE COMPANY
 DATE.        04-MAR-1960:   LOGDATE
 API .       490250633900:   API NUMBER
~CURVE INFORMATION
#MNEM.UNIT       API CODE    CURVE DESCRIPTION
#----------   ------------   ------------------------------
 DEPT.F                  :   
 GR  .GAPI   30 310 01 00:   GAMMA RAY
 SPR .MV     05 010 01 00:   SPONTANEOUS POTENTIAL FROM RES.
 ILD .OHMM   05 120 46 00:   INDUCTION LOG DEEP
 CILD.MMHO   05 110 46 00:   CONDUCTIVITY INDUCTION LOG DEEP
 ASN .OHMM   05 041 18 00:   AMPLIFIED SHORT NORMAL 18"
~PARAMETER INFORMATION
#MNEM.UNIT          VALUE    DESCRIPTION
#----------   ------------   ------------------------------
 PD  .                 GL:   PERMANENT DATUM
 EPD .F              5252:   ELEVATION PERMANENT DATUM
 LMF .                 KB:   LOG MEASURED FROM
 DAPD.F                 5:   FEET ABOVE PERMANENT DATUM
 DMF .                 KB:   DRILLING MEASURED FROM
 EKB .F              5257:   KELLING BUSHING
 EGL .F              5252:   GROUND LEVEL
 DATE.             3-4-60:   RUN DATE
 RUN .                  1:   RUN NUMBER
 DD  .F              1239:   DEPTH DRILLER
 DL  .F              1238:   DEPTH LOGGER
 BLI .F              1236:   BOTTOM LOG INTERVAL
 TLI .F                70:   TOP LOG INTERVAL
 CS  .IN            8.625:   CASING SIZE
 CBD .F                12:   CASING BOTTOM DRILLER
 BS  .IN            7.875:   BIT SIZE
 BSD .F              1239:   BIT SIZE AT DEPTH
 DFT .                GEL:   DRILLING FLUID TYPE
 DFD .                9.2:   DRILLING FLUID DENSITY
 DFV .                 34:   DRILLING FLUID VISCOSITY
 DFPH.                7.5:   DRILLING FLUID PH
 DFL .                8.5:   DRILLING FLUID LOSS
 MSS .                PIT:   MUD SAMPLE SOURCE
 RMS .OHMM              3:   RESISTIVITY MUD SAMPLE
 MST .F                52:   MUD SAMPLE TEMPERATURE
 RMF .OHMM            2.8:   RESISTIVITY MUD FILTRATE SAMPLE
 MFST.F                55:   MUD FILTRATE SAMPLE TEMPERATURE
 RMC .OHMM            3.3:   RESISTIVITY MUD CAKE
 MCST.F                55:   MUD CAKE SAMPLE TEMPERATURE
 MFSS.                MUD:   MUD FILTRATE SAMPLE SOURCE
 MCSS.              PRESS:   MUD CAKE SAMPLE SOURCE
 RMB .OHMM            2.2:   RESISTIVITY MUD AT BHT
 BHT .F                77:   BOTTOM HOLE TEMPERATURE
 TCS .HRS              .5:   TIME CURCULATED STOPPED
 MRT .F                77:   MAXIMUM RECORDED TEMPERATURE
 LUN .               4474:   LOGGING UNIT NUMBER
 LUL .             CASPER:   LOGGING UNIT LOCATION
 ENGI.      GRIGGS/NELSON:   RECORDING ENGINEER
 WITN.  JORGENSEN/HOLLAND:   WITNESSED BY
 CLNT.            A2DTECH:   CLIENT CODE
 ORIG.       2", 5" PRINT:   ORIGIN OF DATA
 UWI .       490250633900:   UNIQUE WELL ID
 DICO. A2D Technologies, Inc.:   DIGITIZING COMPANY
~OTHER INFORMATION
~A   DEPT       GR        SPR          ILD      CILD         ASN 
# ...
  375.0000  -999.2500   -37.2114     6.1259   171.9623     7.1547
  375.5000  -999.2500   -37.0690     6.0472   172.8108     7.0378
  376.0000  -999.2500   -36.9254     5.9684   173.6593     6.9861
  376.5000  -999.2500   -36.8791     5.8900   174.5078     6.9903
  377.0000  -999.2500   -36.9115     5.8107   175.3539     6.9956
  377.5000  -999.2500   -36.9452     5.7319   176.1866     7.0011
  378.0000  -999.2500   -36.9792     5.6532   177.0013     6.9786
  378.5000  -999.2500   -37.0129     5.5744   180.4806     6.8984
  379.0000  -999.2500   -37.0467     5.4956   183.6978     6.8203
  379.5000  -999.2500   -37.0804     5.4168   186.9150     6.7424
  380.0000  -999.2500   -37.1142     5.3380   190.1323     6.6658
  380.5000  -999.2500   -37.1480     5.2590   193.3499     6.5358
  381.0000  -999.2500   -37.1818     5.1803   196.5681     6.3827
  381.5000  -999.2500   -37.2164     5.1151   199.7840     6.2343
  382.0000  -999.2500   -37.2018     5.1166   202.7582     6.1175
  382.5000  -999.2500   -37.1684     5.1168   204.8009     5.9998
  383.0000  -999.2500   -37.1345     5.1168   206.8465     5.8818
  383.5000  -999.2500   -37.1007     5.1168   208.8851     5.7648
  384.0000  -999.2500   -37.0670     5.1168   210.9547     5.6947
  384.5000  -999.2500   -37.0332     5.1168   210.3208     5.7790
  385.0000  -999.2500   -36.9995     5.1168   208.9510     5.8579
  385.5000  -999.2500   -36.9657     5.1167   207.5690     5.9213
  386.0000  -999.2500   -36.9319     5.1168   206.1890     5.9424
  386.5000  -999.2500   -36.8979     5.1231   204.8102     5.9639
  387.0000  -999.2500   -36.8634     5.1427   203.4314     6.0061
  387.5000  -999.2500   -36.8874     5.1620   202.0526     6.0511
  388.0000  -999.2500   -36.9197     5.1814   200.6698     6.0961
  388.5000  -999.2500   -36.9522     5.2008   200.5226     6.1405
  389.0000  -999.2500   -36.9845     5.2201   200.5228     6.1526
  389.5000  -999.2500   -37.0168     5.2395   200.5241     6.1152
  390.0000  -999.2500   -37.0490     5.2588   200.5243     6.0787
  390.5000  -999.2500   -37.0813     5.2783   200.5243     6.0587
  391.0000  -999.2500   -37.1136     5.2973   200.5243     6.0693
  391.5000  -999.2500   -37.1460     5.2980   200.5243     6.0920
  392.0000  -999.2500   -37.1781     5.2979   200.5243     6.1146
  392.5000  -999.2500   -37.2109     5.2979   200.5243     6.1372
  393.0000  -999.2500   -37.1644     5.2979   200.5243     6.1599
  393.5000  -999.2500   -37.0507     5.2979   200.5237     6.1826
  394.0000  -999.2500   -36.9364     5.2979   200.5243     6.2032
  394.5000  -999.2500   -36.8220     5.2979   200.5243     6.2041
  395.0000  -999.2500   -36.7072     5.2981   201.0677     6.1637
  395.5000  -999.2500   -36.5928     5.2981   201.9869     6.0972
  396.0000  -999.2500   -36.5064     5.2887   202.9061     6.0304
  396.5000  -999.2500   -36.6326     5.2152   203.8253     5.9634
  397.0000  -999.2500   -36.7572     5.1414   204.5525     5.8966
  397.5000  -999.2500   -36.8811     5.0676   207.1263     5.8326
  398.0000  -999.2500   -37.0052     4.9942   209.7001     5.7885
  398.5000  -999.2500   -37.1287     4.9377   212.2739     5.7436
  399.0000  -999.2500   -37.2280     4.9592   214.8477     5.6987
  399.5000  -999.2500   -37.2259     4.9792   216.7034     5.6518
  400.0000  -999.2500   -37.2257     4.9991   216.1756     5.6399
  400.5000  -999.2500   -37.2256     5.0189   215.6479     5.6973
  401.0000  -999.2500   -37.2256     5.0387   215.1201     5.7479
  401.5000  -999.2500   -37.2256     5.0585   213.3990     5.7983
  402.0000  -999.2500   -37.2256     5.0783   211.3786     5.8484
  402.5000  -999.2500   -37.2257     5.0981   209.3583     5.8985
  403.0000  -999.2500   -37.2254     5.1179   207.3379     5.9486
  403.5000  -999.2500   -37.2081     5.1377   205.3175     5.9988
  404.0000  -999.2500   -37.1613     5.1576   204.1468     6.0489
  404.5000  -999.2500   -37.1147     5.1774   204.1468     6.0764
  405.0000  -999.2500   -37.0660     5.1969   204.1353     6.0441
  405.5000  -999.2500   -36.9283     5.1932   204.1528     6.0096
  406.0000  -999.2500   -36.6794     5.1638   206.6008     5.9752
  406.5000  -999.2500   -36.4301     5.1347   209.0794     5.9408
  407.0000  -999.2500   -36.3702     5.1054   211.3918     5.9063
  407.5000  -999.2500   -36.4775     5.0761   213.1825     5.8719
  408.0000  -999.2500   -36.5872     5.0469   214.8661     5.8387
  408.5000  -999.2500   -36.6973     5.0176   216.5497     5.8247
  409.0000  -999.2500   -36.8070     4.9883   218.2334     5.8105
  409.5000  -999.2500   -36.9168     4.9591   219.9200     5.7651
  410.0000  -999.2500   -37.0268     4.9394   220.4539     5.7064
  410.5000  -999.2500   -37.1365     4.9650   220.4504     5.6590
  411.0000  -999.2500   -37.2280     4.9899   220.4480     5.6704
  411.5000  -999.2500   -37.2259     5.0146   219.3359     5.7213
  412.0000  -999.2500   -37.2256     5.0393   217.8543     5.7708
  412.5000  -999.2500   -37.2256     5.0640   216.2301     5.8201
  413.0000  -999.2500   -37.2258     5.0886   214.2191     5.8695
  413.5000  -999.2500   -37.2274     5.1133   212.2271     5.9189
  414.0000  -999.2500   -37.1551     5.1380   210.2326     5.9795
  414.5000  -999.2500   -37.0664     5.1627   208.2381     6.0600
  415.0000  -999.2500   -36.9774     5.1874   206.2437     6.1403
  415.5000  -999.2500   -36.8885     5.2121   204.1468     6.2032
  416.0000  -999.2500   -36.7996     5.2368   202.9066     6.2431
  416.5000  -999.2500   -36.7108     5.2614   201.5993     6.2832
  417.0000  -999.2500   -36.6219     5.2863   200.2920     6.3234
  417.5000  -999.2500   -36.5330     5.2921   198.9848     6.3634
  418.0000  -999.2500   -36.4442     5.2818   197.6774     6.4037
  418.5000  -999.2500   -36.3553     5.2712   196.3702     6.4292
  419.0000  -999.2500   -36.3498     5.2606   195.0629     6.4443
  419.5000  -999.2500   -36.4276     5.2500   193.7556     6.4536
  420.0000  -999.2500   -36.5052     5.2394   195.2717     6.4216
  420.5000  -999.2500   -36.5831     5.2288   196.5064     6.3897
  421.0000  -999.2500   -36.6608     5.2183   197.7410     6.3579
  421.5000  -999.2500   -36.7386     5.2077   198.9757     6.3261
  422.0000  -999.2500   -36.8163     5.1971   200.2104     6.2943
  422.5000  -999.2500   -36.8941     5.1865   200.2481     6.2627
  423.0000  -999.2500   -36.9718     5.1759   199.8777     6.2392
  423.5000  -999.2500   -37.0496     5.1653   199.5073     6.2388
  424.0000  -999.2500   -37.1276     5.1548   199.1369     6.2726
  424.5000  -999.2500   -37.2109     5.1441   198.7665     6.3131
  425.0000  -999.2500   -37.0881     5.1335   198.3961     6.3538
  425.5000  -999.2500   -36.9025     5.1237   198.0257     6.3944
  426.0000  -999.2500   -36.7154     5.1571   197.6330     6.4349
  426.5000  -999.2500   -36.5285     5.2576   197.2849     6.4755
  427.0000  -999.2500   -36.3411     5.3571   209.5068     6.5161
  427.5000  -999.2500   -36.1517     5.4569   196.1864     6.5566
  428.0000  -999.2500   -36.2069     5.5566   195.4456     6.5972
  428.5000  -999.2500   -36.3001     5.6564   193.8046     6.6372
  429.0000  -999.2500   -36.3940     5.7561   191.4681     6.7670
  429.5000  -999.2500   -36.4917     5.8558   186.4146     6.9699
  430.0000  -999.2500   -36.6560     5.9555   181.5795     7.2343
  430.5000  -999.2500   -36.8301     6.0553   176.7593     7.5398
  431.0000  -999.2500   -37.0044     6.1551   171.9564     7.8454
  431.5000  -999.2500   -37.1785     6.2547   167.5173     8.1553
  432.0000  -999.2500   -37.3528     6.3566   165.0480     8.2207
  432.5000  -999.2500   -37.5266     6.3375   165.8479     8.1455
  433.0000  -999.2500   -37.7021     6.2728   168.0703     7.9708
  433.5000  -999.2500   -37.7535     6.2064   170.2928     7.7987
  434.0000  -999.2500   -37.7211     6.1401   172.5152     7.6269
  434.5000  -999.2500   -37.6871     6.0739   174.7376     7.4548
  435.0000  -999.2500   -37.6530     6.0075   175.5938     7.2816
  435.5000  -999.2500   -37.6191     5.9403   176.1229     7.1986
