~VERSION INFORMATION
 VERS.                2.0:   CWLS LOG ASCII STANDARD - VERSION 2.0
 WRAP.                 NO:   ONE LINE PER DEPTH STEP
~WELL INFORMATION
#MNEM.UNIT      DATA TYPE    INFORMATION
#----------   ------------   ------------------------------
 STRT.F          100.0000:   START DEPTH
 STOP.F          874.0000:   STOP DEPTH
 STEP.F            0.5000:   STEP LENGTH
 NULL.          -999.2500:   NO VALUE
 COMP. U S NAVY-INTEX OIL:   COMPANY
 WELL.     NPR #3 #45-S-2:   WELL
 FLD .             TEAPOT:   FIELD
 LOC .       S2 T38N R78W:   LOCATION
 CNTY.            NATRONA:   COUNTY
 STAT.            WYOMING:   STATE
 CTRY. UNITED STATES OF AMERICA:   COUNTRY
 SRVC.       Schlumberger:   SERVICE COMPANY
 DATE.        15-JUL-1962:   LOGDATE
 API .       490250642400:   API NUMBER
~CURVE INFORMATION
#MNEM.UNIT       API CODE    CURVE DESCRIPTION
#----------   ------------   ------------------------------
 DEPT.F                  :   
 ASN .OHMM   05 041 16 00:   AMPLIFIED SHORT NORMAL 16"
 CILD.MMHO   05 110 46 00:   CONDUCTIVITY INDUCTION LOG DEEP
 ILD .OHMM   05 120 46 00:   INDUCTION LOG DEEP
 SPR .MV     05 010 01 00:   SPONTANEOUS POTENTIAL FROM RES.
 GR  .GAPI   30 310 01 00:   GAMMA RAY
~PARAMETER INFORMATION
#MNEM.UNIT          VALUE    DESCRIPTION
#----------   ------------   ------------------------------
 LMF .                 KB:   LOG MEASURED FROM
 DMF .                 KB:   DRILLING MEASURED FROM
 EKB .F              5149:   KELLING BUSHING
 EGL .F              5144:   GROUND LEVEL
 DATE.        15-JUL-1962:   RUN DATE
 RUN .                  1:   RUN NUMBER
 DD  .F               875:   DEPTH DRILLER
 DL  .F               875:   DEPTH LOGGER
 BLI .F               874:   BOTTOM LOG INTERVAL
 TLI .F               100:   TOP LOG INTERVAL
 BS  .IN             6.75:   BIT SIZE
 BSD .F               875:   BIT SIZE AT DEPTH
 DFT .           OIL EMUL:   DRILLING FLUID TYPE
 DFD .               10.2:   DRILLING FLUID DENSITY
 DFV .                 42:   DRILLING FLUID VISCOSITY
 DFL .                4.6:   DRILLING FLUID LOSS
 RMS .OHMM            6.0:   RESISTIVITY MUD SAMPLE
 MST .F                64:   MUD SAMPLE TEMPERATURE
 RMF .OHMM            5.8:   RESISTIVITY MUD FILTRATE SAMPLE
 MFST.F                64:   MUD FILTRATE SAMPLE TEMPERATURE
 RMC .OHMM            5.2:   RESISTIVITY MUD CAKE
 MCST.F                66:   MUD CAKE SAMPLE TEMPERATURE
 TCS .HRS             0.5:   TIME CURCULATED STOPPED
 LUN .               2503:   LOGGING UNIT NUMBER
 LUL .               CSPR:   LOGGING UNIT LOCATION
 ENGI.           ELLERMAN:   RECORDING ENGINEER
 WITN.          JORGENSON:   WITNESSED BY
 CLNT.            A2DTECH:   CLIENT CODE
 ORIG.           5" PRINT:   ORIGIN OF DATA
 UWI .       490250642400:   UNIQUE WELL ID
 DICO. A2D Technologies, Inc.:   DIGITIZING COMPANY
~OTHER INFORMATION
~A   DEPT        ASN      CILD       ILD        SPR         GR   
# ...
  344.0000    11.8624    89.9344    10.9586   -44.9314  -999.2500
  344.5000    10.7071   102.0112     9.6149   -43.5789  -999.2500
  345.0000    10.1217   112.5728     8.5707   -42.3758  -999.2500
  345.5000     8.9305   126.1647     7.7510   -40.8737  -999.2500
  346.0000     8.1793   136.7264     7.3055   -39.9696  -999.2500
  346.5000     7.9110   143.5204     7.0097   -39.5139  -999.2500
  347.0000     7.6576   148.8384     6.7889   -39.3572  -999.2500
  347.5000     7.3894   155.5214     6.7177   -39.3498  -999.2500
  348.0000     7.2408   158.5073     6.7971   -39.1914  -999.2500
  348.5000     7.1522   159.2316     6.8756   -39.1841  -999.2500
  349.0000     7.1231   156.9033     6.8792   -39.1768  -999.2500
  349.5000     7.1395   156.1013     6.9577   -39.0201  -999.2500
  350.0000     7.2006   155.2993     7.1109   -39.1624  -999.2500
  350.5000     7.2477   152.9773     7.1865   -39.7574  -999.2500
  351.0000     7.2619   152.9143     7.1872   -40.0535  -999.2500
  351.5000     7.1880   151.3475     7.1879   -40.4990  -999.2500
  352.0000     7.1139   151.2960     7.1138   -40.6463  -999.2500
  352.5000     7.0398   150.4868     7.0397   -40.6426  -999.2500
  353.0000     6.9507   150.4353     6.8907   -40.4902  -999.2500
  353.5000     6.8616   149.6261     6.8915   -40.4873  -999.2500
  354.0000     6.8923   148.8170     6.9672   -40.3109  -999.2500
  354.5000     6.9678   148.0076     7.1925   -40.1818  -999.2500
  355.0000     7.0434   146.4394     7.1932   -41.0758  -999.2500
  355.5000     7.1050   144.8615     7.3437   -41.9697  -999.2500
  356.0000     7.1371   144.8099     7.3444   -42.1170  -999.2500
  356.5000     7.1805   144.7584     7.3451   -41.3660  -999.2500
  357.0000     7.1962   144.7068     7.2710   -40.6157  -999.2500
  357.5000     7.1670   146.1833     7.1969   -40.4633  -999.2500
  358.0000     7.1376   147.6340     7.1227   -41.0583  -999.2500
  358.5000     7.0787   149.0985     7.0377   -41.3677  -999.2500
  359.0000     7.0345   151.3484     6.8997   -41.9486  -999.2500
  359.5000     6.9903   152.1388     6.8255   -41.9457  -999.2500
  360.0000     6.9461   154.2330     6.8264   -41.9428  -999.2500
  360.5000     6.8865   154.9519     6.9020   -41.6409  -999.2500
  361.0000     6.8409   154.8874     6.9028   -41.3390  -999.2500
  361.5000     6.8136   154.8358     6.9035   -41.0372  -999.2500
  362.0000     6.8295   154.0267     6.9042   -40.7353  -999.2500
  362.5000     6.8901   152.4600     6.9798   -40.2839  -999.2500
  363.0000     6.9806   150.1357     7.0554   -40.1315  -999.2500
  363.5000     7.0562   147.0076     7.2060   -40.7265  -999.2500
  364.0000     7.1468   144.6617     7.2067   -41.3208  -999.2500
  364.5000     7.2373   142.3923     7.3571   -41.4681  -999.2500
  365.0000     7.2979   139.3104     7.4327   -41.6147  -999.2500
  365.5000     7.3436   137.3612     7.5322   -41.6110  -999.2500
  366.0000     7.4056   134.9495     7.6118   -41.4586  -999.2500
  366.5000     7.4949   132.3376     7.6595   -41.4557  -999.2500
  367.0000     7.6004   130.7708     7.7350   -41.4528  -999.2500
  367.5000     7.7060   129.2041     7.8106   -41.3004  -999.2500
  368.0000     7.7965   127.5759     7.8114   -41.2975  -999.2500
  368.5000     7.8721   126.8154     7.8548   -41.1216  -999.2500
  369.0000     7.9327   125.2486     7.8878   -40.9920  -999.2500
  369.5000     7.9783   124.4395     7.9634   -40.6901  -999.2500
  370.0000     8.0090   124.3879     7.9641   -40.8367  -999.2500
  370.5000     8.0247   125.8515     8.0397   -40.8338  -999.2500
  371.0000     8.0254   127.3151     8.0405   -41.1298  -999.2500
  371.5000     7.9939   128.0227     8.0412   -41.2771  -999.2500
  372.0000     7.8774   130.2422     7.9651   -41.2735  -999.2500
  372.5000     7.7733   132.4634     7.8081   -40.9716  -999.2500
  373.0000     7.6842   133.9313     7.5194   -40.2083  -999.2500
  373.5000     7.5951   135.3949     7.3704   -39.4703  -999.2500
  374.0000     7.4761   136.8584     7.2963   -39.1684  -999.2500
  374.5000     7.3421   138.3106     7.2222   -38.8665  -999.2500
  375.0000     7.2680   139.7727     7.1481   -38.8636  -999.2500
  375.5000     7.2088   141.2363     7.0740   -38.8607  -999.2500
  376.0000     7.1643   141.9423     7.0000   -38.8578  -999.2500
  376.5000     7.1355   141.8779     7.0008   -38.8549  -999.2500
  377.0000     7.1364   141.8263     7.0050   -38.8520  -999.2500
  377.5000     7.1371   141.7747     7.0771   -38.9142  -999.2500
  378.0000     7.1528   141.4697     7.1527   -38.9955  -999.2500
  378.5000     7.1984   140.9167     7.2284   -38.9925  -999.2500
  379.0000     7.2291   140.8624     7.2291   -39.1385  -999.2500
  379.5000     7.2897   139.2955     7.3281   -39.1356  -999.2500
  380.0000     7.3803   139.2424     7.4451   -39.1330  -999.2500
  380.5000     7.4708   138.4221     7.5307   -39.2800  -999.2500
  381.0000     7.5165   137.6130     7.6417   -39.2765  -999.2500
  381.5000     7.5322   136.8038     7.6839   -39.2734  -999.2500
  382.0000     7.4882   135.9947     7.7575   -39.1210  -999.2500
  382.5000     7.4590   134.4279     7.8332   -38.9612  -999.2500
  383.0000     7.4148   133.6188     7.8339   -38.7932  -999.2500
  383.5000     7.3856   133.5672     7.8346   -38.5137  -999.2500
  384.0000     7.4013   133.5152     7.8354   -38.3613  -999.2500
  384.5000     7.5218   133.4621     7.7612   -38.3584  -999.2500
  385.0000     7.6273   133.3996     7.7620   -38.5056  -999.2500
  385.5000     7.7328   133.3481     7.6879   -38.5020  -999.2500
  386.0000     7.7785   133.2965     7.6886   -38.6493  -999.2500
  386.5000     7.7792   134.0154     7.6056   -38.7952  -999.2500
  387.0000     7.6832   136.9812     7.5404   -38.9417  -999.2500
  387.5000     7.4814   140.7176     7.5413   -39.0883  -999.2500
  388.0000     7.2875   144.4539     7.3921   -39.0846  -999.2500
  388.5000     7.1236   147.4326     7.2432   -39.3806  -999.2500
  389.0000     6.9746   149.6537     7.0195   -39.3777  -999.2500
  389.5000     6.8855   151.1044     6.8706   -39.5250  -999.2500
  390.0000     6.8264   151.8233     6.7216   -39.6716  -999.2500
  390.5000     6.8121   151.7589     6.7223   -39.9676  -999.2500
  391.0000     6.8129   151.7073     6.7979   -40.1142  -999.2500
  391.5000     6.9344   151.6557     6.7988   -40.4096  -999.2500
  392.0000     7.1192   152.3636     6.9492   -40.5561  -999.2500
  392.5000     7.2195   153.0682     7.0248   -40.4036  -999.2500
  393.0000     7.2202   154.5313     7.1752   -40.1011  -999.2500
  393.5000     7.1610   155.2373     7.1009   -39.7992  -999.2500
  394.0000     7.0420   155.1729     6.9520   -39.3479  -999.2500
  394.5000     6.9230   155.1213     6.8031   -39.1955  -999.2500
  395.0000     6.7142   155.0697     6.6542   -39.0197  -999.2500
  395.5000     6.5952   155.0182     6.6549   -38.8907  -999.2500
  396.0000     6.5807   154.2090     6.6986   -38.7383  -999.2500
  396.5000     6.6864   152.6423     6.8063   -38.7354  -999.2500
  397.0000     6.8069   151.0756     6.8819   -38.8819  -999.2500
  397.5000     6.9274   147.1591     6.9574   -38.9013  -999.2500
  398.0000     7.0180   142.6262     6.9582   -39.0256  -999.2500
  398.5000     7.1092   139.5444     7.0337   -39.1714  -999.2500
  399.0000     7.1862   137.2200     7.1093   -39.1685  -999.2500
  399.5000     7.2599   135.6533     7.2598   -39.1656  -999.2500
  400.0000     7.3504   134.8442     7.4102   -39.3129  -999.2500
  400.5000     7.5158   135.5857     7.4110   -39.4571  -999.2500
  401.0000     7.5764   135.5580     7.4117   -39.0014  -999.2500
  401.5000     7.5771   137.0510     7.3374   -38.6966  -999.2500
  402.0000     7.5330   137.0288     7.2635   -38.3905  -999.2500
  402.5000     7.4738   138.5218     7.2642   -38.3847  -999.2500
  403.0000     7.3983   139.2576     7.2651   -38.3789  -999.2500
  403.5000     7.3108   141.5078     7.1908   -38.5240  -999.2500
  404.0000     7.2366   143.1009     7.1167   -38.6677  -999.2500
  404.5000     7.1773   145.2457     7.0425   -38.8100  -999.2500
