~VERSION INFORMATION
 VERS.                2.0:   CWLS LOG ASCII STANDARD - VERSION 2.0
 WRAP.                 NO:   ONE LINE PER DEPTH STEP
~WELL INFORMATION
#MNEM.UNIT      DATA TYPE    INFORMATION
#----------   ------------   ------------------------------
 STRT.F            4.0000:   START DEPTH
 STOP.F          470.0000:   STOP DEPTH
 STEP.F            0.5000:   STEP LENGTH
 NULL.          -999.2500:   NO VALUE
 COMP. BROWN JOHN E&C INC:   COMPANY
 WELL. NPR 3 SX-10 #74-1-10:   WELL
 FLD .             TEAPOT:   FIELD
 LOC .      S10 T38N R78W:   LOCATION
 CNTY.            NATRONA:   COUNTY
 STAT.            WYOMING:   STATE
 CTRY. UNITED STATES OF AMERICA:   COUNTRY
 SRVC.     Atlas Wireline:   SERVICE COMPANY
 DATE.        21-SEP-1983:   LOGDATE
 API .       490251094000:   API NUMBER
~CURVE INFORMATION
#MNEM.UNIT       API CODE    CURVE DESCRIPTION
#----------   ------------   ------------------------------
 DEPT.F                  :   
 GRR .GAPI   07 310 01 00:   GAMMA RAY FROM RES. LOG.
 RILD.OHMM   07 120 46 00:   INDUCTION LOG DEEP RESISTIVITY
 RILM.OHMM   07 120 44 00:   INDUCTION LOG MEDIUM RESISTIVITY
~PARAMETER INFORMATION
#MNEM.UNIT          VALUE    DESCRIPTION
#----------   ------------   ------------------------------
 PD  .                 GL:   PERMANENT DATUM
 EPD .F              5183:   ELEVATION PERMANENT DATUM
 LMF .                 KB:   LOG MEASURED FROM
 DAPD.F                10:   FEET ABOVE PERMANENT DATUM
 DMF .                 KB:   DRILLING MEASURED FROM
 EKB .F              5193:   KELLING BUSHING
 EGL .F              5183:   GROUND LEVEL
 DATE.        21-SEP-1991:   RUN DATE
 RUN .                  1:   RUN NUMBER
 DD  .F               480:   DEPTH DRILLER
 DL  .F               478:   DEPTH LOGGER
 BLI .F               470:   BOTTOM LOG INTERVAL
 CS  .IN                7:   CASING SIZE
 CBD .F                90:   CASING BOTTOM DRILLER
 CBL .F                90:   CASING BOTTOM LOGGER
 BS  .IN             6.25:   BIT SIZE
 BSD .F               480:   BIT SIZE AT DEPTH
 DFT .                AIR:   DRILLING FLUID TYPE
 TCS .HRS               1:   TIME CURCULATED STOPPED
 MRT .F                80:   MAXIMUM RECORDED TEMPERATURE
 LUN .             HL6307:   LOGGING UNIT NUMBER
 LUL .             CASPER:   LOGGING UNIT LOCATION
 ENGI.             RAUTIO:   RECORDING ENGINEER
 WITN.             STRONG:   WITNESSED BY
 CLNT.            A2DTECH:   CLIENT CODE
 ORIG.     1", 2.5" PRINT:   ORIGIN OF DATA
 UWI .       490251094000:   UNIQUE WELL ID
 DICO. A2D Technologies, Inc.:   DIGITIZING COMPANY
~OTHER INFORMATION
~A    DEPT       GRR     RILD       RILM   
# ...
  186.0000   142.5040     7.0985     7.4999
  186.5000   141.9099     7.2012     7.6294
  187.0000   144.1440     7.3157     7.7851
  187.5000   146.0603     7.5044     7.6661
  188.0000   147.7341     7.4388     7.5443
  188.5000   145.6385     7.2859     7.4242
  189.0000   143.6136     7.1361     7.3056
  189.5000   143.5782     6.9472     7.1886
  190.0000   144.6998     6.7481     7.0735
  190.5000   143.5466     6.5547     6.9653
  191.0000   141.9255     6.3456     6.7150
  191.5000   141.0723     6.1317     6.4825
  192.0000   143.4744     5.8897     6.2580
  192.5000   146.6237     5.5815     6.0005
  193.0000   149.5766     5.2779     5.7293
  193.5000   149.6681     4.9910     5.4104
  194.0000   149.8744     4.7196     5.1093
  194.5000   150.2330     4.4533     4.7094
  195.0000   147.8924     4.5160     4.7757
  195.5000   144.1806     4.5821     4.8928
  196.0000   139.0414     4.6493     5.0128
  196.5000   138.3957     4.7094     5.2443
  197.0000   141.6740     4.9710     5.6026
  197.5000   143.8674     5.1694     5.9853
  198.0000   145.8526     5.6374     6.3941
  198.5000   148.4126     6.0729     6.7874
  199.0000   151.3680     6.4752     7.0815
  199.5000   151.2481     7.0890     7.3881
  200.0000   151.1835     7.0343     7.6454
  200.5000   150.9804     6.9127     7.6474
  201.0000   152.3264     6.7934     7.6445
  201.5000   153.6913     6.6765     7.6436
  202.0000   154.0884     6.5618     7.6813
  202.5000   152.5528     6.4650     7.8088
  203.0000   151.0066     6.5684     7.9350
  203.5000   150.8470     6.6592     8.0853
  204.0000   151.9554     6.7513     7.9230
  204.5000   154.5936     6.8447     7.8938
  205.0000   156.8042     6.9394     7.8646
  205.5000   154.8921     7.5044     7.8356
  206.0000   153.4251     7.4030     7.8067
  206.5000   153.0030     7.2272     7.7819
  207.0000   152.6634     7.0555     7.7632
  207.5000   152.3554     6.8879     7.7446
  208.0000   152.5457     6.7243     7.7260
  208.5000   154.2686     6.5866     7.7074
  209.0000   155.9157     6.7233     7.6889
  209.5000   157.6129     6.8457     7.6704
  210.0000   159.4662     6.9619     7.6558
  210.5000   158.7449     6.7554     7.4650
  211.0000   155.9740     6.5823     7.1901
  211.5000   157.1922     6.2767     6.9250
  212.0000   158.5087     6.0119     6.7103
  212.5000   159.7786     5.7582     6.5383
  213.0000   160.8770     5.5629     6.3940
  213.5000   162.1736     5.5364     6.2531
  214.0000   161.2367     5.5102     6.1155
  214.5000   158.5595     5.4838     5.9978
  215.0000   156.0841     5.4437     5.7264
  215.5000   153.4923     5.3787     5.4956
  216.0000   153.3070     5.0515     5.2742
  216.5000   155.7768     4.6839     5.0616
  217.0000   156.6260     4.3711     4.8576
  217.5000   154.8458     4.7024     4.7338
  218.0000   153.3617     4.9802     4.6440
  218.5000   151.6154     5.1324     4.7452
  219.0000   150.2539     5.2688     4.9116
  219.5000   148.5015     5.4088     5.0755
  220.0000   147.4125     5.5695     5.4116
  220.5000   146.1705     5.9676     5.7535
  221.0000   148.4350     6.4526     6.1166
  221.5000   149.8388     7.0005     6.4997
  222.0000   149.9604     6.8342     7.0057
  222.5000   150.3230     6.5133     6.9653
  223.0000   149.1981     6.2076     6.4217
  223.5000   146.6786     5.9161     5.8329
  224.0000   147.0368     5.6384     5.2981
  224.5000   148.6954     5.3737     4.9802
  225.0000   156.6592     5.1214     4.9802
  225.5000   162.0369     4.9802     5.0777
  226.0000   160.3993     4.9802     5.2013
  226.5000   153.5969     4.9802     5.3278
  227.0000   149.5291     4.9802     5.5619
  227.5000   146.7419     4.9802     5.8524
  228.0000   147.5211     5.5140     6.1581
  228.5000   150.6304     6.1134     6.4797
  229.0000   148.2440     6.3162     6.8182
  229.5000   143.5559     6.5696     7.1752
  230.0000   142.2072     6.8333     7.5052
  230.5000   146.4135     7.1074     7.7609
  231.0000   149.8570     7.2517     7.9971
  231.5000   148.6940     7.2906     8.2369
  232.0000   147.7741     7.3297     8.2870
  232.5000   144.5054     7.3659     8.3369
  233.0000   141.0627     7.3659     8.3872
  233.5000   139.6859     7.3659     8.4386
  234.0000   139.3843     7.4307     8.4895
  234.5000   141.0737     7.6115     8.5502
  235.0000   140.1218     7.7894     8.5263
  235.5000   139.0898     7.8495     8.4971
  236.0000   139.4847     7.9078     8.4680
  236.5000   141.0915     7.9665     8.4389
  237.0000   140.6049     8.0257     8.4100
  237.5000   141.0186     8.0853     8.3256
  238.0000   143.7874     8.2159     8.1558
  238.5000   145.4666     8.3486     7.9360
  239.0000   144.0684     8.4171     8.1313
  239.5000   142.8909     8.4540     8.4299
  240.0000   141.6738     8.4910     8.7395
  240.5000   139.1250     8.5502     8.8749
  241.0000   136.9852     8.5165     8.8749
  241.5000   136.8893     8.4350     8.8749
  242.0000   136.7343     8.0691     8.8749
  242.5000   135.3482     7.4260     7.6976
  243.0000   132.8596     6.8342     6.7515
  243.5000   133.5742     6.2895     5.9218
  244.0000   139.3766     5.8700     5.0739
  244.5000   147.5190     5.7767     4.9802
  245.0000   163.2663     5.6742     5.4707
  245.5000   160.2878     5.7146     5.9844
  246.0000   158.9373     5.7606     6.5464
  246.5000   149.1978     6.1203     7.1612
  247.0000   139.7726     6.7787     7.8337
  247.5000   138.3784     7.5079     8.5548
  248.0000   138.6324     8.3538     9.2898
  248.5000   135.6447     9.3457    10.0880
  249.0000   132.9377    10.2954    10.4957
  249.5000   132.1225    10.1991    10.4957
  250.0000   134.5849    10.1139    10.4957
  250.5000   136.8315    10.0293    10.4957
  251.0000   134.5078     9.9412    10.6966
  251.5000   134.8092    10.4743    11.4395
  252.0000   135.2398    11.6625    12.2339
  252.5000   130.4979    12.8838    13.2986
  253.0000   121.6199    14.1191    15.2718
  253.5000   103.6894    15.4728    17.6866
  254.0000    85.1514    17.0656    19.6535
  254.5000    80.3562    18.9186    21.9894
  255.0000    83.2033    20.9729    24.6030
  255.5000    87.2103    22.9594    27.1523
  256.0000    85.6906    24.6351    28.1834
  256.5000    81.9104    26.2577    29.0019
  257.0000    79.8900    27.3120    29.8041
  257.5000    80.7101    27.6064    29.6932
  258.0000    81.5200    27.9024    29.5898
  258.5000    83.2088    28.1967    29.4868
  259.0000    86.5192    28.6045    29.3841
  259.5000    89.8521    28.1383    29.2806
  260.0000    91.8082    27.6806    29.3402
  260.5000    88.6242    27.2310    29.4599
  261.0000    85.7410    26.6540    29.5800
  261.5000    84.0158    26.7256    29.7006
  262.0000    82.2208    26.8442    29.8041
  262.5000    81.9934    26.9636    30.1767
  263.0000    83.9471    27.0841    30.5060
  263.5000    85.7385    27.3776    30.8388
  264.0000    87.5936    27.8693    31.2729
  264.5000    89.3643    28.3712    31.7553
  265.0000    90.9729    28.8795    32.2447
  265.5000    88.7513    29.3099    32.7418
  266.0000    86.8035    29.5151    33.2463
  266.5000    84.6593    29.7217    33.9538
  267.0000    87.1184    29.9297    33.7790
  267.5000    89.7258    30.1392    33.4771
  268.0000    90.4758    30.3503    33.1816
  268.5000    92.1573    30.5626    32.7149
  269.0000    95.5184    30.7762    33.0941
  269.5000    98.2112    30.9910    34.0503
  270.0000    97.5161    31.2069    35.0342
  270.5000    95.2719    31.4239    36.0464
  271.0000    93.1294    31.6426    37.2739
  271.5000    91.3330    31.8636    36.5311
  272.0000    90.7375    32.1109    35.6500
  272.5000    92.2735    31.6020    34.7902
  273.0000    94.1338    31.0557    33.9511
  273.5000    96.0498    30.5188    33.1322
  274.0000    97.9412    29.9912    32.3331
  274.5000    98.5019    29.4727    31.6640
  275.0000    98.4996    28.8003    30.9360
  275.5000    98.4947    28.0251    30.7619
  276.0000    98.9808    27.2707    30.5480
  276.5000    99.4357    26.5366    30.3648
