~VERSION INFORMATION
 VERS.                2.0:   CWLS LOG ASCII STANDARD - VERSION 2.0
 WRAP.                 NO:   ONE LINE PER DEPTH STEP
~WELL INFORMATION
#MNEM.UNIT      DATA TYPE    INFORMATION
#----------   ------------   ------------------------------
 STRT.F           52.5000:   START DEPTH
 STOP.F         2929.0000:   STOP DEPTH
 STEP.F            0.5000:   STEP LENGTH
 NULL.          -999.2500:   NO VALUE
 COMP.   FLUOR DANIEL INC:   COMPANY
 WELL. NAVAL PETROLEUM RESERVE 3 X-23 #52-23:   WELL
 FLD .            WILDCAT:   FIELD
 LOC .      S23 T38N R78W:   LOCATION
 CNTY.            NATRONA:   COUNTY
 STAT.            WYOMING:   STATE
 CTRY. UNITED STATES OF AMERICA:   COUNTRY
 SRVC.            Unknown:   SERVICE COMPANY
 DATE.        23-APR-1995:   LOGDATE
 API .       490252271500:   API NUMBER
~CURVE INFORMATION
#MNEM.UNIT       API CODE    CURVE DESCRIPTION
#----------   ------------   ------------------------------
 DEPT.F                  :   
 ROP .MIN/FT 91 810 01 00:   RAT OF DRILLING PENETRATION
 TGAS.UNITS  91 830 01 00:   TOTAL GAS FROM HOTWIRE
~PARAMETER INFORMATION
#MNEM.UNIT          VALUE    DESCRIPTION
#----------   ------------   ------------------------------
 EKB .F              5344:   KELLING BUSHING
 EGL .F              5334:   GROUND LEVEL
 DATE.            4-23-95:   RUN DATE
 DD  .F              2929:   DEPTH DRILLER
 CS  .IN            9.625:   CASING SIZE
 CBD .F                53:   CASING BOTTOM DRILLER
 BS  .IN             8.75:   BIT SIZE
 BSD .F              2929:   BIT SIZE AT DEPTH
 ENGI.              TOWER:   RECORDING ENGINEER
 WITN.               HUSK:   WITNESSED BY
 CLNT.            A2DTECH:   CLIENT CODE
 ORIG.           5" PRINT:   ORIGIN OF DATA
 UWI .       490252271500:   UNIQUE WELL ID
 DICO. A2D Technologies, Inc.:   DIGITIZING COMPANY
~OTHER INFORMATION
~A   DEPT        ROP     TGAS   
# ...
 1753.5000     0.5388     1.6991
 1754.0000     0.5388     1.7613
 1754.5000     0.6466     1.8235
 1755.0000     0.6466     1.8857
 1755.5000     0.6358     1.9359
 1756.0000     0.6358     1.9472
 1756.5000     0.6358     1.9585
 1757.0000     0.6358     1.9699
 1757.5000     0.6358     1.9812
 1758.0000     0.6358     1.9925
 1758.5000     0.6358     2.0038
 1759.0000     0.6358     2.0152
 1759.5000     0.6358     2.0265
 1760.0000     0.5065     2.0378
 1760.5000     0.4957     2.0492
 1761.0000     0.4957     2.0605
 1761.5000     0.4957     2.0718
 1762.0000     0.4957     2.0832
 1762.5000     0.4957     2.0945
 1763.0000     0.4957     2.1058
 1763.5000     0.4957     2.1172
 1764.0000     0.6573     2.1285
 1764.5000     0.6573     2.1398
 1765.0000     0.6573     2.1171
 1765.5000     0.6573     2.0071
 1766.0000     0.6466     1.8972
 1766.5000     0.6466     1.7873
 1767.0000     0.6466     1.7358
 1767.5000     0.6466     1.7824
 1768.0000     0.6462     1.8290
 1768.5000     0.6449     1.8756
 1769.0000     0.6435     1.9222
 1769.5000     0.6422     1.9688
 1770.0000     0.6409     2.0154
 1770.5000     0.6395     2.0620
 1771.0000     0.6382     2.1086
 1771.5000     0.6368     2.1480
 1772.0000     0.6358     2.1480
 1772.5000     0.6358     2.1480
 1773.0000     0.6358     2.1480
 1773.5000     0.6358     2.1480
 1774.0000     0.7435     2.1480
 1774.5000     0.7435     2.1480
 1775.0000     0.7435     2.1480
 1775.5000     0.7435     2.1480
 1776.0000     0.7435     2.1480
 1776.5000     0.7435     2.1480
 1777.0000     0.6142     2.0866
 1777.5000     0.6142     2.0179
 1778.0000     0.6142     1.9491
 1778.5000     0.6142     1.8804
 1779.0000     0.6142     1.8117
 1779.5000     0.5065     1.7430
 1780.0000     0.5065     1.6743
 1780.5000     0.5065     1.6056
 1781.0000     0.5065     1.5369
 1781.5000     0.5065     1.4682
 1782.0000     0.5065     1.3995
 1782.5000     0.5065     1.3308
 1783.0000     0.5065     1.2754
 1783.5000     0.5065     1.2408
 1784.0000     0.5065     1.2063
 1784.5000     0.5065     1.1718
 1785.0000     0.5065     1.1372
 1785.5000     0.5065     1.1027
 1786.0000     0.5065     1.0740
 1786.5000     0.5065     1.0740
 1787.0000     0.5065     1.0740
 1787.5000     0.5065     1.0740
 1788.0000     0.5496     1.0740
 1788.5000     0.6358     1.0740
 1789.0000     0.6358     1.0740
 1789.5000     0.6358     1.0740
 1790.0000     0.6358     1.0740
 1790.5000     0.6358     1.0740
 1791.0000     0.6358     1.0740
 1791.5000     0.6358     1.0740
 1792.0000     0.6358     1.0740
 1792.5000     0.6358     1.0740
 1793.0000     0.6358     1.0740
 1793.5000     0.6358     1.0740
 1794.0000     0.6358     1.0801
 1794.5000     0.6358     1.0931
 1795.0000     0.6358     1.1060
 1795.5000     0.6358     1.1190
 1796.0000     0.6358     1.1320
 1796.5000     0.5603     1.1449
 1797.0000     0.5603     1.1579
 1797.5000     0.5603     1.1708
 1798.0000     0.5603     1.1838
 1798.5000     0.5603     1.1967
 1799.0000     0.5603     1.2097
 1799.5000     0.5603     1.2227
 1800.0000     0.5603     1.2356
 1800.5000     0.5603     1.2486
 1801.0000     0.5603     1.2615
 1801.5000     0.5603     1.2745
 1802.0000     0.5603     1.2888
 1802.5000     0.6897     1.2888
 1803.0000     0.6897     1.2888
 1803.5000     0.6897     1.2888
 1804.0000     0.6897     1.2888
 1804.5000     0.6789     1.2677
 1805.0000     0.6681     1.2463
 1805.5000     0.6466     1.2248
 1806.0000     0.6358     1.2034
 1806.5000     0.6250     1.1819
 1807.0000     0.6142     1.1605
 1807.5000     0.6142     1.1391
 1808.0000     0.6034     1.1176
 1808.5000     0.5927     1.0962
 1809.0000     0.5927     1.0748
 1809.5000     0.5819     1.0533
 1810.0000     0.5711     1.0319
 1810.5000     0.5603     1.0104
 1811.0000     0.5496     0.9890
 1811.5000     0.5496     0.9676
 1812.0000     0.5280     0.9461
 1812.5000     0.5172     0.9247
 1813.0000     0.5065     0.9033
 1813.5000     0.4750     0.8818
 1814.0000     0.4746     0.8592
 1814.5000     0.4742     0.9074
 1815.0000     0.4737     0.9585
 1815.5000     0.4734     1.0096
 1816.0000     0.4730     1.0607
 1816.5000     0.4834     1.1118
 1817.0000     0.4829     1.1630
 1817.5000     0.4934     1.2141
 1818.0000     0.4930     1.2652
 1818.5000     0.4925     1.3163
 1819.0000     0.5030     1.3674
 1819.5000     0.6214     1.4185
 1820.0000     0.6209     1.4696
 1820.5000     0.6205     1.5207
 1821.0000     0.6201     1.5718
 1821.5000     0.6197     1.6229
 1822.0000     0.6193     1.6740
 1822.5000     0.6189     1.7184
 1823.0000     0.6185     1.7184
 1823.5000     0.6181     1.7184
 1824.0000     0.6176     1.7184
 1824.5000     0.6173     1.7184
 1825.0000     0.6169     1.7184
 1825.5000     0.6164     1.7184
 1826.0000     0.6160     1.7184
 1826.5000     0.5725     1.7184
 1827.0000     0.5181     1.7184
 1827.5000     0.5176     1.7184
 1828.0000     0.5172     1.7184
 1828.5000     0.5168     1.7184
 1829.0000     0.5164     1.7184
 1829.5000     0.5160     1.7184
 1830.0000     0.5156     1.7184
 1830.5000     0.5152     1.7184
 1831.0000     0.5148     1.7184
 1831.5000     0.5144     1.7184
 1832.0000     0.5140     1.7184
 1832.5000     0.5136     1.7184
 1833.0000     0.5132     1.7184
 1833.5000     0.5127     1.7184
 1834.0000     0.5124     1.7184
 1834.5000     0.5120     1.7184
 1835.0000     0.5116     1.7184
 1835.5000     0.5112     1.7184
 1836.0000     0.5107     1.7184
 1836.5000     0.5103     1.7184
 1837.0000     0.5099     1.7184
 1837.5000     0.5096     1.7184
 1838.0000     0.5091     1.7184
 1838.5000     0.5087     1.7184
 1839.0000     0.5083     1.7184
 1839.5000     0.5079     1.7184
 1840.0000     0.4103     1.7184
 1840.5000     0.4099     1.7184
 1841.0000     0.4095     1.7184
 1841.5000     0.4091     1.7184
 1842.0000     0.4087     1.7184
 1842.5000     0.4083     1.7184
 1843.0000     0.4079     1.7184
 1843.5000     0.4075     1.7184
 1844.0000     0.4071     1.7184
 1844.5000     0.4080     1.7184
 1845.0000     0.4077     1.7314
 1845.5000     0.4074     1.8031
 1846.0000     0.4071     1.8747
 1846.5000     0.4069     1.9396
 1847.0000     0.4066     1.9747
 1847.5000     0.4063     2.0098
 1848.0000     0.4060     2.0449
 1848.5000     0.4058     2.0800
 1849.0000     0.4055     2.1150
 1849.5000     0.4052     2.1501
 1850.0000     0.4050     2.1852
 1850.5000     0.4047     2.2203
 1851.0000     0.4044     2.2554
 1851.5000     0.4042     2.2905
 1852.0000     0.4039     2.3255
 1852.5000     0.4036     2.3628
 1853.0000     0.4033     2.3361
 1853.5000     0.4031     2.3076
 1854.0000     0.4028     2.2792
 1854.5000     0.4025     2.2507
 1855.0000     0.4023     2.2223
 1855.5000     0.4020     2.1938
 1856.0000     0.4017     2.1654
 1856.5000     0.4015     2.1369
 1857.0000     0.4012     2.1085
 1857.5000     0.4009     2.0800
 1858.0000     0.4006     2.0516
 1858.5000     0.4004     2.0232
 1859.0000     0.4001     1.9947
 1859.5000     0.3998     1.9663
 1860.0000     0.3996     1.9332
 1860.5000     0.3993     1.8808
 1861.0000     0.3990     1.8181
 1861.5000     0.3988     1.7555
 1862.0000     0.3985     1.6928
 1862.5000     0.3982     1.6302
 1863.0000     0.3979     1.5675
 1863.5000     0.3977     1.5036
 1864.0000     0.3974     1.5036
 1864.5000     0.3971     1.5036
 1865.0000     0.3969     1.5036
 1865.5000     0.3966     1.5036
 1866.0000     0.3963     1.5058
 1866.5000     0.3961     1.5256
 1867.0000     0.3958     1.5454
 1867.5000     0.3955     1.5652
 1868.0000     0.3952     1.5850
 1868.5000     0.3950     1.6049
 1869.0000     0.3947     1.6247
 1869.5000     0.3944     1.6445
 1870.0000     0.3942     1.6643
 1870.5000     0.3939     1.6841
 1871.0000     0.3936     1.7039
 1871.5000     0.3934     1.7246
 1872.0000     0.3931     1.7479
 1872.5000     0.3928     1.7711
 1873.0000     0.3925     1.7944
 1873.5000     0.3923     1.8177
 1874.0000     0.3920     1.8409
 1874.5000     0.3917     1.8642
