~VERSION INFORMATION
 VERS.                2.0:   CWLS LOG ASCII STANDARD - VERSION 2.0
 WRAP.                 NO:   ONE LINE PER DEPTH STEP
~WELL INFORMATION
#MNEM.UNIT      DATA TYPE    INFORMATION
#----------   ------------   ------------------------------
 STRT.F           29.0000:   START DEPTH
 STOP.F          882.0000:   STOP DEPTH
 STEP.F            0.5000:   STEP LENGTH
 NULL.          -999.2500:   NO VALUE
 COMP. FENIX & SCISSON INC:   COMPANY
 WELL. NAVAL PETROLEUM RESERVE 3 S-14 #42-14:   WELL
 FLD .             TEAPOT:   FIELD
 LOC .      S14 T38N R78W:   LOCATION
 CNTY.            NATRONA:   COUNTY
 STAT.            WYOMING:   STATE
 CTRY. UNITED STATES OF AMERICA:   COUNTRY
 SRVC.              Welex:   SERVICE COMPANY
 DATE.        03-MAY-1977:   LOGDATE
 API .       490251035400:   API NUMBER
~CURVE INFORMATION
#MNEM.UNIT       API CODE    CURVE DESCRIPTION
#----------   ------------   ------------------------------
 DEPT.F                  :   
 CALD.IN     45 280 60 00:   CALIPER FROM DENSITY LOG
 GRD .GAPI   45 310 01 00:   GAMMA RAY FROM DENSITY LOG
 CORR.G/C3   45 356 01 00:   DENSITY CORRECTION
 DPHI.DEC    45 890 12 00:   DENSITY POROSITY SANDSTONE
 RHOB.G/C3   45 350 01 00:   BULK DENSITY
 SPR .MV     07 010 01 00:   SPONTANEOUS POTENTIAL
 ILD .OHMM   07 120 46 00:   INDUCTION LOG DEEP
 ILM .OHMM   07 120 44 00:   INDUCTION LOG MEDIUM
 SGRD.OHMM   07 221 05 00:   SHALLOW SHORT GUARD RESISTIVITY
~PARAMETER INFORMATION
#MNEM.UNIT          VALUE    DESCRIPTION
#----------   ------------   ------------------------------
 PD  .                 GL:   PERMANENT DATUM
 EPD .F              5206:   ELEVATION PERMANENT DATUM
 LMF .                 GL:   LOG MEASURED FROM
 DMF .                 GL:   DRILLING MEASURED FROM
 EGL .F              5206:   GROUND LEVEL
 DATE.        03-MAY-1977:   RUN DATE
 RUN .                  1:   RUN NUMBER
 DD  .F               855:   DEPTH DRILLER
 DL  .F               884:   DEPTH LOGGER
 BLI .F               882:   BOTTOM LOG INTERVAL
 TLI .F                28:   TOP LOG INTERVAL
 CS  .IN            8.625:   CASING SIZE
 BS  .IN               12:   BIT SIZE
 BSD .F               855:   BIT SIZE AT DEPTH
 DFT .            KCL MUD:   DRILLING FLUID TYPE
 DFD .                8.7:   DRILLING FLUID DENSITY
 BHT .F                75:   BOTTOM HOLE TEMPERATURE
 TCS .HRS            0130:   TIME CURCULATED STOPPED
 MRT .F                75:   MAXIMUM RECORDED TEMPERATURE
 ENGI.            C. DOAK:   RECORDING ENGINEER
 WITN.            R. LYON:   WITNESSED BY
 CLNT.            A2DTECH:   CLIENT CODE
 ORIG.           5" PRINT:   ORIGIN OF DATA
 UWI .       490251035400:   UNIQUE WELL ID
 DICO. A2D Technologies, Inc.:   DIGITIZING COMPANY
~OTHER INFORMATION
~A   DEPT       CALD      GRD       CORR       DPHI         RHOB      SPR        ILD        ILM       SGRD   
# ...
  722.5000     7.9963    93.6594     0.0421     0.1498     2.4208   -23.5176    10.5464    10.0168    13.3506
  723.0000     7.9961    94.8527     0.0420     0.1501     2.4230   -23.5233    10.4744    10.0168    13.2577
  723.5000     7.9960    95.4472     0.0405     0.1507     2.4283   -23.6781    10.4753    10.0134    13.1655
  724.0000     7.9958    95.7423     0.0357     0.1495     2.4253   -23.8343    10.4760     9.8792    13.0739
  724.5000     7.9956    95.8877     0.0345     0.1477     2.4260   -23.9890    10.4043     9.7436    13.0730
  725.0000     8.0105    96.0331     0.0389     0.1447     2.4327   -24.1438    10.3333     9.6764    13.0721
  725.5000     8.0103    95.1295     0.0374     0.1459     2.4312   -24.2985    10.2628     9.6097    13.0710
  726.0000     8.0251    93.0294     0.0239     0.1531     2.4155   -24.4533    10.3348     9.5435    13.1611
  726.5000     8.0250    91.2287     0.0194     0.1591     2.4096   -24.6081    10.4073     9.6764    13.1600
  727.0000     8.0398    90.4531     0.0283     0.1526     2.4245   -25.0611    10.4803     9.7436    13.2506
  727.5000     8.0396    94.0694     0.0358     0.1472     2.4290   -25.3661    10.4810     9.7436    13.2495
  728.0000     8.0394    95.1069     0.0387     0.1430     2.4365   -25.8189    10.4093     9.7436    13.2486
  728.5000     8.0393    96.1505     0.0387     0.1409     2.4387   -26.1227    10.2670     9.6764    13.2476
  729.0000     8.0392    97.9426     0.0387     0.1409     2.4380   -26.5755    10.1269     9.6097    13.2467
  729.5000     8.0390   100.1838     0.0357     0.1412     2.4380   -27.0284     9.9811     9.5435    13.2458
  730.0000     8.0389   102.8741     0.0356     0.1398     2.4417   -27.2031     9.7842     9.4778    12.9730
  730.5000     8.0387   105.8802     0.0356     0.1350     2.4439   -27.6374     9.7173     9.4027    12.9721
  731.0000     8.0236   107.5051     0.0371     0.1299     2.4507   -27.6431     9.6509     9.2192    12.8819
  731.5000     8.0235   107.2014     0.0400     0.1254     2.4631   -27.9469     9.7187     9.0926    12.8808
  732.0000     8.0084   104.2031     0.0460     0.1203     2.4768   -28.1016     9.8547     9.0299    12.8800
  732.5000     7.9933   101.8036     0.0490     0.1183     2.4731   -28.2564     9.9926     8.9677    12.8791
  733.0000     7.9782   100.6017     0.0459     0.1243     2.4686   -28.5773    10.2029     8.7231    12.8782
  733.5000     7.9631    97.9763     0.0369     0.1303     2.4611   -28.8654    10.2744     8.6003    12.8774
  734.0000     7.9480    94.6040     0.0369     0.1366     2.4368   -28.8711    10.3463     8.5440    12.8765
  734.5000     7.9478    96.0967     0.0413     0.1447     2.4320   -28.8769    10.4188     8.6033    12.8756
  735.0000     7.9477    99.5355     0.0428     0.1447     2.4365   -28.8826    10.3477     8.7231    12.8746
  735.5000     7.9475   101.6270     0.0427     0.1456     2.4320   -28.8883    10.2063     8.9059    12.8737
  736.0000     7.9474    99.0777     0.0353     0.1486     2.4223   -28.7312    10.1366     9.1557    12.9624
  736.5000     7.9472    96.4824     0.0352     0.1543     2.4178   -28.4541    10.3500     9.2832    12.9613
  737.0000     7.9471    91.1339     0.0322     0.1528     2.4155   -28.3094    10.4948     9.4124    12.9605
  737.5000     7.9469    93.0757     0.0292     0.1486     2.4253   -28.1675    10.5683     9.4778    12.9596
  738.0000     7.9468    96.9696     0.0307     0.1447     2.4320   -28.0228    10.5690     9.4778    13.0487
  738.5000     7.9616    99.1338     0.0414     0.1412     2.4410   -27.8808    10.5697     9.4778    13.0476
  739.0000     7.9614   101.8948     0.0471     0.1355     2.4492   -27.7376    10.4870     9.5435    13.5994
  739.5000     7.9762   104.7359     0.0410     0.1322     2.4589   -27.5943    10.3543     9.4778    13.6931
  740.0000     7.9761   101.2874     0.0320     0.1358     2.4432   -27.7505    10.2834     9.4778    13.0450
  740.5000     7.9909   100.0854     0.0305     0.1382     2.4417   -27.7562    10.2132     9.4124    12.6008
  741.0000     7.9907   104.1220     0.0410     0.1388     2.4417   -28.0600    10.1435     9.4124    12.5998
  741.5000     8.0055   102.1716     0.0424     0.1335     2.4559   -28.2148    10.0050     9.4124    12.5990
  742.0000     8.0054    99.1732     0.0409     0.1371     2.4462   -28.3696     9.8611     9.3476    12.5113
  742.5000     8.0052    97.5222     0.0394     0.1466     2.4295   -28.3767     9.5999     9.3476    12.5105
  743.0000     8.0051    97.2185     0.0408     0.1499     2.4223   -28.2319     9.4687     9.3476    12.5096
  743.5000     8.0049    97.6633     0.0438     0.1496     2.4238   -28.0886     9.4693     9.3476    12.5088
  744.0000     7.9898    97.6579     0.0528     0.1416     2.4357   -27.7977     9.5356     9.3476    12.5080
  744.5000     7.9897    97.2045     0.0602     0.1386     2.4417   -27.6542     9.7362     9.2832    12.5069
  745.0000     7.9895    94.0565     0.0602     0.1443     2.4297   -27.2082     9.8724     9.2832    12.5931
  745.5000     7.9894    90.0103     0.0691     0.1563     2.4094   -26.4751     9.8052     9.2832    12.5920
  746.0000     7.9743    86.1137     0.0676     0.1662     2.3939   -25.7356     9.7381     9.2832    12.5912
  746.5000     7.9442    83.2857     0.0631     0.1781     2.3759   -24.8472     9.8065     9.2832    12.5904
  747.0000     7.8843    79.3675     0.0601     0.1836     2.3647   -23.9587     9.8752     9.3476    12.6769
  747.5000     7.8542    77.5668     0.0570     0.1803     2.3752   -23.0703    10.2942     9.4124    12.7638
  748.0000     7.8242    78.9098     0.0810     0.1713     2.3924   -22.3288    10.5876     9.6097    12.9407
  748.5000     7.8091    81.4504     0.0689     0.1701     2.3856   -21.2948    11.3423     9.8792    13.2110
  749.0000     7.8239    83.2425     0.0719     0.1767     2.3774   -20.8534    11.9882    10.2268    14.2541
  749.5000     7.9134    86.4306     0.0704     0.1839     2.3625   -20.4120    12.8184    10.6600    15.7020
  750.0000     7.9731    86.7259     0.0509     0.1933     2.3501   -20.0811    13.8033    10.9589    17.6594
  750.5000     7.8530    87.2662     0.0389     0.2025     2.3340   -19.8487    14.7881    12.0924    19.4528
  751.0000     7.9274    86.5050     0.0463     0.1974     2.3385   -19.6162    15.7730    13.3885    20.5578
  751.5000     7.9884    86.0458     0.0508     0.1905     2.3557   -19.3838    16.9343    14.3451    20.5565
  752.0000     8.0162    86.9339     0.0537     0.1807     2.3699   -19.2308    17.8951    15.0852    20.4135
  752.5000     8.0007    89.1994     0.0567     0.1795     2.3683   -18.9342    18.2684    15.0521    19.9931
  753.0000     7.9853    90.5065     0.0581     0.1807     2.3691   -18.9360    18.5203    14.5387    19.1476
  753.5000     7.9550    87.4999     0.0566     0.1777     2.3773   -18.7884    18.1371    14.2383    17.1691
  754.0000     7.9545    83.7473     0.0505     0.1795     2.3728   -18.6408    17.5178    14.4347    15.6921
  754.5000     7.9691    86.4318     0.0520     0.1843     2.3653   -18.6425    16.9203    14.9405    16.9311
  755.0000     7.9836    85.9725     0.0579     0.1796     2.3720   -18.6440    16.4566    14.5306    18.7803
  755.5000     7.9981    85.9466     0.0594     0.1754     2.3832   -18.6454    16.1166    14.1323    19.7103
  756.0000     8.0126    88.2394     0.0534     0.1688     2.3951   -18.6468    15.7836    14.0331    19.9835
  756.5000     8.0121    89.8319     0.0503     0.1631     2.3996   -18.6483    15.7815    14.0312    18.1382
  757.0000     8.0116    89.8218     0.0471     0.1625     2.3995   -18.7990    15.6702    13.9323    16.9252
  757.5000     8.0112    88.4644     0.0412     0.1593     2.4077   -18.8005    15.6681    13.9304    18.0108
  758.0000     8.0108    86.0591     0.0367     0.1587     2.4092   -18.8019    15.6661    13.8326    19.4329
  758.5000     8.0102    83.8035     0.0367     0.1629     2.3995   -18.8033    15.7727    13.7355    18.3856
