~VERSION INFORMATION
 VERS.                2.0:   CWLS LOG ASCII STANDARD - VERSION 2.0
 WRAP.                 NO:   ONE LINE PER DEPTH STEP
~WELL INFORMATION
#MNEM.UNIT      DATA TYPE    INFORMATION
#----------   ------------   ------------------------------
 STRT.F           29.0000:   START DEPTH
 STOP.F          642.0000:   STOP DEPTH
 STEP.F            0.5000:   STEP LENGTH
 NULL.          -999.2500:   NO VALUE
 COMP. FENIX & SCISSON INC:   COMPANY
 WELL.    NPR-3 SX #21-10:   WELL
 FLD .  TEAPOT DOME NPR 3:   FIELD
 LOC .      S10 T38N R78W:   LOCATION
 CNTY.            NATRONA:   COUNTY
 STAT.            WYOMING:   STATE
 CTRY. UNITED STATES OF AMERICA:   COUNTRY
 SRVC.            Unknown:   SERVICE COMPANY
 DATE.        03-JUL-1978:   LOGDATE
 API .       490251065400:   API NUMBER
~CURVE INFORMATION
#MNEM.UNIT       API CODE    CURVE DESCRIPTION
#----------   ------------   ------------------------------
 DEPT.F                  :   
 SPR .MV     05 010 01 00:   SPONTANEOUS POTENTIAL FROM RES.
 SN  .OHMM   05 040 16 00:   SHORT NORMAL 16"
 ILD .OHMM   05 120 46 00:   INDUCTION LOG DEEP
 CALD.IN     45 280 60 00:   CALIPER FROM DENSITY
 GRD .GAPI   45 310 01 00:   GAMMA RAY FROM DENSITY LOG
 CORR.G/C3   45 356 01 00:   DENSITY CORRECTION
 DPHI.DEC    45 890 12 00:   DENSITY POROSITY SANDSTONE
 DEN .G/C3   45 350 01 00:   COMPENSATED BULK DENSTIY
~PARAMETER INFORMATION
#MNEM.UNIT          VALUE    DESCRIPTION
#----------   ------------   ------------------------------
 PD  .                 GL:   PERMANENT DATUM
 EPD .F              5253:   ELEVATION PERMANENT DATUM
 LMF .                 KB:   LOG MEASURED FROM
 DAPD.F                 4:   FEET ABOVE PERMANENT DATUM
 DMF .                 KB:   DRILLING MEASURED FROM
 EKB .F              5257:   KELLING BUSHING
 EGL .F              5253:   GROUND LEVEL
 DATE.           7-3-1978:   RUN DATE
 RUN .                  1:   RUN NUMBER
 DD  .F               650:   DEPTH DRILLER
 DL  .F               648:   DEPTH LOGGER
 BLI .F               642:   BOTTOM LOG INTERVAL
 TLI .F                40:   TOP LOG INTERVAL
 CS  .IN            8.625:   CASING SIZE
 CBD .F                40:   CASING BOTTOM DRILLER
 CBL .F                40:   CASING BOTTOM LOGGER
 BS  .IN            7.875:   BIT SIZE
 BSD .F               650:   BIT SIZE AT DEPTH
 DFT .                KCL:   DRILLING FLUID TYPE
 DFD .                8.6:   DRILLING FLUID DENSITY
 DFV .                 32:   DRILLING FLUID VISCOSITY
 DFPH.                  9:   DRILLING FLUID PH
 MSS .           FLOWLINE:   MUD SAMPLE SOURCE
 RMS .OHMM            .24:   RESISTIVITY MUD SAMPLE
 MST .F                88:   MUD SAMPLE TEMPERATURE
 RMF .OHMM            .24:   RESISTIVITY MUD FILTRATE SAMPLE
 MFST.F                94:   MUD FILTRATE SAMPLE TEMPERATURE
 RMC .OHMM            .46:   RESISTIVITY MUD CAKE
 MCST.F                96:   MUD CAKE SAMPLE TEMPERATURE
 MFSS.               MEAS:   MUD FILTRATE SAMPLE SOURCE
 MCSS.               MEAS:   MUD CAKE SAMPLE SOURCE
 TCS .HRS               2:   TIME CURCULATED STOPPED
 LUN .               2958:   LOGGING UNIT NUMBER
 LUL .               CASP:   LOGGING UNIT LOCATION
 CLNT.            A2DTECH:   CLIENT CODE
 ORIG.           5" PRINT:   ORIGIN OF DATA
 UWI .       490251065400:   UNIQUE WELL ID
 DICO. A2D Technologies, Inc.:   DIGITIZING COMPANY
~OTHER INFORMATION
~A   DEPT      SPR         SN        ILD       CALD        GRD       CORR       DPHI        DEN   
# ...
  272.0000   -17.9167     9.2781    10.3185     7.4850   108.4721     0.0838     0.1292     2.4803
  272.5000   -17.8900     9.3732    10.6150     7.4531   109.0635     0.0942     0.1292     2.4750
  273.0000   -17.8680     9.8194    10.9200     7.4850   109.2125     0.0987     0.0995     2.4863
  273.5000   -18.0003    10.2407    11.1568     7.5299   110.6889     0.0583     0.1070     2.5221
  274.0000   -17.9728    10.4621    11.1659     8.0090   116.2951     0.0479     0.1337     2.5126
  274.5000   -18.2539    10.6149    11.2522     8.0838   117.5025     0.0643     0.1337     2.4747
  275.0000   -18.2264    10.6961    11.2613     8.1138   116.1505     0.0762     0.1322     2.4667
  275.5000   -18.3587    10.6287    11.3521     8.1138   113.7921     0.0747     0.1259     2.4669
  276.0000   -18.3312    10.5657    11.5151     8.1138   104.6490     0.0762     0.1310     2.4951
  276.5000   -18.3092    10.4991    11.5246     8.1138   104.6101     0.0867     0.1271     2.4807
  277.0000   -18.4360    10.4349    11.6138     8.1453   106.1269     0.1016     0.1082     2.4822
  277.5000   -18.8659    10.4447    11.7862     8.1737   107.6033     0.1031     0.1135     2.5044
  278.0000   -19.2848    10.4524    11.6347     8.1737   110.9971     0.0702     0.1289     2.5410
  278.5000   -19.4122    10.3884    11.5643     8.1737   113.3584     0.0059     0.1304     2.5309
  279.0000   -19.3896    10.3250    11.4921     8.1587   112.9174    -0.0031     0.1322     2.4771
  279.5000   -19.3676    10.2571    11.3443     8.1587   110.1165    -0.0061     0.1349     2.4628
  280.0000   -19.3452    10.1991    11.3559     8.1437   102.5959     0.0058     0.1355     2.4636
  280.5000   -19.3046    10.2086    11.3652     8.0689   104.9572     0.0103     0.1334     2.4680
  281.0000   -19.1518    10.2162    11.3745     7.9940   104.2213    -0.0017     0.1238     2.4867
  281.5000   -19.1253    10.2238    11.3837     7.9641   102.0103    -0.0047     0.1292     2.4905
  282.0000   -19.1033    10.1588    11.3930     7.9491   102.6018    -0.0017     0.1367     2.4635
  282.5000   -19.0812    10.0275    11.4023     7.9341   103.4882     0.0043     0.1406     2.4740
  283.0000   -19.2135    10.0368    11.4116     7.9940   105.4071     0.0102     0.1418     2.4553
  283.5000   -19.1860    10.1136    11.4210     8.1587   108.6581     0.0117     0.1412     2.4515
  284.0000   -19.1640    10.1910    11.4303     8.2635   111.3117     0.0132     0.1334     2.4664
  284.5000   -19.1420    10.1987    11.4396     8.2635   111.4587     0.0147     0.1343     2.4717
  285.0000   -19.2743    10.2064    11.3703     8.2635   110.2555     0.0161     0.1403     2.4507
  285.5000   -19.1035    10.2141    11.1473     8.2635   104.6256     0.0176     0.1445     2.4627
  286.0000   -19.2303    10.2233    10.8517     8.2635   102.9085     0.0221     0.1412     2.4656
  286.5000   -19.2028    10.2309    10.7141     8.2635   105.5649     0.0297     0.1421     2.4574
  287.0000   -19.3296    10.2385    10.7971     8.2635   105.5664     0.0432     0.1385     2.4626
  287.5000   -19.4568    10.2462    10.8806     8.2635   104.7935     0.0492     0.1352     2.4678
  288.0000   -19.2856    10.2538    10.8167     8.2784    96.0471     0.0741     0.1436     2.4566
  288.5000   -19.2634    10.1194    10.5317     8.2934    94.8038     0.1179     0.1389     2.4506
  289.0000   -19.2411     9.7864    10.2543     8.5180    97.4130     0.1222     0.1260     2.4723
  289.5000   -19.3683     9.3977    10.0510     8.8922    99.2861     0.1118     0.1131     2.4984
  290.0000   -19.3408     9.0244    10.0612     8.9521   100.9342     0.0100     0.1275     2.5156
  290.5000   -19.3188     8.9676    10.1390     8.2635   103.9337     0.0070     0.1389     2.4670
  291.0000   -19.2968     8.7926    10.2878     8.1587   107.4612     0.0100     0.1316     2.4565
  291.5000   -19.2748     8.7992    10.2962     8.1587   111.3773     0.0115     0.1299     2.4797
  292.0000   -19.2528     8.8057    10.1638     8.1587   112.6607     0.0114     0.1373     2.4707
  292.5000   -19.3851     8.8124    10.0331     8.1587   109.8992     0.0129     0.1386     2.4617
  293.0000   -19.3576     8.7584     9.6353     8.1587   108.5339     0.0144     0.1287     2.4669
  293.5000   -19.3356     8.7652     9.5095     8.1737   108.3878     0.0084     0.1326     2.4766
  294.0000   -19.3136     8.7731     9.5192     8.1737   108.9796    -0.0021     0.1395     2.4796
  294.5000   -19.2916     8.7194     9.5270     8.1737   109.4236    -0.0036     0.1401     2.4609
  295.0000   -19.2695     8.7862     9.5347     8.1587   108.8351    -0.0021     0.1461     2.4586
  295.5000   -19.3963     8.7927     9.4771     8.1587   106.9192     0.0009     0.1551     2.4534
  296.0000   -19.3743     8.7993     9.4198     8.1587   107.3631     0.0024     0.1533     2.4324
  296.5000   -19.6500     8.5668     9.3629     8.1587   108.6920    -0.0021     0.1494     2.4436
  297.0000   -19.7768     8.3406     9.2392     8.1737   110.4634    -0.0096     0.1533     2.4469
  297.5000   -19.9107     8.2880     9.1237     8.1737   107.9575    -0.0126     0.1527     2.4406
  298.0000   -20.3280     8.2373     9.1314     8.1737   106.4840    -0.0082     0.1563     2.4384
  298.5000   -20.3051     8.2450     9.1404     8.1886   106.1902    -0.0037     0.1683     2.4339
  299.0000   -20.4328     8.2512     9.1479     8.2186   106.6345    -0.0022     0.1683     2.4293
  299.5000   -20.7084     8.2573     9.1554     8.2036   109.2908    -0.0022     0.1596     2.4114
  300.0000   -20.8375     8.2635     9.1616     8.2036   112.4476    -0.0029     0.1569     2.4346
  300.5000   -20.8659     8.2234     9.1696     8.1737   114.3085    -0.0053     0.1587     2.4368
  301.0000   -20.8944     8.2287     9.2404     8.1587   114.4571     0.0052     0.1539     2.4278
  301.5000   -20.9445     8.2834     9.3759     8.1587   108.5593     0.0096     0.1536     2.4300
  302.0000   -21.0669     8.2895     9.4483     8.1587   105.9059     0.0096     0.1399     2.4517
  302.5000   -21.1654     8.2957     9.4561     8.1587   104.2849     0.0096     0.1471     2.4584
  303.0000   -21.2857     8.3591     9.4006     8.1587   105.7613     0.0110     0.1456     2.4463
  303.5000   -21.2618     8.3653     9.2160     8.1587   107.0902     0.0155     0.1402     2.4467
  304.0000   -21.2381     8.3715     9.0351     8.1587   106.3543     0.0155     0.1363     2.4558
  304.5000   -21.2143     8.2617     8.7366     8.1587   105.1754     0.0154     0.1300     2.4668
  305.0000   -21.1862     8.0450     8.4481     8.1587   105.0298     0.0109     0.1169     2.4735
  305.5000   -21.1629     7.8324     8.0575     8.1587   103.2613    -0.0086     0.1252     2.4924
  306.0000   -21.1397     7.6255     7.8451     8.1601   103.5578    -0.0116     0.1465     2.5002
  306.5000   -21.1164     7.4241     7.6384     8.1737   103.2643     0.0018     0.1528     2.4692
  307.0000   -21.0931     7.3787     7.4371     8.1886   101.6146     0.0033     0.1561     2.4381
  307.5000   -21.0699     7.3855     7.3913     8.2036   101.8068     0.0033     0.1537     2.4291
  308.0000   -21.0466     7.4420     7.2970     8.2186   106.2498    -0.0012     0.1492     2.4328
  308.5000   -21.0233     7.5507     7.4055     8.2186   109.4135    -0.0028     0.1490     2.4455
  309.0000   -21.1489     7.6609     7.4626     8.2036   112.1888    -0.0028     0.1505     2.4492
  309.5000   -21.1256     7.8265     7.6244     8.2036   112.5648    -0.0028     0.1538     2.4403
  310.0000   -21.4000     7.8863     7.8434     8.2036   108.6331    -0.0028     0.1556     2.4387
  310.5000   -21.3709     8.0567     7.9039     8.2036   107.5531    -0.0014     0.1568     2.4380
  311.0000   -21.3476     8.0627     7.9649     8.2036   108.2115     0.0031     0.1481     2.4312
  311.5000   -21.3244     8.0687     8.0818     8.2036   111.7924     0.0090     0.1442     2.4417
  312.0000   -21.3011     8.0747     8.0883     8.1886   113.4572     0.0090     0.1409     2.4506
