~VERSION INFORMATION
 VERS.                2.0:   CWLS LOG ASCII STANDARD - VERSION 2.0
 WRAP.                 NO:   ONE LINE PER DEPTH STEP
~WELL INFORMATION
#MNEM.UNIT      DATA TYPE    INFORMATION
#----------   ------------   ------------------------------
 STRT.F            2.0000:   START DEPTH
 STOP.F          547.0000:   STOP DEPTH
 STEP.F            0.5000:   STEP LENGTH
 NULL.          -999.2500:   NO VALUE
 COMP. LAWRENCE/ALLISON INC:   COMPANY
 WELL. NPR # #3 68-61-SX-10:   WELL
 FLD .             TEAPOT:   FIELD
 LOC .      S10 T38N R78W:   LOCATION
 CNTY.            NATRONA:   COUNTY
 STAT.            WYOMING:   STATE
 CTRY. UNITED STATES OF AMERICA:   COUNTRY
 SRVC.           Gearhart:   SERVICE COMPANY
 DATE.        24-JUN-1987:   LOGDATE
 API .       490251114500:   API NUMBER
~CURVE INFORMATION
#MNEM.UNIT       API CODE    CURVE DESCRIPTION
#----------   ------------   ------------------------------
 DEPT.F                  :   
 GRR .GAPI   07 310 01 00:   GAMMA RAY FROM RES. LOG.
 RILD.OHMM   07 120 46 00:   INDUCTION LOG DEEP RESISTIVITY
 RILM.OHMM   07 120 44 00:   INDUCTION LOG MEDIUM RESISTIVITY
~PARAMETER INFORMATION
#MNEM.UNIT          VALUE    DESCRIPTION
#----------   ------------   ------------------------------
 PD  .                 GL:   PERMANENT DATUM
 EPD .F              5203:   ELEVATION PERMANENT DATUM
 LMF .                 KB:   LOG MEASURED FROM
 DAPD.F                 8:   FEET ABOVE PERMANENT DATUM
 DMF .                 KB:   DRILLING MEASURED FROM
 EKB .F              5211:   KELLING BUSHING
 EDF .F              5209:   DRILLING FLOOR
 EGL .F              5203:   GROUND LEVEL
 DATE.            6-24-87:   RUN DATE
 RUN .                  1:   RUN NUMBER
 DD  .F               565:   DEPTH DRILLER
 DL  .F               557:   DEPTH LOGGER
 BLI .F               549:   BOTTOM LOG INTERVAL
 TLI .F                48:   TOP LOG INTERVAL
 CS  .IN            8.625:   CASING SIZE
 CBD .F                50:   CASING BOTTOM DRILLER
 CBL .F                48:   CASING BOTTOM LOGGER
 BS  .IN             7.87:   BIT SIZE
 BSD .F               565:   BIT SIZE AT DEPTH
 DFT .                AIR:   DRILLING FLUID TYPE
 TCS .HRS            0715:   TIME CURCULATED STOPPED
 TLAB.HRS            0904:   TIME LOGGER AT BOTTOM
 LUN .               7597:   LOGGING UNIT NUMBER
 LUL .           GILLETTE:   LOGGING UNIT LOCATION
 ENGI.           JOHNSTON:   RECORDING ENGINEER
 CLNT.            A2DTECH:   CLIENT CODE
 ORIG.       2", 5" PRINT:   ORIGIN OF DATA
 UWI .       490251114500:   UNIQUE WELL ID
 DICO. A2D Technologies, Inc.:   DIGITIZING COMPANY
~OTHER INFORMATION
~A    DEPT      GRR      RILD       RILM   
# ...
  457.0000    95.1612    10.5639    10.2453
  457.5000    94.7682    10.7671    10.3332
  458.0000    94.3617    10.9743    10.4219
  458.5000    94.7178    11.1855    10.5113
  459.0000    95.7206    11.4007    10.6015
  459.5000    96.7645    11.6201    10.8335
  460.0000    96.7723    11.8437    11.1330
  460.5000    96.4857    12.0946    11.4407
  461.0000    96.2083    12.2174    11.7570
  461.5000    96.8123    12.3948    12.0232
  462.0000    97.4859    12.5748    12.1747
  462.5000    98.1851    12.7575    12.3216
  463.0000    99.3427    12.9428    12.4711
  463.5000   100.5682    13.1307    12.6228
  464.0000   101.7134    13.3215    12.7762
  464.5000    99.5414    13.5152    12.9316
  465.0000    97.1354    13.7113    13.0895
  465.5000    94.7317    13.8904    13.2649
  466.0000    93.7129    13.9509    13.2633
  466.5000    94.7749    14.0063    13.4670
  467.0000    94.9803    14.0617    13.5556
  467.5000    94.8184    14.1175    13.6453
  468.0000    94.4245    14.1734    13.7356
  468.5000    93.4937    14.2296    13.8264
  469.0000    92.5535    14.2803    13.8904
  469.5000    92.6332    14.2175    13.7806
  470.0000    94.4899    14.1284    13.6816
  470.5000    97.1076    14.0397    13.5833
  471.0000    99.2087    13.9517    13.4858
  471.5000   101.0033    13.8904    13.3889
  472.0000    98.4791    13.7627    13.2927
  472.5000    95.2208    13.6478    13.2640
  473.0000    92.6413    13.5337    13.2640
  473.5000    92.6034    13.4207    13.2640
  474.0000    94.2962    13.3869    13.2640
  474.5000    95.5987    13.3854    13.1421
  475.0000    95.0518    13.3895    12.9895
  475.5000    93.8314    13.0673    12.7745
  476.0000    94.6076    12.8572    12.5630
  476.5000    96.5969    12.6512    12.3551
  477.0000    98.6105    12.4485    12.1506
  477.5000   100.5971    12.2491    11.9495
  478.0000   102.1270    12.0529    11.7517
  478.5000   103.6523    11.8598    11.5572
  479.0000   103.8953    11.7644    11.3659
  479.5000   103.4061    11.5670    11.1833
  480.0000   102.9037    11.3904    11.0166
  480.5000   102.5092    11.2166    10.8522
  481.0000   102.2717    11.0454    10.6905
  481.5000   102.0258    10.8768    10.5311
  482.0000   101.8681    10.7108    10.3741
  482.5000   103.2626    10.5473    10.2194
  483.0000   105.5252    10.3863    10.0670
  483.5000   108.1978    10.2435     9.9169
  484.0000   109.6642    10.2609     9.8723
  484.5000   109.6744    10.2767     9.9317
  485.0000   109.3629    10.2925     9.9776
  485.5000   107.0812    10.3082    10.0237
  486.0000   103.5974    10.3234    10.0701
  486.5000   100.9202    10.3375    10.1167
  487.0000   102.5517    10.2445    10.1494
  487.5000   104.9034    10.1620     9.9432
  488.0000   107.2693    10.0979     9.7876
  488.5000   109.1146     9.9900     9.6342
  489.0000   107.6513     9.7580     9.4833
  489.5000   106.0204     9.5374     9.3348
  490.0000   104.3866     9.3405     9.1886
  490.5000   102.7400     9.2504     9.0447
  491.0000   102.2858     9.1513     8.9264
  491.5000   102.5459     9.0533     8.8196
  492.0000   104.1104     8.9564     8.7141
  492.5000   106.3164     8.8605     8.6098
  493.0000   107.3987     8.7561     8.5170
  493.5000   107.9651     8.6358     8.2581
  494.0000   108.5248     8.3324     7.9226
  494.5000   109.0227     8.0490     7.6024
  495.0000   108.8813     7.7752     7.2940
  495.5000   108.7421     7.4847     6.9975
  496.0000   108.9382     7.4160     6.7150
  496.5000   110.2610     7.4160     6.5775
  497.0000   110.6533     7.5891     6.7785
  497.5000   109.8374     7.9392     7.1990
  498.0000   108.6988     8.2996     7.6456
  498.5000   107.5772     8.6792     8.1199
  499.0000   107.1442     9.0760     8.6757
  499.5000   107.6885     9.4909     8.9604
  500.0000   108.2274     9.9247     9.3833
  500.5000   106.6517    10.2449     9.7424
  501.0000   104.8868    10.3983     9.9208
  501.5000   103.1110    10.4871    10.0995
  502.0000   102.0441    10.5746    10.2815
  502.5000   102.0207    10.6636    10.3385
  503.0000   103.1654    10.7273    10.2761
  503.5000   106.6354    10.7273    10.1864
  504.0000   110.0487    10.6055    10.0975
  504.5000   112.2957    10.5244    10.0093
  505.0000   111.9563    10.4440     9.9638
  505.5000   107.7715    10.3339     9.9638
  506.0000   103.4697    10.3487     9.9907
  506.5000    99.4400    10.3733    10.0214
  507.0000    98.4608    10.3873    10.0522
  507.5000    99.0902    10.4014    10.0831
  508.0000   100.4498    10.4153    10.1141
  508.5000   101.8180    10.4343    10.1494
  509.0000   102.6242    10.3706    10.0599
  509.5000   102.1203    10.2755     9.9596
  510.0000   101.3540    10.2435    10.0618
  510.5000   100.6122     9.9638     9.9608
  511.0000   100.6516     9.4271     9.6247
  511.5000   102.2508     8.7516     9.1210
  512.0000   103.9221     8.1228     8.6474
  512.5000   104.3179     7.5392     8.1984
  513.0000   104.4448     6.9975     7.8913
  513.5000   104.5736     6.5171     7.6410
  514.0000   104.0807     5.5503     6.8049
  514.5000   103.1450     4.7605     5.7880
  515.0000   104.6889     4.0830     4.9229
  515.5000   107.2495     3.5020     4.1870
  516.0000   109.8180     3.2327     3.5608
  516.5000   111.4119     3.0734     3.0277
  517.0000   109.8329     2.9805     2.5897
  517.5000   106.4025     2.8930     2.5410
  518.0000   102.8256     2.9469     2.4959
  518.5000    99.4656     3.1347     2.7312
  519.0000    97.7880     3.3589     3.0452
  519.5000    96.0542     3.8292     3.4580
  520.0000    94.5674     4.6989     3.9703
  520.5000    96.5536     5.4198     4.5585
  521.0000    98.6778     6.0178     5.2339
  521.5000   100.8093     6.6330     6.0093
  522.0000   102.0930     7.2358     6.8155
  522.5000   102.5827     7.5724     7.3762
  523.0000   102.2201     7.7181     7.5997
  523.5000   101.8617     7.8666     7.7443
  524.0000   101.4897     8.0179     7.8916
  524.5000   101.6096     8.1722     8.0417
  525.0000   101.8913     8.3613     8.1330
  525.5000   102.1671     8.3513     8.1292
  526.0000   102.5557     8.3390     8.1100
  526.5000   102.8846     8.3266     8.0908
  527.0000   105.8094     8.3142     8.0718
  527.5000   108.2249     8.3019     8.0527
  528.0000   109.4495     8.2893     8.0337
  528.5000   109.1464     8.2628     8.0148
  529.0000   108.1705     8.2070     7.9959
  529.5000   106.9113     8.1516     7.9582
  530.0000   106.1220     8.0966     7.8906
  530.5000   105.8840     8.0420     7.8236
  531.0000   106.7068     7.9877     7.7572
  531.5000   107.9890     7.9109     7.6913
  532.0000   110.0501     7.9436     7.6242
  532.5000   112.2017     8.0009     7.6764
  533.0000   114.1992     8.0587     7.7447
  533.5000   113.9273     8.1169     7.8136
  534.0000   113.5709     8.1755     7.8831
  534.5000   114.0293     8.2346     7.9530
  535.0000   114.9646     8.2845     7.9849
  535.5000   113.0393     8.2130     7.9843
  536.0000   110.5944     8.1519     7.9847
  536.5000   108.4396     8.0912     7.9228
  537.0000   109.9295     8.0310     7.8424
  537.5000   112.5998     7.9713     7.7622
  538.0000   113.6931     7.9122     7.6551
  538.5000   113.0611     7.8537     7.3927
  539.0000   112.6038     7.6611     7.1393
  539.5000   114.7968     7.4292     6.8944
  540.0000   116.9879     7.2055     6.6579
  540.5000   116.5314     7.0050     6.4288
  541.0000   114.1254     6.9383     6.2097
  541.5000   111.6557     6.8662     6.1074
  542.0000   110.8106     6.8282     6.3771
  542.5000   116.2760     7.1609     6.6785
  543.0000   122.4907     7.4655     6.9932
  543.5000    28.4541     7.7832     7.3228
  544.0000  -999.2500     8.1143     7.6679
  544.5000  -999.2500  -999.2500     7.9388
  545.0000  -999.2500  -999.2500     8.1347
  545.5000  -999.2500  -999.2500     8.3355
  546.0000  -999.2500  -999.2500     8.5170
  546.5000  -999.2500  -999.2500     8.5170
  547.0000  -999.2500  -999.2500     8.5170
