~VERSION INFORMATION
 VERS.                2.0:   CWLS LOG ASCII STANDARD - VERSION 2.0
 WRAP.                 NO:   ONE LINE PER DEPTH STEP
~WELL INFORMATION
#MNEM.UNIT      DATA TYPE    INFORMATION
#----------   ------------   ------------------------------
 STRT.F           60.0000:   START DEPTH
 STOP.F          894.0000:   STOP DEPTH
 STEP.F            0.5000:   STEP LENGTH
 NULL.          -999.2500:   NO VALUE
 COMP.           U S NAVY:   COMPANY
 WELL. RES 3 TEAPOT DOM #27S-35:   WELL
 FLD .        TEAPOT DOME:   FIELD
 LOC .      S35 T39N R78W:   LOCATION
 CNTY.            NATRONA:   COUNTY
 STAT.            WYOMING:   STATE
 CTRY. UNITED STATES OF AMERICA:   COUNTRY
 SRVC. Schlumberger Well Surveying Corp:   SERVICE COMPANY
 DATE.        30-JUL-1959:   LOGDATE
 API .       490250650600:   API NUMBER
~CURVE INFORMATION
#MNEM.UNIT       API CODE    CURVE DESCRIPTION
#----------   ------------   ------------------------------
 DEPT.F                  :   
 SPS .MV     60 010 01 00:   SPONTANEOUS POTENTIAL FROM SONIC
 DT  .US/F   60 520 32 00:   INTERVAL TRANSIT TIME
~PARAMETER INFORMATION
#MNEM.UNIT          VALUE    DESCRIPTION
#----------   ------------   ------------------------------
 PD  .                 GL:   PERMANENT DATUM
 EPD .F              5101:   ELEVATION PERMANENT DATUM
 LMF .                 KB:   LOG MEASURED FROM
 DAPD.F                 4:   FEET ABOVE PERMANENT DATUM
 DMF .                 KB:   DRILLING MEASURED FROM
 EKB .F              5105:   KELLING BUSHING
 EGL .F              5101:   GROUND LEVEL
 DATE.        30-JUL-1959:   RUN DATE
 RUN .                  1:   RUN NUMBER
 DD  .F               897:   DEPTH DRILLER
 DL  .F               897:   DEPTH LOGGER
 BLI .F               894:   BOTTOM LOG INTERVAL
 TLI .F                73:   TOP LOG INTERVAL
 CBD .F                17:   CASING BOTTOM DRILLER
 BS  .IN             6.75:   BIT SIZE
 BSD .F               897:   BIT SIZE AT DEPTH
 DFT .       OIL EMULSION:   DRILLING FLUID TYPE
 DFD .                9.0:   DRILLING FLUID DENSITY
 DFV .                 55:   DRILLING FLUID VISCOSITY
 DFPH.                  9:   DRILLING FLUID PH
 DFL .                3.8:   DRILLING FLUID LOSS
 RMS .OHMM            4.0:   RESISTIVITY MUD SAMPLE
 MST .F                79:   MUD SAMPLE TEMPERATURE
 RMF .OHMM            3.6:   RESISTIVITY MUD FILTRATE SAMPLE
 MFST.F                79:   MUD FILTRATE SAMPLE TEMPERATURE
 RMB .OHMM            4.0:   RESISTIVITY MUD AT BHT
 BHT .F                79:   BOTTOM HOLE TEMPERATURE
 TCS .HRS            0100:   TIME CURCULATED STOPPED
 LUN .               2545:   LOGGING UNIT NUMBER
 LUL .                RIV:   LOGGING UNIT LOCATION
 ENGI.           STAFFORD:   RECORDING ENGINEER
 WITN.             MARTIN:   WITNESSED BY
 CLNT.            A2DTECH:   CLIENT CODE
 ORIG.       2", 5" PRINT:   ORIGIN OF DATA
 UWI .       490250650600:   UNIQUE WELL ID
 DICO. A2D Technologies, Inc.:   DIGITIZING COMPANY
~OTHER INFORMATION
~A   DEPT      SPS         DT   
# ...
  789.0000   -45.3699    81.5300
  789.5000   -45.2272    82.5440
  790.0000   -45.2258    81.0568
  790.5000   -45.2243    79.9237
  791.0000   -45.6466    84.8904
  791.5000   -45.9557    78.3683
  792.0000   -46.0678    77.2357
  792.5000   -45.6427    78.7273
  793.0000   -45.6412    82.9139
  793.5000   -46.3460    77.5069
  794.0000   -46.4861    72.7418
  794.5000   -44.3657    71.1950
  795.0000   -40.5507    67.8866
  795.5000   -38.2894    66.1157
  796.0000   -36.1693    66.1179
  796.5000   -35.8853    70.4463
  797.0000   -36.9067    69.1010
  797.5000   -39.4634    64.4217
  798.0000   -40.5424    66.5521
  798.5000   -40.6822    79.6039
  799.0000   -40.6807    80.6250
  799.5000   -40.5380    81.3099
  800.0000   -40.3957    70.7447
  800.5000   -41.2025    71.0366
  801.0000   -41.5146    73.9832
  801.5000   -40.5189    78.1936
  802.0000   -40.0896    73.8530
  802.5000   -40.2266    77.0603
  803.0000   -41.0670    77.4887
  803.5000   -42.3326    83.8125
  804.0000   -42.8919    84.0838
  804.5000   -42.7450    84.2264
  805.0000   -42.0332    84.1560
  805.5000   -41.7451    80.8945
  806.0000   -42.0233    79.5475
  806.5000   -42.1590    83.0944
  807.0000   -41.7282    82.9531
  807.5000   -41.2989    82.5285
  808.0000   -41.4359    81.8200
  808.5000   -41.5715    79.9058
  809.0000   -41.1407    77.3533
  809.5000   -40.4289    77.2831
  810.0000   -39.5758    81.3263
  810.5000   -39.2877    81.2559
  811.0000   -39.2821    80.9022
  811.5000   -39.2764    80.1937
  812.0000   -38.9883    79.5561
  812.5000   -38.9827    80.6206
  813.0000   -39.1197    80.8341
  813.5000   -39.5364    80.9766
  814.0000   -39.8147    81.0483
  814.5000   -38.6777    80.9779
  815.0000   -37.8246    80.9078
  815.5000   -37.2540    80.4121
  816.0000   -37.1072    76.7248
  816.5000   -37.5254    73.4460
  817.0000   -37.5196    70.4851
  817.5000   -37.2315    76.5851
  818.0000   -36.9434    79.0681
  818.5000   -36.9378    78.9979
  819.0000   -37.2146    76.4337
  819.5000   -37.6327    73.1099
  820.0000   -37.9096    78.1439
  820.5000   -37.9016    79.2844
  821.0000   -37.6158    78.4624
  821.5000   -37.1794    76.9434
  822.0000   -36.5970    72.9448
  822.5000   -35.5979    67.2306
  823.0000   -34.7542    70.1391
  823.5000   -34.3390    69.0051
  824.0000   -34.8136    63.1902
  824.5000   -35.7613    61.2760
  825.0000   -36.4642    64.4682
  825.5000   -37.0259    69.5753
  826.0000   -37.5582    72.4838
  826.5000   -37.9763    77.2363
  827.0000   -38.1133    77.1661
  827.5000   -38.2489    76.5285
  828.0000   -37.9594    74.5432
  828.5000   -37.5301    72.6292
  829.0000   -36.9595    72.6299
  829.5000   -36.3889    76.8859
  830.0000   -35.8183    77.3121
  830.5000   -35.2477    77.2417
  831.0000   -35.1008    76.8880
  831.5000   -34.5302    76.6759
  832.0000   -34.5246    73.8398
  832.5000   -34.5190    73.6275
  833.0000   -34.6560    78.1674
  833.5000   -34.5077    78.7355
  834.0000   -34.5021    78.8071
  834.5000   -35.0614    78.4532
  835.0000   -35.4809    76.8936
  835.5000   -34.3440    77.0362
  836.0000   -34.1985    78.2426
  836.5000   -35.3214    78.8106
  837.0000   -36.1632    78.7404
  837.5000   -36.4415    78.5993
  838.0000   -35.3045    78.8875
  838.5000   -34.3102    79.1681
  839.0000   -35.0108    79.0922
  839.5000   -35.5715    78.7364
  840.0000   -34.9995    77.3877
  840.5000   -34.4303    77.8574
  841.0000   -35.6945    77.9659
  841.5000   -36.2538    77.6120
  842.0000   -36.6719    78.3930
  842.5000   -36.8090    79.8831
  843.0000   -35.9545    79.3164
  843.5000   -35.5251    79.8845
  844.0000   -35.9432    79.9560
  844.5000   -36.6438    78.2547
  845.0000   -37.3444    77.9717
  845.5000   -37.4802    78.7526
  846.0000   -37.1919    79.8879
  846.5000   -36.7625    78.7538
  847.0000   -37.3219    79.8185
  847.5000   -40.9886    81.3086
  848.0000   -44.3728    82.4440
  848.5000   -46.3446    83.0121
  849.0000   -47.0546    83.2965
  849.5000   -45.7683    82.8008
  850.0000   -47.1751    77.2535
  850.5000   -49.8400    75.6390
  851.0000   -52.5495    76.1366
  851.5000   -51.4231    77.5559
  852.0000   -51.1442    78.6207
  852.5000   -49.8528    78.1960
  853.0000   -47.7615    77.0622
  853.5000   -47.1992    76.5666
  854.0000   -49.3223    76.9930
  854.5000   -49.7496    77.4904
  855.0000   -49.6110    77.3494
  855.5000   -50.0392    76.4283
  856.0000   -48.4891    76.0037
  856.5000   -50.3288    78.9124
  857.0000   -48.0724    86.2182
  857.5000   -44.2624    86.7863
  858.0000   -44.1239    80.9292
  858.5000   -45.8232    80.4760
  859.0000   -45.2618    85.0159
  859.5000   -45.6891    79.0594
  860.0000   -46.3989    85.5261
  860.5000   -46.1200    87.5009
  861.0000   -45.5586    85.5619
  861.5000   -43.8672    84.1693
  862.0000   -41.6667    84.7376
  862.5000   -40.7661    85.0222
  863.0000   -44.0750    83.9592
  863.5000   -44.1630    83.4637
  864.0000   -42.1705    84.8830
  864.5000   -42.0515    85.0384
  865.0000   -42.1963    83.3954
  865.5000   -41.2112    83.1833
  866.0000   -41.9210    83.6100
  866.5000   -43.9019    83.6816
  867.0000   -45.3179    83.3279
  867.5000   -46.3102    83.5417
  868.0000   -45.4663    83.9682
  868.5000   -44.7627    84.1816
  869.0000   -47.0271    83.1189
  869.5000   -47.4544    83.1907
  870.0000   -47.4579    83.3335
  870.5000   -47.0378    82.9088
  871.0000   -45.7701    83.2643
  871.5000   -43.6550    80.9248
  872.0000   -43.5165    79.4363
  872.5000   -44.7921    80.2173
  873.0000   -45.0773    82.9130
  873.5000   -44.2343    78.9425
  874.0000   -43.5316    76.9574
  874.5000   -44.5239    83.6252
  875.0000   -45.0924    83.6968
  875.5000   -45.0960    80.8720
  876.0000   -44.9574    74.5287
  876.5000   -44.8197    69.9514
  877.0000   -44.6540    69.0065
  877.5000   -44.2385    68.6613
  878.0000   -43.7004    68.2316
  878.5000   -43.1390    67.0350
  879.0000   -42.7095    66.2571
  879.5000   -42.2940    66.0452
  880.0000   -42.0198    66.0461
  880.5000   -41.8821    65.9052
  881.0000   -41.8857    65.1968
  881.5000   -41.8892    64.3467
  882.0000   -42.0340    64.6313
  882.5000   -42.3201    65.4832
  883.0000   -42.8886    65.5548
  883.5000   -43.4571    65.2011
  884.0000   -44.3081    65.1311
  884.5000   -44.8767    65.4868
  885.0000   -45.3040    65.9132
  885.5000   -45.0250    66.0559
  886.0000   -45.1698    65.7731
  886.5000   -46.5858    64.7811
  887.0000   -47.8597    64.0728
  887.5000   -47.5808    64.0737
  888.0000   -47.4431    65.9186
  888.5000   -48.4362    73.5790
  889.0000   -49.4285    76.3459
  889.5000   -50.5620    76.4177
  890.0000   -51.8368    76.9150
  890.5000   -52.9703    78.4762
  891.0000   -54.2450    78.8317
  891.5000   -55.3785    78.9035
  892.0000   -56.1441    78.9044
  892.5000   -59.4573    69.5167
  893.0000   -64.0419    67.6928
  893.5000   -64.7139    65.2006
  894.0000   -61.7794    64.6811
