~VERSION INFORMATION
 VERS.                2.0:   CWLS LOG ASCII STANDARD - VERSION 2.0
 WRAP.                 NO:   ONE LINE PER DEPTH STEP
~WELL INFORMATION
#MNEM.UNIT      DATA TYPE    INFORMATION
#----------   ------------   ------------------------------
 STRT.F            2.0000:   START DEPTH
 STOP.F          484.0000:   STOP DEPTH
 STEP.F            0.5000:   STEP LENGTH
 NULL.          -999.2500:   NO VALUE
 COMP. LAWRENCE/ALLISON INC:   COMPANY
 WELL. NPR 3 #68-52-1-SX-3:   WELL
 FLD .             NPR #3:   FIELD
 LOC .       S3 T38N R78W:   LOCATION
 CNTY.            NATRONA:   COUNTY
 STAT.            WYOMING:   STATE
 CTRY. UNITED STATES OF AMERICA:   COUNTRY
 SRVC.           Gearhart:   SERVICE COMPANY
 DATE.        14-JUN-1988:   LOGDATE
 API .       490251122200:   API NUMBER
~CURVE INFORMATION
#MNEM.UNIT       API CODE    CURVE DESCRIPTION
#----------   ------------   ------------------------------
 DEPT.F                  :   
 GRR .GAPI   07 310 01 00:   GAMMA RAY FROM RES. LOG.
 RILD.OHMM   07 120 46 00:   INDUCTION LOG DEEP RESISTIVITY
 RILM.OHMM   07 120 44 00:   INDUCTION LOG MEDIUM RESISTIVITY
~PARAMETER INFORMATION
#MNEM.UNIT          VALUE    DESCRIPTION
#----------   ------------   ------------------------------
 PD  .                 GL:   PERMANENT DATUM
 EPD .F              5168:   ELEVATION PERMANENT DATUM
 LMF .                 KB:   LOG MEASURED FROM
 DAPD.F                 5:   FEET ABOVE PERMANENT DATUM
 DMF .                 KB:   DRILLING MEASURED FROM
 EKB .F              5173:   KELLING BUSHING
 EGL .F              5168:   GROUND LEVEL
 DATE.          6-14-1988:   RUN DATE
 RUN .                  1:   RUN NUMBER
 DD  .F               490:   DEPTH DRILLER
 DL  .F               491:   DEPTH LOGGER
 BLI .F               484:   BOTTOM LOG INTERVAL
 TLI .F                40:   TOP LOG INTERVAL
 CS  .IN            8.625:   CASING SIZE
 CBD .F                40:   CASING BOTTOM DRILLER
 CBL .F                40:   CASING BOTTOM LOGGER
 BS  .IN            7.875:   BIT SIZE
 BSD .F               490:   BIT SIZE AT DEPTH
 DFT .                AIR:   DRILLING FLUID TYPE
 TLAB.HRS            2248:   TIME LOGGER AT BOTTOM
 MRT .F                75:   MAXIMUM RECORDED TEMPERATURE
 LUN .               7597:   LOGGING UNIT NUMBER
 LUL .           GILLETTE:   LOGGING UNIT LOCATION
 ENGI.              BENCK:   RECORDING ENGINEER
 WITN.             STRONG:   WITNESSED BY
 CLNT.            A2DTECH:   CLIENT CODE
 ORIG.           5" PRINT:   ORIGIN OF DATA
 UWI .       490251122200:   UNIQUE WELL ID
 DICO. A2D Technologies, Inc.:   DIGITIZING COMPANY
~OTHER INFORMATION
~A    DEPT      GRR      RILD       RILM   
# ...
   93.0000   101.0136    10.9573    10.2200
   93.5000   100.9193    10.8614    10.2065
   94.0000   100.7414    10.7662    10.1930
   94.5000   100.1780    10.7434    10.1795
   95.0000    97.9016    10.7434    10.1661
   95.5000    96.1299    10.7434    10.1526
   96.0000    95.8180    10.7434    10.1392
   96.5000    97.3202    10.7434    10.1258
   97.0000    98.0340    10.7434    10.1124
   97.5000    97.3265    10.7435    10.0992
   98.0000    96.6480    10.7448    10.0854
   98.5000    95.9742    10.7434    10.0722
   99.0000    96.5878    10.6204     9.9140
   99.5000    98.3343    10.4388     9.6830
  100.0000   100.1401    10.2604     9.4594
  100.5000   100.9833    10.0680     9.2407
  101.0000    99.7938    10.0507     9.0838
  101.5000    98.5697    10.0262     9.0585
  102.0000    98.7650    10.0017     9.0332
  102.5000    98.9629     9.9772     9.0081
  103.0000    98.2645     9.9529     8.9830
  103.5000    97.0842     9.9286     8.9580
  104.0000    95.7213     9.9043     8.9331
  104.5000    94.6101     9.8713     8.9082
  105.0000    95.5694     9.7747     8.8834
  105.5000    96.5176     9.6788     8.8587
  106.0000    96.9548     9.5838     8.8088
  106.5000    96.9659     9.4898     8.7071
  107.0000    97.1479     9.3965     8.6066
  107.5000    97.7311     9.3051     8.5070
  108.0000    98.3148     9.2444     8.4088
  108.5000    98.2110     9.2121     8.3117
  109.0000    97.5417     9.1798     8.2813
  109.5000    97.1963     9.1477     8.2670
  110.0000    99.0393     9.1157     8.2528
  110.5000   100.6886     9.0837     8.2387
  111.0000    98.7507     9.0520     8.2246
  111.5000    96.2471     9.0203     8.2100
  112.0000    97.2532     8.9888     8.2097
  112.5000    99.3013     8.9572     8.2096
  113.0000   101.3473     8.9243     8.2097
  113.5000   100.7748     8.8067     8.2103
  114.0000    99.8929     8.5974     8.2112
  114.5000    99.0152     8.6016     8.1646
  115.0000    99.9495     8.2572     7.8850
  115.5000   101.6798     8.0146     7.6149
  116.0000   103.3526     7.8946     7.3541
  116.5000   102.4718     7.8507     7.1433
  117.0000   101.4429     7.8071     7.1319
  117.5000   102.0786     7.7636     7.1117
  118.0000   102.9514     7.7205     7.0919
  118.5000   103.8223     7.6935     7.0719
  119.0000   104.6999     7.7462     7.0519
  119.5000   105.0741     7.7913     7.0317
  120.0000   104.2711     7.8367     7.0123
  120.5000   103.2571     7.8823     7.1257
  121.0000   102.2424     7.9282     7.2446
  121.5000   101.4216     7.9744     7.3652
  122.0000   101.5987     8.0209     7.4876
  122.5000   101.7578     8.0747     7.6121
  123.0000   101.9155     8.1606     7.7387
  123.5000   102.0764     8.2472     7.8093
  124.0000   102.1921     8.3348     7.8654
  124.5000   101.2311     8.4233     7.9218
  125.0000   100.7602     8.5127     7.9788
  125.5000   101.1963     8.6031     8.0586
  126.0000   102.3576     8.6945     8.0532
  126.5000   104.1447     8.7868     8.0429
  127.0000   103.2396     8.8420     8.0331
  127.5000   102.3523     8.6662     8.0233
  128.0000   103.0626     8.4958     8.0135
  128.5000   104.0103     8.3622     8.0037
  129.0000   106.9324     8.3520     7.9941
  129.5000   109.7333     8.3406     7.9842
  130.0000   110.5063     8.3294     7.9524
  130.5000   110.8908     8.3182     7.9209
  131.0000   109.5223     8.3070     7.8896
  131.5000   108.1945     8.2959     7.8585
  132.0000   106.8729     8.2847     7.8274
  132.5000   105.5349     8.2735     7.7965
  133.0000   105.2302     8.2624     7.7658
  133.5000   105.4731     8.2513     7.7351
  134.0000   105.7195     8.2402     7.7046
  134.5000   105.4951     8.2290     7.6851
  135.0000   104.6193     8.2182     7.6719
  135.5000   103.7441     8.1982     7.6587
  136.0000   103.4828     8.1452     7.6455
  136.5000   103.6593     8.0939     7.6324
  137.0000   103.8370     8.0427     7.6192
  137.5000   104.0119     7.9919     7.6062
  138.0000   104.2022     7.9414     7.5931
  138.5000   103.5780     7.8913     7.5801
  139.0000   102.5683     7.8416     7.5670
  139.5000   101.5257     7.7931     7.5540
  140.0000   102.4875     7.7640     7.4030
  140.5000   103.7363     7.4968     7.2230
  141.0000   104.6298     7.2520     7.0115
  141.5000   103.5865     7.0774     6.8085
  142.0000   102.5588     6.8929     6.6110
  142.5000   101.5393     6.7241     6.4192
  143.0000   101.4551     6.5712     6.2342
  143.5000   102.2304     6.4504     6.0414
  144.0000   103.1021     6.3909     6.0475
  144.5000   100.8276     6.4247     6.0002
  145.0000    97.6364     6.4477     5.9891
  145.5000    95.0926     6.5290     6.1051
  146.0000    97.0462     6.6954     6.2395
  146.5000    99.8495     6.8661     6.3769
  147.0000   102.1383     7.0411     6.5174
  147.5000   103.2655     7.2206     6.6610
  148.0000   104.1574     7.3484     6.8081
  148.5000   102.4521     7.3424     6.9067
  149.0000   100.7869     7.3443     6.9874
  149.5000   100.5682     7.3441     7.0774
  150.0000   101.2722     7.4349     7.0774
  150.5000   103.4558     7.4819     7.0774
  151.0000   105.4699     7.4311     7.0774
  151.5000   104.6199     7.3916     7.0431
  152.0000   103.3821     7.3524     6.9757
  152.5000   103.0471     7.3135     6.9090
  153.0000   104.1922     7.2747     6.8430
  153.5000   105.4804     7.2361     6.7780
  154.0000   106.1441     7.1293     6.7121
  154.5000   105.6228     6.8798     6.5492
  155.0000   105.1032     6.6390     6.2775
  155.5000   103.6914     6.4067     6.0171
  156.0000   102.6246     6.1824     5.7675
  156.5000   104.7835     5.9661     5.5281
  157.0000   107.2145     5.8248     5.2991
  157.5000   107.5533     5.7710     5.0791
  158.0000   104.4405     5.7868     5.0214
  158.5000   101.8259     5.8168     5.1779
  159.0000   101.3799     5.9754     5.3203
  159.5000   102.5187     6.2723     5.5599
  160.0000   104.7262     6.5840     5.8477
  160.5000   106.5368     6.9105     6.1497
  161.0000   107.3314     7.2569     6.4672
  161.5000   108.1350     7.5295     6.8196
  162.0000   108.5544     7.6935     7.0781
  162.5000   107.9483     7.7186     7.3619
  163.0000   106.4937     7.7521     7.5548
  163.5000   104.9441     7.7858     7.5724
  164.0000   103.9705     7.8196     7.5900
  164.5000   104.5125     7.8536     7.6076
  165.0000   104.4117     7.8878     7.6225
  165.5000   104.0944     7.9220     7.6536
  166.0000   104.6025     7.9565     7.6948
  166.5000   107.2119     7.9911     7.7362
  167.0000   106.9760     8.0258     7.7778
  167.5000   105.3446     8.0607     7.8196
  168.0000   103.3280     8.0957     7.8376
  168.5000   103.0919     8.1309     7.8275
  169.0000   102.8148     8.1662     7.8203
  169.5000   102.1747     8.2096     7.8131
  170.0000   100.5810     8.1827     7.8058
  170.5000    99.9402     8.1482     7.7986
  171.0000   101.2750     8.1138     7.7913
  171.5000   102.3564     8.0793     7.7841
  172.0000   102.4783     8.0481     7.7769
  172.5000   101.9139     7.9887     7.7692
  173.0000   101.4411     7.9304     7.7346
  173.5000   101.0083     7.8724     7.6568
  174.0000   102.1043     7.8149     7.5799
  174.5000   103.3190     7.7578     7.5037
  175.0000   104.5412     7.7010     7.4285
  175.5000   105.7699     7.6448     7.3326
  176.0000   104.4401     7.5321     7.2331
  176.5000   102.4297     7.3832     7.1350
  177.0000   102.2369     7.2379     7.0774
  177.5000   105.3374     7.0947     6.7852
  178.0000   107.5826     6.9274     6.5103
  178.5000   108.3124     6.5409     6.2118
  179.0000   108.2996     6.1757     5.9300
  179.5000   108.3030     5.8359     5.6649
  180.0000   108.7533     5.1292     5.3339
  180.5000   109.2613     4.4447     5.0276
  181.0000   109.1130     4.0207     4.4859
  181.5000   108.2941     3.7341     3.9554
  182.0000   107.3704     3.4681     3.4877
  182.5000   105.5075     3.2209     3.0752
  183.0000   103.5492     3.0430     2.7225
  183.5000   100.6328     2.9523     2.5539
