~VERSION INFORMATION
 VERS.                2.0:   CWLS LOG ASCII STANDARD - VERSION 2.0
 WRAP.                 NO:   ONE LINE PER DEPTH STEP
~WELL INFORMATION
#MNEM.UNIT      DATA TYPE    INFORMATION
#----------   ------------   ------------------------------
 STRT.F           78.5000:   START DEPTH
 STOP.F         1021.0000:   STOP DEPTH
 STEP.F            0.5000:   STEP LENGTH
 NULL.          -999.2500:   NO VALUE
 COMP. U S NAVY/INTEX OIL CO:   COMPANY
 WELL.     NRR 3 ##65S-11:   WELL
 FLD .             TEAPOT:   FIELD
 LOC .      S11 T38N R78W:   LOCATION
 CNTY.            NATRONA:   COUNTY
 STAT.            WYOMING:   STATE
 CTRY. UNITED STATES OF AMERICA:   COUNTRY
 SRVC.       Schlumberger:   SERVICE COMPANY
 DATE.        09-MAR-1960:   LOGDATE
 API .       490250634100:   API NUMBER
~CURVE INFORMATION
#MNEM.UNIT       API CODE    CURVE DESCRIPTION
#----------   ------------   ------------------------------
 DEPT.F                  :   
 SPR .MV     05 010 01 00:   SPONTANEOUS POTENTIAL FROM RES.
 ILD .OHMM   05 120 46 00:   INDUCTION LOG DEEP
 CILD.MMHO   05 110 00 00:   CONDUCTIVITY INDUCTION LOG
 ASN .OHMM   05 041 16 00:   AMPLIFIED SHORT NORMAL 16"
~PARAMETER INFORMATION
#MNEM.UNIT          VALUE    DESCRIPTION
#----------   ------------   ------------------------------
 PD  .                 GL:   PERMANENT DATUM
 EPD .F              5227:   ELEVATION PERMANENT DATUM
 LMF .                 KB:   LOG MEASURED FROM
 DAPD.F                 5:   FEET ABOVE PERMANENT DATUM
 DMF .                 KB:   DRILLING MEASURED FROM
 EKB .F              5232:   KELLING BUSHING
 EGL .F              5227:   GROUND LEVEL
 DATE.             3-9-60:   RUN DATE
 RUN .                  1:   RUN NUMBER
 DD  .F              1025:   DEPTH DRILLER
 DL  .F              1026:   DEPTH LOGGER
 BLI .F              1021:   BOTTOM LOG INTERVAL
 TLI .F                80:   TOP LOG INTERVAL
 CBD .F                12:   CASING BOTTOM DRILLER
 BS  .IN            7.875:   BIT SIZE
 BSD .F              1025:   BIT SIZE AT DEPTH
 DFT .          OIL EMULS:   DRILLING FLUID TYPE
 DFD .               10.2:   DRILLING FLUID DENSITY
 DFV .                 36:   DRILLING FLUID VISCOSITY
 DFPH.                7.5:   DRILLING FLUID PH
 DFL .                  4:   DRILLING FLUID LOSS
 MSS .          FLOW LINE:   MUD SAMPLE SOURCE
 RMS .OHMM           2.18:   RESISTIVITY MUD SAMPLE
 MST .F                64:   MUD SAMPLE TEMPERATURE
 RMF .OHMM           1.17:   RESISTIVITY MUD FILTRATE SAMPLE
 MFST.F                63:   MUD FILTRATE SAMPLE TEMPERATURE
 RMC .OHMM           2.02:   RESISTIVITY MUD CAKE
 MCST.F                64:   MUD CAKE SAMPLE TEMPERATURE
 MFSS.                  M:   MUD FILTRATE SAMPLE SOURCE
 MCSS.                  M:   MUD CAKE SAMPLE SOURCE
 TCS .HRS             .75:   TIME CURCULATED STOPPED
 LUN .               2795:   LOGGING UNIT NUMBER
 LUL .               CSPR:   LOGGING UNIT LOCATION
 ENGI.              SCOTT:   RECORDING ENGINEER
 WITN.          JORGENSEN:   WITNESSED BY
 CLNT.            A2DTECH:   CLIENT CODE
 ORIG.           2" PRINT:   ORIGIN OF DATA
 UWI .       490250634100:   UNIQUE WELL ID
 DICO. A2D Technologies, Inc.:   DIGITIZING COMPANY
~OTHER INFORMATION
~A   DEPT      SPR        ILD       CILD        ASN   
# ...
  662.5000   -50.2311     7.6483   131.0512     9.9449
  663.0000   -50.1480     7.5744   131.7635     9.9273
  663.5000   -50.0650     7.5001   133.7717     9.8499
  664.0000   -49.9820     7.4258   135.4542     9.6180
  664.5000   -49.8986     7.3518   137.1368     9.5004
  665.0000   -49.8157     7.2773   138.8193     9.3397
  665.5000   -49.7315     7.2038   140.5018     9.2052
  666.0000   -49.6500     7.1285   142.1844     9.0502
  666.5000   -49.5635     7.0558   143.8669     8.9501
  667.0000   -49.4859     6.9745   145.5494     8.9455
  667.5000   -49.3920     7.0200   146.7936     8.9580
  668.0000   -49.4765     7.1065   146.7936     9.0184
  668.5000   -49.7072     7.1853   145.3553     9.1135
  669.0000   -49.9215     7.2668   143.4916     9.2178
  669.5000   -50.1454     7.3485   141.6279     9.3149
  670.0000   -50.3648     7.4269   139.7641     9.4261
  670.5000   -50.5855     7.5155   137.9004     9.5151
  671.0000   -50.6064     7.5851   136.0367     9.5733
  671.5000   -50.5217     7.6267   134.4464     9.6427
  672.0000   -50.4244     7.6774   133.4369     9.7081
  672.5000   -50.3274     7.7241   132.4274     9.7743
  673.0000   -50.2303     7.7731   131.4178     9.8425
  673.5000   -50.1333     7.8208   130.4083     9.9055
  674.0000   -50.0360     7.8692   129.3988    10.0274
  674.5000   -49.9393     7.9173   128.3893    10.2375
  675.0000   -49.8414     7.9655   127.3798    10.4359
  675.5000   -49.7460     8.0142   127.1368    10.3898
  676.0000   -49.6461     8.0571   128.1463    10.3536
  676.5000   -49.5546     7.9865   129.1558    10.2339
  677.0000   -49.4450     7.8889   130.1653    10.1822
  677.5000   -49.3899     7.7978   131.1749    10.0002
  678.0000   -49.3890     7.7017   132.1844     9.8758
  678.5000   -49.4485     7.6119   133.1939     9.8432
  679.0000   -49.6134     7.5106   134.2034     9.7713
  679.5000   -49.7751     7.4579   135.2129     9.7508
  680.0000   -49.9311     7.4748   135.7715     9.8106
  680.5000   -50.1110     7.5942   134.6617     9.8766
  681.0000   -50.2033     7.7398   132.2176     9.9625
  681.5000   -50.1635     7.8789   129.7735    10.2305
  682.0000   -50.1445     8.0210   127.3294    10.5272
  682.5000   -50.1144     8.1616   124.8853    10.8252
  683.0000   -50.0904     8.3029   122.4412    11.0941
  683.5000   -50.0631     8.4438   119.9971    11.3349
  684.0000   -50.0374     8.5848   117.5530    11.5592
  684.5000   -50.0110     8.7257   115.1089    11.6013
  685.0000   -49.9849     8.8666   112.7254    11.6330
  685.5000   -49.9587     9.0074   111.0325    11.6550
  686.0000   -49.9326     9.1483   109.3806    11.6984
  686.5000   -49.9062     9.2892   107.7286    11.7959
  687.0000   -49.8805     9.4300   106.0767    11.9512
  687.5000   -49.8536     9.5714   104.4248    12.0638
  688.0000   -49.8281     9.7115   104.2786    12.2836
  688.5000   -49.8047     9.8543   103.8244    12.4899
  689.0000   -49.9146     9.9917   102.2804    12.6933
  689.5000   -50.0721    10.1393   100.7365    12.8943
  690.0000   -50.2208    10.2687    99.1925    13.0984
  690.5000   -50.3741    10.4300    97.6485    13.2975
  691.0000   -50.5241    10.3949    96.1046    13.5071
  691.5000   -50.6771    10.4389    94.5606    13.6435
  692.0000   -50.8271    10.4823    93.0166    13.5914
  692.5000   -50.9907    10.4673    91.6834    13.5114
  693.0000   -50.9879    10.4739    91.6834    13.4319
  693.5000   -50.9460    10.4730    92.7832    13.3528
  694.0000   -50.9130    10.4592    93.7446    13.2735
  694.5000   -50.8759    10.3396    94.7061    13.1941
  695.0000   -50.8410    10.2266    95.6675    13.1155
  695.5000   -50.8050    10.1119    96.6290    13.0349
  696.0000   -50.7694     9.9990    97.5904    12.9581
  696.5000   -50.7337     9.8838    98.5519    12.8742
  697.0000   -50.6982     9.7724    99.5133    12.8062
  697.5000   -50.6627     9.6533   100.4748    12.6961
  698.0000   -50.6272     9.5751   101.4362    12.6096
  698.5000   -50.5917     9.6077   101.6368    12.4359
  699.0000   -50.5562     9.6389   101.5446    12.2891
  699.5000   -50.5207     9.6719   101.4524    12.4148
  700.0000   -50.4852     9.7037   101.3601    12.5275
  700.5000   -50.4497     9.7362   101.2679    12.6323
  701.0000   -50.4143     9.7687   101.1757    12.7888
  701.5000   -50.3788     9.8003   101.0835    12.8778
  702.0000   -50.3433     9.8341   100.9912    12.8013
  702.5000   -50.3078     9.8649   100.8990    12.6190
  703.0000   -50.2723     9.8758   100.8068    12.4209
  703.5000   -50.2368     9.8277   100.7014    12.2550
  704.0000   -50.2013     9.7004   102.3204    12.0707
  704.5000   -50.1658     9.5771   104.2091    11.8948
  705.0000   -50.1303     9.4505   106.0979    11.7162
  705.5000   -50.0948     9.3259   107.9867    11.5361
  706.0000   -50.0593     9.2000   109.8755    11.3621
  706.5000   -50.0237     9.0731   111.7642    11.1680
  707.0000   -49.9883     8.9714   113.7274    11.0404
  707.5000   -49.9526     8.8700   115.0301    10.9366
  708.0000   -49.9173     8.7680   116.0588    10.8622
  708.5000   -49.8812     8.6665   116.7368    10.7885
  709.0000   -49.8466     8.5642   117.4148    10.7148
  709.5000   -49.8097     8.4634   118.0928    10.6398
  710.0000   -49.7985     8.3592   118.7709    10.5747
  710.5000   -49.8197     8.2732   119.4489    10.5763
  711.0000   -49.8376     8.2778   119.7923    10.5908
  711.5000   -49.8569     8.2909   119.8848    10.6030
  712.0000   -49.8754     8.3027   119.9772    10.6160
  712.5000   -49.8943     8.3152   120.0697    10.6289
  713.0000   -49.9132     8.3268   120.1621    10.6416
  713.5000   -49.9319     8.3402   120.2546    10.6555
  714.0000   -49.9511     8.3503   120.3471    10.6666
  714.5000   -49.9695     8.3666   120.4395    10.6894
  715.0000   -49.9895     8.3428   120.5320    10.7228
  715.5000   -50.0027     8.2996   120.5873    10.7488
  716.0000   -49.9984     8.2519   120.6743    10.7783
  716.5000   -50.0051     8.1088   121.7707    10.7400
  717.0000   -49.9599     7.9819   123.2373    10.4523
  717.5000   -49.8524     7.8518   124.7052    10.2105
  718.0000   -49.7518     7.7243   126.6711     9.9267
  718.5000   -49.6465     7.5938   129.8770     9.7205
  719.0000   -49.5453     7.4679   133.0789     9.5273
  719.5000   -49.4392     7.3343   136.2539     9.2839
  720.0000   -49.3403     7.2148   139.4503     9.0531
  720.5000   -49.2294     7.0525   142.6467     8.9092
  721.0000   -49.2104     6.9531   145.8431     8.8497
  721.5000   -49.2663     6.9698   147.7956     9.0080
  722.0000   -49.3079     7.0051   145.9719     9.1865
  722.5000   -49.3563     7.0612   143.9379     9.1687
  723.0000   -49.4013     7.1096   141.9038     9.1152
  723.5000   -49.4475     7.1620   139.8697     9.0740
  724.0000   -49.4943     7.2124   138.8632     9.0842
  724.5000   -49.5391     7.2637   139.0481     9.1048
  725.0000   -49.5889     7.3146   139.2330     9.1218
  725.5000   -49.5289     7.3655   139.4179     9.1417
  726.0000   -49.4283     7.4163   139.6028     9.1571
  726.5000   -49.3355     7.4672   139.7796     9.1924
  727.0000   -49.2390     7.5182   138.2801     9.2421
  727.5000   -49.1444     7.5690   136.8443     9.3000
  728.0000   -49.0487     7.6202   135.4085     9.4643
  728.5000   -48.9534     7.6708   133.9727     9.6108
  729.0000   -48.8581     7.7224   132.5368     9.7201
  729.5000   -48.7625     7.7720   131.1010     9.8165
  730.0000   -48.6678     7.8261   129.6652     9.9180
  730.5000   -48.5715     7.8579   128.2294     9.9685
  731.0000   -48.4776     7.8008   128.4369    10.0079
  731.5000   -48.3858     7.7442   129.4539     9.9436
  732.0000   -48.4217     7.6874   130.4709     9.8141
  732.5000   -48.5145     7.6304   131.4880     9.7028
  733.0000   -48.5966     7.5746   132.5050     9.5896
  733.5000   -48.6838     7.5161   133.5220     9.4622
  734.0000   -48.7683     7.4629   134.5391     9.3786
  734.5000   -48.8543     7.3976   135.7715     9.4124
  735.0000   -48.9395     7.3700   135.2535     9.4793
