~VERSION INFORMATION
 VERS.                2.0:   CWLS LOG ASCII STANDARD - VERSION 2.0
 WRAP.                 NO:   ONE LINE PER DEPTH STEP
~WELL INFORMATION
#MNEM.UNIT      DATA TYPE    INFORMATION
#----------   ------------   ------------------------------
 STRT.F            2.0000:   START DEPTH
 STOP.F          595.0000:   STOP DEPTH
 STEP.F            0.5000:   STEP LENGTH
 NULL.          -999.2500:   NO VALUE
 COMP.       F D SERV INC:   COMPANY
 WELL.    73-5 SX-3 #73-3:   WELL
 FLD .             TEAPOT:   FIELD
 LOC .       S3 T38N R78W:   LOCATION
 CNTY.            NATRONA:   COUNTY
 STAT.            WYOMING:   STATE
 CTRY. UNITED STATES OF AMERICA:   COUNTRY
 SRVC.     Atlas Wireline:   SERVICE COMPANY
 DATE.        01-MAY-1992:   LOGDATE
 API .       490252252200:   API NUMBER
~CURVE INFORMATION
#MNEM.UNIT       API CODE    CURVE DESCRIPTION
#----------   ------------   ------------------------------
 DEPT.F                  :   
 CALD.IN     45 280 60 00:   CALIPER FROM DENSITY
 CORR.G/C3   45 356 01 00:   DENSITY CORRECTION
 DEN .G/C3   45 350 01 00:   COMPENSATED BULK DENSTIY
 GRD .GAPI   45 310 01 00:   GAMMA RAY FROM DENSITY LOG
 RILD.OHMM   07 120 46 00:   INDUCTION LOG DEEP RESISTIVITY
 RILM.OHMM   07 120 44 00:   INDUCTION LOG MEDIUM RESISTIVITY
 PORD.DEC    45 890 12 00:   POROSITY DENSITY SANDSTONE
~PARAMETER INFORMATION
#MNEM.UNIT          VALUE    DESCRIPTION
#----------   ------------   ------------------------------
 PD  .                 GL:   PERMANENT DATUM
 EPD .F              5147:   ELEVATION PERMANENT DATUM
 LMF .                 KB:   LOG MEASURED FROM
 DAPD.F                 5:   FEET ABOVE PERMANENT DATUM
 DMF .                 KB:   DRILLING MEASURED FROM
 EKB .F              5152:   KELLING BUSHING
 EGL .F              5147:   GROUND LEVEL
 DATE.        01-MAY-1992:   RUN DATE
 RUN .                  1:   RUN NUMBER
 DD  .F               600:   DEPTH DRILLER
 DL  .F               603:   DEPTH LOGGER
 BLI .F               601:   BOTTOM LOG INTERVAL
 TLI .F                 2:   TOP LOG INTERVAL
 CS  .IN            8.625:   CASING SIZE
 CBD .F                46:   CASING BOTTOM DRILLER
 CBL .F                53:   CASING BOTTOM LOGGER
 BS  .IN            7.875:   BIT SIZE
 BSD .F               600:   BIT SIZE AT DEPTH
 DFT .                AIR:   DRILLING FLUID TYPE
 TCS .HRS               1:   TIME CURCULATED STOPPED
 LUN .            HL-6274:   LOGGING UNIT NUMBER
 LUL .             CASPER:   LOGGING UNIT LOCATION
 ENGI.             ZIEGER:   RECORDING ENGINEER
 WITN.             STRONG:   WITNESSED BY
 CLNT.            A2DTECH:   CLIENT CODE
 ORIG.           5" PRINT:   ORIGIN OF DATA
 UWI .       490252252200:   UNIQUE WELL ID
 DICO. A2D Technologies, Inc.:   DIGITIZING COMPANY
~OTHER INFORMATION
~A    DEPT    CALD       CORR        DEN         GRD      RILD       RILM       PORD   
# ...
  184.0000     8.1235    -0.0174     2.4723   157.3061     7.7624     7.8892     0.1054
  184.5000     8.1235    -0.0174     2.4783   154.3075     7.7638     7.8897     0.1048
  185.0000     8.1235    -0.0174     2.4858   155.8201     7.7648     7.8354     0.1018
  185.5000     8.1235    -0.0144     2.4963   158.8366     7.7659     7.8359     0.0997
  186.0000     8.1235    -0.0144     2.5039   160.3492     7.7127     7.8365     0.0916
  186.5000     8.1084    -0.0113     2.5069   156.1476     7.6604     7.7825     0.0892
  187.0000     8.1084    -0.0113     2.5023   150.7430     7.6614     7.7289     0.0898
  187.5000     8.0934    -0.0083     2.5008   148.0451     7.6625     7.6223     0.0904
  188.0000     8.0934    -0.0053     2.5037   148.6556     7.6636     7.6230     0.0883
  188.5000     8.0934    -0.0023     2.5098   148.3318     7.7183     7.6769     0.0856
  189.0000     8.0783     0.0098     2.5067   146.8211     7.7194     7.7311     0.0841
  189.5000     8.0783     0.0219     2.5037   144.7747     7.7204     7.7859     0.0856
  190.0000     8.0783     0.0314     2.5055   142.0768     7.7215     7.7864     0.0820
  190.5000     8.0934     0.0189     2.5234   138.4767     7.7225     7.7869     0.0754
  191.0000     8.1084    -0.0053     2.5368   136.3803     7.7236     7.7875     0.0696
  191.5000     8.1235    -0.0174     2.5413   135.4848     7.7247     7.7337     0.0681
  192.0000     8.1386    -0.0204     2.5292   145.4207     7.6720     7.7344     0.0724
  192.5000     8.1536    -0.0234     2.5261   152.9484     7.6731     7.6811     0.0757
  193.0000     8.1536    -0.0234     2.5276   157.7693     7.6208     7.6817     0.0757
  193.5000     8.1687    -0.0234     2.5246   161.6880     7.5688     7.6822     0.0763
  194.0000     8.1687    -0.0234     2.5200   163.5014     7.5172     7.6827     0.0769
  194.5000     8.1536    -0.0204     2.5154   164.7133     7.4660     7.6832     0.0809
  195.0000     8.1536    -0.0204     2.5109   162.9177     7.4673     7.6838     0.0842
  195.5000     8.1536    -0.0174     2.5093   160.5206     7.4683     7.6843     0.0887
  196.0000     8.1536    -0.0204     2.5033   159.0258     7.4694     7.6850     0.0927
  196.5000     8.1386    -0.0204     2.5002   157.2302     7.4704     7.7393     0.0942
  197.0000     8.1386    -0.0204     2.4956   156.0322     7.4714     7.7398     0.0954
  197.5000     8.1235    -0.0144     2.4941   155.4236     7.4724     7.7404     0.0963
  198.0000     8.1235    -0.0023     2.4925   155.1516     7.4735     7.7409     0.0972
  198.5000     8.1235     0.0008     2.4895   157.1218     7.4745     7.7414     0.0991
  199.0000     8.1235    -0.0083     2.4880   163.2919     7.4755     7.7420     0.1015
  199.5000     8.1235    -0.0144     2.4925   168.1129     7.5289     7.7425     0.1021
  200.0000     8.1241    -0.0177     2.4971   170.5256     7.5936     7.7997     0.0952
  200.5000     8.1279    -0.0195     2.4984   170.3121     7.6613     7.8152     0.0919
  201.0000     8.1318    -0.0177     2.4969   169.0354     7.7384     7.8307     0.0923
  201.5000     8.1356    -0.0148     2.4938   166.3346     7.6824     7.8468     0.0937
  202.0000     8.1235    -0.0180     2.4953   163.3330     7.6803     7.8452     0.0937
  202.5000     8.1235    -0.0182     2.4983   158.5269     7.6782     7.8436     0.0925
  203.0000     8.1084    -0.0183     2.5012   156.4275     7.6761     7.8969     0.0907
  203.5000     8.1084    -0.0185     2.5012   158.8395     7.7283     7.8403     0.0889
  204.0000     8.1084    -0.0216     2.5042   161.2514     7.7797     7.8936     0.0874
  204.5000     8.1097    -0.0218     2.5041   161.5581     7.8321     7.8916     0.0862
  205.0000     8.1235    -0.0219     2.5071   163.9700     7.8848     7.9452     0.0856
  205.5000     8.1386    -0.0221     2.5101   167.5850     7.9377     7.9436     0.0853
  206.0000     8.1386    -0.0222     2.5115   172.7522     7.8803     7.9420     0.0847
  206.5000     8.1386    -0.0224     2.5085   176.0865     7.8782     7.7758     0.0847
  207.0000     8.1386    -0.0226     2.5039   176.6253     7.8212     7.6132     0.0883
  207.5000     8.1386    -0.0197     2.4978   173.0237     7.7035     7.4539     0.0923
  208.0000     8.1386    -0.0198     2.4947   168.2176     7.5488     7.2980     0.0960
  208.5000     8.1386    -0.0169     2.4917   164.3137     7.4417     7.1454     0.0971
  209.0000     8.1386    -0.0171     2.4977   165.2219     7.2856     7.1439     0.0974
  209.5000     8.1386    -0.0173     2.5007   169.4384     7.1826     7.0928     0.0959
  210.0000     8.1386    -0.0174     2.4976   172.7526     7.0811     7.0420     0.0947
  210.5000     8.1386    -0.0176     2.4945   174.5615     7.0300     7.0406     0.0938
  211.0000     8.1386    -0.0177     2.4914   168.2531     6.9792     7.0390     0.0935
  211.5000     8.1386    -0.0209     2.4914   162.2440     6.9772     7.0373     0.0950
  212.0000     8.1386    -0.0241     2.4898   161.0455     7.1229     7.1351     0.0968
  212.5000     8.1386    -0.0242     2.4899   164.0604     7.2210     7.2339     0.0980
  213.0000     8.1386    -0.0244     2.4943   163.4648     7.3204     7.3850     0.0953
  213.5000     8.1386    -0.0245     2.4988   161.0647     7.4213     7.4872     0.0902
  214.0000     8.1386    -0.0216     2.5018   158.0631     7.4713     7.5909     0.0869
  214.5000     8.1536    -0.0248     2.5062   159.6169     7.5741     7.6429     0.0863
  215.0000     8.1536    -0.0250     2.5107   161.7243     7.6250     7.7483     0.0839
  215.5000     8.1687    -0.0251     2.5122   159.2854     7.6763     7.8013     0.0833
  216.0000     8.1687    -0.0192     2.5137   155.6823     7.7820     7.8539     0.0836
  216.5000     8.1837    -0.0194     2.5121   155.9890     7.8394     7.9073     0.0845
  217.0000     8.1837    -0.0165     2.5075   158.7017     7.9422     7.9057     0.0860
  217.5000     8.1837    -0.0166     2.5060   160.8129     7.9957     7.9594     0.0878
  218.0000     8.1988    -0.0168     2.5057   161.7196     7.9929     7.9577     0.0890
  218.5000     8.1988    -0.0169     2.5104   159.6217     7.9907     8.0192     0.0887
  219.0000     8.1837    -0.0171     2.5149   155.7179     7.9330     8.1223     0.0863
  219.5000     8.1837    -0.0235     2.5148   152.4155     7.8756     8.1206     0.0830
  220.0000     8.1837    -0.0325     2.5163   151.2170     7.8187     8.0625     0.0800
  220.5000     8.1687    -0.0236     2.5163   154.5326     7.8166     7.8939     0.0794
  221.0000     8.1536    -0.0177     2.5087   153.9371     7.8144     7.7829     0.0819
  221.5000     8.1386    -0.0148     2.4996   150.6347     7.8123     7.7272     0.0854
  222.0000     8.1386    -0.0119     2.4874   149.7223     7.7558     7.7256     0.0933
  222.5000     8.1235    -0.0061     2.4783   150.9473     7.7537     7.6703     0.1018
  223.0000     8.1235    -0.0092     2.4662   150.3517     7.7515     7.7228     0.1096
  223.5000     8.1235    -0.0094     2.4692   150.4041     7.8037     7.7753     0.1121
  224.0000     8.1235    -0.0095     2.4812   152.1696     7.8561     7.8278     0.1024
  224.5000     8.1386    -0.0097     2.4948   154.5815     7.9090     7.9360     0.0943
  225.0000     8.1386    -0.0159     2.5068   156.3905     7.9621     8.0459     0.0873
  225.5000     8.1386    -0.0191     2.5069   151.5859     8.1313     8.1611     0.0879
  226.0000     8.1386    -0.0253     2.4992   149.7873     8.3042     8.3943     0.0894
  226.5000     8.1386    -0.0254     2.5037   152.1992     8.5496     8.6220     0.0894
  227.0000     8.1386    -0.0225     2.5144   154.0096     8.8921     8.8643     0.0846
  227.5000     8.1386    -0.0166     2.5250   155.8201     9.1419     9.2409     0.0816
  228.0000     8.1386    -0.0108     2.5322   152.2170     9.3321     9.5004     0.0770
  228.5000     8.1386    -0.0049     2.5382   150.7192     9.5269     9.7678     0.0693
  229.0000     8.1386    -0.0020     2.5412   149.2213     9.7257    10.0417     0.0650
