~VERSION INFORMATION
 VERS.                2.0:   CWLS LOG ASCII STANDARD - VERSION 2.0
 WRAP.                 NO:   ONE LINE PER DEPTH STEP
~WELL INFORMATION
#MNEM.UNIT      DATA TYPE    INFORMATION
#----------   ------------   ------------------------------
 STRT.F           16.0000:   START DEPTH
 STOP.F         1334.0000:   STOP DEPTH
 STEP.F            0.5000:   STEP LENGTH
 NULL.          -999.2500:   NO VALUE
 COMP. U S NAVY/INTEX OIL CO:   COMPANY
 WELL.  S-11 NPR 3 #87-11:   WELL
 FLD .             TEAPOT:   FIELD
 LOC .      S11 T38N R78W:   LOCATION
 CNTY.            NATRONA:   COUNTY
 STAT.            WYOMING:   STATE
 CTRY. UNITED STATES OF AMERICA:   COUNTRY
 SRVC.       Schlumberger:   SERVICE COMPANY
 DATE.        17-JUN-1966:   LOGDATE
 API .       490250958900:   API NUMBER
~CURVE INFORMATION
#MNEM.UNIT       API CODE    CURVE DESCRIPTION
#----------   ------------   ------------------------------
 DEPT.F                  :   
 GRD .GAPI   45 310 01 00:   GAMMA RAY FROM DENSITY LOG
 CALD.IN     45 280 60 00:   CALIPER
 RHOB.G/C3   45 350 01 00:   BULK DENSITY
 DPOR.DEC    45 890 12 00:   DENSITY POROSITY SANDSTONE
 DRHO.G/C3   45 356 01 00:   DENSITY CORRECTION
 ASN .OHMM   05 041 16 00:   AMPLIFIED SHORT NORMAL 16"
 ILD .OHMM   05 120 46 00:   INDUCTION LOG DEEP
 CILD.MMHO   05 110 46 00:   CONDUCTIVITY INDUCTION LOG DEEP
 SPR .MV     05 010 01 00:   SPONTANEOUS POTENTIAL FROM RES.
~PARAMETER INFORMATION
#MNEM.UNIT          VALUE    DESCRIPTION
#----------   ------------   ------------------------------
 PD  .                 GL:   PERMANENT DATUM
 EPD .F              5284:   ELEVATION PERMANENT DATUM
 LMF .                 KB:   LOG MEASURED FROM
 DAPD.F                 5:   FEET ABOVE PERMANENT DATUM
 DMF .                 KB:   DRILLING MEASURED FROM
 EKB .F              5289:   KELLING BUSHING
 EGL .F              5284:   GROUND LEVEL
 DATE.          8-17-1966:   RUN DATE
 RUN .                  1:   RUN NUMBER
 DD  .F              1335:   DEPTH DRILLER
 DL  .F              1335:   DEPTH LOGGER
 BLI .F              1334:   BOTTOM LOG INTERVAL
 TLI .F                50:   TOP LOG INTERVAL
 CS  .IN            8.625:   CASING SIZE
 CBD .F                10:   CASING BOTTOM DRILLER
 BS  .IN            7.875:   BIT SIZE
 BSD .F              1335:   BIT SIZE AT DEPTH
 DFT .           GEL-CHEM:   DRILLING FLUID TYPE
 DFD .                9.3:   DRILLING FLUID DENSITY
 DFV .                 50:   DRILLING FLUID VISCOSITY
 MSS .          FLOW LINE:   MUD SAMPLE SOURCE
 RMS .OHMM           1.38:   RESISTIVITY MUD SAMPLE
 MST .F                80:   MUD SAMPLE TEMPERATURE
 RMF .OHMM           1.09:   RESISTIVITY MUD FILTRATE SAMPLE
 MFST.F                77:   MUD FILTRATE SAMPLE TEMPERATURE
 MFSS.                  M:   MUD FILTRATE SAMPLE SOURCE
 RMB .OHMM           1.70:   RESISTIVITY MUD AT BHT
 BHT .F               108:   BOTTOM HOLE TEMPERATURE
 TCS .HRS               1:   TIME CURCULATED STOPPED
 MRT .F               108:   MAXIMUM RECORDED TEMPERATURE
 LUN .               4507:   LOGGING UNIT NUMBER
 LUL .               CSPR:   LOGGING UNIT LOCATION
 ENGI.            MANGOLD:   RECORDING ENGINEER
 WITN.                MAY:   WITNESSED BY
 CLNT.            A2DTECH:   CLIENT CODE
 ORIG.       2", 5" PRINT:   ORIGIN OF DATA
 UWI .       490250958900:   UNIQUE WELL ID
 DICO. A2D Technologies, Inc.:   DIGITIZING COMPANY
~OTHER INFORMATION
~A   DEPT       GRD      CALD       RHOB       DPOR       DRHO        ASN        ILD       CILD        SPR   
# ...
  271.5000   103.9332     8.3873     2.4550     0.1254     0.0560     7.1886     6.3426   159.1344   -55.0545
  272.0000    99.3114     8.3891     2.4400     0.1327     0.0370     7.0140     6.1435   164.9214   -55.0352
  272.5000    95.9698     8.3909     2.4369     0.1370     0.0193     6.8394     6.0158   169.8310   -55.0159
  273.0000    95.9521     8.3927     2.4376     0.1316     0.0246     6.6648     5.9030   173.5128   -54.9967
  273.5000    98.0545     8.3945     2.4330     0.1345     0.0282     6.4902     5.7906   177.1852   -54.9772
  274.0000   100.3888     8.3963     2.4353     0.1316     0.0219     6.3151     5.6780   180.8617   -54.9589
  274.5000   102.7006     8.3981     2.4407     0.1283     0.0263     6.1821     5.5654   184.5382   -54.8708
  275.0000    99.4544     8.3999     2.4284     0.1373     0.0309     6.0744     5.4527   188.2148   -54.7421
  275.5000   101.2386     8.4018     2.4155     0.1478     0.0207     5.9714     5.3400   191.5194   -54.6126
  276.0000   102.1934     8.4036     2.4086     0.1433     0.0175     5.9675     5.2267   193.3213   -54.4831
  276.5000    99.8963     8.4041     2.4278     0.1328     0.0314     5.9683     5.1178   195.1341   -54.3536
  277.0000   101.3173     8.3940     2.4254     0.1381     0.0409     5.9412     5.1129   194.1410   -54.2238
  277.5000    99.2735     8.3838     2.4379     0.1320     0.0508     5.8969     5.1642   192.6670   -54.0931
  278.0000    95.9281     8.3736     2.4625     0.1215     0.0515     5.8756     5.2478   190.1408   -53.9673
  278.5000    92.5499     8.3634     2.4853     0.1088     0.0471     5.8945     5.3318   187.6145   -54.0476
  279.0000    89.1694     8.3532     2.4739     0.1152     0.0603     5.9127     5.4158   185.0883   -54.1404
  279.5000    85.5487     8.3431     2.4600     0.1235     0.0666     5.9311     5.4998   182.5621   -54.2326
  280.0000    90.4344     8.3329     2.4469     0.1303     0.0482     5.9493     5.5838   180.0358   -54.3245
  280.5000    90.7901     8.3228     2.4537     0.1234     0.0369     5.9681     5.6678   177.5096   -54.4163
  281.0000    92.2900     8.3123     2.4619     0.1205     0.0480     6.0093     5.7518   174.9834   -54.5082
  281.5000    95.6636     8.2823     2.4518     0.1253     0.0628     6.1284     5.8358   172.4571   -54.6001
  282.0000    97.5099     8.2014     2.4372     0.1302     0.0714     6.2528     5.9198   169.9309   -54.6919
  282.5000    94.4537     8.1223     2.4225     0.1390     0.0622     6.3800     6.0041   167.3287   -54.7838
  283.0000    91.4914     8.0887     2.4079     0.1478     0.0535     6.4098     6.0918   166.5276   -54.8756
  283.5000    92.3144     8.1745     2.4016     0.1533     0.0448     6.4165     6.0367   167.4053   -54.9675
  284.0000    91.5029     8.2564     2.4276     0.1396     0.0363     6.4222     5.9455   168.7964   -55.0593
  284.5000    89.9030     8.2017     2.4466     0.1295     0.0314     6.4587     5.8534   170.1919   -55.1512
  285.0000    89.1821     8.2051     2.4659     0.1208     0.0608     6.5178     5.7615   171.5865   -55.2439
  285.5000    93.2852     8.2835     2.4736     0.1131     0.0826     6.5153     5.6698   172.9801   -55.3381
  286.0000    97.4339     8.3640     2.4577     0.1270     0.0931     6.4332     5.5780   174.3738   -55.2418
  286.5000   101.5425     8.3191     2.4206     0.1416     0.0677     6.3511     5.4862   175.4581   -55.1213
  287.0000   100.4931     8.2265     2.3940     0.1561     0.0472     6.2693     5.3945   175.9797   -55.0003
  287.5000    98.2896     8.1326     2.3796     0.1653     0.0264     6.2723     5.3023   176.5013   -54.8798
  288.0000   102.2384     8.1152     2.3972     0.1520     0.0187     6.2820     5.2086   177.0229   -54.7593
  288.5000   101.7745     8.1743     2.4144     0.1405     0.0201     6.3015     5.1229   176.0973   -54.6388
  289.0000   101.1991     8.2333     2.4316     0.1306     0.0322     6.3483     5.3934   173.9736   -54.5182
  289.5000   101.7147     8.2924     2.4389     0.1363     0.0364     6.3941     5.6921   171.8499   -54.3997
  290.0000   102.3835     8.3456     2.4223     0.1428     0.0250     6.4434     5.9900   165.7895   -54.2838
  290.5000    99.1757     8.3512     2.4034     0.1509     0.0286     6.5052     6.2874   158.3565   -54.0622
  291.0000    94.1797     8.3561     2.4021     0.1485     0.0242     6.7288     6.5849   150.4469   -53.7987
  291.5000    89.2465     8.3612     2.4385     0.1426     0.0128     6.9689     6.8841   147.1344   -53.8156
  292.0000    92.6012     8.3663     2.4726     0.1139     0.0140     7.2092     7.1868   143.5948   -53.8482
  292.5000    96.9020     8.3714     2.4996     0.1089     0.0376     7.4824     7.2745   140.4667   -53.8796
  293.0000   100.7090     8.3765     2.5099     0.1034     0.0544     7.9244     7.3518   140.0856   -53.9104
  293.5000    99.2668     8.3816     2.5345     0.0984     0.0668     8.2179     7.4298   139.7044   -53.9412
  294.0000    98.2900     8.3867     2.5167     0.1031     0.0762     8.0167     7.4711   141.7249   -53.9719
  294.5000   102.3236     8.3918     2.4995     0.1095     0.0829     7.8657     7.2388   145.9178   -54.0027
  295.0000   100.7808     8.3969     2.4824     0.1116     0.0679     7.7961     7.0064   150.1085   -54.0334
  295.5000    99.0777     8.4021     2.4752     0.1103     0.0529     7.5711     6.7750   154.3021   -54.0642
  296.0000   100.9199     8.4072     2.4805     0.1146     0.0380     7.3297     6.5428   158.5340   -54.0951
  296.5000   104.1191     8.4123     2.4590     0.1215     0.0232     7.1268     6.3115   162.1132   -54.1266
  297.0000   107.3462     8.4174     2.4648     0.1178     0.0083     7.0330     6.1147   164.3919   -54.1554
  297.5000   111.0602     8.4225     2.4679     0.1185    -0.0069     6.9853     6.2381   164.0028   -54.0440
  298.0000   108.4768     8.4276     2.4600     0.1210    -0.0088     6.9333     6.3583   160.7805   -53.9204
  298.5000   104.1756     8.4327     2.4609     0.1211     0.0068     6.9470     6.4772   157.5559   -53.7971
  299.0000    99.8231     8.4378     2.4700     0.1158     0.0174     6.9827     6.5958   154.3546   -53.6739
  299.5000    96.4025     8.4430     2.4772     0.1106     0.0300     7.1188     6.7358   150.9061   -53.5512
  300.0000   101.1194     8.4481     2.4694     0.1048     0.0536     7.3825     7.0087   145.6825   -53.4277
  300.5000    98.7958     8.4532     2.4650     0.1084     0.0194     7.6711     7.2872   140.4590   -53.3929
  301.0000    95.2446     8.4583     2.4782     0.1016     0.0260     7.8841     7.5659   135.2354   -53.4427
  301.5000    94.6859     8.4637     2.4748     0.1059     0.0310     8.0218     7.8446   131.3661   -53.4934
  302.0000    97.1081     8.4529     2.4812     0.0996     0.0360     8.1589     8.0916   130.6568   -53.5444
  302.5000    95.3964     8.4354     2.4685     0.1072     0.0409     8.2462     8.0055   131.6893   -53.5953
  303.0000    93.7184     8.4176     2.4764     0.0998     0.0409     8.3290     7.9051   132.7927   -53.6462
  303.5000    96.2245     8.3998     2.4840     0.0956     0.0251     8.3241     7.8054   134.0936   -53.6971
  304.0000    99.4129     8.3820     2.4870     0.1021     0.0288     8.2487     7.7061   135.8555   -53.7480
  304.5000    98.1802     8.3643     2.4731     0.1052     0.0364     8.1585     7.6068   137.6173   -53.7988
  305.0000    94.1816     8.3464     2.4849     0.1011     0.0437     8.0681     7.5075   139.3792   -53.8497
  305.5000    89.9201     8.3278     2.4920     0.0979     0.0739     7.9777     7.4079   141.1410   -53.9006
  306.0000    87.5910     8.3495     2.4736     0.1100     0.0642     7.8922     7.3076   142.9029   -53.9515
  306.5000    96.1529     8.3796     2.4551     0.1203     0.0498     7.8231     7.2108   144.3231   -54.0023
  307.0000    98.8978     8.3860     2.4523     0.1136     0.0434     7.9155     7.3647   143.0936   -54.0533
  307.5000   101.4771     8.3875     2.4585     0.1176     0.0388     8.0501     7.5495   139.0823   -54.1046
