~VERSION INFORMATION
 VERS.                2.0:   CWLS LOG ASCII STANDARD - VERSION 2.0
 WRAP.                 NO:   ONE LINE PER DEPTH STEP
~WELL INFORMATION
#MNEM.UNIT      DATA TYPE    INFORMATION
#----------   ------------   ------------------------------
 STRT.F           20.0000:   START DEPTH
 STOP.F         1363.5000:   STOP DEPTH
 STEP.F            0.5000:   STEP LENGTH
 NULL.          -999.2500:   NO VALUE
 COMP.   FLUOR DANIEL INC:   COMPANY
 WELL.   NPR 3 "S" #83-14:   WELL
 FLD .             TEAPOT:   FIELD
 LOC .      S14 T38N R78W:   LOCATION
 CNTY.            NATRONA:   COUNTY
 STAT.            WYOMING:   STATE
 CTRY. UNITED STATES OF AMERICA:   COUNTRY
 SRVC. Schlumberger Well Surveying Corp:   SERVICE COMPANY
 DATE.        22-AUG-1966:   LOGDATE
 API .       490250971000:   API NUMBER
~CURVE INFORMATION
#MNEM.UNIT       API CODE    CURVE DESCRIPTION
#----------   ------------   ------------------------------
 DEPT.F                  :   
 SPR .MV     05 010 01 00:   SPONTANEOUS POTENTIAL FROM RES.
 ASN .OHMM   05 041 16 00:   AMPLIFIED SHORT NORMAL 16"
 CILD.MMHO   05 110 00 00:   CONDUCTIVITY INDUCTION LOG
 ILD .OHMM   05 120 46 00:   INDUCTION LOG DEEP
 CALD.IN     45 280 60 00:   CALIPER
 GRD .GAPI   45 310 01 00:   GAMMA RAY FROM DENSITY LOG
 CORR.G/C3   45 356 01 00:   DENSITY CORRECTION
 RHOB.G/C3   45 350 01 00:   BULK DENSITY
 DPOR.DEC    45 890 12 00:   DENSITY POROSITY SANDSTONE
~PARAMETER INFORMATION
#MNEM.UNIT          VALUE    DESCRIPTION
#----------   ------------   ------------------------------
 PD  .                 GL:   PERMANENT DATUM
 EPD .F              5300:   ELEVATION PERMANENT DATUM
 LMF .                 KB:   LOG MEASURED FROM
 DAPD.F                 5:   FEET ABOVE PERMANENT DATUM
 DMF .                 KB:   DRILLING MEASURED FROM
 EKB .F              5305:   KELLING BUSHING
 EGL .F              5300:   GROUND LEVEL
 DATE.          8-22-1966:   RUN DATE
 RUN .                  1:   RUN NUMBER
 DD  .F              1365:   DEPTH DRILLER
 DL  .F              1363:   DEPTH LOGGER
 BLI .F              1362:   BOTTOM LOG INTERVAL
 TLI .F                20:   TOP LOG INTERVAL
 CS  .IN            8.625:   CASING SIZE
 CBD .F                15:   CASING BOTTOM DRILLER
 CBL .F                20:   CASING BOTTOM LOGGER
 BS  .IN            7.875:   BIT SIZE
 BSD .F              1365:   BIT SIZE AT DEPTH
 DFT .           GEL-CHEM:   DRILLING FLUID TYPE
 DFD .                 10:   DRILLING FLUID DENSITY
 DFV .                 55:   DRILLING FLUID VISCOSITY
 DFL .                  8:   DRILLING FLUID LOSS
 MSS .          FLOW LINE:   MUD SAMPLE SOURCE
 RMS .OHMM           1.86:   RESISTIVITY MUD SAMPLE
 MST .F                73:   MUD SAMPLE TEMPERATURE
 RMF .OHMM           1.13:   RESISTIVITY MUD FILTRATE SAMPLE
 MFST.F                70:   MUD FILTRATE SAMPLE TEMPERATURE
 MFSS.                  M:   MUD FILTRATE SAMPLE SOURCE
 RMB .OHMM           1.32:   RESISTIVITY MUD AT BHT
 BHT .F               102:   BOTTOM HOLE TEMPERATURE
 TCS .HRS               1:   TIME CURCULATED STOPPED
 MRT .F               102:   MAXIMUM RECORDED TEMPERATURE
 LUN .               3527:   LOGGING UNIT NUMBER
 LUL .               CSPR:   LOGGING UNIT LOCATION
 ENGI.          TOLLEFSON:   RECORDING ENGINEER
 WITN.         MAY/TUTTLE:   WITNESSED BY
 CLNT.            A2DTECH:   CLIENT CODE
 ORIG.       2", 5" PRINT:   ORIGIN OF DATA
 UWI .       490250971000:   UNIQUE WELL ID
 DICO. A2D Technologies, Inc.:   DIGITIZING COMPANY
~OTHER INFORMATION
~A   DEPT       SPR       ASN         CILD      ILD         CALD       GRD       CORR        RHOB     DPOR   
# ...
  969.0000   -47.7536     8.7570   153.5610     6.7798     7.9570   112.3485     0.0501     2.5457     0.0622
  969.5000   -47.5358     8.8164   151.4234     6.8584     7.8801   113.3141     0.0363     2.5288     0.0704
  970.0000   -47.3268     8.8757   149.2858     6.9367     7.8126   111.6857     0.0506     2.5026     0.0820
  970.5000   -47.1999     8.9354   147.1481     7.0156     7.7574   111.6570     0.0705     2.5087     0.0936
  971.0000   -47.4546     9.0229   145.7916     7.0259     7.8321   112.9546     0.0576     2.5397     0.0731
  971.5000   -47.5748     9.1202   145.4382     6.9849     7.8638   112.3994     0.0358     2.5808     0.0427
  972.0000   -47.0995     9.2173   146.2609     6.9428     7.8255   108.0751     0.0392     2.5578     0.0436
  972.5000   -47.0167     9.2193   147.0836     6.9008     7.8127   107.5910     0.0652     2.5608     0.0571
  973.0000   -47.1668     9.1967   147.9063     6.8589     7.8577   108.8847     0.0962     2.5799     0.0417
  973.5000   -47.3198     9.1237   148.7290     6.8169     7.9003   110.9373     0.0883     2.5845     0.0429
  974.0000   -47.3865     9.0355   149.5517     6.7750     7.9472   114.2035     0.0741     2.5718     0.0485
  974.5000   -46.8194     8.9466   150.3744     6.7331     7.9769   116.2460     0.0908     2.5585     0.0582
  975.0000   -46.8969     8.8488   151.1971     6.6911     7.9918   115.6469     0.0871     2.5555     0.0554
  975.5000   -47.0847     8.8082   152.0198     6.6491     7.9932   115.6303     0.0778     2.5587     0.0624
  976.0000   -47.2683     8.8136   152.8425     6.6074     7.9956   116.2420     0.0693     2.5400     0.0701
  976.5000   -47.3721     8.8258   153.6701     6.5642     7.9973   113.2822     0.0606     2.5292     0.0790
  977.0000   -47.1779     8.8374   153.8081     6.6095     7.9994   109.8528     0.0522     2.5448     0.0634
  977.5000   -46.9938     8.8493   153.8109     6.7008     8.0013   107.8427     0.0412     2.5595     0.0559
  978.0000   -47.1524     8.8233   153.8076     6.7935     8.0032   113.8790     0.0450     2.5521     0.0655
  978.5000   -47.3492     8.7882   152.7316     6.8860     8.0054   112.6288     0.0578     2.5429     0.0663
  979.0000   -47.2952     8.8438   149.7865     6.9784     8.0069   107.3162     0.0570     2.5571     0.0600
  979.5000   -47.0085     8.9059   146.8415     7.0709     8.0098   106.7140     0.0525     2.5624     0.0545
  980.0000   -46.8702     9.1881   143.8965     7.1633     8.0040   107.7461     0.0486     2.5529     0.0598
  980.5000   -47.2609     9.4879   140.7816     7.2555     7.9897   108.9640     0.0658     2.5388     0.0693
  981.0000   -47.6371     9.7894   137.3461     7.3504     7.9775   111.3689     0.0621     2.5186     0.0841
  981.5000   -47.7384     9.9606   134.8650     7.4934     7.9634   109.1981     0.0404     2.5269     0.0674
  982.0000   -47.4219    10.3419   132.3838     7.6401     7.9521   104.2471     0.0450     2.5333     0.0715
  982.5000   -47.1973    10.4178   129.9027     7.7866     7.9361   101.9739     0.0548     2.5255     0.0790
  983.0000   -47.3560    10.5112   127.4215     7.9331     7.9426    96.9026     0.0351     2.5420     0.0618
  983.5000   -47.5059    10.6073   124.9404     8.0796     7.9798    94.5319     0.0233     2.5718     0.0478
  984.0000   -47.5752    10.7030   122.4592     8.2261     8.0133    96.0055     0.0359     2.5678     0.0527
  984.5000   -47.4682    10.7999   119.9781     8.3725     8.0336    98.0939     0.0511     2.5512     0.0622
  985.0000   -47.4098    10.9104   117.7355     8.5190     7.9990   102.4756     0.0603     2.5264     0.0703
  985.5000   -47.5506    11.1654   114.9883     8.6655     7.9728   107.7208     0.0555     2.5407     0.0782
  986.0000   -47.6904    11.4101   111.9489     8.8120     7.7230   104.7444     0.0497     2.5687     0.0599
  986.5000   -47.8000    11.6547   108.9095     8.9586     7.5002    98.9135     0.0647     2.5531     0.0494
  987.0000   -47.7256    11.8995   105.8701     9.1055     7.3981    96.5909     0.0916     2.5329     0.0734
  987.5000   -47.6455    12.1442   103.6572     9.2498     7.3295    96.7151     0.1040     2.5388     0.0666
  988.0000   -47.6392    12.3970   102.8579     9.3313     7.3746    97.7303     0.0817     2.5300     0.0709
  988.5000   -47.9072    12.4345   103.6932     9.2649     7.3950    99.1646     0.0842     2.5168     0.0778
  989.0000   -48.1684    12.4070   104.5876     9.2012     7.4315    98.4445     0.0963     2.5139     0.0838
  989.5000   -48.1786    12.3782   105.4694     9.1371     7.4812    97.0327     0.0992     2.5220     0.0791
  990.0000   -48.0272    12.3500   106.3512     9.0731     7.5406    98.5685     0.0711     2.5280     0.0772
  990.5000   -47.8791    12.3221   107.2329     9.0091     7.5965    99.9508     0.0620     2.5120     0.0865
  991.0000   -47.8761    12.2935   108.1147     8.9451     7.6536    99.1230     0.0718     2.5262     0.0792
  991.5000   -48.2049    12.2626   108.9965     8.8811     7.6746    96.1273     0.0810     2.5443     0.0659
  992.0000   -48.1004    12.1392   109.8782     8.8171     7.6801    95.1629     0.0891     2.5371     0.0720
  992.5000   -47.9988    12.0669   110.7600     8.7531     7.6856    97.3340     0.0989     2.5214     0.0828
  993.0000   -47.9955    11.9898   111.6417     8.6890     7.7058   100.2591     0.0894     2.5011     0.0950
  993.5000   -47.9962    11.9115   112.5235     8.6249     7.7441    99.7423     0.0706     2.5049     0.0876
  994.0000   -48.0010    11.8335   113.4053     8.5593     7.7797    95.4774     0.0613     2.5333     0.0792
  994.5000   -47.7837    11.7554   113.7274     8.5797     7.8169    94.8986     0.0701     2.5298     0.0738
  995.0000   -47.5038    11.6775   113.7274     8.6160     7.8529    94.5940     0.0776     2.5254     0.0770
  995.5000   -47.2253    11.5990   113.0135     8.6525     7.8901    93.1298     0.0662     2.5373     0.0732
  996.0000   -47.2999    11.5415   112.3622     8.6888     7.9262    91.2214     0.0495     2.5346     0.0694
  996.5000   -47.5105    11.6870   111.7109     8.7251     7.9657    89.5059     0.0413     2.5258     0.0778
  997.0000   -47.5554    11.7577   111.0596     8.7615     7.9714    89.6172     0.0415     2.5138     0.0861
  997.5000   -47.4617    11.8266   110.4083     8.7976     7.9698    91.9936     0.0421     2.5183     0.0764
  998.0000   -47.3969    11.8945   109.7550     8.8345     7.9715    94.6041     0.0589     2.5258     0.0892
  998.5000   -47.4261    11.9505   109.0866     8.7814     7.9603    97.0784     0.0711     2.5160     0.1017
  999.0000   -47.4545    11.8783   109.7460     8.6605     7.9425    96.2190     0.0601     2.5201     0.0850
  999.5000   -47.4829    11.6968   112.2679     8.5386     7.9284    94.1031     0.0501     2.5347     0.0676
 1000.0000   -47.5112    11.5168   114.7970     8.4167     7.9068    91.7760     0.0411     2.5493     0.0634
 1000.5000   -47.5398    11.3365   117.3260     8.2948     7.8491    90.7448     0.0470     2.5676     0.0575
 1001.0000   -47.5693    11.1549   119.8551     8.1720     7.7678    90.5190     0.0684     2.5618     0.0514
 1001.5000   -47.5887    10.9763   122.3842     8.1096     7.7202    93.0207     0.0892     2.5367     0.0766
 1002.0000   -47.4249    10.7778   123.4304     8.0600     7.7791    96.1636     0.0839     2.5270     0.0777
 1002.5000   -47.2571    10.5373   124.2295     8.0105     7.8406    97.1464     0.0737     2.5261     0.0782
 1003.0000   -47.0934    10.4711   125.0285     7.9608     7.6800    97.8719     0.0792     2.5378     0.0682
 1003.5000   -47.0600    10.3983   125.8276     7.9111     7.6504    99.7866     0.0873     2.5177     0.0830
 1004.0000   -47.4164    10.3508   126.6267     7.8615     7.7614   102.5892     0.0641     2.5257     0.0790
 1004.5000   -47.4872    10.2297   127.4257     7.8118     7.8391   103.0940     0.0539     2.5058     0.0898
 1005.0000   -47.1083    10.3340   128.2248     7.7622     7.9331    98.6857     0.0583     2.5146     0.0850
