~VERSION INFORMATION
 VERS.                2.0:   CWLS LOG ASCII STANDARD - VERSION 2.0
 WRAP.                 NO:   ONE LINE PER DEPTH STEP
~WELL INFORMATION
#MNEM.UNIT      DATA TYPE    INFORMATION
#----------   ------------   ------------------------------
 STRT.F           28.0000:   START DEPTH
 STOP.F          630.0000:   STOP DEPTH
 STEP.F            0.5000:   STEP LENGTH
 NULL.          -999.2500:   NO VALUE
 COMP. FENIX & SCISSON INC:   COMPANY
 WELL. NAVAL PETROLEUM RESERVE 3 SX-1 #81-15:   WELL
 FLD .             TEAPOT:   FIELD
 LOC .      S15 T38N R78W:   LOCATION
 CNTY.            NATRONA:   COUNTY
 STAT.            WYOMING:   STATE
 CTRY. UNITED STATES OF AMERICA:   COUNTRY
 SRVC.           BIRDWELL:   SERVICE COMPANY
 DATE.        03-JUN-1978:   LOGDATE
 API .       490251063900:   API NUMBER
~CURVE INFORMATION
#MNEM.UNIT       API CODE    CURVE DESCRIPTION
#----------   ------------   ------------------------------
 DEPT.F                  :   
 SPR .MV     05 010 01 00:   SPONTANEOUS POTENTIAL FROM RES.
 SN  .OHMM   05 040 16 00:   SHORT NORMAL 16"
 ILD .OHMM   05 120 46 00:   INDUCTION LOG DEEP
 CALD.IN     45 280 60 00:   CALIPER FROM DENSITY LOG
 GRD .GAPI   45 310 01 00:   GAMMA RAY FROM DENSITY LOG
 CORR.G/C3   45 356 01 00:   DENSITY CORRECTION
 DPHI.DEC    45 890 12 00:   DENSITY POROSITY SANDSTONE
 DEN .G/C3   45 350 01 00:   COMPENSATED BULK DENSITY
~PARAMETER INFORMATION
#MNEM.UNIT          VALUE    DESCRIPTION
#----------   ------------   ------------------------------
 PD  .                 GL:   PERMANENT DATUM
 EPD .F              5263:   ELEVATION PERMANENT DATUM
 LMF .                 KB:   LOG MEASURED FROM
 DAPD.F                 4:   FEET ABOVE PERMANENT DATUM
 DMF .                 KB:   DRILLING MEASURED FROM
 EKB .F              5267:   KELLING BUSHING
 EGL .F              5263:   GROUND LEVEL
 DATE.        03-JUN-1978:   RUN DATE
 RUN .                  1:   RUN NUMBER
 DD  .F               632:   DEPTH DRILLER
 DL  .F               636:   DEPTH LOGGER
 BLI .F               630:   BOTTOM LOG INTERVAL
 TLI .F                40:   TOP LOG INTERVAL
 CS  .IN            8.625:   CASING SIZE
 CBD .F                40:   CASING BOTTOM DRILLER
 CBL .F                40:   CASING BOTTOM LOGGER
 BS  .IN            7.875:   BIT SIZE
 BSD .F               632:   BIT SIZE AT DEPTH
 DFT .                KCL:   DRILLING FLUID TYPE
 DFD .                8.7:   DRILLING FLUID DENSITY
 DFV .                 31:   DRILLING FLUID VISCOSITY
 DFPH.                 10:   DRILLING FLUID PH
 DFL .                9.2:   DRILLING FLUID LOSS
 MSS .           FLOWLINE:   MUD SAMPLE SOURCE
 RMS .OHMM            .26:   RESISTIVITY MUD SAMPLE
 MST .F                66:   MUD SAMPLE TEMPERATURE
 RMF .OHMM            .24:   RESISTIVITY MUD FILTRATE SAMPLE
 MFST.F                74:   MUD FILTRATE SAMPLE TEMPERATURE
 RMC .OHMM            .34:   RESISTIVITY MUD CAKE
 MCST.F                75:   MUD CAKE SAMPLE TEMPERATURE
 MFSS.               MEAS:   MUD FILTRATE SAMPLE SOURCE
 MCSS.               MEAS:   MUD CAKE SAMPLE SOURCE
 RMB .OHMM            .23:   RESISTIVITY MUD AT BHT
 BHT .F                74:   BOTTOM HOLE TEMPERATURE
 TCS .HRS            0100:   TIME CURCULATED STOPPED
 MRT .F                74:   MAXIMUM RECORDED TEMPERATURE
 LUN .               2958:   LOGGING UNIT NUMBER
 LUL .               CASP:   LOGGING UNIT LOCATION
 ENGI.             MILLER:   RECORDING ENGINEER
 WITN.           MCGINLEY:   WITNESSED BY
 CLNT.            A2DTECH:   CLIENT CODE
 ORIG.           5" PRINT:   ORIGIN OF DATA
 UWI .       490251063900:   UNIQUE WELL ID
 DICO. A2D Technologies, Inc.:   DIGITIZING COMPANY
~OTHER INFORMATION
~A   DEPT      SPR         SN        ILD       CALD         GRD      CORR       DPHI        DEN   
# ...
  514.0000   -13.8729    17.1783    27.5624     8.5745    50.3630     0.0551     0.2166     2.3080
  514.5000   -13.8816    17.4100    27.1728     8.5729    49.7478     0.0564     0.2161     2.3103
  515.0000   -13.8903    17.5230    26.9560     8.5712    50.9601     0.0561     0.2130     2.3142
  515.5000   -13.8973    17.5131    26.5910     8.5692    51.1098     0.0559     0.2091     2.3252
  516.0000   -13.7523    17.5051    26.3973     8.5676    50.4900     0.0572     0.2055     2.3228
  516.5000   -13.7616    17.4954    26.3852     8.5508    46.0565     0.0615     0.2084     2.3220
  517.0000   -13.6196    17.4875    26.0116     8.5037    45.5924     0.0628     0.2104     2.3249
  517.5000   -13.6272    17.3589    26.0015     8.4869    46.1971     0.0611     0.2002     2.3385
  518.0000   -13.6341    17.2294    25.8121     8.4701    47.2597     0.0563     0.1935     2.3498
  518.5000   -13.6423    17.1028    25.6216     8.4685    48.0170     0.0500     0.1923     2.3512
  519.0000   -13.6493    16.9771    25.4341     8.4824    48.6247     0.0498     0.1950     2.3473
  519.5000   -13.6562    16.9567    25.2497     8.4955    45.7149     0.0495     0.1954     2.3465
  520.0000   -13.6638    16.7266    24.8695     8.4938    45.5577     0.0506     0.1912     2.3539
  520.5000   -13.6719    16.6036    24.0340     8.5078    47.8402     0.0532     0.1878     2.3576
  521.0000   -13.6789    16.5961    23.3684     8.4905    50.5822     0.0549     0.1824     2.3636
  521.5000   -13.6876    16.3586    22.7142     8.4889    52.1029     0.0486     0.1730     2.3909
  522.0000   -13.6952    16.2384    22.2432     8.4873    52.2510     0.0302     0.1585     2.4090
  522.5000   -13.7016    16.1190    21.9288     8.4705    50.2587     0.0299     0.1728     2.3882
  523.0000   -13.7087    15.9988    21.7691     8.4688    47.3519     0.0403     0.1804     2.3763
  523.5000   -13.7172    15.9915    21.4593     8.4823    47.3459     0.0432     0.1910     2.3596
  524.0000   -13.8749    15.8740    21.1560     8.4803    47.7978     0.0460     0.1974     2.3425
  524.5000   -13.8814    15.7529    20.7130     8.4786    47.9445     0.0427     0.1984     2.3363
  525.0000   -13.8901    15.4247    20.5601     8.4770    47.9384     0.0410     0.2014     2.3385
  525.5000   -13.8970    15.4177    20.4103     8.4602    48.5431     0.0453     0.2039     2.3323
  526.0000   -14.0547    15.3044    20.4024     8.4434    51.2851     0.0526     0.2051     2.3239
  526.5000   -14.0629    15.1902    20.3933     8.3206    52.8058     0.0646     0.2046     2.3359
  527.0000   -14.0704    15.0785    20.3854     8.1977    53.8700     0.0643     0.1961     2.3503
  527.5000   -14.0768    14.9677    20.3762     8.0749    52.9449     0.0656     0.1943     2.3471
  528.0000   -14.2357    14.8480    20.3690     8.0126    52.1754     0.0745     0.1931     2.3508
  528.5000   -14.2426    14.6451    20.3591     8.0413    52.1694     0.0758     0.1894     2.3568
  529.0000   -14.3998    14.5374    20.3513     8.1457    52.6229     0.0676     0.1856     2.3659
  529.5000   -14.5571    14.4306    20.2030     8.2046    52.7710     0.0600     0.1892     2.3604
  530.0000   -14.5656    14.3229    20.0539     8.2636    52.1513     0.0630     0.1896     2.3474
  530.5000   -14.5726    14.2177    19.9078     8.2923    50.7712     0.0688     0.1866     2.3564
  531.0000   -14.5796    14.2112    19.7628     8.3209    50.1544     0.0594     0.1820     2.3715
  531.5000   -14.7384    14.1052    19.6038     8.3192    49.9957     0.0547     0.1808     2.3714
  532.0000   -15.0457    14.0015    19.3397     8.3176    50.1439     0.0560     0.1809     2.3645
  532.5000   -15.3530    13.8986    19.3322     8.3156    50.7470     0.0557     0.1800     2.3674
  533.0000   -15.6620    13.7939    19.1887     8.3295    51.5043     0.0571     0.1752     2.3764
  533.5000   -15.8191    13.5052    18.9183     8.3275    52.2616     0.0599     0.1700     2.3862
  534.0000   -15.8261    13.3134    18.6508     8.3237    52.7136     0.0596     0.1640     2.3960
  534.5000   -15.8348    13.0338    18.2603     8.3181    52.7075     0.0564     0.1600     2.4035
  535.0000   -15.9919    12.7586    17.6304     8.3125    52.5488     0.0546     0.1604     2.4065
  535.5000   -15.9989    12.5774    17.0238     8.3069    51.9321     0.0529     0.1604     2.4079
  536.0000   -16.1562    12.3988    16.3246     8.3194    52.0802     0.0420     0.1583     2.4124
  536.5000   -16.1647    12.3076    16.0923     8.3177    53.9047     0.0357     0.1605     2.4008
  537.0000   -16.1717    12.3007    16.1994     8.3313    55.5781     0.0340     0.1626     2.4030
  537.5000   -16.0285    12.2952    16.3057     8.3448    55.8789     0.0338     0.1572     2.4098
  538.0000   -16.0372    12.2896    16.4171     8.3583    53.8866     0.0335     0.1545     2.4188
  538.5000   -16.0442    12.2827    16.5188     8.3718    50.0637     0.0348     0.1533     2.4225
  539.0000   -16.0512    12.2772    16.5108     8.3697    51.2791     0.0346     0.1603     2.4186
  539.5000   -16.0599    12.2716    16.5044     8.3681    53.2562     0.0359     0.1679     2.4082
  540.0000   -16.0669    12.2659    16.4964     8.3664    54.3189     0.0371     0.1755     2.3839
  540.5000   -15.9237    12.2592    16.4901     8.4103    55.2289     0.0385     0.1779     2.3727
  541.0000   -16.0826    12.3402    16.5982     8.4692    55.9862     0.0398     0.1738     2.3809
  541.5000   -16.0895    12.2481    16.5902     8.5134    56.7450     0.0395     0.1741     2.3816
  542.0000   -16.2467    12.2412    16.5838     8.5568    54.2947     0.0408     0.1726     2.3823
  542.5000   -16.2638    12.2356    16.6926     8.4643    54.2887     0.0390     0.1732     2.3867
  543.0000   -16.4534    12.2301    16.6860     8.3263    53.3666     0.0343     0.1720     2.3897
  543.5000   -16.5696    12.2232    16.6781     8.2186    50.9178     0.0325     0.1744     2.3873
  544.0000   -16.8769    12.2177    16.5566     8.2624    53.2018     0.0323     0.1804     2.3781
  544.5000   -17.3361    12.2122    16.4360     8.4583    54.4172     0.0367     0.1819     2.3689
  545.0000   -17.4932    12.1223    16.2021     8.6843    54.4111     0.0394     0.1828     2.3710
  545.5000   -17.5002    11.9489    16.0841     8.7593    53.7944     0.0438     0.1774     2.3816
  546.0000   -17.6590    11.8611    15.9669     8.7861    54.8570     0.0496     0.1671     2.3944
  546.5000   -17.6660    11.6927    15.7397     8.7235    56.8357     0.0555     0.1659     2.3981
  547.0000   -17.6730    11.5254    15.6251     8.6915    57.4419     0.0613     0.1671     2.3980
  547.5000   -17.5298    11.5202    15.4042     8.6899    54.8389     0.0656     0.1684     2.3956
  548.0000   -17.6887    11.5150    15.1863     8.6882    53.1535     0.0671     0.1699     2.3925
  548.5000   -17.9959    11.4302    14.9703     8.6260    51.6207     0.0733     0.1636     2.3951
  549.0000   -18.3113    11.3450    14.7587     8.5183    52.0727     0.0831     0.1539     2.4189
  549.5000   -18.6122    11.3399    14.4496     8.5015    53.7460     0.0783     0.1457     2.4287
  550.0000   -18.6183    11.3348    14.3440     8.5001    54.9817     0.0688     0.1454     2.4321
  550.5000   -18.6240    11.4459    14.3390     8.4989    56.0112     0.0476     0.1479     2.4313
  551.0000   -18.4771    11.4841    14.3340     8.4675    57.8267     0.0426     0.1418     2.4388
  551.5000   -18.6327    11.4783    14.3291     8.4665    59.0315     0.0408     0.1416     2.4387
  552.0000   -18.7871    11.4737    14.3232     8.4654    60.0836     0.0363     0.1444     2.4384
  552.5000   -18.9416    11.5488    14.4192     8.4644    60.3724     0.0361     0.1395     2.4340
  553.0000   -19.0961    11.4634    14.4132     8.4633    60.2031     0.0390     0.1371     2.4453
  553.5000   -19.4018    11.4588    14.5097     8.4774    58.9652     0.0417     0.1375     2.4467
  554.0000   -19.5562    11.4542    14.5036     8.4772    56.6585     0.0491     0.1342     2.4572
