~VERSION INFORMATION
 VERS.                2.0:   CWLS LOG ASCII STANDARD - VERSION 2.0
 WRAP.                 NO:   ONE LINE PER DEPTH STEP
~WELL INFORMATION
#MNEM.UNIT      DATA TYPE    INFORMATION
#----------   ------------   ------------------------------
 STRT.F           32.0000:   START DEPTH
 STOP.F          812.0000:   STOP DEPTH
 STEP.F            0.5000:   STEP LENGTH
 NULL.          -999.2500:   NO VALUE
 COMP. FENIX & SCISSON INC:   COMPANY
 WELL.       75 SX #15-15:   WELL
 FLD .             TEAPOT:   FIELD
 LOC .      S15 T38N R78W:   LOCATION
 CNTY.            NATRONA:   COUNTY
 STAT.            WYOMING:   STATE
 CTRY. UNITED STATES OF AMERICA:   COUNTRY
 SRVC.              Welex:   SERVICE COMPANY
 DATE.        28-FEB-1977:   LOGDATE
 API .       490251030100:   API NUMBER
~CURVE INFORMATION
#MNEM.UNIT       API CODE    CURVE DESCRIPTION
#----------   ------------   ------------------------------
 DEPT.F                  :   
 SPR .MV     07 010 01 00:   SPONTANEOUS POTENTIAL
 ILD .OHMM   07 120 46 00:   INDUCTION LOG DEEP
 SGRD.OHMM   07 220 05 00:   SHALLOW RESISTIVITY
 ILM .OHMM   07 120 44 00:   INDUCTION LOG MEDIUM
 GRD .GAPI   45 310 01 00:   GAMMA RAY FROM DENSITY LOG
 CALD.IN     45 280 60 00:   CALIPER FROM DENSITY LOG
 RHOB.G/C3   45 350 01 00:   BULK DENSITY
 DPHI.DEC    45 890 12 00:   DENSITY POROSITY SANDSTONE
 CORR.G/C3   45 356 01 00:   DENSITY CORRECTION
~PARAMETER INFORMATION
#MNEM.UNIT          VALUE    DESCRIPTION
#----------   ------------   ------------------------------
 PD  .                 GL:   PERMANENT DATUM
 EPD .F              5264:   ELEVATION PERMANENT DATUM
 LMF .                 GL:   LOG MEASURED FROM
 DMF .                 GL:   DRILLING MEASURED FROM
 EGL .F              5264:   GROUND LEVEL
 DATE.          2-28-1977:   RUN DATE
 RUN .                  1:   RUN NUMBER
 DD  .F               830:   DEPTH DRILLER
 DL  .F               814:   DEPTH LOGGER
 BLI .F               812:   BOTTOM LOG INTERVAL
 TLI .F                42:   TOP LOG INTERVAL
 CS  .IN            8.625:   CASING SIZE
 CBD .F                40:   CASING BOTTOM DRILLER
 CBL .F                42:   CASING BOTTOM LOGGER
 BS  .IN            7.875:   BIT SIZE
 BSD .F               830:   BIT SIZE AT DEPTH
 DFT .           CHEM-GEL:   DRILLING FLUID TYPE
 DFD .                9.3:   DRILLING FLUID DENSITY
 DFV .                 38:   DRILLING FLUID VISCOSITY
 DFPH.               10.5:   DRILLING FLUID PH
 DFL .               16.2:   DRILLING FLUID LOSS
 MSS .          FLOW LINE:   MUD SAMPLE SOURCE
 RMS .OHMM           0.44:   RESISTIVITY MUD SAMPLE
 MST .F                62:   MUD SAMPLE TEMPERATURE
 RMF .OHMM            .38:   RESISTIVITY MUD FILTRATE SAMPLE
 MFST.F                62:   MUD FILTRATE SAMPLE TEMPERATURE
 RMC .OHMM           0.79:   RESISTIVITY MUD CAKE
 MCST.F                62:   MUD CAKE SAMPLE TEMPERATURE
 MFSS.           MEASURED:   MUD FILTRATE SAMPLE SOURCE
 MCSS.           MEASURED:   MUD CAKE SAMPLE SOURCE
 RMB .OHMM           .368:   RESISTIVITY MUD AT BHT
 BHT .F                74:   BOTTOM HOLE TEMPERATURE
 TCS .HRS               3:   TIME CURCULATED STOPPED
 MRT .F                74:   MAXIMUM RECORDED TEMPERATURE
 LUN .               8611:   LOGGING UNIT NUMBER
 LUL .           GILLETTE:   LOGGING UNIT LOCATION
 ENGI.               DOAK:   RECORDING ENGINEER
 WITN.               JAPP:   WITNESSED BY
 CLNT.            A2DTECH:   CLIENT CODE
 ORIG.       2", 5" PRINT:   ORIGIN OF DATA
 UWI .       490251030100:   UNIQUE WELL ID
 DICO. A2D Technologies, Inc.:   DIGITIZING COMPANY
~OTHER INFORMATION
~A   DEPT      SPR        ILD       SGRD        ILM         GRD        CALD       RHOB       DPHI      CORR  
# ...
  762.0000   -41.1412    13.7787    18.6690    15.5441   110.9997     7.8334     2.5163     0.0791     0.0173
  762.5000   -41.1318    13.8652    18.4404    16.1819   110.8886     7.8341     2.5139     0.0800     0.0131
  763.0000   -41.1224    13.9521    18.1564    16.8459   110.4840     7.8348     2.5108     0.0812     0.0143
  763.5000   -41.1130    14.0396    18.4570    17.1803   106.8933     7.8355     2.5076     0.0823     0.0153
  764.0000   -41.1036    14.1277    18.8709    16.8396   105.8740     7.8362     2.5046     0.0834     0.0160
  764.5000   -41.0942    14.2163    19.2941    16.5588   108.6666     7.8369     2.5025     0.0846     0.0168
  765.0000   -41.0847    14.3055    19.3656    16.5588   109.5930     7.8375     2.5025     0.0857     0.0175
  765.5000   -41.0753    14.3953    19.1876    16.7892   106.1188     7.8382     2.5017     0.0869     0.0182
  766.0000   -41.0659    14.4221    19.0182    17.0551   104.6694     7.8389     2.4996     0.0880     0.0189
  766.5000   -41.0565    14.4221    18.8509    17.1813   105.3087     7.8382     2.4999     0.0882     0.0197
  767.0000   -41.0471    14.4266    18.6861    16.1076   106.8260     7.8373     2.5002     0.0870     0.0204
  767.5000   -41.0378    14.2886    18.4940    16.4562   109.5919     7.8364     2.4942     0.0887     0.0197
  768.0000   -41.0292    14.1614    18.8267    17.0228   113.4438     7.8355     2.4806     0.1006     0.0140
  768.5000   -41.0193    13.9909    19.3656    17.1813   115.3365     7.8346     2.4675     0.1060     0.0083
  769.0000   -40.8124    13.8328    18.9364    17.0256   114.5540     7.8337     2.4684     0.1056     0.0070
  769.5000   -40.4096    13.6765    18.3244    16.3896   116.1210     7.8329     2.4695     0.1064     0.0069
  770.0000   -39.1263    13.5219    19.0121    16.0275   114.0363     7.8320     2.4671     0.1083     0.0070
  770.5000   -37.8534    13.3691    18.8976    15.8136   112.0844     7.8311     2.4638     0.1101     0.0070
  771.0000   -36.5719    13.2180    18.7061    15.9313   110.8475     7.8302     2.4605     0.1120     0.0070
  771.5000   -35.2840    13.0687    18.5166    16.1217   108.5248     7.8293     2.4571     0.1139     0.0070
  772.0000   -35.3172    12.9210    18.3290    16.3144   110.8155     7.8285     2.4582     0.1127     0.0070
  772.5000   -35.4314    12.7687    18.1433    16.5588   114.2482     7.8276     2.4600     0.1110     0.0070
  773.0000   -35.5372    12.5790    17.9900    16.0052   113.5376     7.8267     2.4594     0.1116     0.0070
  773.5000   -35.6419    12.3920    17.0190    15.2951   111.1047     7.8258     2.4550     0.1153     0.0070
  774.0000   -35.7467    12.2078    16.1076    14.6143   109.5295     7.8250     2.4506     0.1197     0.0070
  774.5000   -35.8514    12.0264    16.5538    13.9599   113.5514     7.8241     2.4573     0.1130     0.0093
  775.0000   -35.9562    11.8477    16.8667    13.3977   117.4853     7.8232     2.4722     0.1043     0.0133
  775.5000   -36.0609    11.6716    16.2906    13.3977   121.4755     7.8223     2.4873     0.0955     0.0174
  776.0000   -36.1657    11.4981    15.9599    13.5179   122.5138     7.8214     2.5023     0.0868     0.0215
  776.5000   -36.2705    11.3272    16.2845    13.6254   119.7134     7.8206     2.5143     0.0799     0.0256
  777.0000   -36.3752    11.1589    16.5558    13.7731   119.8214     7.8197     2.5170     0.0784     0.0297
  777.5000   -36.4800    10.9930    16.0315    13.3977   120.7353     7.8181     2.5195     0.0767     0.0309
  778.0000   -36.5847    10.8297    15.5288    12.5612   124.3054     7.8151     2.5182     0.0777     0.0309
  778.5000   -36.6895    10.6687    15.3826    12.6626   125.6864     7.8120     2.5165     0.0788     0.0309
  779.0000   -36.7942    10.5101    15.3826    12.9131   124.3994     7.8090     2.5162     0.0782     0.0309
  779.5000   -36.8989    10.3527    15.3826    12.7187   122.2164     7.8060     2.5214     0.0751     0.0309
  780.0000   -37.0021    10.4141    15.3826    12.5188   121.0822     7.8030     2.5265     0.0720     0.0309
  780.5000   -37.1891    10.4789    15.4422    12.3221   120.1561     7.7999     2.5304     0.0707     0.0291
  781.0000   -37.3962    10.5436    15.6893    12.2188   120.7897     7.7969     2.5271     0.0735     0.0249
  781.5000   -37.6036    10.6084    15.9424    12.5612   123.9450     7.7939     2.5150     0.0799     0.0208
  782.0000   -37.8108    10.6737    16.1064    12.4709   125.4041     7.7909     2.5032     0.0859     0.0166
  782.5000   -38.0180    10.7406    15.7033    12.3027   126.7759     7.7878     2.4915     0.0919     0.0125
  783.0000   -38.2251    10.6191    15.4076    12.1368   126.7584     7.7848     2.4808     0.0973     0.0089
  783.5000   -38.4297    10.4666    15.1174    12.1068   124.5233     7.7818     2.4778     0.1017     0.0089
  784.0000   -38.6412    10.3166    14.8328    12.6774   122.3111     7.7787     2.4746     0.1030     0.0111
  784.5000   -39.0910    10.1677    14.6516    12.4636   120.1123     7.7757     2.4737     0.1030     0.0147
  785.0000   -39.5284     9.9952    14.5226    12.1583   120.7332     7.7727     2.4766     0.1023     0.0182
  785.5000   -39.9717     9.7679    14.3947    11.8605   122.9285     7.7696     2.4777     0.1013     0.0203
  786.0000   -40.8658     9.5466    14.2680    11.5701   125.5966     7.7666     2.4743     0.1031     0.0171
  786.5000   -42.5659     9.3303    14.1424    11.3509   125.5280     7.7636     2.4705     0.1063     0.0152
  787.0000   -44.9206     9.1190    14.0179    11.3838   125.0679     7.7605     2.4726     0.1072     0.0177
  787.5000   -47.2169     8.9124    13.8945    11.4157   124.5800     7.7614     2.4802     0.1006     0.0203
  788.0000   -49.5152     8.7105    13.7722    11.4559   124.1040     7.7645     2.4878     0.0954     0.0248
  788.5000   -51.7735     8.5132    13.6468    11.2918   124.0562     7.7676     2.4955     0.0902     0.0299
  789.0000   -54.6602     8.3203    13.7125    10.9979   125.5920     7.7707     2.5025     0.0850     0.0349
  789.5000   -56.0338     8.1318    13.7839    10.7110   128.0973     7.7738     2.5143     0.0676     0.0400
  790.0000   -56.0280     7.9476    13.8513    10.4318   126.8421     7.7769     2.5466     0.0592     0.0424
  790.5000   -55.7962     7.8528    13.9005    10.1601   126.0599     7.7792     2.5340     0.0721     0.0403
  791.0000   -55.5632     7.8799    12.1026     9.9777   128.5696     7.7718     2.5158     0.0818     0.0383
  791.5000   -55.3781     7.8982     6.9842    10.2301   130.6642     7.7642     2.4970     0.0883     0.0358
  792.0000   -55.3468     7.9180     9.6627    10.4264   127.8434     7.7566     2.4735     0.1033     0.0314
  792.5000   -55.3129     8.1551    14.1628    10.6265   124.9878     7.7490     2.4488     0.1181     0.0212
  793.0000   -55.2790     8.5520    14.8164    10.8304   122.5464     7.7410     2.4661     0.1046     0.0131
  793.5000   -55.2450     8.9682    14.9724    11.1713   122.5779     7.7509     2.5110     0.0824     0.0153
  794.0000   -55.2111     9.4048    15.5092    11.6803   120.0368     7.7662     2.5258     0.0715     0.0174
  794.5000   -55.1771     9.8626    16.0367    12.2125   103.1325     7.7816     2.5349     0.0672     0.0194
  795.0000   -55.1432    10.3426    16.5787    12.7689    68.8085     7.7970     2.5438     0.0610     0.0215
  795.5000   -55.1092    10.8460    17.0228    13.3507  -999.2500     7.7993     2.5476     0.0580     0.0225
  796.0000   -55.0755    11.3739    17.0228    13.9590  -999.2500     7.7992     2.5419     0.0651     0.0206
  796.5000   -55.0419    11.7769    17.0229    14.4221  -999.2500     7.7992     2.5274     0.0700     0.0189
  797.0000   -55.0036    11.4850    17.0434    14.3588  -999.2500     7.7992     2.5152     0.0748     0.0171
  797.5000   -54.7979    11.2468    17.2478    14.3091  -999.2500     7.7996     2.5145     0.0795     0.0154
  798.0000   -54.4090    11.0068    17.4538    14.2595  -999.2500     7.8019     2.5167     0.0783     0.0136
