~VERSION INFORMATION
 VERS.                2.0:   CWLS LOG ASCII STANDARD - VERSION 2.0
 WRAP.                 NO:   ONE LINE PER DEPTH STEP
~WELL INFORMATION
#MNEM.UNIT      DATA TYPE    INFORMATION
#----------   ------------   ------------------------------
 STRT.F            8.5000:   START DEPTH
 STOP.F          509.0000:   STOP DEPTH
 STEP.F            0.5000:   STEP LENGTH
 NULL.          -999.2500:   NO VALUE
 COMP. LAWRENCE-ALLISON &AS:   COMPANY
 WELL. NPR 3 #68-26SX3LP2:   WELL
 FLD .             TEAPOT:   FIELD
 LOC .       S3 T38N R78W:   LOCATION
 CNTY.            NATRONA:   COUNTY
 STAT.            WYOMING:   STATE
 CTRY. UNITED STATES OF AMERICA:   COUNTRY
 SRVC.      Dresser Atlas:   SERVICE COMPANY
 DATE.        12-DEC-1984:   LOGDATE
 API .       490251099600:   API NUMBER
~CURVE INFORMATION
#MNEM.UNIT       API CODE    CURVE DESCRIPTION
#----------   ------------   ------------------------------
 DEPT.F                  :   
 CNC .DEC    42 890 03 00:   NEUTRON POROSITY SANDSTONE
 CALD.IN     45 280 60 00:   CALIPER FROM DENSITY LOG
 CORR.G/C3   45 356 01 00:   DENSITY CORRECTION
 GRD .GAPI   45 310 01 00:   GAMMA RAY FROM DENSITY LOG
 PORD.DEC    45 890 12 00:   POROSITY DENSITY SANDSTONE
 RHOB.G/C3   45 350 01 00:   BULK DENSITY
 DT  .US/F   60 520 00 00:   INTERVAL TRANSIT TIME
 SPR .MV     11 010 01 00:   SPONTANEOUS POTENTIAL FROM RES.
 RS  .OHMM   11 220 09 00:   RESISTIVITY SHALLOW
 RD  .OHMM   11 220 10 00:   RESISTIVITY DEEP
~PARAMETER INFORMATION
#MNEM.UNIT          VALUE    DESCRIPTION
#----------   ------------   ------------------------------
 PD  .                 GL:   PERMANENT DATUM
 EPD .F              5158:   ELEVATION PERMANENT DATUM
 LMF .                 GL:   LOG MEASURED FROM
 DMF .                 GL:   DRILLING MEASURED FROM
 EGL .F              5158:   GROUND LEVEL
 DATE.        12-DEC-1984:   RUN DATE
 RUN .                  1:   RUN NUMBER
 DD  .F               510:   DEPTH DRILLER
 DL  .F               510:   DEPTH LOGGER
 BLI .F               501:   BOTTOM LOG INTERVAL
 TLI .F                20:   TOP LOG INTERVAL
 CS  .IN            8.625:   CASING SIZE
 CBD .F                20:   CASING BOTTOM DRILLER
 CBL .F                20:   CASING BOTTOM LOGGER
 BS  .IN            7.875:   BIT SIZE
 BSD .F               510:   BIT SIZE AT DEPTH
 DFT .          KCL/WATER:   DRILLING FLUID TYPE
 MSS .            MUDTANK:   MUD SAMPLE SOURCE
 RMS .OHMM           0.21:   RESISTIVITY MUD SAMPLE
 MST .F                70:   MUD SAMPLE TEMPERATURE
 RMF .OHMM           0.16:   RESISTIVITY MUD FILTRATE SAMPLE
 MFST.F                70:   MUD FILTRATE SAMPLE TEMPERATURE
 RMC .OHMM           0.26:   RESISTIVITY MUD CAKE
 MCST.F                70:   MUD CAKE SAMPLE TEMPERATURE
 MFSS.               CALC:   MUD FILTRATE SAMPLE SOURCE
 MCSS.               CALC:   MUD CAKE SAMPLE SOURCE
 RMB .OHMM           0.17:   RESISTIVITY MUD AT BHT
 BHT .F                85:   BOTTOM HOLE TEMPERATURE
 TCS .HRS               6:   TIME CURCULATED STOPPED
 MRT .F               100:   MAXIMUM RECORDED TEMPERATURE
 LUN .               6270:   LOGGING UNIT NUMBER
 LUL .                 FM:   LOGGING UNIT LOCATION
 ENGI.           E.GOVETT:   RECORDING ENGINEER
 WITN.              LUERS:   WITNESSED BY
 CLNT.            A2DTECH:   CLIENT CODE
 ORIG.           5" PRINT:   ORIGIN OF DATA
 UWI .       490251099600:   UNIQUE WELL ID
 DICO. A2D Technologies, Inc.:   DIGITIZING COMPANY
~OTHER INFORMATION
~A    DEPT     CNC       CALD       CORR        GRD       PORD       RHOB          DT       SPR         RS         RD   
# ...
  109.0000     0.2857     7.8450    -0.0108    99.6947     0.1433     2.4387   106.2820   -51.5881    22.1002   448.9678
  109.5000     0.2881     7.8316    -0.0060    98.9718     0.1428     2.4380   106.1913   -51.5734    22.1077   455.4466
  110.0000     0.2836     7.8340     0.0152    96.7653     0.1375     2.4509   106.1758   -51.7110    21.9625   458.8304
  110.5000     0.2780     7.8358     0.0304    97.2300     0.1317     2.4593   106.0098   -51.8449    22.1228   465.4516
  111.0000     0.2828     7.8377     0.0382    95.4726     0.1287     2.4631   105.7686   -51.6779    22.2842   468.9098
  111.5000     0.2846     7.8396     0.0429    93.1177     0.1275     2.4647   105.3741   -50.9203    22.4468   475.6764
  112.0000     0.2786     7.8415     0.0506    92.6868     0.1237     2.4693   104.8326   -50.4598    22.4544   492.6703
  112.5000     0.2758     7.8435     0.0583    93.8974     0.1200     2.4769   104.5166   -50.1480    22.6183   503.2528
  113.0000     0.2749     7.8305     0.0660    95.1033     0.1140     2.4838   104.4259   -49.9847    22.6260   506.9919
  113.5000     0.2719     7.8176     0.0707    96.3092     0.1128     2.4906   104.5607   -49.9700    22.6337   507.2365
  114.0000     0.2600     7.8046     0.0483    97.8119     0.1155     2.4877   104.9208   -49.9553    22.6707   507.4824
  114.5000     0.2558     7.8070     0.0455    98.5727     0.1178     2.4818   105.3561   -50.0892    22.8342   504.2143
  115.0000     0.2585     7.8089     0.0457    98.5916     0.1235     2.4750   105.7913   -50.0745    22.8483   501.0334
  115.5000     0.2672     7.8108     0.0411   100.2426     0.1290     2.4681   106.1515   -50.2249    22.8623   490.9074
  116.0000     0.2699     7.8127     0.0227   103.2289     0.1339     2.4596   106.5868   -50.4909    22.8764   481.1008
  116.5000     0.2613     7.8146     0.0057   105.1767     0.1370     2.4529   106.8723   -50.7734    22.8904   484.6753
  117.0000     0.2556     7.8011     0.0044   105.7962     0.1358     2.4515   106.8562   -50.9073    22.9045   484.9066
  117.5000     0.2608     7.7882     0.0257   103.5855     0.1337     2.4546   106.6905   -50.7404    22.9186   495.3223
  118.0000     0.2813     7.7757     0.0349    97.3748     0.1351     2.4555   106.2089   -50.5771    22.9327   502.4700
  118.5000     0.2825     7.7776     0.0366    96.3552     0.1374     2.4526   105.5119   -50.5624    22.7879   502.7099
  119.0000     0.2773     7.7944     0.0398    96.8192     0.1429     2.4422   105.2125   -50.7000    22.8023   506.4449
  119.5000     0.2708     7.7963     0.0370    96.6851     0.1477     2.4294   105.2760   -50.6816    22.6587   506.6747
  120.0000     0.2619     7.7833     0.0251    94.6316     0.1486     2.4298   105.2566   -50.8192    22.8306   507.3900
  120.5000     0.2600     7.7704     0.0238    94.6506     0.1465     2.4372   105.3201   -50.8008    22.6866   503.6703
  121.0000     0.2691     7.7574     0.0330    94.8131     0.1434     2.4411   105.3007   -50.6376    22.3881   473.4629
  121.5000     0.2851     7.7598     0.0317    93.2048     0.1386     2.4472   105.2101   -50.7751    22.2471   454.2356
  122.0000     0.2850     7.7617     0.0184    91.1466     0.1386     2.4487   105.1945   -50.7568    21.3574   428.0302
  122.5000     0.2744     7.7636     0.0065    90.0989     0.1398     2.4466   105.1039   -50.7421    20.2708   328.9827
  123.0000     0.2757     7.7655    -0.0039    92.8166     0.1400     2.4459   105.1635   -50.7274    16.8947   276.4159
  123.5000     0.2828     7.7674     0.0000    95.5061     0.1406     2.4460   105.1480   -50.5641    14.6344   215.5260
  124.0000     0.2874     7.7540     0.0177    97.4580     0.1454     2.4454   105.1325   -50.5494    11.5544   136.5245
  124.5000     0.2731     7.7712     0.0254    98.2295     0.1493     2.4365   105.0421   -50.3862    10.9379    62.4551
  125.0000     0.2692     7.7879     0.0181    98.4075     0.1505     2.4283   104.9512   -50.2229    10.9446    51.1161
  125.5000     0.2794     7.8046     0.0108    98.6977     0.1496     2.4292   104.7801   -50.0525    10.9514    44.8355
  126.0000     0.3138     7.8065     0.0049    91.5997     0.1480     2.4330   104.6091   -50.0446    10.8807    41.8556
  126.5000     0.3338     7.8085    -0.0054    89.3884     0.1444     2.4361   104.6002   -50.3477    10.9648    40.7251
  127.0000     0.3223     7.8104     0.0234    92.6762     0.1426     2.4392   104.7478   -50.6369    10.8956    39.6144
  127.5000     0.3000     7.7974     0.0190    94.9207     0.1419     2.4393   104.8697   -51.1859    10.8271    38.2680
  128.0000     0.2869     7.7998     0.0147    95.2364     0.1431     2.4371   105.0796   -51.6206    10.6847    35.7653
  128.5000     0.2871     7.8017    -0.0001    95.2553     0.1449     2.4357   105.5148   -51.7545    10.3867    32.2520
  129.0000     0.2992     7.8184    -0.0105    95.4227     0.1455     2.4343   106.3258   -51.8848     9.4804    29.9579
  129.5000     0.3318     7.8203    -0.0073    95.2885     0.1461     2.4322   108.2637   -52.0223     8.7568    27.3384
  130.0000     0.3221     7.8222     0.0140    93.6802     0.1496     2.4233   110.3518   -52.0059     8.1191    25.1704
  130.5000     0.3003     7.8241     0.0126    91.9187     0.1605     2.4046   110.4153   -52.1379     8.4105    24.4944
  131.0000     0.2761     7.8260     0.0036    92.9783     0.1707     2.3927   108.9684   -52.1232     8.7730    24.1690
  131.5000     0.2698     7.8126    -0.0049    94.5020     0.1692     2.3928   108.4151   -52.2608     9.1511    24.3486
  132.0000     0.2760     7.8149    -0.0183    95.2621     0.1613     2.4034   107.8332   -52.2424     9.6119    25.2280
  132.5000     0.2911     7.8168    -0.0151    96.7470     0.1480     2.4200   107.2677   -52.2277    10.0959    25.9606
  133.0000     0.2973     7.8039     0.0054    98.3980     0.1380     2.4441   106.8765   -52.3653    10.4583    26.1325
  133.5000     0.3032     7.8061     0.0349   100.4941     0.1347     2.4503   106.7107   -52.4992    10.6845    25.9670
  134.0000     0.3243     7.8077     0.0471   102.4419     0.1344     2.4534   106.7703   -52.6300    10.6911    25.6190
  134.5000     0.3376     7.8096     0.0293    98.9000     0.1341     2.4558   106.8302   -52.6147    10.6977    25.4574
  135.0000     0.3391     7.8119     0.0159    97.7320     0.1295     2.4648   106.8144   -52.6001    10.7043    25.1163
  135.5000     0.3225     7.8435     0.0055    97.4495     0.1253     2.4702   106.7235   -52.5854    10.7108    24.7826
  136.0000     0.3004     7.8454     0.0028    96.2863     0.1234     2.4718   106.7834   -52.5706    10.6434    24.6233
  136.5000     0.2777     7.8320     0.0075    92.8928     0.1240     2.4711   106.7640   -52.5557    10.5764    24.4651
  137.0000     0.2804     7.8047     0.0228    93.2084     0.1240     2.4718   106.8275   -52.6899    10.5831    24.1401
  137.5000     0.2885     7.7917     0.0440    94.5627     0.1237     2.4720   106.9583   -52.5260    10.5897    23.8194
  138.0000     0.2888     7.8085     0.0638    95.4719     0.1236     2.4729   107.0931   -52.3597    10.5227    23.3431
  138.5000     0.2888     7.8400     0.0444    95.3425     0.1230     2.4737   107.7538   -52.1964    10.3141    22.8742
  139.0000     0.2912     7.8568     0.0250    96.5678     0.1212     2.4753   108.0388   -51.8845    10.1081    22.1066
  139.5000     0.2949     7.8438     0.0087    97.3092     0.1187     2.4792   108.1774   -51.4241    10.0429    21.2165
  140.0000     0.3002     7.8161     0.0194    93.7720     0.1169     2.4846   108.3121   -51.1122     9.9797    20.6379
  140.5000     0.2970     7.8031     0.0467    93.9393     0.1187     2.4854   108.3717   -50.8003     9.9874    20.2145
  141.0000     0.2944     7.8050     0.0513    96.1838     0.1220     2.4727   108.5065   -50.6407     9.7879    19.4205
  141.5000     0.2850     7.8070     0.0290    97.9832     0.1328     2.4586   108.6379   -50.7746     9.3301    18.5103
  142.0000     0.2835     7.7796     0.0142   100.5244     0.1427     2.4414   109.3731   -50.9085     8.9556    17.8889
