~VERSION INFORMATION
 VERS.                2.0:   CWLS LOG ASCII STANDARD - VERSION 2.0
 WRAP.                 NO:   ONE LINE PER DEPTH STEP
~WELL INFORMATION
#MNEM.UNIT      DATA TYPE    INFORMATION
#----------   ------------   ------------------------------
 STRT.F           35.0000:   START DEPTH
 STOP.F          484.0000:   STOP DEPTH
 STEP.F            0.5000:   STEP LENGTH
 NULL.          -999.2500:   NO VALUE
 COMP. LAWRENCE/ALLISON INC:   COMPANY
 WELL.     73-1 STX #1-10:   WELL
 FLD .              NPR-3:   FIELD
 LOC .      S10 T38N R78W:   LOCATION
 CNTY.            NATRONA:   COUNTY
 STAT.            WYOMING:   STATE
 CTRY. UNITED STATES OF AMERICA:   COUNTRY
 SRVC.              Welex:   SERVICE COMPANY
 DATE.        04-APR-1977:   LOGDATE
 API .       490251032400:   API NUMBER
~CURVE INFORMATION
#MNEM.UNIT       API CODE    CURVE DESCRIPTION
#----------   ------------   ------------------------------
 DEPT.F                  :   
 CALD.IN     45 280 60 00:   CALIPER
 GRD .GAPI   45 310 01 00:   GAMMA RAY FROM DENSITY LOG
 RHOB.G/C3   45 350 01 00:   BULK DENSITY
 DPHI.DEC    45 890 12 00:   DENSITY POROSITY SANDSTONE
 CORR.G/C3   45 356 01 00:   DENSITY CORRECTION
 SPR .MV     07 010 01 00:   SPONTANEOUS POTENTIAL
 SGRD.OHMM   07 220 05 00:   SHALLOW RESISTIVITY
 ILD .OHMM   07 120 46 00:   INDUCTION LOG DEEP
 ILM .OHMM   07 120 44 00:   INDUCTION LOG MEDIUM
~PARAMETER INFORMATION
#MNEM.UNIT          VALUE    DESCRIPTION
#----------   ------------   ------------------------------
 PD  .                 GL:   PERMANENT DATUM
 EPD .F              5170:   ELEVATION PERMANENT DATUM
 LMF .                 GL:   LOG MEASURED FROM
 DMF .                 GL:   DRILLING MEASURED FROM
 EGL .F              5170:   GROUND LEVEL
 DATE.             4-4-77:   RUN DATE
 RUN .                  1:   RUN NUMBER
 DD  .F               490:   DEPTH DRILLER
 DL  .F               487:   DEPTH LOGGER
 BLI .F               485:   BOTTOM LOG INTERVAL
 TLI .F                35:   TOP LOG INTERVAL
 CS  .IN            8.625:   CASING SIZE
 CBD .F                42:   CASING BOTTOM DRILLER
 CBL .F                42:   CASING BOTTOM LOGGER
 BS  .IN            7.875:   BIT SIZE
 BSD .F               490:   BIT SIZE AT DEPTH
 DFT .            KCL MUD:   DRILLING FLUID TYPE
 DFD .                8.4:   DRILLING FLUID DENSITY
 DFV .                 32:   DRILLING FLUID VISCOSITY
 DFPH.                8.5:   DRILLING FLUID PH
 DFL .                 17:   DRILLING FLUID LOSS
 RMS .OHMM            .48:   RESISTIVITY MUD SAMPLE
 MST .F                48:   MUD SAMPLE TEMPERATURE
 RMF .OHMM            .44:   RESISTIVITY MUD FILTRATE SAMPLE
 MFST.F                48:   MUD FILTRATE SAMPLE TEMPERATURE
 RMC .OHMM            .62:   RESISTIVITY MUD CAKE
 MCST.F                48:   MUD CAKE SAMPLE TEMPERATURE
 MFSS.          FANN TEST:   MUD FILTRATE SAMPLE SOURCE
 MCSS.          FANN TEST:   MUD CAKE SAMPLE SOURCE
 BHT .F                58:   BOTTOM HOLE TEMPERATURE
 TCS .HRS               2:   TIME CURCULATED STOPPED
 MRT .F                58:   MAXIMUM RECORDED TEMPERATURE
 LUN .               8611:   LOGGING UNIT NUMBER
 LUL .           GILLETTE:   LOGGING UNIT LOCATION
 ENGI.               DOAK:   RECORDING ENGINEER
 WITN.      B. HARRINGTON:   WITNESSED BY
 CLNT.            A2DTECH:   CLIENT CODE
 ORIG.        2" 5" PRINT:   ORIGIN OF DATA
 UWI .       490251032400:   UNIQUE WELL ID
 DICO. A2D Technologies, Inc.:   DIGITIZING COMPANY
~OTHER INFORMATION
~A   DEPT     CALD        GRD       RHOB       DPHI       CORR        SPR       SGRD        ILD        ILM   
# ...
  254.0000     7.9570   105.2595     2.4260     0.1341    -0.0301   -49.2381    12.0531     7.2298     8.7323
  254.5000     8.0002   105.4722     2.4207     0.1384    -0.0265   -50.0047    12.1073     7.2119     9.0296
  255.0000     8.0043   106.8883     2.4300     0.1320    -0.0172   -50.3379    12.1620     7.1941     9.3188
  255.5000     8.0090   108.3183     2.4400     0.1276    -0.0069   -50.6497    11.9657     7.1763     9.1788
  256.0000     8.0138   109.7464     2.4358     0.1294    -0.0074   -50.9591    11.6366     7.1586     9.0184
  256.5000     8.0185   111.1863     2.4282     0.1329    -0.0153   -50.9986    11.2058     7.1409     8.8998
  257.0000     8.0232   112.6643     2.4204     0.1368    -0.0232   -50.9987    10.8967     7.1232     9.1582
  257.5000     8.0280   111.9780     2.4111     0.1450    -0.0295   -50.9981    11.2533     7.1056     9.3704
  258.0000     8.0327   110.9706     2.3965     0.1538    -0.0325   -50.9978    11.9167     7.0880     9.5796
  258.5000     8.0375   109.9690     2.3841     0.1579    -0.0345   -50.9968    12.1687     7.0710     9.6745
  259.0000     8.0422   109.3343     2.3864     0.1545    -0.0325   -50.9978    12.3186     6.9945     9.5855
  259.5000     8.0469   109.6987     2.4034     0.1454    -0.0255   -51.2842    12.9783     6.7897     9.4019
  260.0000     8.0517   111.1530     2.4213     0.1393    -0.0188   -51.6161    12.7416     6.4447     9.1543
  260.5000     8.0569   112.6994     2.3986     0.1522    -0.0209   -51.9491    12.9375     6.1173     8.7389
  261.0000     8.0446   115.6303     2.3729     0.1651    -0.0236   -52.2802    13.0983     5.8065     8.2419
  261.5000     8.0273   118.8005     2.3524     0.1787    -0.0262   -52.6109    12.3947     5.5115     7.1315
  262.0000     8.0099   117.6380     2.3429     0.1787    -0.0266   -52.7982     8.0231     5.2315     6.1708
  262.5000     7.9924   114.9961     2.3894     0.1518    -0.0137   -52.7729     5.2113     5.0307     4.9668
  263.0000     7.9750   110.8444     2.4492     0.1290    -0.0009   -52.1665     4.3822     5.1517     5.4260
  263.5000     7.9576   106.5781     2.4918     0.1063     0.0083   -51.5577     8.3561     5.3604     6.7431
  264.0000     7.9401   104.7393     2.4934     0.0921     0.0100   -50.9533    13.7149     5.5775     7.0190
  264.5000     7.9227   105.8091     2.4911     0.0935     0.0131   -50.3499    13.7149     5.9317     8.0189
  265.0000     7.9053   106.9515     2.4885     0.0949     0.0163   -49.7466    14.1141     6.4064     9.8044
  265.5000     7.8878   107.3071     2.4867     0.0964     0.0195   -49.1438    14.5317     6.9190    10.1704
  266.0000     7.8704   104.7150     2.5037     0.0865     0.0243   -48.3156    14.7316     7.4727    10.5502
  266.5000     7.8530   102.2891     2.5218     0.0761     0.0324   -47.1979    14.8984     8.0720    10.7575
  267.0000     7.8355   103.2733     2.5281     0.0704     0.0379   -46.6716    14.8540     8.5285    10.2170
  267.5000     7.8181   104.5368     2.5196     0.0751     0.0390   -46.2749    14.7934     8.8224    10.2269
  268.0000     7.8007   105.0696     2.5110     0.0799     0.0401   -46.1198    14.7334     9.0582    10.2545
  268.5000     7.7830   101.0818     2.5025     0.0846     0.0411   -46.0146    14.6738     9.3004    10.2822
  269.0000     7.7859    95.1002     2.4953     0.0894     0.0454   -45.9081    14.6146     9.5495    10.3114
  269.5000     7.7967    85.8484     2.4969     0.0900     0.0503   -45.8181    14.5556     9.8053    10.3342
  270.0000     7.8076    76.6166     2.4983     0.0891     0.0531   -46.0712    14.4934    10.1667    11.1195
  270.5000     7.8196    67.3931     2.4985     0.0889     0.0520   -46.3337    15.9500    11.1889    12.5647
  271.0000     7.8556    62.5490     2.4920     0.0918     0.0509   -46.5930    20.6158    12.3139    14.1977
  271.5000     7.8932    59.9523     2.4879     0.0946     0.0499   -46.8502    26.3579    13.5521    16.1853
  272.0000     7.9308    59.9912     2.4860     0.0975     0.0456   -47.0205    28.3503    14.9147    17.1596
  272.5000     7.9676    61.2745     2.4528     0.1042     0.0392   -47.0594    34.9398    16.3109    24.3896
  273.0000     7.9840    62.5198     2.4130     0.1287     0.0327   -47.0984    48.5220    17.7946    42.8329
  273.5000     7.8992    62.6218     2.3790     0.1531     0.0263   -47.1360    62.0728    18.6528    33.6381
  274.0000     7.8165    58.8302     2.3440     0.1776     0.0198   -47.1754    31.6833    19.2431    23.7696
  274.5000     7.7330    55.1102     2.3307     0.1914     0.0134   -47.2757    34.9163    19.8521    17.9362
  275.0000     7.7660    52.3614     2.3440     0.1827     0.0088   -47.6441    40.0616    20.4805    23.7022
  275.5000     7.8729    53.2824     2.3547     0.1758     0.0088   -48.0099    47.9347    21.1287    31.3219
  276.0000     7.9893    54.9819     2.3631     0.1689     0.0160   -48.3753    44.5890    21.3305    34.8542
  276.5000     8.0191    56.6978     2.3776     0.1607     0.0231   -48.7416    38.0847    20.9416    35.7529
  277.0000     8.0178    58.4160     2.3651     0.1696     0.0275   -49.1045    38.4367    20.5787    38.7920
  277.5000     8.0177    60.1304     2.3449     0.1847     0.0255   -49.4288    53.0404    20.3320    37.8252
  278.0000     8.0186    61.8455     2.3389     0.1799     0.0224   -49.5161    49.1269    20.0883    36.0391
  278.5000     7.9962    63.5609     2.3549     0.1726     0.0192   -49.6120    41.7794    19.8475    38.4367
  279.0000     7.9860    65.2822     2.3603     0.1714     0.0159   -49.7088    33.8224    19.6097    37.8123
  279.5000     7.9740    67.0008     2.3685     0.1683     0.0187   -49.8053    34.6737    19.3746    37.3902
  280.0000     7.9620    66.9893     2.3752     0.1628     0.0226   -49.9027    35.6658    19.1424    40.6184
  280.5000     7.9499    65.4490     2.3655     0.1664     0.0265   -49.9959    31.7425    18.9258    36.3723
  281.0000     7.9387    63.9193     2.3559     0.1737     0.0304   -49.9383    38.5181    19.2443    38.6131
  281.5000     7.9410    62.3929     2.3375     0.1807     0.0332   -49.8731    44.4220    19.8223    40.8618
  282.0000     7.9438    60.8766     2.3142     0.2031     0.0313   -49.8087    45.4191    20.4177    43.2414
  282.5000     7.9465    59.5512     2.2906     0.2201     0.0295   -49.7443    50.4226    21.0309    47.2963
  283.0000     7.9492    59.4646     2.2804     0.2174     0.0277   -49.6802    58.5986    21.6626    52.6908
  283.5000     7.9519    60.6409     2.2953     0.2059     0.0296   -49.6197    68.1180    22.3132    58.7006
  284.0000     7.9546    62.3669     2.3160     0.1945     0.0320   -49.4381    78.7834    22.9836    60.6399
  284.5000     7.9573    64.0978     2.3396     0.1835     0.0346   -49.2272    69.8715    23.6742    64.0390
  285.0000     7.9571    65.8244     2.3288     0.1897     0.0342   -49.0149    60.4342    24.3857    76.9210
  285.5000     7.9553    67.5514     2.3143     0.2048     0.0292   -48.8028    55.5375    25.1185    92.3943
  286.0000     7.9535    69.2787     2.3000     0.1997     0.0268   -48.5909    66.7585    25.4054   116.2841
  286.5000     7.9518    71.0053     2.3253     0.1899     0.0296   -48.3790    58.1522    25.3568    94.4140
  287.0000     7.9500    72.5313     2.3211     0.1948     0.0243   -48.1671    58.6898    25.1255    64.4640
  287.5000     7.9482    71.6901     2.3229     0.1983     0.0182   -47.9555    56.8298    24.8192    37.7359
  288.0000     7.9464    70.7327     2.3293     0.1920     0.0121   -47.7427    52.4507    24.2165    66.7585
  288.5000     7.9446    69.7656     2.3356     0.1870     0.0069   -47.5467    48.3778    23.6275    59.6534
  289.0000     7.9429    68.8005     2.3419     0.1819     0.0050   -47.3606    46.8628    23.0531    41.3727
  289.5000     7.9411    68.1429     2.3483     0.1769     0.0030   -47.1794    45.3601    22.4926    44.4675
  290.0000     7.9393    69.9201     2.3541     0.1718     0.0010   -46.9970    43.8907    21.9459    48.8250
