~VERSION INFORMATION
 VERS.                2.0:   CWLS LOG ASCII STANDARD - VERSION 2.0
 WRAP.                 NO:   ONE LINE PER DEPTH STEP
~WELL INFORMATION
#MNEM.UNIT      DATA TYPE    INFORMATION
#----------   ------------   ------------------------------
 STRT.F           30.0000:   START DEPTH
 STOP.F         3375.5000:   STOP DEPTH
 STEP.F            0.5000:   STEP LENGTH
 NULL.          -999.2500:   NO VALUE
 COMP.       INTEX OIL CO:   COMPANY
 WELL.   NPR ##3 57-SX-34:   WELL
 FLD .             TEAPOT:   FIELD
 LOC .      S34 T39N R78W:   LOCATION
 CNTY.            NATRONA:   COUNTY
 STAT.            WYOMING:   STATE
 CTRY. UNITED STATES OF AMERICA:   COUNTRY
 SRVC.       Schlumberger:   SERVICE COMPANY
 DATE.        12-AUG-1967:   LOGDATE
 API .       490251023200:   API NUMBER
~CURVE INFORMATION
#MNEM.UNIT       API CODE    CURVE DESCRIPTION
#----------   ------------   ------------------------------
 DEPT.F                  :   
 SPR .MV     07 010 01 00:   SPONTANEOUS POTENTIAL
 ILD .OHMM   07 120 46 00:   INDUCTION LOG DEEP
 ASN .OHMM   05 041 16 00:   AMPLIFIED SHORT NORMAL 16"
 CILD.MMHO   07 110 46 00:   CONDUCTIVITY INDUCTION LOG DEEP
 LL8 .OHMM   07 220 08 00:   LATEROLOG-8 RES.
 ILM .OHMM   07 120 44 00:   INDUCTION LOG MEDIUM
 CALD.IN     45 280 60 00:   CALIPER
 GRD .GAPI   45 310 01 00:   GAMMA RAY FROM DENSITY LOG
 RHOB.G/C3   45 350 01 00:   BULK DENSITY
 DPHI.DEC    45 890 12 00:   DENSITY POROSITY SANDSTONE
 CORR.G/C3   45 356 01 00:   DENSITY CORRECTION
~PARAMETER INFORMATION
#MNEM.UNIT          VALUE    DESCRIPTION
#----------   ------------   ------------------------------
 PD  .                 GL:   PERMANENT DATUM
 EPD .F              5084:   ELEVATION PERMANENT DATUM
 LMF .                 KB:   LOG MEASURED FROM
 DAPD.F                12:   FEET ABOVE PERMANENT DATUM
 DMF .                 KB:   DRILLING MEASURED FROM
 EKB .F              5096:   KELLING BUSHING
 EGL .F              5084:   GROUND LEVEL
 DATE.            8-12-67:   RUN DATE
 RUN .                  2:   RUN NUMBER
 DD  .F              3380:   DEPTH DRILLER
 DL  .F              3371:   DEPTH LOGGER
 BLI .F              3368:   BOTTOM LOG INTERVAL
 TLI .F               630:   TOP LOG INTERVAL
 CS  .IN            10.75:   CASING SIZE
 CBD .F               643:   CASING BOTTOM DRILLER
 BS  .IN            9.875:   BIT SIZE
 BSD .F              3380:   BIT SIZE AT DEPTH
 DFT .               CHEM:   DRILLING FLUID TYPE
 DFD .                9.4:   DRILLING FLUID DENSITY
 DFV .                 48:   DRILLING FLUID VISCOSITY
 DFPH.                8.5:   DRILLING FLUID PH
 DFL .                3.6:   DRILLING FLUID LOSS
 MSS .          FLOW LINE:   MUD SAMPLE SOURCE
 RMS .OHMM           2.81:   RESISTIVITY MUD SAMPLE
 MST .F                88:   MUD SAMPLE TEMPERATURE
 RMF .OHMM            1.7:   RESISTIVITY MUD FILTRATE SAMPLE
 MFST.F                86:   MUD FILTRATE SAMPLE TEMPERATURE
 MFSS.                  M:   MUD FILTRATE SAMPLE SOURCE
 RMB .OHMM           2.03:   RESISTIVITY MUD AT BHT
 BHT .F               122:   BOTTOM HOLE TEMPERATURE
 TCS .HRS             2.5:   TIME CURCULATED STOPPED
 MRT .F               122:   MAXIMUM RECORDED TEMPERATURE
 LUN .               7030:   LOGGING UNIT NUMBER
 LUL .               CSPR:   LOGGING UNIT LOCATION
 ENGI.             SCHODE:   RECORDING ENGINEER
 WITN.                MAY:   WITNESSED BY
 CLNT.            A2DTECH:   CLIENT CODE
 ORIG.   1" 2.5" 5" PRINT:   ORIGIN OF DATA
 UWI .       490251023200:   UNIQUE WELL ID
 DICO. A2D Technologies, Inc.:   DIGITIZING COMPANY
~OTHER INFORMATION
~A   DEPT      SPR        ILD        ASN       CILD        LL8        ILM       CALD         GRD      RHOB       DPHI       CORR   
# ...
 1616.0000   -34.4347     6.9862  -999.2500  -999.2500     8.8376     7.2116    11.8527    75.0826     2.5380     0.0602     0.0948
 1616.5000   -34.4230     7.0356  -999.2500  -999.2500     8.5843     7.3757    11.8259    74.4689     2.5173     0.0776     0.1138
 1617.0000   -34.4113     7.0884  -999.2500  -999.2500     8.1346     7.3757    11.8028    73.8312     2.5011     0.0853     0.1346
 1617.5000   -34.3996     7.1137  -999.2500  -999.2500     7.9146     7.3757    11.8419    73.6930     2.5242     0.0777     0.0632
 1618.0000   -34.3878     7.0371  -999.2500  -999.2500     7.8874     7.3751    11.8794    74.7576     2.5447     0.0673     0.0711
 1618.5000   -34.3761     6.9694  -999.2500  -999.2500     7.8602     7.3759    11.9194    75.7874     2.5701     0.0568     0.0959
 1619.0000   -34.3644     6.9024  -999.2500  -999.2500     7.8331     7.3756    11.9593    76.8532     2.5715     0.0468     0.1266
 1619.5000   -34.3526     6.8362  -999.2500  -999.2500     7.8061     7.3597    11.9972    77.9072     2.5607     0.0526     0.1602
 1620.0000   -34.3411     6.7391  -999.2500  -999.2500     7.7279     7.3423    12.0321    78.9644     2.5351     0.0610     0.1542
 1620.5000   -34.3291     6.7630  -999.2500  -999.2500     7.5228     7.3251    12.0056    79.7996     2.5403     0.0516     0.1119
 1621.0000   -34.3251     6.8187  -999.2500  -999.2500     7.3757     7.3079    11.9792    79.2220     2.5749     0.0429     0.1158
 1621.5000   -34.3254     6.8750  -999.2500  -999.2500     7.8924     7.2908    11.9500    77.8608     2.5389     0.0625     0.1195
 1622.0000   -34.3254     6.9317  -999.2500  -999.2500     8.5237     7.2737    11.9225    76.5579     2.5820     0.0382     0.1421
 1622.5000   -34.3254     6.9862  -999.2500  -999.2500     8.2844     7.2566    11.8942    75.2479     2.5717     0.0473     0.1717
 1623.0000   -34.3255     6.9443  -999.2500  -999.2500     8.1303     7.2159    11.8661    73.8715     2.5298     0.0694     0.1739
 1623.5000   -34.3254     6.8790  -999.2500  -999.2500     8.3709     7.0992    11.8387    73.7311     2.5592     0.0651     0.1611
 1624.0000   -34.3256     6.8144  -999.2500  -999.2500     7.5103     6.9844    11.8088    75.3464     2.5834     0.0256     0.1432
 1624.5000   -34.3256     6.7504  -999.2500  -999.2500     7.5698     6.8714    11.8059    76.8991     2.5707     0.0406     0.1263
 1625.0000   -34.3251     6.6869  -999.2500  -999.2500     7.7168     6.7380    11.8219    78.5075     2.5591     0.0555     0.1091
 1625.5000   -34.3267     6.6241  -999.2500  -999.2500     7.8665     6.8190    11.8357    79.7727     2.5497     0.0618     0.0919
 1626.0000   -34.3246     6.5619  -999.2500  -999.2500     8.0617     6.9216    11.8497    80.2272     2.5403     0.0681     0.0753
 1626.5000   -34.3208     6.4987  -999.2500  -999.2500     7.6474     7.1137    11.8636    80.6388     2.5622     0.0573     0.0542
 1627.0000   -34.2286     6.5155  -999.2500  -999.2500     7.3710     7.0854    11.8775    81.0260     2.5573     0.0618     0.0617
 1627.5000   -34.1322     6.5327  -999.2500  -999.2500     7.5118     7.0566    11.8743    81.4237     2.5345     0.0708     0.0782
 1628.0000   -34.0316     6.5499  -999.2500  -999.2500     7.6340     7.0279    11.8678    81.8357     2.5911     0.0358     0.0924
 1628.5000   -33.9338     6.5672  -999.2500  -999.2500     7.7570     6.9993    11.8609    82.0986     2.5693     0.0462     0.1101
 1629.0000   -33.8370     6.5846  -999.2500  -999.2500     7.8812     6.9862    11.8546    82.7853     2.5538     0.0571     0.0936
 1629.5000   -33.7334     6.6022  -999.2500  -999.2500     8.0045     6.9859    11.8482    84.9570     2.5663     0.0518     0.0761
 1630.0000   -33.6427     6.6175  -999.2500  -999.2500     8.2209     6.9860    11.8406    84.2753     2.5782     0.0461     0.0847
 1630.5000   -33.5469     6.6592  -999.2500  -999.2500     8.0736     6.9863    11.8445    80.7561     2.5659     0.0516     0.0996
 1631.0000   -33.7318     6.6965  -999.2500  -999.2500     7.2435     6.9864    11.8578    78.9416     2.5624     0.0488     0.0995
 1631.5000   -33.9464     6.7380  -999.2500  -999.2500     7.3757     6.9866    11.8699    79.6278     2.5828     0.0399     0.0902
 1632.0000   -34.1737     6.7768  -999.2500  -999.2500     7.6778     6.9871    11.8821    79.9967     2.5861     0.0421     0.0818
 1632.5000   -34.3274     6.8204  -999.2500  -999.2500     8.0736     6.9870    11.8943    80.4153     2.5755     0.0413     0.0790
 1633.0000   -34.2944     6.8643  -999.2500  -999.2500     8.0102     6.9850    11.9069    81.1048     2.5404     0.0639     0.0823
 1633.5000   -34.2293     6.9083  -999.2500  -999.2500     7.9289     6.9910    11.9183    81.0226     2.5114     0.0791     0.0864
 1634.0000   -34.1624     6.9527  -999.2500  -999.2500     7.9674     6.9729    11.9369    80.2533     2.5226     0.0728     0.0605
 1634.5000   -34.0983     6.9742  -999.2500  -999.2500     8.0122     7.1270    11.9535    79.5640     2.5522     0.0607     0.0311
 1635.0000   -34.0312     6.9262  -999.2500  -999.2500     8.0572     7.1082    11.9708    78.8454     2.5659     0.0476     0.0456
 1635.5000   -33.9638     6.8786  -999.2500  -999.2500     8.0736     7.1175    11.9878    78.1640     2.5514     0.0563     0.0839
 1636.0000   -33.9315     6.8313  -999.2500  -999.2500     7.9881     7.1103    12.0048    77.4491     2.5989     0.0423     0.0671
 1636.5000   -34.0593     6.7843  -999.2500  -999.2500     7.7915     7.1146    12.0218    77.8409     2.5939     0.0311     0.0720
 1637.0000   -34.1721     6.7380  -999.2500  -999.2500     7.5998     7.0295    12.0392    78.3062     2.5736     0.0416     0.1027
 1637.5000   -34.3145     6.6666  -999.2500  -999.2500     7.3757     6.9623    12.0557    78.8356     2.5531     0.0610     0.1094
 1638.0000   -34.3241     6.5967  -999.2500  -999.2500     7.3757     6.8952    12.0734    79.3096     2.5724     0.0476     0.0834
 1638.5000   -34.3275     6.5275  -999.2500  -999.2500     7.3757     6.8286    12.0767    79.7139     2.5677     0.0496     0.0760
 1639.0000   -34.3248     6.4590  -999.2500  -999.2500     7.5103     6.7627    12.0818    79.2630     2.5625     0.0539     0.0918
 1639.5000   -34.3255     6.3912  -999.2500  -999.2500     7.3477     6.6975    12.0858    78.8706     2.5735     0.0480     0.1051
 1640.0000   -34.3271     6.3242  -999.2500  -999.2500     7.1848     6.6328    12.0905    78.3720     2.5480     0.0413     0.1195
 1640.5000   -34.3243     6.2577  -999.2500  -999.2500     7.0255     6.5688    12.0948    78.0698     2.5592     0.0435     0.1336
 1641.0000   -34.3247     6.1919  -999.2500  -999.2500     6.8697     6.5054    12.0994    76.8123     2.5728     0.0484     0.1475
 1641.5000   -34.3351     6.1271  -999.2500  -999.2500     6.7380     6.4427    12.1038    75.6812     2.5645     0.0390     0.1625
 1642.0000   -34.2149     6.0628  -999.2500  -999.2500     6.8369     6.3805    12.1080    74.1896     2.5809     0.0595     0.1672
 1642.5000   -33.8924     5.9991  -999.2500  -999.2500     6.9862     6.3189    12.1136    75.2497     2.5409     0.0491     0.1458
 1643.0000   -33.5540     5.9362  -999.2500  -999.2500     6.9249     6.2580    12.1055    77.5466     2.6161     0.0146     0.1379
 1643.5000   -33.5560     5.8305  -999.2500  -999.2500     6.7335     6.1976    12.0890    79.5906     2.6010     0.0324     0.1574
 1644.0000   -33.5945     5.8380  -999.2500  -999.2500     6.5474     6.1556    12.0740    78.1165     2.5727     0.0540     0.1727
 1644.5000   -33.6463     5.8629  -999.2500  -999.2500     6.3822     6.1556    12.0593    76.9527     2.5785     0.0366     0.1368
 1645.0000   -33.6875     5.8872  -999.2500  -999.2500     6.6986     6.1548    12.0430    75.5890     2.5131     0.0701     0.1644
 1645.5000   -33.7330     5.9127  -999.2500  -999.2500     7.3796     6.1552    12.0345    74.3801     2.5303     0.0831     0.1364
 1646.0000   -33.7782     5.9382  -999.2500  -999.2500     7.3335     6.1555    12.0388    73.4948     2.5748     0.0461     0.1172
