~VERSION INFORMATION
 VERS.                2.0:   CWLS LOG ASCII STANDARD - VERSION 2.0
 WRAP.                 NO:   ONE LINE PER DEPTH STEP
~WELL INFORMATION
#MNEM.UNIT      DATA TYPE    INFORMATION
#----------   ------------   ------------------------------
 STRT.F           16.0000:   START DEPTH
 STOP.F          661.0000:   STOP DEPTH
 STEP.F            0.5000:   STEP LENGTH
 NULL.          -999.2500:   NO VALUE
 COMP. FENIX & SCISSON INC:   COMPANY
 WELL.  26-66 SX 11 #I-11:   WELL
 FLD .             TEAPOT:   FIELD
 LOC .      S11 T38N R78W:   LOCATION
 CNTY.            NATRONA:   COUNTY
 STAT.            WYOMING:   STATE
 CTRY. UNITED STATES OF AMERICA:   COUNTRY
 SRVC.      Dresser Atlas:   SERVICE COMPANY
 DATE.        22-JUL-1980:   LOGDATE
 API .       490251083200:   API NUMBER
~CURVE INFORMATION
#MNEM.UNIT       API CODE    CURVE DESCRIPTION
#----------   ------------   ------------------------------
 DEPT.F                  :   
 SFL .OHMM   07 220 01 00:   SHALLOW FOCUSED LOG RESISTIVITY
 ILD .OHMM   07 120 46 00:   INDUCTION LOG DEEP
 ILM .OHMM   07 120 44 00:   INDUCTION LOG MEDIUM
 SPR .MV     07 010 01 00:   SPONTANEOUS POTENTIAL
 CALD.IN     45 280 60 00:   CALIPER
 GRD .GAPI   45 310 01 00:   GAMMA RAY FROM DENSITY LOG
 RHOB.G/C3   45 350 01 00:   BULK DENSITY
 CORR.G/C3   45 356 01 00:   DENSITY CORRECTION
 DPHI.DEC    45 890 12 00:   DENSITY POROSITY SANDSTONE
 NPHI.DEC    42 890 03 00:   NEUTRON POROSITY SANDSTONE
~PARAMETER INFORMATION
#MNEM.UNIT          VALUE    DESCRIPTION
#----------   ------------   ------------------------------
 PD  .                 GL:   PERMANENT DATUM
 EPD .F              5193:   ELEVATION PERMANENT DATUM
 LMF .                 KB:   LOG MEASURED FROM
 DAPD.F                 5:   FEET ABOVE PERMANENT DATUM
 DMF .                 KB:   DRILLING MEASURED FROM
 EKB .F              5198:   KELLING BUSHING
 EDF .F              5196:   DRILLING FLOOR
 EGL .F              5193:   GROUND LEVEL
 DATE.            7-22-80:   RUN DATE
 RUN .                  1:   RUN NUMBER
 DD  .F               655:   DEPTH DRILLER
 DL  .F               655:   DEPTH LOGGER
 BLI .F               653:   BOTTOM LOG INTERVAL
 TLI .F                20:   TOP LOG INTERVAL
 BS  .IN            7.875:   BIT SIZE
 BSD .F               655:   BIT SIZE AT DEPTH
 DFT .                KCL:   DRILLING FLUID TYPE
 DFD .                9.1:   DRILLING FLUID DENSITY
 DFV .                 46:   DRILLING FLUID VISCOSITY
 DFPH.                 11:   DRILLING FLUID PH
 DFL .                  6:   DRILLING FLUID LOSS
 MSS .           FLOWLINE:   MUD SAMPLE SOURCE
 RMS .OHMM            .17:   RESISTIVITY MUD SAMPLE
 MST .F                75:   MUD SAMPLE TEMPERATURE
 RMF .OHMM            .13:   RESISTIVITY MUD FILTRATE SAMPLE
 MFST.F                75:   MUD FILTRATE SAMPLE TEMPERATURE
 RMC .OHMM            .26:   RESISTIVITY MUD CAKE
 MCST.F                75:   MUD CAKE SAMPLE TEMPERATURE
 MFSS.                  C:   MUD FILTRATE SAMPLE SOURCE
 MCSS.                  C:   MUD CAKE SAMPLE SOURCE
 TCS .HRS               1:   TIME CURCULATED STOPPED
 LUN .               6240:   LOGGING UNIT NUMBER
 LUL .               RVTN:   LOGGING UNIT LOCATION
 ENGI.   K. RALL/J. GETTY:   RECORDING ENGINEER
 WITN.            RHOADES:   WITNESSED BY
 CLNT.            A2DTECH:   CLIENT CODE
 ORIG.        2" 5" PRINT:   ORIGIN OF DATA
 UWI .       490251083200:   UNIQUE WELL ID
 DICO. A2D Technologies, Inc.:   DIGITIZING COMPANY
~OTHER INFORMATION
~A   DEPT      SFL        ILD        ILM        SPR       CALD        GRD       RHOB       CORR         DPHI     NPHI   
# ...
  485.0000    17.2891    21.4280    18.1793   -41.7432     7.8209    69.2865     2.3833     0.0401     0.1800     0.3058
  485.5000    17.6358    21.5378    18.4537   -42.4791     7.8209    73.3616     2.3917     0.0422     0.1705     0.3093
  486.0000    17.9895    21.6568    18.7323   -42.6449     7.8209    77.8174     2.4183     0.0336     0.1593     0.2637
  486.5000    18.1564    21.8283    19.0151   -42.2440     7.8193    81.6958     2.4336     0.0251     0.1481     0.2606
  487.0000    17.7595    21.6351    19.3023   -41.8277     7.8146    83.1220     2.4168     0.0230     0.1458     0.2657
  487.5000    17.4699    21.2755    19.5938   -41.8348     7.8099    83.0670     2.3846     0.0211     0.1734     0.2692
  488.0000    17.3372    20.9233    19.9081   -41.8378     7.8053    80.1017     2.3419     0.0191     0.1964     0.2653
  488.5000    17.3402    20.5767    19.5618   -41.6666     7.8008    77.2311     2.3196     0.0156     0.2150     0.2658
  489.0000    17.0239    20.2416    19.1139   -41.4323     7.7982    75.3525     2.3169     0.0100     0.2171     0.2703
  489.5000    16.7022    19.8294    18.6763   -41.2268     7.7956    75.0090     2.3143     0.0086     0.2198     0.2793
  490.0000    16.3866    19.1392    18.3244   -41.4317     7.7930    75.2370     2.3044     0.0070     0.2232     0.2846
  490.5000    16.2574    18.4730    17.8862   -41.6508     7.7904    74.7036     2.3144     0.0095     0.2190     0.2846
  491.0000    16.2539    17.8250    17.4317   -41.8414     7.7879    73.4944     2.3461     0.0183     0.1995     0.2821
  491.5000    16.4874    17.6616    17.1803   -41.7684     7.7853    72.8718     2.3893     0.0333     0.1805     0.2782
  492.0000    16.7248    17.4997    17.2084   -41.6796     7.7827    73.5442     2.4164     0.0350     0.1615     0.2496
  492.5000    16.8667    17.6636    17.2554   -41.5912     7.7801    76.4533     2.4163     0.0267     0.1546     0.2481
  493.0000    16.7543    17.6728    17.3025   -41.5028     7.7776    79.6641     2.4007     0.0267     0.1653     0.2579
  493.5000    16.7121    18.3822    17.4997   -41.4035     7.7750    82.2706     2.3897     0.0266     0.1713     0.2699
  494.0000    17.2477    19.1338    18.0341   -41.2579     7.7724    81.9265     2.3736     0.0188     0.1829     0.2683
  494.5000    18.1418    19.7256    18.5568   -41.0314     7.7698    80.0026     2.3527    -0.0030     0.1955     0.2611
  495.0000    19.0823    20.1739    19.0885   -40.7101     7.7672    77.9543     2.3552    -0.0071     0.1906     0.2565
  495.5000    20.0715    20.5989    19.6366   -40.3866     7.7647    75.9316     2.3689     0.0010     0.1852     0.2562
  496.0000    20.8463    21.0328    20.2926   -40.0638     7.7621    74.8502     2.3718     0.0065     0.1840     0.2669
  496.5000    19.8319    21.4759    19.5120   -39.7948     7.7606    72.9209     2.3815     0.0051     0.1798     0.2771
  497.0000    18.1418    21.8288    17.9750   -39.7103     7.7606    71.0184     2.3809     0.0154     0.1789     0.3022
  497.5000    16.5784    21.4198    16.5798   -39.6112     7.7606    69.5304     2.3456     0.0397     0.2019     0.3052
  498.0000    15.9494    20.9514    16.2566   -40.2695     7.7606    72.3768     2.3204     0.0617     0.2177     0.3006
  498.5000    16.1998    20.4940    16.4894   -40.8079     7.7607    77.3745     2.3073     0.0611     0.2226     0.2799
  499.0000    16.4333    20.0473    16.7589   -40.6751     7.7576    81.9187     2.3118     0.0288     0.2191     0.2585
  499.5000    16.6686    19.6105    17.0329   -40.5537     7.7543    82.2364     2.3206     0.0056     0.2166     0.2465
  500.0000    16.9033    19.1832    17.3392   -40.4266     7.7509    80.7951     2.3405    -0.0003     0.2042     0.2512
  500.5000    17.0260    18.7653    17.3392   -40.5857     7.7475    79.4834     2.3735     0.0219     0.1850     0.2554
  501.0000    17.0249    18.3244    17.0840   -40.8174     7.7441    79.5294     2.3940     0.0492     0.1696     0.2574
  501.5000    16.4979    18.3244    16.8081   -41.0475     7.7406    80.7125     2.4038     0.0621     0.1653     0.2618
  502.0000    16.1604    18.2528    16.5367   -41.2716     7.7389    81.3396     2.3928     0.0580     0.1734     0.2693
  502.5000    15.8136    17.9900    16.2566   -41.2186     7.7367    82.2167     2.3741     0.0522     0.1828     0.2758
  503.0000    15.8136    17.4997    16.2566   -41.2260     7.7346    84.0054     2.3640     0.0463     0.1894     0.2817
  503.5000    15.9659    17.1071    16.4070   -41.2303     7.7324    85.6938     2.3602     0.0423     0.1920     0.2769
  504.0000    15.9673    16.6785    16.2566   -41.2298     7.7303    86.3137     2.3700     0.0467     0.1909     0.2639
  504.5000    15.5032    16.2566    15.8893   -41.2299     7.7281    87.9023     2.3926     0.0566     0.1735     0.2566
  505.0000    15.1928    16.2038    15.6146   -41.2297     7.7260    87.9904     2.4154     0.0673     0.1542     0.2610
  505.5000    14.8887    15.9400    15.3446   -41.2307     7.7238    87.9785     2.4374     0.0782     0.1461     0.2637
  506.0000    14.5892    15.6805    15.0793   -41.1633     7.7217    88.2639     2.4375     0.0780     0.1483     0.2675
  506.5000    14.4209    15.4252    14.8262   -41.0570     7.7203    88.5118     2.4102     0.0724     0.1575     0.2575
  507.0000    14.4657    15.3826    14.9706   -40.9498     7.7200    88.2565     2.4038     0.0665     0.1641     0.2503
  507.5000    14.5195    15.3826    15.0009   -40.8425     7.7180    87.0967     2.4018     0.0606     0.1653     0.2574
  508.0000    14.5729    15.4745    15.0312   -40.7353     7.7161    85.8384     2.3962     0.0549     0.1683     0.2705
  508.5000    14.6265    15.5625    15.0617   -40.6280     7.7141    83.6602     2.3781     0.0500     0.1776     0.2777
  509.0000    14.6803    15.6510    15.0922   -40.5197     7.7122    81.4284     2.3602     0.0414     0.1869     0.2791
  509.5000    14.7343    15.7400    15.1227   -40.4176     7.7102    82.2053     2.3455     0.0333     0.1963     0.2844
  510.0000    14.7885    15.8296    15.1533   -40.6460     7.7083    85.2059     2.3350     0.0307     0.2095     0.2751
  510.5000    14.8262    15.9197    15.1840   -40.8562     7.7063    89.8923     2.3309     0.0345     0.2048     0.2666
  511.0000    14.7316    16.0108    15.2146   -40.9470     7.7044    88.9559     2.3660     0.0463     0.1908     0.2617
  511.5000    14.6597    16.1076    15.2421   -41.0404     7.7024    87.1046     2.3928     0.0597     0.1769     0.2686
  512.0000    14.5881    16.1076    15.2416   -41.1337     7.7004    87.3843     2.4000     0.0732     0.1693     0.2670
  512.5000    14.5556    16.0077    15.2390   -41.2285     7.7043    89.7827     2.3733     0.0801     0.1814     0.2702
  513.0000    14.6478    15.9334    15.1018   -41.1023     7.7091    88.1783     2.3661     0.0914     0.1860     0.2770
  513.5000    14.7455    15.8590    15.2416   -40.9370     7.7139    85.3551     2.3967     0.1048     0.1735     0.2857
  514.0000    14.8262    15.8131    15.1046   -40.9722     7.7187    84.4395     2.4233     0.1075     0.1539     0.2646
  514.5000    14.6340    15.8499    14.9648   -41.2201     7.7235    88.7884     2.4053     0.0828     0.1652     0.2513
  515.0000    14.4728    15.8967    14.8262   -41.1363     7.7284    93.0304     2.3844     0.0631     0.1787     0.2432
  515.5000    14.3134    15.9434    14.6889   -41.0583     7.7332    95.3297     2.3649     0.0495     0.1869     0.2395
  516.0000    14.1589    15.9720    14.5556   -41.0300     7.7380    91.7127     2.3685     0.0444     0.1884     0.2463
  516.5000    14.1589    15.6585    14.4221   -40.9790     7.7395    89.3195     2.3782     0.0547     0.1801     0.2550
  517.0000    14.1589    15.4037    14.4811   -40.9193     7.7376    88.9978     2.3757     0.0496     0.1808     0.2633
  517.5000    14.1589    15.1564    14.5293   -40.8586     7.7357    88.6544     2.3728     0.0427     0.1820     0.2779
  518.0000    14.0905    14.9131    14.5556   -40.7804     7.7338    88.1328     2.3853     0.0481     0.1763     0.2724
