~VERSION INFORMATION
 VERS.                2.0:   CWLS LOG ASCII STANDARD - VERSION 2.0
 WRAP.                 NO:   ONE LINE PER DEPTH STEP
~WELL INFORMATION
#MNEM.UNIT      DATA TYPE    INFORMATION
#----------   ------------   ------------------------------
 STRT.F           33.0000:   START DEPTH
 STOP.F         1374.0000:   STOP DEPTH
 STEP.F            0.5000:   STEP LENGTH
 NULL.          -999.2500:   NO VALUE
 COMP. FENIX & SCISSON INC:   COMPANY
 WELL.   NPR-3 "S" #84-14:   WELL
 FLD .             TEAPOT:   FIELD
 LOC .      S14 T38N R78W:   LOCATION
 CNTY.            NATRONA:   COUNTY
 STAT.            WYOMING:   STATE
 CTRY. UNITED STATES OF AMERICA:   COUNTRY
 SRVC.            Unknown:   SERVICE COMPANY
 DATE.        18-MAR-1978:   LOGDATE
 API .       490251060400:   API NUMBER
~CURVE INFORMATION
#MNEM.UNIT       API CODE    CURVE DESCRIPTION
#----------   ------------   ------------------------------
 DEPT.F                  :   
 SPR .MV     05 010 01 00:   SPONTANEOUS POTENTIAL FROM RES.
 SN  .OHMM   05 040 16 00:   SHORT NORMAL 16"
 ILD .OHMM   05 120 46 00:   INDUCTION LOG DEEP
 CALD.IN     45 280 60 00:   CALIPER
 GRD .GAPI   45 310 01 00:   GAMMA RAY FROM DENSITY LOG
 CORR.G/C3   45 356 01 00:   DENSITY CORRECTION
 RHOB.G/C3   45 350 01 00:   BULK DENSITY
 DPHI.DEC    45 890 00 00:   DENSITY POROSITY
~PARAMETER INFORMATION
#MNEM.UNIT          VALUE    DESCRIPTION
#----------   ------------   ------------------------------
 PD  .                 GL:   PERMANENT DATUM
 EPD .F              5314:   ELEVATION PERMANENT DATUM
 LMF .                 KB:   LOG MEASURED FROM
 DMF .                 KB:   DRILLING MEASURED FROM
 EKB .F              5318:   KELLING BUSHING
 EGL .F              5314:   GROUND LEVEL
 DATE.          3-18-1978:   RUN DATE
 RUN .                  1:   RUN NUMBER
 DD  .F              1375:   DEPTH DRILLER
 DL  .F              1380:   DEPTH LOGGER
 BLI .F              1374:   BOTTOM LOG INTERVAL
 TLI .F                50:   TOP LOG INTERVAL
 CS  .IN            8.625:   CASING SIZE
 CBD .F                40:   CASING BOTTOM DRILLER
 CBL .F                50:   CASING BOTTOM LOGGER
 BS  .IN            7.875:   BIT SIZE
 BSD .F              1375:   BIT SIZE AT DEPTH
 DFT .                KCL:   DRILLING FLUID TYPE
 DFD .                8.1:   DRILLING FLUID DENSITY
 DFV .                 31:   DRILLING FLUID VISCOSITY
 DFPH.                 10:   DRILLING FLUID PH
 DFL .                8.4:   DRILLING FLUID LOSS
 MSS .           FLOWLINE:   MUD SAMPLE SOURCE
 RMS .OHMM            .28:   RESISTIVITY MUD SAMPLE
 MST .F                62:   MUD SAMPLE TEMPERATURE
 RMF .OHMM            .26:   RESISTIVITY MUD FILTRATE SAMPLE
 MFST.F                67:   MUD FILTRATE SAMPLE TEMPERATURE
 RMC .OHMM            .36:   RESISTIVITY MUD CAKE
 MCST.F                70:   MUD CAKE SAMPLE TEMPERATURE
 MFSS.               MEAS:   MUD FILTRATE SAMPLE SOURCE
 RMB .OHMM            .22:   RESISTIVITY MUD AT BHT
 BHT .F                80:   BOTTOM HOLE TEMPERATURE
 TCS .HRS               4:   TIME CURCULATED STOPPED
 MRT .F                80:   MAXIMUM RECORDED TEMPERATURE
 LUN .               2958:   LOGGING UNIT NUMBER
 LUL .               CASP:   LOGGING UNIT LOCATION
 ENGI.             MILLER:   RECORDING ENGINEER
 WITN.           MCGINLEY:   WITNESSED BY
 CLNT.            A2DTECH:   CLIENT CODE
 ORIG.      2" & 5" PRINT:   ORIGIN OF DATA
 UWI .       490251060400:   UNIQUE WELL ID
 DICO. A2D Technologies, Inc.:   DIGITIZING COMPANY
~OTHER INFORMATION
~A   DEPT      SPR         SN        ILD       CALD         GRD      CORR       RHOB       DPHI   
# ...
 1329.0000   -36.5069     7.8918     7.7077     7.2125   101.6991     0.0146     2.4867     0.0906
 1329.5000   -36.7007     7.9150     7.8382     7.2130   102.6985     0.0169     2.4824     0.0881
 1330.0000   -36.9718     7.5664     7.1472     7.2136   102.6856     0.0185     2.4858     0.0862
 1330.5000   -37.7826     7.1631     6.6579     7.2142   102.5716     0.0147     2.4884     0.0960
 1331.0000   -38.5608     6.7842     6.2446     7.2147    99.6738     0.0108     2.4712     0.1046
 1331.5000   -39.1829     6.3878     5.8570     7.2153    99.1186     0.0094     2.4557     0.1089
 1332.0000   -39.5300     6.0567     5.4100     7.2158   102.4374     0.0127     2.4471     0.1125
 1332.5000   -39.2196     5.7857     4.8779     7.2164   107.8598     0.0160     2.4401     0.1146
 1333.0000   -38.9328     5.5268     4.8133     7.2170   112.8650     0.0193     2.4516     0.1016
 1333.5000   -38.9067     5.3028     4.7604     7.2175   114.3979     0.0159     2.4722     0.0873
 1334.0000   -38.3885     5.1268     4.7609     7.2181   117.9017     0.0061     2.4916     0.0776
 1334.5000   -37.8886     5.2735     4.8321     7.2186   117.9354    -0.0007     2.5067     0.0766
 1335.0000   -37.3931     5.7347     4.8845     7.2192   111.1269     0.0016     2.5096     0.0774
 1335.5000   -36.9001     6.2354     4.9410     7.2198   100.8045     0.0036     2.5063     0.0736
 1336.0000   -36.4080     6.8225     5.1657     7.2203    98.6180     0.0049     2.5093     0.0710
 1336.5000   -36.1287     7.1065     5.7542     7.2209    98.3158     0.0028     2.5114     0.0778
 1337.0000   -36.1003     7.4132     6.4098     7.2214    99.0513     0.0007     2.5095     0.0769
 1337.5000   -36.0712     7.7662     6.8249     7.2220   100.2560    -0.0014     2.5076     0.0743
 1338.0000   -36.0439     7.8488     7.1475     7.2226   100.4380    -0.0029     2.5067     0.0740
 1338.5000   -36.0168     7.9418     7.4538     7.2231   100.9416    -0.0023     2.5073     0.0750
 1339.0000   -35.9896     8.0358     7.6079     7.2237   102.6627    -0.0018     2.5080     0.0749
 1339.5000   -35.9610     8.1309     7.6874     7.2242   103.0601    -0.0013     2.5085     0.0739
 1340.0000   -35.8925     8.2272     7.7678     7.2236   102.6053    -0.0018     2.5065     0.0722
 1340.5000   -35.6618     8.3246     7.8491     7.2215   101.6246    -0.0038     2.5034     0.0795
 1341.0000   -35.4322     8.4232     7.9109     7.2195   100.7924    -0.0050     2.5003     0.0806
 1341.5000   -35.4228     8.5580     7.9927     7.2174   102.7522    -0.0045     2.4969     0.0790
 1342.0000   -35.6213     8.7016     8.0908     7.2154   104.9324    -0.0038     2.5015     0.0760
 1342.5000   -35.8197     8.8477     8.1902     7.2133   106.4979    -0.0031     2.5076     0.0742
 1343.0000   -36.0161     8.9962     8.2981     7.2113   105.4167    -0.0050     2.5088     0.0784
 1343.5000   -36.2055     9.1137     8.7310     7.2092   104.6688    -0.0074     2.5013     0.0827
 1344.0000   -35.9827     9.1835     9.0854     7.2071   104.6791    -0.0099     2.4940     0.0862
 1344.5000   -35.1302     9.2538     9.1164     7.2051   104.1831    -0.0096     2.4868     0.0870
 1345.0000   -35.2578     9.3247     9.1556     7.2030   103.5942    -0.0071     2.4907     0.0855
 1345.5000   -35.2832     9.3961     9.1950     7.2010   102.9889    -0.0045     2.5030     0.0813
 1346.0000   -34.8445     9.5644     9.2346     7.1989   102.8746     0.0004     2.5074     0.0770
 1346.5000   -34.7470     9.8107     9.2743     7.1969   103.2458     0.0068     2.5092     0.0737
 1347.0000   -34.7525     9.8723     9.3142     7.1948   103.6512     0.0051     2.5149     0.0694
 1347.5000   -34.4338     9.8723     9.3625     7.1927   103.6774     0.0016     2.5175     0.0721
 1348.0000   -34.1434     9.8724     9.4270     7.1907   103.1692    -0.0019     2.5130     0.0771
 1348.5000   -34.1489     9.8723     9.4919     7.1886   102.1484    -0.0049     2.5045     0.0826
 1349.0000   -34.1487     9.8723     9.5573     7.1866   101.1592    -0.0039     2.4959     0.0806
 1349.5000   -34.1471     9.8724     9.6027     7.1851   100.6767    -0.0030     2.4975     0.0786
 1350.0000   -34.1092     9.8724     9.5694     7.1684   100.5882    -0.0042     2.5053     0.0795
 1350.5000   -33.9659     9.8346     9.5328     7.1456   100.2462    -0.0055     2.4980     0.0813
 1351.0000   -34.0457     9.7808     9.4964     7.1261   100.0775    -0.0069     2.4950     0.0864
 1351.5000   -34.1489     9.7275     9.4601     7.1444   100.2678    -0.0082     2.4927     0.0892
 1352.0000   -34.2191     9.6745     9.4239     7.1450    99.5500    -0.0095     2.4835     0.0910
 1352.5000   -34.2845     9.6217     9.3879     7.1449    98.0714    -0.0108     2.4842     0.0888
 1353.0000   -34.3323     9.5692     9.3520     7.1449    98.0302    -0.0085     2.4856     0.0899
 1353.5000   -34.6997     9.5170     9.3163     7.1449    98.0649    -0.0056     2.4834     0.0950
 1354.0000   -35.0233     9.4647     9.2807     7.1449   100.8798    -0.0027     2.4762     0.0860
 1354.5000   -35.2200     9.4266     9.2452     7.1449   103.1232    -0.0009     2.4930     0.0778
 1355.0000   -35.2555     9.3894     9.2099     7.1449   100.9725    -0.0007     2.5091     0.0766
 1355.5000   -35.0350     9.3547     9.1747     7.1449    99.3467    -0.0004     2.5069     0.0758
 1356.0000   -35.0072     9.3200     9.1396     7.1449    98.0549    -0.0002     2.5019     0.0779
 1356.5000   -35.1482     9.2854     9.1047     7.1449    98.0883     0.0001     2.5043     0.0805
 1357.0000   -35.1025     9.2508     9.0854     7.1449    97.9970     0.0003     2.4999     0.0822
 1357.5000   -35.0588     9.2164     9.0854     7.1449    99.4218     0.0006     2.4952     0.0831
 1358.0000   -35.0158     9.1819     9.0859     7.1449   100.2836     0.0009     2.4904     0.0853
 1358.5000   -34.9757     9.1694     9.0848     7.1449   100.4795     0.0016     2.4886     0.0858
 1359.0000   -35.0187     9.1213     9.0868     7.1449   101.8797     0.0033     2.4941     0.0833
 1359.5000   -35.2883     9.0751     8.9584     7.1449   101.7040     0.0049     2.4966     0.0808
 1360.0000   -35.5476     9.0290     8.8072     7.1449   101.7682     0.0066     2.4978     0.0794
 1360.5000   -35.8065     8.9227     8.6585     7.1449   103.7644     0.0059     2.5000     0.0802
 1361.0000   -36.0661     8.7353     8.5124     7.1449   106.0928     0.0045     2.5006     0.0806
 1361.5000   -36.3254     8.5519     8.3687     7.1449   108.4620     0.0031     2.5014     0.0800
 1362.0000   -36.5847     8.4673     8.2581     7.1449   109.4251     0.0076     2.5045     0.0714
 1362.5000   -36.8465     8.4061     8.1936     7.1449   109.2370     0.0128     2.5153     0.0639
 1363.0000   -36.9639     8.3453     8.1295     7.1449   108.6563     0.0119     2.5252     0.0655
 1363.5000   -37.0091     8.2850     8.0660     7.1449   107.6031     0.0110     2.5247     0.0670
 1364.0000   -37.0530     8.2250     8.0030     7.1449   106.5531     0.0128     2.5225     0.0658
 1364.5000   -37.1039     8.1656     7.9405     7.1449   105.5047     0.0148     2.5304     0.0642
 1365.0000   -37.3135     8.1065     7.8787     7.1449   104.8549     0.0149     2.5305     0.0675
 1365.5000   -37.9489     8.0531     7.8175     7.1449   105.4390     0.0123     2.5270     0.0712
 1366.0000   -38.3633     8.0241     7.6854     7.1458   107.4356     0.0114     2.5169     0.0749
 1366.5000   -38.4336     7.9953     7.4562     7.1134   109.3806     0.0154     2.5066     0.0743
 1367.0000   -38.5208     7.9665     7.4049     7.0709   108.7881     0.0264     2.5052     0.0715
 1367.5000   -38.1541     7.9378     7.3542     7.0268   107.8980     0.0370     2.5161     0.0729
 1368.0000   -37.8454     7.9093     7.3040     7.0024   108.3140     0.0429     2.5172     0.0793
 1368.5000   -38.5228     7.8808     7.2542     6.9876   109.5455     0.0447     2.5036     0.0821
 1369.0000   -38.4364     7.8524     7.2047     6.9968   107.0301     0.0518     2.4927     0.0809
