~VERSION INFORMATION
 VERS.                2.0:   CWLS LOG ASCII STANDARD - VERSION 2.0
 WRAP.                 NO:   ONE LINE PER DEPTH STEP
~WELL INFORMATION
#MNEM.UNIT      DATA TYPE    INFORMATION
#----------   ------------   ------------------------------
 STRT.F            4.0000:   START DEPTH
 STOP.F          578.0000:   STOP DEPTH
 STEP.F            0.5000:   STEP LENGTH
 NULL.          -999.2500:   NO VALUE
 COMP.              FENIX:   COMPANY
 WELL.   NPR-3 #14SX11-11:   WELL
 FLD .             TEAPOT:   FIELD
 LOC .      S11 T38N R78W:   LOCATION
 CNTY.            NATRONA:   COUNTY
 STAT.            WYOMING:   STATE
 CTRY. UNITED STATES OF AMERICA:   COUNTRY
 SRVC.           BIRDWELL:   SERVICE COMPANY
 DATE.        14-FEB-1978:   LOGDATE
 API .       490251057100:   API NUMBER
~CURVE INFORMATION
#MNEM.UNIT       API CODE    CURVE DESCRIPTION
#----------   ------------   ------------------------------
 DEPT.F                  :   
 ILD .OHMM   05 120 46 00:   INDUCTION LOG DEEP
 SN  .OHMM   05 040 16 00:   SHORT NORMAL 16"
 SPR .MV     05 010 01 00:   SPONTANEOUS POTENTIAL FROM RES.
 CALD.IN     45 280 60 00:   CALIPER FROM DENSITY LOG
 CORR.G/C3   45 356 01 00:   DENSITY CORRECTION
 DPHI.DEC    45 890 12 00:   DENSITY POROSITY SANDSTONE
 GRD .GAPI   45 310 01 00:   GAMMA RAY FROM DENSITY LOG
 RHOB.G/C3   45 350 01 00:   BULK DENSITY
~PARAMETER INFORMATION
#MNEM.UNIT          VALUE    DESCRIPTION
#----------   ------------   ------------------------------
 PD  .                 GL:   PERMANENT DATUM
 EPD .F              5183:   ELEVATION PERMANENT DATUM
 LMF .                 KB:   LOG MEASURED FROM
 DAPD.F                 4:   FEET ABOVE PERMANENT DATUM
 DMF .                 KB:   DRILLING MEASURED FROM
 EKB .F              5187:   KELLING BUSHING
 EGL .F              5183:   GROUND LEVEL
 DATE.        14-FEB-1978:   RUN DATE
 RUN .                  1:   RUN NUMBER
 DD  .F               580:   DEPTH DRILLER
 DL  .F               580:   DEPTH LOGGER
 BLI .F               578:   BOTTOM LOG INTERVAL
 TLI .F                20:   TOP LOG INTERVAL
 CS  .IN            8.625:   CASING SIZE
 CBD .F                15:   CASING BOTTOM DRILLER
 CBL .F                39:   CASING BOTTOM LOGGER
 BS  .IN            7.875:   BIT SIZE
 BSD .F               580:   BIT SIZE AT DEPTH
 DFT .         LIGNO-SULF:   DRILLING FLUID TYPE
 DFD .                8.6:   DRILLING FLUID DENSITY
 DFV .                 33:   DRILLING FLUID VISCOSITY
 DFPH.                 11:   DRILLING FLUID PH
 DFL .                  4:   DRILLING FLUID LOSS
 MSS .           FLOWLINE:   MUD SAMPLE SOURCE
 RMS .OHMM            1.3:   RESISTIVITY MUD SAMPLE
 MST .F                62:   MUD SAMPLE TEMPERATURE
 RMF .OHMM            1.2:   RESISTIVITY MUD FILTRATE SAMPLE
 MFST.F                64:   MUD FILTRATE SAMPLE TEMPERATURE
 RMC .OHMM            1.6:   RESISTIVITY MUD CAKE
 MCST.F                62:   MUD CAKE SAMPLE TEMPERATURE
 MFSS.               MEAS:   MUD FILTRATE SAMPLE SOURCE
 BHT .F                70:   BOTTOM HOLE TEMPERATURE
 TCS .HRS               3:   TIME CURCULATED STOPPED
 MRT .F                70:   MAXIMUM RECORDED TEMPERATURE
 LUN .               2958:   LOGGING UNIT NUMBER
 LUL .               CASP:   LOGGING UNIT LOCATION
 ENGI.            POINTER:   RECORDING ENGINEER
 WITN.           MCGINLEY:   WITNESSED BY
 CLNT.            A2DTECH:   CLIENT CODE
 ORIG.           5" PRINT:   ORIGIN OF DATA
 UWI .       490251057100:   UNIQUE WELL ID
 DICO. A2D Technologies, Inc.:   DIGITIZING COMPANY
~OTHER INFORMATION
~A    DEPT     ILD         SN        SPR       CALD       CORR       DPHI         GRD      RHOB   
# ...
  530.5000    11.1992    11.7446   -39.7896     7.8385     0.0406     0.1209    68.3865     2.4488
  531.0000    11.1211    11.5885   -40.0941     7.8231     0.0420     0.1209    67.3190     2.4496
  531.5000    11.1204    11.5870   -40.0956     7.8532     0.0449     0.1209    65.6443     2.4495
  532.0000    11.1970    11.5054   -39.9452     7.8833     0.0509     0.1215    65.4813     2.4502
  532.5000    11.1962    11.5039   -39.6439     7.9134     0.0164     0.1251    66.7022     2.4502
  533.0000    11.1953    11.5024   -39.0050     7.9283     0.0223     0.1243    66.8976     2.4509
  533.5000    11.1172    11.4214   -38.1321     7.8976     0.0222     0.1228    68.5192     2.4509
  534.0000    11.1165    11.4195   -38.2851     7.8669     0.0267     0.1210    72.9235     2.4501
  534.5000    11.1158    11.3391   -38.2865     7.8514     0.0376     0.1185    75.0482     2.4508
  535.0000    11.0382    11.3376   -38.2880     7.8510     0.0490     0.1156    77.4769     2.4595
  535.5000    11.1143    11.3361   -38.1379     7.8507     0.0520     0.1132    74.2824     2.4718
  536.0000    11.1134    11.3346   -37.9878     7.8504     0.0534     0.1105    69.5682     2.4777
  536.5000    11.1126    11.4119   -38.2927     7.8349     0.0533     0.1069    69.5092     2.4777
  537.0000    11.1894    11.3312   -38.2942     7.8346     0.0563     0.1030    71.0821     2.4792
  537.5000    11.1885    11.3297   -38.2956     7.8343     0.0562     0.0994    71.0536     2.4821
  538.0000    11.0334    11.3282   -38.2971     7.8036     0.0547     0.0973    68.3398     2.4851
  538.5000    11.0327    11.2485   -38.2985     7.7729     0.0485     0.1026    67.1211     2.4866
  539.0000    10.8800    11.2470   -38.4515     7.8209     0.0470     0.1079    69.2458     2.4873
  539.5000    10.8793    11.2455   -38.6048     7.8939     0.0515     0.1049    71.5224     2.4864
  540.0000    10.8786    11.2439   -38.6063     7.9392     0.0544     0.1001    72.4313     2.4842
  540.5000    10.8778    11.1644   -38.4559     7.9389     0.0559     0.1007    72.8850     2.4849
  541.0000    10.8769    11.1630   -38.3062     7.9386     0.0558     0.1010    73.1860     2.4864
  541.5000    10.7264    11.0844   -38.3076     7.8927     0.0572     0.0968    72.8783     2.4901
  542.0000    10.5779    11.0829   -38.4606     7.8772     0.0542     0.0989    71.9615     2.4916
  542.5000    10.2878    11.0049   -38.3105     7.8465     0.0496     0.1025    71.6565     2.4870
  543.0000    10.0057    10.9274   -38.1608     7.8450     0.0343     0.1090    71.6529     2.4802
  543.5000     9.8670    10.9256   -38.0104     7.8306     0.0225     0.1122    72.2579     2.4697
  544.0000     9.8664    10.8487   -37.8607     7.8151     0.0449     0.1080    73.1668     2.4606
  544.5000     9.8657    10.7724   -37.8622     7.8149     0.0464     0.0990    75.1395     2.4627
  545.0000     9.8651    10.6965   -37.7121     7.8146     0.0463     0.0993    76.5043     2.4846
  545.5000     9.9331    10.7695   -37.7139     7.8143     0.0433     0.1011    76.8060     2.4883
  546.0000     9.9323    10.9183   -37.5639     7.8140     0.0402     0.1026    74.3707     2.4853
  546.5000     9.9316    10.9928   -37.4134     7.8137     0.0431     0.1008    74.7264     2.4837
  547.0000     9.9309    10.9910   -37.4153     7.8134     0.0461     0.0984    76.3400     2.4852
  547.5000     9.9996    10.8382   -37.2652     7.8131     0.0460     0.0972    75.1212     2.4882
  548.0000     9.9296    10.6876   -37.2667     7.8127     0.0415     0.0985    72.8386     2.4889
  548.5000     9.9290    10.6124   -37.2685     7.8124     0.0324     0.1024    71.6198     2.4888
  549.0000     9.9281    10.5377   -37.2699     7.8274     0.0278     0.1120    71.0090     2.4832
  549.5000     9.9275    10.5359   -37.2714     7.8423     0.0263     0.1135    71.3100     2.4700
  550.0000     9.9268    10.6078   -37.2729     7.8419     0.0277     0.1111    75.8663     2.4722
  550.5000     9.8576    10.6064   -37.4258     7.8569     0.0337     0.1081    77.0947     2.4766
  551.0000     9.8569    10.6050   -37.4273     7.8565     0.0411     0.1039    77.3801     2.4819
  551.5000     9.8561    10.6036   -37.6040     7.8715     0.0500     0.1003    76.9212     2.4848
  552.0000     9.7197    10.4562   -37.7336     7.8863     0.0436     0.0973    78.5892     2.4878
  552.5000     9.5852    10.3730   -37.7350     7.8860     0.0364     0.1070    78.2823     2.4833
  553.0000     9.4525    10.1673   -37.5850     7.9009     0.0454     0.0986    76.1517     2.4795
  553.5000     9.3217    10.0957   -37.5864     7.9006     0.0513     0.0968    75.0849     2.4818
  554.0000     9.1291     9.9554   -37.4364     7.9307     0.0543     0.0944    73.2582     2.4884
  554.5000     8.9404     9.8854   -37.4379     7.9304     0.0572     0.0911    70.3677     2.4929
  555.0000     8.8167     9.8840   -37.2878     7.9301     0.0571     0.0884    70.8408     2.4974
  555.5000     8.6946     9.8827   -37.1377     7.9298     0.0586     0.0872    73.5467     2.5018
  556.0000     8.6940     9.8811   -37.1395     7.9143     0.0585     0.0887    78.5648     2.5048
  556.5000     8.8149     9.7438   -36.8376     7.9140     0.0569     0.0893    78.8665     2.5078
  557.0000     8.6928     9.4761   -36.6879     7.8984     0.0569     0.0881    77.9510     2.5092
  557.5000     8.4544     9.2158   -36.5202     7.8829     0.0538     0.0885    77.6440     2.5070
  558.0000     8.2225     9.0877   -36.0851     7.8674     0.0493     0.0921    77.7931     2.5016
  558.5000     8.0526     8.9614   -36.0572     7.8367     0.0462     0.0969    78.0940     2.4977
  559.0000     7.9412     8.7756   -35.9901     7.8213     0.0386     0.1011    79.3069     2.4933
  559.5000     7.6169     8.5939   -35.6925     7.8362     0.0341     0.1062    82.4954     2.4850
  560.0000     7.2554     8.4744   -35.6970     7.8815     0.0355     0.1099    87.9432     2.4767
  560.5000     6.8634     8.1847   -36.1568     7.9419     0.0370     0.1120    90.8482     2.4736
  561.0000     6.2279     7.7423   -35.5551     7.9416     0.0402     0.1110    90.9964     2.4729
  561.5000     5.3834     7.0724   -34.6504     7.8957     0.0488     0.1042    91.7541     2.4796
  562.0000     5.2358     6.6030   -34.3506     7.8650     0.0623     0.0840    87.0391     2.4871
  562.5000     5.3454     6.1144   -34.3561     7.8344     0.0712     0.0735    82.9328     2.5006
  563.0000     5.4575     5.8177   -34.6645     7.9405     0.0742     0.0696    76.8508     2.5219
  563.5000     5.5333     5.7831   -35.4265     7.9554     0.0681     0.0718    74.1123     2.5283
  564.0000     5.6493     6.0696   -35.8854     7.9550     0.0590     0.0760    76.3890     2.5260
  564.5000     5.8143     6.5495   -36.0412     7.9547     0.0470     0.0850    76.9939     2.5200
  565.0000     6.3553     7.2159   -36.0456     7.9544     0.0349     0.0868    77.1429     2.5124
  565.5000     6.9064     7.8951   -36.2015     7.9540     0.0364     0.0877    76.9873     2.5056
  566.0000     7.5575     8.3580   -36.5099     7.9537     0.0408     0.0875    76.0724     2.5033
  566.5000     7.9881     8.6969   -36.5143     7.9535     0.0467     0.0863    75.1576     2.5055
  567.0000     8.3278     9.0023   -36.5187     7.9532     0.0497     0.0824    74.6987     2.5092
  567.5000     8.5015     9.2541   -36.6745     7.9377     0.0526     0.0791    74.9997     2.5145
  568.0000     8.4420     9.3824   -36.6789     7.9222     0.0541     0.0794    76.0606     2.5185
  568.5000     8.5002     9.5118   -36.6833     7.8611     0.0555     0.0824    78.1854     2.5174
  569.0000     8.5588     9.6485   -36.5361     7.7848     0.0569     0.0830    76.8145     2.5129
  569.5000     8.6778     9.8442   -36.3889     7.7541     0.0645     0.0787    76.3556     2.5188
  570.0000     8.8679     9.9116   -36.5459     7.7385     0.0688     0.0710    78.1053     2.5263
  570.5000     8.9828     9.8419   -36.5502     7.7079     0.0612     0.0692    82.7320     2.5323
