~VERSION INFORMATION
 VERS.                2.0:   CWLS LOG ASCII STANDARD - VERSION 2.0
 WRAP.                 NO:   ONE LINE PER DEPTH STEP
~WELL INFORMATION
#MNEM.UNIT      DATA TYPE    INFORMATION
#----------   ------------   ------------------------------
 STRT.F           30.0000:   START DEPTH
 STOP.F          655.5000:   STOP DEPTH
 STEP.F            0.5000:   STEP LENGTH
 NULL.          -999.2500:   NO VALUE
 COMP. FENIX & SCISSON INC:   COMPANY
 WELL.    NPR-3 SX #52-15:   WELL
 FLD .             TEAPOT:   FIELD
 LOC .      S15 T38N R78W:   LOCATION
 CNTY.            NATRONA:   COUNTY
 STAT.            WYOMING:   STATE
 CTRY. UNITED STATES OF AMERICA:   COUNTRY
 SRVC.            Unknown:   SERVICE COMPANY
 DATE.        27-MAY-1978:   LOGDATE
 API .       490251062200:   API NUMBER
~CURVE INFORMATION
#MNEM.UNIT       API CODE    CURVE DESCRIPTION
#----------   ------------   ------------------------------
 DEPT.F                  :   
 GRD .GAPI   45 310 01 00:   GAMMA RAY FROM DENSITY LOG
 CALD.IN     45 280 60 00:   CALIPER
 RHOB.G/C3   45 350 01 00:   BULK DENSITY
 DPHI.DEC    45 890 12 00:   DENSITY POROSITY SANDSTONE
 CORR.G/C3   45 356 01 00:   DENSITY CORRECTION
 SN  .OHMM   05 040 16 00:   SHORT NORMAL 16"
 IL  .OHMM   05 120 00 00:   INDUCTION LOG
 SPR .MV     05 010 01 00:   SPONTANEOUS POTENTIAL FROM RES.
~PARAMETER INFORMATION
#MNEM.UNIT          VALUE    DESCRIPTION
#----------   ------------   ------------------------------
 PD  .                 GL:   PERMANENT DATUM
 EPD .F              5240:   ELEVATION PERMANENT DATUM
 LMF .                 KB:   LOG MEASURED FROM
 DAPD.F                 4:   FEET ABOVE PERMANENT DATUM
 DMF .                 GL:   DRILLING MEASURED FROM
 EKB .F              5244:   KELLING BUSHING
 EGL .F              5240:   GROUND LEVEL
 DATE.          5-27-1978:   RUN DATE
 RUN .                  1:   RUN NUMBER
 DD  .F               645:   DEPTH DRILLER
 DL  .F               655:   DEPTH LOGGER
 BLI .F               650:   BOTTOM LOG INTERVAL
 TLI .F                50:   TOP LOG INTERVAL
 CS  .IN            8.625:   CASING SIZE
 CBD .F                40:   CASING BOTTOM DRILLER
 CBL .F                40:   CASING BOTTOM LOGGER
 BS  .IN            7.875:   BIT SIZE
 BSD .F               645:   BIT SIZE AT DEPTH
 DFT .                KCL:   DRILLING FLUID TYPE
 DFD .                8.6:   DRILLING FLUID DENSITY
 DFV .                 32:   DRILLING FLUID VISCOSITY
 DFPH.               10.5:   DRILLING FLUID PH
 DFL .                7.4:   DRILLING FLUID LOSS
 MSS .           FLOWLINE:   MUD SAMPLE SOURCE
 RMS .OHMM            .30:   RESISTIVITY MUD SAMPLE
 MST .F                66:   MUD SAMPLE TEMPERATURE
 RMF .OHMM            .32:   RESISTIVITY MUD FILTRATE SAMPLE
 MFST.F                64:   MUD FILTRATE SAMPLE TEMPERATURE
 RMC .OHMM            .50:   RESISTIVITY MUD CAKE
 MCST.F                64:   MUD CAKE SAMPLE TEMPERATURE
 MFSS.           MEASURED:   MUD FILTRATE SAMPLE SOURCE
 BHT .F                68:   BOTTOM HOLE TEMPERATURE
 TCS .HRS               2:   TIME CURCULATED STOPPED
 MRT .F                68:   MAXIMUM RECORDED TEMPERATURE
 LUN .               2958:   LOGGING UNIT NUMBER
 LUL .              CASP.:   LOGGING UNIT LOCATION
 ENGI.            POINTER:   RECORDING ENGINEER
 WITN.           MCGINLEY:   WITNESSED BY
 CLNT.            A2DTECH:   CLIENT CODE
 ORIG.      2" , 5" PRINT:   ORIGIN OF DATA
 UWI .       490251062200:   UNIQUE WELL ID
 DICO. A2D Technologies, Inc.:   DIGITIZING COMPANY
~OTHER INFORMATION
~A   DEPT       GRD      CALD       RHOB       DPHI       CORR         SN         IL        SPR   
# ...
   70.5000    70.5009     7.6355     2.4113     0.1454     0.1877    10.6228    12.7947   -16.1114
   71.0000    70.2835     7.4705     2.4247     0.1455     0.1830    10.7948    12.7947   -16.0907
   71.5000    70.4140     7.3066     2.4382     0.1583     0.1723    10.9696    12.7943   -16.0701
   72.0000    75.8995     7.1414     2.4399     0.1720     0.1403    11.1473    12.7925   -16.0482
   72.5000    81.4144     7.0396     2.4190     0.1855     0.1088    11.3278    12.7879   -15.9617
   73.0000    84.0141     6.9686     2.3980     0.1990     0.0774    11.4180    13.0795   -15.7561
   73.5000    84.2139     6.9276     2.3770     0.2026     0.0496    11.4953    13.3518   -15.5523
   74.0000    82.1061     6.9003     2.3562     0.2003     0.0400    11.5732    13.6299   -15.3482
   74.5000    79.3801     6.8932     2.3420     0.1980     0.0401    11.6516    13.9137   -15.1442
   75.0000    76.5946     6.9077     2.3470     0.1957     0.0398    11.7305    14.2034   -14.9402
   75.5000    74.7065     6.9220     2.3512     0.1934     0.0396    11.8099    14.4991   -14.7363
   76.0000    74.6131     6.9362     2.3543     0.1912     0.0393    11.8899    14.8010   -14.5324
   76.5000    74.9909     6.9467     2.3575     0.1889     0.0391    11.9704    15.1092   -14.3282
   77.0000    75.5071     6.9504     2.3609     0.1866     0.0388    12.0515    15.4238   -14.1250
   77.5000    75.9996     6.9543     2.3656     0.1852     0.0385    12.1331    15.7450   -13.8579
   78.0000    74.9700     6.9581     2.3704     0.1883     0.0383    12.2153    16.0729   -13.5525
   78.5000    71.7286     6.9616     2.3677     0.1908     0.0391    12.2980    16.4075   -13.2464
   79.0000    71.4243     6.9673     2.3634     0.1760     0.0455    12.3813    16.7492   -12.9346
   79.5000    74.2279     7.0386     2.3692     0.1719     0.0517    12.4652    17.0979   -12.9433
   80.0000    74.6323     7.1382     2.3821     0.1697     0.0580    12.5496    17.4540   -13.0757
   80.5000    73.0886     7.2797     2.3941     0.1680     0.0643    12.6346    17.8177   -13.2106
   81.0000    71.7716     7.4206     2.3963     0.1662     0.0705    12.7202    18.1881   -13.3450
   81.5000    74.4111     7.5615     2.3993     0.1636     0.0769    12.7998    18.6689   -13.4793
   82.0000    78.1012     7.7021     2.4038     0.1608     0.0900    12.8376    18.6141   -13.6140
   82.5000    77.7511     7.8094     2.4084     0.1610     0.1113    12.8756    18.5218   -13.7475
   83.0000    77.2629     7.8620     2.4129     0.1627     0.1325    12.9137    18.4299   -13.8276
   83.5000    78.6241     7.8346     2.4133     0.1631     0.1538    12.9519    18.3384   -13.7420
   84.0000    80.1803     7.8042     2.4087     0.1566     0.1751    12.9902    17.7005   -13.6613
   84.5000    80.1011     7.7759     2.4079     0.1485     0.1961    13.0326    16.9903   -13.5807
   85.0000    78.1142     7.6663     2.4203     0.1382     0.2133    12.8758    16.3086   -13.5002
   85.5000    75.5976     7.5198     2.4371     0.1416     0.2136    12.7031    15.6543   -13.4196
   86.0000    73.9117     7.3720     2.4561     0.1512     0.1823    12.5501    15.0262   -13.3384
   86.5000    72.4145     7.2438     2.4396     0.1624     0.1425    12.4844    14.4221   -13.2543
   87.0000    72.1172     7.1622     2.4417     0.1677     0.1024    12.4190    14.4841   -13.3735
   87.5000    71.8060     7.0959     2.4207     0.1736     0.0646    12.3540    14.5465   -13.5224
   88.0000    70.8690     7.0666     2.4025     0.1795     0.0446    12.3049    14.6091   -13.6717
   88.5000    70.5529     7.0832     2.3907     0.1853     0.0265    12.2469    14.6720   -13.8205
   89.0000    71.4092     7.0992     2.3788     0.1854     0.0279    12.1892    14.7351   -13.9692
   89.5000    74.6227     7.1153     2.3705     0.1837     0.0299    12.1317    14.7985   -14.1179
   90.0000    78.4566     7.1495     2.3715     0.1756     0.0319    12.0745    14.8622   -14.2662
   90.5000    82.2672     7.2226     2.3748     0.1637     0.0338    12.0194    14.9262   -14.4149
   91.0000    81.6833     7.2950     2.3794     0.1544     0.0335    11.8914    14.9634   -14.5688
   91.5000    79.1013     7.3675     2.4042     0.1463     0.0328    11.6507    14.6903   -14.9135
   92.0000    76.9794     7.4396     2.4286     0.1423     0.0321    11.4138    14.4221   -15.4811
   92.5000    75.6961     7.4968     2.4421     0.1392     0.0314    11.1817    13.7955   -16.0463
   93.0000    76.6934     7.5264     2.4462     0.1367     0.0307    10.9403    13.1120   -16.6277
   93.5000    78.1560     7.5452     2.4500     0.1375     0.0301    10.3854    12.4081   -17.3787
   94.0000    79.7822     7.5411     2.4538     0.1390     0.0309     9.8245    11.4885   -18.1513
   94.5000    77.8952     7.5195     2.4544     0.1406     0.0319     9.2940    10.6342   -18.9243
   95.0000    74.7344     7.4983     2.4513     0.1421     0.0328     8.7920     9.8444   -19.6976
   95.5000    74.3503     7.4771     2.4481     0.1433     0.0337     8.3172     9.1133   -20.4682
   96.0000    79.7706     7.4602     2.4449     0.1440     0.0346     7.8674     8.4302   -21.2426
   96.5000    89.4069     7.4487     2.4423     0.1446     0.0355     7.4446     7.9919   -21.6856
   97.0000    91.3851     7.4617     2.4420     0.1454     0.0365     7.0951     8.0012   -21.8439
   97.5000    92.6602     7.4865     2.4416     0.1469     0.0374     7.0762     7.9518   -21.9950
   98.0000    94.5065     7.5116     2.4403     0.1483     0.0383     7.0551     7.8894   -22.1459
   98.5000    96.3301     7.5250     2.4369     0.1476     0.0393     7.0340     7.8509   -22.2965
   99.0000    98.1500     7.5248     2.4357     0.1444     0.0410     7.0129     7.8461   -22.4009
   99.5000    99.7651     7.5240     2.4383     0.1412     0.0452     6.9920     7.8413   -22.3398
  100.0000    98.3738     7.5581     2.4425     0.1380     0.0493     6.9711     7.8365   -22.2827
  100.5000    91.7477     7.5956     2.4467     0.1373     0.0533     6.9502     7.8316   -22.2257
  101.0000    87.7881     7.6330     2.4508     0.1380     0.0562     6.9294     7.8268   -22.1687
  101.5000    86.5508     7.6630     2.4529     0.1387     0.0561     6.9087     7.8220   -22.1113
  102.0000    88.0778     7.6437     2.4535     0.1394     0.0561     6.8881     7.8172   -22.0549
  102.5000    90.0386     7.6251     2.4507     0.1404     0.0561     6.8675     7.8124   -22.0456
  103.0000    91.9503     7.6067     2.4481     0.1384     0.0561     6.8470     7.8076   -22.2156
  103.5000    92.3692     7.5882     2.4473     0.1351     0.0591     6.8264     7.8028   -22.3802
  104.0000    91.5689     7.5698     2.4523     0.1318     0.0642     6.8059     7.7980   -22.5445
  104.5000    90.7346     7.5512     2.4571     0.1287     0.0683     6.7770     7.7932   -22.7072
  105.0000    90.8278     7.5449     2.4618     0.1323     0.0694     6.8033     7.7884   -22.8018
  105.5000    92.3375     7.5445     2.4654     0.1325     0.0707     6.8503     7.7832   -22.7789
  106.0000    95.1262     7.5473     2.4648     0.1286     0.0717     6.8976     7.7811   -22.7579
  106.5000    95.5542     7.5952     2.4643     0.1250     0.0810     6.9453     7.8654   -22.7363
  107.0000    96.3773     7.6421     2.4694     0.1252     0.0911     6.9933     7.9255   -22.7150
  107.5000    97.8960     7.6886     2.4747     0.1255     0.1013     7.0416     7.9860   -22.6936
  108.0000    99.5772     7.7346     2.4757     0.1235     0.1115     7.0902     8.0469   -22.6722
  108.5000   100.7661     7.7589     2.4767     0.1198     0.1220     7.1392     8.1083   -22.6509
  109.0000   100.6696     7.7413     2.4785     0.1161     0.1373     7.1886     8.1701   -22.6295
  109.5000   100.5844     7.7245     2.4843     0.1124     0.1535     7.2382     8.2324   -22.6081
  110.0000    99.9289     7.7076     2.4949     0.1086     0.1602     7.2882     8.2952   -22.5867
  110.5000    96.4665     7.6907     2.5014     0.1091     0.1598     7.3725     8.3585   -22.5654
