~VERSION INFORMATION
 VERS.                2.0:   CWLS LOG ASCII STANDARD - VERSION 2.0
 WRAP.                 NO:   ONE LINE PER DEPTH STEP
~WELL INFORMATION
#MNEM.UNIT      DATA TYPE    INFORMATION
#----------   ------------   ------------------------------
 STRT.F          376.0000:   START DEPTH
 STOP.F         2400.0000:   STOP DEPTH
 STEP.F            0.5000:   STEP LENGTH
 NULL.          -999.2500:   NO VALUE
 COMP. LAWRENCE/ALLISON INC:   COMPANY
 WELL.        55 X #15-15:   WELL
 FLD .            WILDCAT:   FIELD
 LOC .      S15 T38N R78W:   LOCATION
 CNTY.            NATRONA:   COUNTY
 STAT.            WYOMING:   STATE
 CTRY. UNITED STATES OF AMERICA:   COUNTRY
 SRVC.            Unknown:   SERVICE COMPANY
 DATE.        12-APR-1988:   LOGDATE
 API .       490251119800:   API NUMBER
~CURVE INFORMATION
#MNEM.UNIT       API CODE    CURVE DESCRIPTION
#----------   ------------   ------------------------------
 DEPT.F                  :   
 GR  .GAPI   30 310 01 00:   GAMMA RAY
 TGAS.UNITS  91 830 01 00:   TOTAL GAS UNIT
 ROP .FT/HR  91 810 01 00:   RATE OF DRILLING PENETRATION
~PARAMETER INFORMATION
#MNEM.UNIT          VALUE    DESCRIPTION
#----------   ------------   ------------------------------
 PD  .                 GL:   PERMANENT DATUM
 EPD .F              5293:   ELEVATION PERMANENT DATUM
 LMF .                 GL:   LOG MEASURED FROM
 DMF .                 KB:   DRILLING MEASURED FROM
 EKB .F              5304:   KELLING BUSHING
 EGL .F              5293:   GROUND LEVEL
 DATE.        12-APR-1988:   RUN DATE
 RUN .                  1:   RUN NUMBER
 DD  .F              2400:   DEPTH DRILLER
 DL  .F               851:   DEPTH LOGGER
 BLI .F               846:   BOTTOM LOG INTERVAL
 TLI .F               372:   TOP LOG INTERVAL
 CS  .IN                7:   CASING SIZE
 CBL .F               890:   CASING BOTTOM LOGGER
 BSD .F              2400:   BIT SIZE AT DEPTH
 DFT .              WATER:   DRILLING FLUID TYPE
 TCS .HRS               1:   TIME CURCULATED STOPPED
 ENGI.          BANGERTER:   RECORDING ENGINEER
 WITN.             NORHAN:   WITNESSED BY
 CLNT.            A2DTECH:   CLIENT CODE
 ORIG.           5" PRINT:   ORIGIN OF DATA
 UWI .       490251119800:   UNIQUE WELL ID
 DICO. A2D Technologies, Inc.:   DIGITIZING COMPANY
~OTHER INFORMATION
~A   DEPT        GR      TGAS        ROP   
# ...
 1195.0000  -999.2500     4.5284     0.3362
 1195.5000  -999.2500     4.5303     0.3365
 1196.0000  -999.2500     4.5323     0.3368
 1196.5000  -999.2500     4.5342     0.3370
 1197.0000  -999.2500     4.5361     0.3373
 1197.5000  -999.2500     4.5380     0.3376
 1198.0000  -999.2500     4.5399     0.3379
 1198.5000  -999.2500     4.5418     0.3381
 1199.0000  -999.2500     4.1643     0.3384
 1199.5000  -999.2500     4.1667     0.3387
 1200.0000  -999.2500     4.1686     0.3390
 1200.5000  -999.2500     4.1705     0.3394
 1201.0000  -999.2500     4.5795     0.3398
 1201.5000  -999.2500     4.5943     0.3401
 1202.0000  -999.2500     4.6091     0.3405
 1202.5000  -999.2500     4.6240     0.3409
 1203.0000  -999.2500     4.6388     0.3412
 1203.5000  -999.2500     4.2747     0.3416
 1204.0000  -999.2500     4.2897     0.3458
 1204.5000  -999.2500     4.3048     0.3518
 1205.0000  -999.2500     4.3228     0.3522
 1205.5000  -999.2500     4.3377     0.3526
 1206.0000  -999.2500     4.3525     0.3530
 1206.5000  -999.2500     4.3673     0.3533
 1207.0000  -999.2500     4.3821     0.3537
 1207.5000  -999.2500     4.3970     0.3541
 1208.0000  -999.2500     4.4118     0.3545
 1208.5000  -999.2500     4.4266     0.3642
 1209.0000  -999.2500     4.4414     0.3552
 1209.5000  -999.2500     4.8354     0.3650
 1210.0000  -999.2500     4.8505     0.3559
 1210.5000  -999.2500     4.8686     0.3563
 1211.0000  -999.2500     4.8834     0.3567
 1211.5000  -999.2500     4.8982     0.3571
 1212.0000  -999.2500     4.9130     0.3575
 1212.5000  -999.2500     4.9279     0.3579
 1213.0000  -999.2500     4.5600     0.3582
 1213.5000  -999.2500     4.5786     0.3586
 1214.0000  -999.2500     4.5934     0.3590
 1214.5000  -999.2500     4.6082     0.3688
 1215.0000  -999.2500     4.6232     0.3786
 1215.5000  -999.2500     4.6383     0.3883
 1216.0000  -999.2500     4.6564     0.3887
 1216.5000  -999.2500     4.6712     0.3891
 1217.0000  -999.2500     4.6860     0.3895
 1217.5000  -999.2500     4.7009     0.3898
 1218.0000  -999.2500     4.7157     0.3902
 1218.5000  -999.2500     4.7305     0.3906
 1219.0000  -999.2500     4.3627     0.3910
 1219.5000  -999.2500     4.0023     0.3914
 1220.0000  -999.2500     3.6379     0.3918
 1220.5000  -999.2500     3.6531     0.3826
 1221.0000  -999.2500     3.6682     0.3925
 1221.5000  -999.2500     3.6863     0.3929
 1222.0000  -999.2500     4.0801     0.3837
 1222.5000  -999.2500     4.0949     0.3842
 1223.0000  -999.2500     4.1097     0.3940
 1223.5000  -999.2500     4.5035     0.3944
 1224.0000  -999.2500     4.5183     0.3947
 1224.5000  -999.2500     4.9112     0.3951
 1225.0000  -999.2500     4.9263     0.3955
 1225.5000  -999.2500     4.9418     0.4053
 1226.0000  -999.2500     4.9566     0.4056
 1226.5000  -999.2500     4.9718     0.4060
 1227.0000  -999.2500     4.9899     0.4064
 1227.5000  -999.2500     5.0048     0.4068
 1228.0000  -999.2500     5.0196     0.4166
 1228.5000  -999.2500     5.0344     0.4170
 1229.0000  -999.2500     5.0492     0.4173
 1229.5000  -999.2500     5.0641     0.4177
 1230.0000  -999.2500     5.0789     0.4086
 1230.5000  -999.2500     5.0937     0.4091
 1231.0000  -999.2500     5.1085     0.3999
 1231.5000  -999.2500     5.1234     0.4004
 1232.0000  -999.2500     5.1385     0.4008
 1232.5000  -999.2500     5.1567     0.4011
 1233.0000  -999.2500     4.7889     0.3921
 1233.5000  -999.2500     4.8074     0.3912
 1234.0000  -999.2500     4.8222     0.3834
 1234.5000  -999.2500     4.8371     0.3839
 1235.0000  -999.2500     4.8519     0.3842
 1235.5000  -999.2500     4.8667     0.3846
 1236.0000  -999.2500     4.4989     0.3850
 1236.5000  -999.2500     4.1381     0.3948
 1237.0000  -999.2500     4.1533     0.3951
 1237.5000  -999.2500     4.1684     0.3955
 1238.0000  -999.2500     4.1836     0.3959
 1238.5000  -999.2500     4.2015     0.3868
 1239.0000  -999.2500     3.8336     0.3872
 1239.5000  -999.2500     3.8522     0.3876
 1240.0000  -999.2500     3.8670     0.3879
 1240.5000  -999.2500     3.8818     0.3883
 1241.0000  -999.2500     3.8966     0.3887
 1241.5000  -999.2500     3.9115     0.3892
 1242.0000  -999.2500     3.9263     0.3895
 1242.5000  -999.2500     4.3201     0.3899
 1243.0000  -999.2500     4.3352     0.3903
 1243.5000  -999.2500     4.3503     0.4000
 1244.0000  -999.2500     4.3682     0.4004
 1244.5000  -999.2500     4.3831     0.4008
 1245.0000  -999.2500     4.3979     0.4012
 1245.5000  -999.2500     4.4127     0.4015
 1246.0000  -999.2500     4.4275     0.4019
 1246.5000  -999.2500     4.0597     0.4023
 1247.0000  -999.2500     2.9414     0.3932
 1247.5000  -999.2500     2.5768     0.3936
 1248.0000  -999.2500     2.5921     0.3839
 1248.5000  -999.2500     2.6072     0.3648
 1249.0000  -999.2500     2.6223     0.3477
 1249.5000  -999.2500     2.6403     0.3481
 1250.0000  -999.2500     2.6526     0.3484
 1250.5000  -999.2500     2.6699     0.3488
 1251.0000  -999.2500     2.6848     0.3492
 1251.5000  -999.2500     2.6996     0.3495
 1252.0000  -999.2500     2.7144     0.3499
 1252.5000  -999.2500     2.7292     0.3503
 1253.0000  -999.2500     2.7440     0.3507
 1253.5000  -999.2500     2.7589     0.3511
 1254.0000  -999.2500     2.7739     0.3514
 1254.5000  -999.2500     2.7891     0.3612
 1255.0000  -999.2500     2.8071     0.3616
 1255.5000  -999.2500     2.8219     0.3620
 1256.0000  -999.2500     2.8367     0.3623
 1256.5000  -999.2500     2.8515     0.3628
 1257.0000  -999.2500     2.8664     0.3632
 1257.5000  -999.2500     2.8812     0.3635
 1258.0000  -999.2500     3.2749     0.3639
 1258.5000  -999.2500     3.2898     0.3643
 1259.0000  -999.2500     3.3046     0.3646
 1259.5000  -999.2500     3.3196     0.3650
 1260.0000  -999.2500     3.7137     0.3654
 1260.5000  -999.2500     3.7317     0.3657
 1261.0000  -999.2500     3.7465     0.3661
 1261.5000  -999.2500     3.7614     0.3665
 1262.0000  -999.2500     3.7762     0.3669
 1262.5000  -999.2500     3.7910     0.3672
 1263.0000  -999.2500     3.8058     0.3676
 1263.5000  -999.2500     3.8207     0.3680
 1264.0000  -999.2500     3.8355     0.3684
 1264.5000  -999.2500     3.8503     0.3688
 1265.0000  -999.2500     3.8653     0.3786
 1265.5000  -999.2500     3.8804     0.3789
 1266.0000  -999.2500     3.8985     0.3887
 1266.5000  -999.2500     3.9133     0.3891
 1267.0000  -999.2500     3.9281     0.3895
 1267.5000  -999.2500     3.9430     0.3804
 1268.0000  -999.2500     3.9578     0.3714
 1268.5000  -999.2500     3.9726     0.3718
 1269.0000  -999.2500     3.9874     0.3627
 1269.5000  -999.2500     4.0023     0.3631
 1270.0000  -999.2500     4.0171     0.3635
 1270.5000  -999.2500     4.0320     0.3638
 1271.0000  -999.2500     4.0472     0.3642
 1271.5000  -999.2500     3.6826     0.3646
 1272.0000  -999.2500     3.7011     0.3555
 1272.5000  -999.2500     3.7160     0.3560
 1273.0000  -999.2500     3.7308     0.3563
 1273.5000  -999.2500     3.3630     0.3567
 1274.0000  -999.2500     3.0025     0.3571
 1274.5000  -999.2500     3.0174     0.3575
 1275.0000  -999.2500     3.0322     0.3578
 1275.5000  -999.2500     3.0470     0.3582
 1276.0000  -999.2500     3.4408     0.3586
 1276.5000  -999.2500     3.4560     0.3590
 1277.0000  -999.2500     3.4741     0.3593
 1277.5000  -999.2500     3.4890     0.3597
 1278.0000  -999.2500     3.5038     0.3507
 1278.5000  -999.2500     3.1397     0.3510
 1279.0000  -999.2500     3.1545     0.3515
 1279.5000  -999.2500     3.1693     0.3519
 1280.0000  -999.2500     3.1841     0.3506
 1280.5000  -999.2500     3.1990     0.3431
 1281.0000  -999.2500     3.2138     0.3436
 1281.5000  -999.2500     3.2286     0.3439
 1282.0000  -999.2500     3.2438     0.3443
 1282.5000  -999.2500     3.2620     0.3447
 1283.0000  -999.2500     3.2768     0.3450
 1283.5000  -999.2500     2.9090     0.3454
 1284.0000  -999.2500     2.5448     0.3458
 1284.5000  -999.2500     2.5634     0.3461
 1285.0000  -999.2500     2.5782     0.3465
 1285.5000  -999.2500     2.5930     0.3375
