~VERSION INFORMATION
 VERS.                2.0:   CWLS LOG ASCII STANDARD - VERSION 2.0
 WRAP.                 NO:   ONE LINE PER DEPTH STEP
~WELL INFORMATION
#MNEM.UNIT      DATA TYPE    INFORMATION
#----------   ------------   ------------------------------
 STRT.F           15.0000:   START DEPTH
 STOP.F          550.0000:   STOP DEPTH
 STEP.F            0.5000:   STEP LENGTH
 NULL.          -999.2500:   NO VALUE
 COMP. LAWRENCE/ALLISON INC:   COMPANY
 WELL. NPR 3 #43-21 SX 10:   WELL
 FLD .             TEAPOT:   FIELD
 LOC .      S10 T38N R78W:   LOCATION
 CNTY.            NATRONA:   COUNTY
 STAT.            WYOMING:   STATE
 CTRY. UNITED STATES OF AMERICA:   COUNTRY
 SRVC.           Gearhart:   SERVICE COMPANY
 DATE.        05-JUL-1986:   LOGDATE
 API .       490251110100:   API NUMBER
~CURVE INFORMATION
#MNEM.UNIT       API CODE    CURVE DESCRIPTION
#----------   ------------   ------------------------------
 DEPT.F                  :   
 GRR .GAPI   07 310 01 00:   GAMMA RAY
 RILD.OHMM   07 120 46 00:   INDUCTION LOG DEEP
 RILM.OHMM   07 120 44 00:   INDUCTION LOG MEDIUM
~PARAMETER INFORMATION
#MNEM.UNIT          VALUE    DESCRIPTION
#----------   ------------   ------------------------------
 PD  .                 GL:   PERMANENT DATUM
 EPD .F              5205:   ELEVATION PERMANENT DATUM
 LMF .                 KB:   LOG MEASURED FROM
 DAPD.F                 5:   FEET ABOVE PERMANENT DATUM
 DMF .                 KB:   DRILLING MEASURED FROM
 EKB .F              5210:   KELLING BUSHING
 EGL .F              5205:   GROUND LEVEL
 DATE.        05-JUL-1986:   RUN DATE
 RUN .                  1:   RUN NUMBER
 DD  .F               560:   DEPTH DRILLER
 DL  .F               560:   DEPTH LOGGER
 BLI .F               550:   BOTTOM LOG INTERVAL
 TLI .F                15:   TOP LOG INTERVAL
 CS  .IN            8.625:   CASING SIZE
 CBD .F                47:   CASING BOTTOM DRILLER
 CBL .F                47:   CASING BOTTOM LOGGER
 BS  .IN            7.875:   BIT SIZE
 BSD .F               560:   BIT SIZE AT DEPTH
 DFT .                AIR:   DRILLING FLUID TYPE
 TCS .HRS            2100:   TIME CURCULATED STOPPED
 TLAB.HRS            2230:   TIME LOGGER AT BOTTOM
 MRT .F                83:   MAXIMUM RECORDED TEMPERATURE
 LUN .               7609:   LOGGING UNIT NUMBER
 LUL .           GILLETTE:   LOGGING UNIT LOCATION
 ENGI.              BAUER:   RECORDING ENGINEER
 WITN.              FIVAS:   WITNESSED BY
 CLNT.            A2DTECH:   CLIENT CODE
 ORIG.           5" PRINT:   ORIGIN OF DATA
 UWI .       490251110100:   UNIQUE WELL ID
 DICO. A2D Technologies, Inc.:   DIGITIZING COMPANY
~OTHER INFORMATION
~A   DEPT      GRR       RILD       RILM   
# ...
  288.0000   113.4733     8.8844     8.9622
  288.5000   111.2542     8.7604     8.8987
  289.0000   108.2841     8.6382     8.7125
  289.5000   106.7854     8.2237     8.3523
  290.0000   107.7017     7.7742     7.9509
  290.5000   110.4445     7.3493     7.4110
  291.0000   114.1005     6.9966     7.1046
  291.5000   120.4963     6.7078     7.0049
  292.0000   126.5876     6.3859     6.8584
  292.5000   123.5466     6.3412     6.9063
  293.0000   117.7658     6.3859     7.0528
  293.5000   112.5938     6.6143     7.3560
  294.0000   107.7262     7.1960     7.9464
  294.5000   106.8153     7.9958     8.5241
  295.0000   107.7324     8.7604     9.1439
  295.5000   109.5619     9.4643     9.6718
  296.0000   112.0003     9.8717    10.0875
  296.5000   113.8299    10.2247    10.3017
  297.0000   111.7020    10.6649    10.4601
  297.5000   108.0521    11.2025    10.5198
  298.0000   106.8375    11.8501    10.6112
  298.5000   106.5354    12.4474    11.1405
  299.0000   105.3216    13.5423    11.8619
  299.5000   100.7585    15.1534    12.6271
  300.0000    94.6135    16.2658    13.6378
  300.5000    74.2671    16.8348    15.4766
  301.0000    62.9947    18.7030    16.3749
  301.5000    60.2459    21.3709    18.1995
  302.0000    58.7147    23.7426    20.9485
  302.5000    58.0967    25.2887    24.2654
  303.0000    59.0009    26.7470    25.6689
  303.5000    64.7756    27.5054    26.7658
  304.0000    72.3768    27.8917    27.1337
  304.5000    75.4141    26.9242    26.7420
  305.0000    72.9674    26.5448    26.1812
  305.5000    73.2627    25.9876    25.6454
  306.0000    73.8624    25.9839    25.4640
  306.5000    72.9401    25.9803    25.4622
  307.0000    66.8427    26.1607    25.6400
  307.5000    61.3541    26.7132    25.8189
  308.0000    59.2164    27.0874    26.2021
  308.5000    63.7712    27.6605    26.7383
  309.0000    66.8062    28.2457    27.1376
  309.5000    68.0170    28.4418    27.8855
  310.0000    65.2659    29.0436    28.4775
  310.5000    64.0391    29.6570    28.9068
  311.0000    64.0300    29.8629    29.4915
  311.5000    64.3253    30.4937    29.6973
  312.0000    65.2298    30.7054    29.9382
  312.5000    65.2203    31.1355    30.3256
  313.0000    64.9068    30.6957    30.0745
  313.5000    66.1153    29.8409    29.2377
  314.0000    69.1504    29.0099    28.6246
  314.5000    71.2721    27.8086    27.8659
  315.0000    71.5674    27.0342    27.2824
  315.5000    72.1671    26.6533    26.8999
  316.0000    72.4627    26.2777    26.3370
  316.5000    73.3668    25.9074    26.1508
  317.0000    73.0530    25.9038    25.7841
  317.5000    72.7395    25.9002    25.7823
  318.0000    73.9480    25.7161    25.7805
  318.5000    75.7656    25.8938    25.9609
  319.0000    74.8430    25.8892    25.9586
  319.5000    73.0074    25.8856    25.9568
  320.0000    73.6072    25.8820    25.7733
  320.5000    75.7289    26.0617    25.5910
  321.0000    76.9375    26.0571    25.5892
  321.5000    78.4504    25.8711    25.4083
  322.0000    80.5722    25.6864    25.4065
  322.5000    82.0852    24.9711    25.0503
  323.0000    80.8584    24.4468    24.6990
  323.5000    78.4140    24.1024    24.1822
  324.0000    75.6651    23.7627    23.8431
  324.5000    74.1339    23.1010    23.1808
  325.0000    77.1690    22.6160    22.5369
  325.5000    79.2927    21.9863    22.0653
  326.0000    79.5860    21.2244    21.4524
  326.5000    79.5769    20.6333    21.0035
  327.0000    79.5677    20.2002    20.5640
  327.5000    80.7864    20.0559    20.2757
  328.0000    82.9102    20.0531    19.9914
  328.5000    84.4252    20.3340    19.8500
  329.0000    85.3152    20.6196    19.8486
  329.5000    84.3562    21.0551    19.9871
  330.0000    82.2122    21.3500    20.2685
  330.5000    78.8504    21.6491    20.4104
  331.0000    77.0107    21.9523    20.6974
  331.5000    74.5885    22.5748    21.4358
  332.0000    73.0837    23.2149    22.0452
  332.5000    74.0487    23.7061    22.6719
  333.0000    75.8376    23.7028    23.3164
  333.5000    77.0482    23.6994    23.6447
  334.0000    78.2225    23.5302    23.4775
  334.5000    78.5178    23.0362    23.1483
  335.0000    78.5084    22.7116    22.8237
  335.5000    78.4992    22.0792    22.3462
  336.0000    78.1857    21.6157    21.8786
  336.5000    77.8725    21.1619    21.4208
  337.0000    80.3471    20.5726    20.9726
  337.5000    81.8116    20.1407    20.6785
  338.0000    82.4114    19.9969    20.2458
  338.5000    80.5753    19.7151    19.8222
  339.0000    81.8407    19.4373    19.4074
  339.5000    83.0513    19.1634    19.1353
  340.0000    82.9814    18.8934    19.0000
  340.5000    81.4502    18.8907    18.8657
  341.0000    82.0500    18.7559    18.8643
  341.5000    82.3475    18.7532    18.8630
  342.0000    81.7273    18.8828    18.8617
  342.5000    80.5005    18.8801    18.9937
  343.0000    79.5782    19.0106    19.1259
  343.5000    79.2646    19.1419    19.1246
  344.0000    79.5599    19.1392    19.2584
  344.5000    81.3773    19.1365    19.1219
  345.0000    83.1947    19.1339    18.9867
  345.5000    84.4032    18.9972    18.8524
  346.0000    84.6985    18.5984    18.7191
  346.5000    84.3850    18.2080    18.7178
  347.0000    83.1582    17.9514    18.4554
  347.5000    81.9314    17.8232    18.1966
  348.0000    82.8378    17.6960    17.9414
  348.5000    85.2617    17.4466    17.6899
  349.0000    86.7747    17.3220    17.5648
  349.5000    86.1568    17.1984    17.3185
  350.0000    85.2367    17.0762    17.2995
  350.5000    85.5403    17.3137    17.1913
  351.0000    85.8447    16.7080    17.0662
  351.5000    86.1492    16.3571    16.7009
  352.0000    82.8006    16.2426    16.3464
  352.5000    80.6697    16.0070    16.0070
  353.0000    80.9741    15.8972    15.8905
  353.5000    80.9741    15.8938    15.8860
  354.0000    80.6697    15.8905    15.8935
  354.5000    80.3653    15.8871    15.9892
  355.0000    80.3653    15.8838    15.9845
  355.5000    80.3653    15.8804    15.9800
  356.0000    81.5830    15.8637    15.9755
  356.5000    82.8006    15.7483    16.0838
  357.0000    82.8006    15.6490    15.9666
  357.5000    83.4094    15.5361    15.7385
  358.0000    84.0183    15.4068    15.5145
  358.5000    84.0183    15.1876    15.2938
  359.0000    83.4094    15.0770    15.1825
  359.5000    82.4962    14.9673    14.8617
  360.0000    82.8006    14.6709    14.7535
  360.5000    84.0183    14.5652    14.5436
  361.0000    85.2359    14.4602    14.4377
  361.5000    84.3227    14.1556    14.3326
  362.0000    82.4962    14.1526    14.1287
  362.5000    82.1918    14.1497    14.0258
  363.0000    83.1050    14.0476    14.0219
  363.5000    84.3227    13.9464    14.0180
  364.0000    85.8447    13.7489    14.0141
  364.5000    87.6712    13.7460    13.9121
  365.0000    87.0624    13.7431    13.9082
  365.5000    85.5403    13.7402    14.0033
  366.0000    84.0183    13.8349    14.0980
  366.5000    82.8006    14.0270    14.1925
  367.0000    84.6271    14.1237    14.3893
  367.5000    85.8447    14.3197    14.4867
  368.0000    84.6271    14.4184    14.5857
  368.5000    82.4962    14.5170    14.4796
  369.0000    80.6697    14.6163    14.5776
  369.5000    79.7565    14.5102    14.5724
  370.0000    80.3653    14.5071    14.3651
  370.5000    82.1918    14.4025    14.1607
  371.0000    84.0183    14.1986    13.9592
  371.5000    84.9315    13.8022    13.7606
  372.0000    86.1492    13.5115    13.5648
  372.5000    87.3668    13.4141    13.4661
  373.0000    87.9756    13.3174    13.2745
  373.5000    88.8889    13.3146    13.0856
  374.0000    88.2801    13.3118    12.8994
  374.5000    87.0624    13.3090    12.8055
  375.0000    88.8889    13.4007    12.8931
  375.5000    91.5313    13.6833    12.7983
  376.0000    92.5419    14.3692    13.0673
  376.5000    89.9452    15.3039    13.6260
  377.0000    85.5162    16.1853    14.8204
  377.5000    77.4024    17.6052    16.6958
  378.0000    67.3160    19.8344    18.4163
  378.5000    60.8828    21.7266    20.6015
