~VERSION INFORMATION
 VERS.                2.0:   CWLS LOG ASCII STANDARD - VERSION 2.0
 WRAP.                 NO:   ONE LINE PER DEPTH STEP
~WELL INFORMATION
#MNEM.UNIT      DATA TYPE    INFORMATION
#----------   ------------   ------------------------------
 STRT.F          660.0000:   START DEPTH
 STOP.F         2899.5000:   STOP DEPTH
 STEP.F            0.5000:   STEP LENGTH
 NULL.          -999.2500:   NO VALUE
 COMP. LAWRENCE/ALLISON INC:   COMPANY
 WELL. NPR #3 22 X 10 #22-10:   WELL
 FLD .             TEAPOT:   FIELD
 LOC .      S10 T38N R78W:   LOCATION
 CNTY.            NATRONA:   COUNTY
 STAT.            WYOMING:   STATE
 CTRY. UNITED STATES OF AMERICA:   COUNTRY
 SRVC.            Unknown:   SERVICE COMPANY
 DATE.        11-SEP-1986:   LOGDATE
 API .       490251106200:   API NUMBER
~CURVE INFORMATION
#MNEM.UNIT       API CODE    CURVE DESCRIPTION
#----------   ------------   ------------------------------
 DEPT.F                  :   
 ROP .MIN/FT 91 810 01 00:   RATE OF DRILLING PENETRATION
 TGAS.UNITS  91 830 01 00:   TOTAL GAS FROM HOTWIRE
~PARAMETER INFORMATION
#MNEM.UNIT          VALUE    DESCRIPTION
#----------   ------------   ------------------------------
 DATE.          9-11-1986:   RUN DATE
 DD  .F              2900:   DEPTH DRILLER
 TLI .F              1380:   TOP LOG INTERVAL
 WITN. R. HUSK/K. FREDERICK:   WITNESSED BY
 CLNT.            A2DTECH:   CLIENT CODE
 ORIG.           5" PRINT:   ORIGIN OF DATA
 UWI .       490251106200:   UNIQUE WELL ID
 DICO. A2D Technologies, Inc.:   DIGITIZING COMPANY
~OTHER INFORMATION
~A   DEPT      ROP         TGAS 
# ...
 1632.0000     0.4990   120.9583
 1632.5000     0.4990   120.9582
 1633.0000     0.4990   120.9581
 1633.5000     0.4990   120.9580
 1634.0000     0.5190   120.9579
 1634.5000     0.5785   120.9578
 1635.0000     0.6672   120.9577
 1635.5000     0.7777   120.9576
 1636.0000     0.8871   120.9575
 1636.5000     0.9698   120.9574
 1637.0000     0.9065   120.9573
 1637.5000     0.7380   120.9572
 1638.0000     0.5717   120.9571
 1638.5000     0.6029   120.9570
 1639.0000     0.6445   120.9569
 1639.5000     0.7069   120.9568
 1640.0000     0.7588   120.9651
 1640.5000     0.7796   121.0163
 1641.0000     0.7795   121.0674
 1641.5000     0.7795   121.1186
 1642.0000     0.7794   121.1697
 1642.5000     0.7793   121.2209
 1643.0000     0.7792   121.2720
 1643.5000     0.7791   121.3232
 1644.0000     0.7790   121.3743
 1644.5000     0.7789   121.4254
 1645.0000     0.7789   121.4766
 1645.5000     0.7788   121.5277
 1646.0000     0.7787   121.5789
 1646.5000     0.7786   121.6300
 1647.0000     0.7785   121.6812
 1647.5000     0.7784   121.7323
 1648.0000     0.7783   121.7835
 1648.5000     0.7783   121.8346
 1649.0000     0.7782   121.8857
 1649.5000     0.7781   121.9369
 1650.0000     0.7780   121.9880
 1650.5000     0.7779   122.0392
 1651.0000     0.7778   122.0903
 1651.5000     0.7778   122.1415
 1652.0000     0.8070   122.1926
 1652.5000     0.9179   122.2438
 1653.0000     1.0362   122.2949
 1653.5000     1.1546   122.3461
 1654.0000     1.2546   122.3972
 1654.5000     1.2547   122.4483
 1655.0000     1.1839   122.4995
 1655.5000     1.1177   122.5506
 1656.0000     1.0478   122.6018
 1656.5000     1.0091   122.6529
 1657.0000     1.0010   122.7041
 1657.5000     0.9930   122.7552
 1658.0000     1.0133   122.8064
 1658.5000     1.1345   122.8575
 1659.0000     1.2172   122.9086
 1659.5000     1.2790   122.9598
 1660.0000     1.2889   123.0150
 1660.5000     1.2878   110.1594
 1661.0000     1.2837   106.1275
 1661.5000     1.2797   104.2483
 1662.0000     1.2872   103.7698
 1662.5000     1.3301   101.5663
 1663.0000     1.3730    99.8306
 1663.5000     1.4159    99.8469
 1664.0000     1.4633    99.8651
 1664.5000     1.4674    99.8832
 1665.0000     1.4018    99.9014
 1665.5000     1.3371    99.9195
 1666.0000     1.2950    99.9377
 1666.5000     1.2822    99.9558
 1667.0000     1.2813    99.9740
 1667.5000     1.2802    99.9921
 1668.0000     1.2791   100.0103
 1668.5000     1.2780   100.0284
 1669.0000     1.2769   100.0466
 1669.5000     1.2757   100.0647
 1670.0000     1.2746   100.0828
 1670.5000     1.2735   100.1010
 1671.0000     1.2724   100.1191
 1671.5000     1.2713   100.1373
 1672.0000     1.2702   100.1554
 1672.5000     1.2691   100.1736
 1673.0000     1.2679   100.1917
 1673.5000     1.2668   100.2099
 1674.0000     1.2657   100.2280
 1674.5000     1.2646   100.2462
 1675.0000     1.2635   100.2643
 1675.5000     1.2723   100.2825
 1676.0000     1.3285   100.3006
 1676.5000     1.3902   100.3188
 1677.0000     1.4439   100.3369
 1677.5000     1.4901   100.3550
 1678.0000     1.4839   100.3732
 1678.5000     1.4230   100.3913
 1679.0000     1.3682   100.4095
 1679.5000     1.3190   100.4276
 1680.0000     1.2933   100.4473
 1680.5000     1.2885   100.3940
 1681.0000     1.2879   100.3361
 1681.5000     1.2874   100.2782
 1682.0000     1.2874   100.2202
 1682.5000     1.2875   100.1623
 1683.0000     1.2877   100.1044
 1683.5000     1.2878   100.0465
 1684.0000     1.2880    99.9885
 1684.5000     1.2881    99.9306
 1685.0000     1.2883    99.8727
 1685.5000     1.2884    99.8147
 1686.0000     1.2886    99.7568
 1686.5000     1.2887    99.6989
 1687.0000     1.2889    99.6409
 1687.5000     1.2890    99.5830
 1688.0000     1.2892    99.5251
 1688.5000     1.2893    99.4672
 1689.0000     1.2895    99.4092
 1689.5000     1.2896    99.3513
 1690.0000     1.2898    99.2934
 1690.5000     1.2899    99.2354
 1691.0000     1.2901    99.1775
 1691.5000     1.2903    99.1196
 1692.0000     1.2904    99.0616
 1692.5000     1.2906    99.0037
 1693.0000     1.2907    98.9458
 1693.5000     1.2909    98.8879
 1694.0000     1.2910    98.8299
 1694.5000     1.2912    98.7720
 1695.0000     1.2913    98.7141
 1695.5000     1.2915    98.6561
 1696.0000     1.2916    98.5982
 1696.5000     1.2918    98.5403
 1697.0000     1.2919    98.4823
 1697.5000     1.2921    98.4244
 1698.0000     1.2922    98.3665
 1698.5000     1.2924    98.3086
 1699.0000     1.2925    98.2506
 1699.5000     1.2927    98.1927
 1700.0000     1.2928    98.1348
 1700.5000     1.2930    98.0768
 1701.0000     1.2931    98.0189
 1701.5000     1.2933    97.9610
 1702.0000     1.2934    97.9030
 1702.5000     1.2936    97.8451
 1703.0000     1.2937    97.7830
 1703.5000     1.2939    98.4055
 1704.0000     1.2973    98.4055
 1704.5000     1.2242   104.5558
 1705.0000     1.1616   112.7563
 1705.5000     1.0990   123.0068
 1706.0000     1.0572   133.2574
 1706.5000     1.0881   125.0569
 1707.0000     1.1307   114.6350
 1707.5000     1.1942   106.1786
 1708.0000     1.2441    98.4055
 1708.5000     1.2534    98.4055
 1709.0000     1.2531    98.4055
 1709.5000     1.2529    98.4055
 1710.0000     1.2526    98.4055
 1710.5000     1.2523    98.4055
 1711.0000     1.2521    98.4055
 1711.5000     1.2550    98.4055
 1712.0000     1.2620    98.4055
 1712.5000     1.2617    98.4055
 1713.0000     1.2655    98.4055
 1713.5000     1.2716   101.0331
 1714.0000     1.2665   105.4957
 1714.5000     1.2200   106.6059
 1715.0000     1.1448   106.6059
 1715.5000     1.0744   106.6059
 1716.0000     1.0295   107.8018
 1716.5000     1.0269   108.6560
 1717.0000     1.0307   108.6560
 1717.5000     1.0163   108.6560
 1718.0000     1.0094   108.6560
 1718.5000     1.0014   108.6560
 1719.0000     0.9984   108.6560
 1719.5000     0.9877   116.8565
 1720.0000     0.9875   108.6560
 1720.5000     1.0627    98.4055
 1721.0000     1.1372    88.1549
 1721.5000     1.2006    75.8542
 1722.0000     1.2474    67.6538
 1722.5000     1.2006    61.5034
 1723.0000     1.1684    76.0256
 1723.5000     1.1337    84.5889
 1724.0000     1.1074    94.6469
 1724.5000     1.1351    98.4055
 1725.0000     1.1816    98.4055
 1725.5000     1.2315    98.4055
 1726.0000     1.2661    99.6860
 1726.5000     1.2786   106.5192
 1727.0000     1.2834   115.5312
 1727.5000     1.2838   125.4843
 1728.0000     1.2786   133.9408
 1728.5000     1.2786   141.6499
 1729.0000     1.2723   148.8036
 1729.5000     1.2682   157.2601
 1730.0000     1.2682   161.9590
 1730.5000     1.2536   155.9387
 1731.0000     1.1864   144.3214
 1731.5000     1.1005   132.6177
 1732.0000     1.0083   119.9317
 1732.5000     1.0083   108.5069
 1733.0000     1.0083   100.5841
 1733.5000     0.9979    99.7934
 1734.0000     0.9979   100.4556
 1734.5000     0.9356   100.4556
 1735.0000     0.8628    98.8752
 1735.5000     0.7900    98.4055
 1736.0000     0.7949   104.5558
 1736.5000     0.8680   108.6560
 1737.0000     0.9231   116.8565
 1737.5000     0.9823   123.0068
 1738.0000     1.0083   131.2073
 1738.5000     1.0059   129.1572
 1739.0000     0.9979   122.7926
 1739.5000     1.0010   112.3289
 1740.0000     1.0083   104.0433
 1740.5000     1.0296    98.4055
 1741.0000     1.0925    98.4055
 1741.5000     1.2033    98.4055
 1742.0000     1.2753    98.4055
 1742.5000     1.2746    98.4055
 1743.0000     1.2738    98.4055
 1743.5000     1.2731    98.4055
 1744.0000     1.2723    98.4055
 1744.5000     1.2607    98.4055
 1745.0000     1.2500    98.4055
 1745.5000     1.2492    97.5296
 1746.0000     1.2398    96.3554
 1746.5000     1.1805    96.3554
 1747.0000     1.1065    96.3554
 1747.5000     1.0438    96.3554
 1748.0000     0.9993   120.2734
 1748.5000     0.9847   171.3835
 1749.0000     0.9839   227.1456
 1749.5000     0.9831   276.5589
 1750.0000     0.9875   298.3783
 1750.5000     1.0145   301.3667
 1751.0000     1.0570   301.3667
 1751.5000     1.1125   305.4670
 1752.0000     1.1421   313.6674
 1752.5000     1.1448   321.8679
 1753.0000     1.1440   332.1184
