~VERSION INFORMATION
 VERS.                2.0:   CWLS LOG ASCII STANDARD - VERSION 2.0
 WRAP.                 NO:   ONE LINE PER DEPTH STEP
~WELL INFORMATION
#MNEM.UNIT      DATA TYPE    INFORMATION
#----------   ------------   ------------------------------
 STRT.F           80.0000:   START DEPTH
 STOP.F          679.5000:   STOP DEPTH
 STEP.F            0.5000:   STEP LENGTH
 NULL.          -999.2500:   NO VALUE
 COMP. U S NAVY/INTEX OIL CO:   COMPANY
 WELL.      NPR 3 #23-S-2:   WELL
 FLD .        TEAPOT DOME:   FIELD
 LOC .       S2 T38N R78W:   LOCATION
 CNTY.            NATRONA:   COUNTY
 STAT.            WYOMING:   STATE
 CTRY. UNITED STATES OF AMERICA:   COUNTRY
 SRVC.       Schlumberger:   SERVICE COMPANY
 DATE.        16-JUL-1962:   LOGDATE
 API .       490250645000:   API NUMBER
~CURVE INFORMATION
#MNEM.UNIT       API CODE    CURVE DESCRIPTION
#----------   ------------   ------------------------------
 DEPT.F                  :   
 GR  .GAPI   30 310 01 00:   GAMMA RAY
 SPR .MV     05 010 01 00:   SPONTANEOUS POTENTIAL FROM RES.
 ILD .OHMM   05 120 46 00:   INDUCTION LOG DEEP
 CILD.MMHO   05 110 46 00:   CONDUCTIVITY INDUCTION LOG DEEP
 ASN .OHMM   05 041 16 00:   AMPLIFIED SHORT NORMAL 16"
~PARAMETER INFORMATION
#MNEM.UNIT          VALUE    DESCRIPTION
#----------   ------------   ------------------------------
 PD  .                 GL:   PERMANENT DATUM
 EPD .F              5126:   ELEVATION PERMANENT DATUM
 LMF .                 KB:   LOG MEASURED FROM
 DAPD.F                 5:   FEET ABOVE PERMANENT DATUM
 DMF .                 KB:   DRILLING MEASURED FROM
 EKB .F              5131:   KELLING BUSHING
 EGL .F              5126:   GROUND LEVEL
 DATE.            7-17-62:   RUN DATE
 RUN .                  1:   RUN NUMBER
 DD  .F               680:   DEPTH DRILLER
 DL  .F               680:   DEPTH LOGGER
 BLI .F               679:   BOTTOM LOG INTERVAL
 TLI .F                87:   TOP LOG INTERVAL
 BS  .IN             6.75:   BIT SIZE
 BSD .F               680:   BIT SIZE AT DEPTH
 DFT .       OIL EMULSION:   DRILLING FLUID TYPE
 DFD .                 10:   DRILLING FLUID DENSITY
 DFV .                 41:   DRILLING FLUID VISCOSITY
 DFL .                2.9:   DRILLING FLUID LOSS
 RMS .OHMM           5.86:   RESISTIVITY MUD SAMPLE
 MST .F                73:   MUD SAMPLE TEMPERATURE
 RMF .OHMM           4.19:   RESISTIVITY MUD FILTRATE SAMPLE
 MFST.F                73:   MUD FILTRATE SAMPLE TEMPERATURE
 RMC .OHMM           5.66:   RESISTIVITY MUD CAKE
 MCST.F                73:   MUD CAKE SAMPLE TEMPERATURE
 TCS .HRS               1:   TIME CURCULATED STOPPED
 LUN .               2503:   LOGGING UNIT NUMBER
 LUL .               CSPR:   LOGGING UNIT LOCATION
 ENGI.             DANNER:   RECORDING ENGINEER
 WITN.          JORGENSON:   WITNESSED BY
 CLNT.            A2DTECH:   CLIENT CODE
 ORIG.       2", 5" PRINT:   ORIGIN OF DATA
 UWI .       490250645000:   UNIQUE WELL ID
 DICO. A2D Technologies, Inc.:   DIGITIZING COMPANY
~OTHER INFORMATION
~A   DEPT       GR        SPR          ILD      CILD         ASN 
# ...
  507.0000   140.2467   -30.0986     6.4603   152.0546     6.6975
  507.5000   138.4435   -30.2015     6.7423   145.1818     6.8093
  508.0000   132.5287   -30.2402     6.7053   138.5000     6.8615
  508.5000   140.4313   -29.5629     6.6609   142.8911     6.8986
  509.0000   134.3367   -28.8824     6.4476   150.7311     6.9307
  509.5000   131.2901   -29.3089     6.1338   162.0575     6.9261
  510.0000   138.9477   -30.0295     5.8189   175.2875     6.8278
  510.5000   133.6562   -30.4446     5.5026   188.5175     6.5472
  511.0000   128.6272   -30.2206     5.1887   196.0308     6.1505
  511.5000   135.1553   -29.9970     5.1822   197.9692     5.7396
  512.0000   133.0729   -30.1181     5.2297   199.9077     5.6657
  512.5000   156.8774   -30.6342     5.2778   199.6250     5.6121
  513.0000   149.5897   -30.3128     5.3273   198.0371     5.5147
  513.5000   147.3895   -30.0805     5.3517   193.7171     5.6582
  514.0000   138.4661   -30.2045     5.5908   183.0880     6.2344
  514.5000   123.7524   -30.3201     6.0476   164.8600     6.8216
  515.0000   135.6332   -30.4360     6.5059   146.4000     7.2660
  515.5000   133.6100   -30.5549     6.9611   132.6675     7.5279
  516.0000   136.6191   -30.6336     7.3806   126.9975     7.6789
  516.5000   134.2448   -30.1498     7.4730   124.0488     7.8373
  517.0000   135.4911   -29.6785     7.5782   123.2424     7.9964
  517.5000   136.9664   -29.3380     7.6845   122.4360     8.1579
  518.0000   131.0066   -29.9428     7.7538   121.6296     8.2081
  518.5000   127.8507   -30.5615     7.7607   120.8232     8.2395
  519.0000   107.9962   -31.0863     7.7685   119.9967     8.2705
  519.5000   126.5555   -31.5372     7.7763   118.9382     8.3166
  520.0000   116.5023   -31.7679     7.7840   117.5546     8.3632
  520.5000    98.3849   -31.9370     7.7917   116.5997     8.4098
  521.0000    89.5601   -32.0755     7.7995   117.1075     8.4564
  521.5000    95.1264   -32.1657     7.8073   117.9588     8.5035
  522.0000   107.3817   -32.1525     7.8150   119.8475     8.4810
  522.5000   123.3701   -31.5727     7.8227   120.5000     8.4364
  523.0000   127.3956   -31.5981     7.8303   120.5000     8.3491
  523.5000   129.8091   -32.4100     7.8386   119.9982     8.2544
  524.0000   135.8671   -32.2052     7.8472   118.1655     8.1603
  524.5000   131.1227   -30.8172     7.9663   116.3327     8.1645
  525.0000   126.3043   -30.7800     8.1989   114.5000     8.2464
  525.5000   130.5818   -31.9237     8.4319   112.5000     8.4607
  526.0000   117.5433   -32.1081     8.2449   114.5150     8.6693
  526.5000   120.2947   -32.2004     7.6596   123.3350     8.8290
  527.0000   115.7928   -32.1078     7.0742   137.6080     8.7747
  527.5000   104.8932   -32.0148     6.4832   156.7600     8.6072
  528.0000   128.2173   -31.9148     5.8839   171.7629     7.7989
  528.5000   119.8370   -31.6651     5.6416   181.1100     6.8613
  529.0000   116.6800   -30.8566     5.6474   178.5900     6.3057
  529.5000   124.3448   -30.2142     5.6492   176.0700     6.4748
  530.0000   128.8635   -30.1375     5.6490   175.9333     6.5901
  530.5000   129.1148   -30.2981     5.6568   176.5000     6.3648
  531.0000   110.5445   -31.3207     5.7021   169.8250     7.1325
  531.5000    93.9621   -32.2550     6.4927   148.9941     8.9048
  532.0000    94.1448   -32.7780     7.4658   124.8333     9.3906
  532.5000    92.0019   -32.6593     8.4719   109.9641     9.5822
  533.0000    98.7385   -32.1452     9.4394   100.9437     9.9283
  533.5000    95.3450   -31.6678     9.7439    91.9454    10.2397
  534.0000    92.7229   -31.8436     9.6088    90.4945    10.3294
  534.5000   108.0665   -32.6338     9.4655    94.3307    10.4296
  535.0000    92.7738   -33.2448     9.3263    97.9918    10.5268
  535.5000    87.3454   -33.2315     9.2658    98.5000    10.6243
  536.0000    98.1636   -33.2387     9.3245    98.5000    10.7218
  536.5000   108.4862   -33.4255     9.7226    93.5000    10.8133
  537.0000   112.7086   -34.0914    10.2640    88.0400    11.2229
  537.5000    95.2284   -34.7370    10.7855    82.5000    11.7640
  538.0000    93.5127   -35.1332    11.9080    75.0926    12.5493
  538.5000    70.4171   -35.6460    12.9790    66.8695    13.8911
  539.0000    66.0729   -36.3863    14.0411    58.6463    15.3253
  539.5000    56.4058   -37.0880    15.1051    51.1229    15.8475
  540.0000    46.7825   -37.3723    16.1724    48.2429    16.6472
  540.5000    40.6906   -37.2499    17.3929    45.3629    18.0674
  541.0000    38.7193   -38.8511    18.7217    43.0550    19.4890
  541.5000    41.8820   -40.5219    19.9616    41.7950    20.9121
  542.0000    31.0014   -41.3674    20.3674    40.5350    22.3346
  542.5000    42.4769   -39.1914    20.8808    39.2750    22.7952
  543.0000    31.6112   -39.9931    21.4438    38.0150    22.9678
  543.5000    42.4005   -40.9912    22.0021    36.7550    23.1689
  544.0000    42.2051   -42.3303    22.4236    35.5000    24.7920
  544.5000    34.9031   -42.4846    22.4852    35.6687    26.4454
  545.0000    38.1848   -42.9837    22.3380    35.8367    27.4993
  545.5000    35.5257   -44.3228    22.1194    36.0047    28.4572
  546.0000    39.6016   -43.2834    22.0264    36.1727    27.7834
  546.5000    27.6381   -42.1976    21.9482    36.3407    26.9778
  547.0000    33.4208   -41.5485    21.9206    36.4986    26.6531
  547.5000    38.4774   -41.6619    21.8764    36.4944    26.6157
  548.0000    32.3868   -42.1710    22.0339    36.4921    26.8760
  548.5000    53.6681   -43.0001    22.4300    35.0152    27.8030
  549.0000    51.2517   -43.8196    22.8237    33.6356    29.4600
  549.5000    51.1870   -44.4883    23.6414    32.2502    31.9800
  550.0000    53.8341   -43.3459    24.6403    30.8647    33.4101
  550.5000    42.9756   -43.0276    25.5493    29.4793    33.7329
  551.0000    34.7542   -44.0424    26.6224    27.8836    34.0569
  551.5000    25.3363   -44.6702    27.8184    25.7446    34.3490
  552.0000    34.0630   -44.9374    29.0064    25.1324    35.4159
  552.5000    31.7591   -45.2040    29.1259    24.7168    36.6265
  553.0000    33.9460   -45.7431    29.0620    24.5000    37.8315
  553.5000    36.4527   -46.5905    29.3683    24.5000    38.9510
  554.0000    33.1904   -48.3832    29.8302    24.5000    39.3519
  554.5000    23.2083   -49.2940    30.2943    24.5000    39.0515
  555.0000    23.4750   -48.9874    30.6022    24.5000    39.3484
  555.5000    26.3341   -48.3137    30.5210    24.8891    37.8838
  556.0000    24.3256   -48.7497    30.0285    25.3418    36.3731
  556.5000    45.3306   -49.7757    29.7918    25.2508    36.8846
  557.0000    40.5975   -49.8689    29.8784    24.8677    37.4414
  557.5000    40.9926   -49.7201    29.9242    24.5000    36.6189
  558.0000    34.1790   -49.4454    29.2260    25.6511    35.6191
  558.5000    34.4424   -49.1477    27.8871    27.1162    35.0368
  559.0000    37.7461   -48.6510    26.2187    29.7619    33.3308
  559.5000    46.4019   -48.1252    24.5543    32.4075    30.9181
  560.0000    54.7196   -47.5986    22.9891    35.0531    28.5053
  560.5000    48.0121   -46.5043    21.9662    37.6987    26.0955
  561.0000    55.5257   -44.1752    20.9167    40.3444    25.2440
  561.5000    60.4913   -41.5597    19.8998    42.9900    24.3963
  562.0000    56.0610   -40.1944    18.8786    44.1700    23.0446
  562.5000    57.3426   -39.2676    17.8528    45.0000    21.6886
  563.0000    51.7644   -38.5638    17.3251    45.8300    21.0130
  563.5000    49.1603   -38.6124    17.2300    46.6600    20.9258
  564.0000    49.2495   -39.2469    17.1310    47.4900    20.6917
  564.5000    39.4661   -39.8801    17.0161    48.3200    19.8120
  565.0000    36.4944   -40.0396    16.8421    49.1500    19.3618
  565.5000    52.2903   -40.1082    16.6659    49.9800    19.2873
  566.0000    46.8585   -40.1927    16.4861    50.3671    19.1773
  566.5000    43.2541   -40.6580    16.4826    50.0114    18.9769
  567.0000    47.7185   -41.1265    16.5229    49.6557    18.8481
  567.5000    44.9358   -41.5973    16.5648    49.3000    18.8503
