~VERSION INFORMATION
 VERS.                2.0:   CWLS LOG ASCII STANDARD - VERSION 2.0
 WRAP.                 NO:   ONE LINE PER DEPTH STEP
~WELL INFORMATION
#MNEM.UNIT      DATA TYPE    INFORMATION
#----------   ------------   ------------------------------
 STRT.F            2.0000:   START DEPTH
 STOP.F          832.0000:   STOP DEPTH
 STEP.F            0.5000:   STEP LENGTH
 NULL.          -999.2500:   NO VALUE
 COMP. U S NAVY-INTEX OIL:   COMPANY
 WELL.        NPR #46-S-2:   WELL
 FLD .             TEAPOT:   FIELD
 LOC .       S2 T38N R78W:   LOCATION
 CNTY.            NATRONA:   COUNTY
 STAT.            WYOMING:   STATE
 CTRY. UNITED STATES OF AMERICA:   COUNTRY
 SRVC.      NL McCullough:   SERVICE COMPANY
 DATE.        13-AUG-1961:   LOGDATE
 API .       490250641500:   API NUMBER
~CURVE INFORMATION
#MNEM.UNIT       API CODE    CURVE DESCRIPTION
#----------   ------------   ------------------------------
 DEPT.F                  :   
 GR  .MG/TON 35 310 30 00:   GAMMA RAY
 NEUT.NAPI   35 330 01 00:   NEUTRON
~PARAMETER INFORMATION
#MNEM.UNIT          VALUE    DESCRIPTION
#----------   ------------   ------------------------------
 PD  .                 GL:   PERMANENT DATUM
 EPD .F              5150:   ELEVATION PERMANENT DATUM
 LMF .                 KB:   LOG MEASURED FROM
 DAPD.F                 6:   FEET ABOVE PERMANENT DATUM
 DMF .                 KB:   DRILLING MEASURED FROM
 EKB .F              5156:   KELLING BUSHING
 EGL .F              5150:   GROUND LEVEL
 DATE.        13-AUG-1961:   RUN DATE
 RUN .                  1:   RUN NUMBER
 DD  .F               830:   DEPTH DRILLER
 DL  .F               834:   DEPTH LOGGER
 BLI .F             832.5:   BOTTOM LOG INTERVAL
 BS  .IN            7.875:   BIT SIZE
 BSD .F               830:   BIT SIZE AT DEPTH
 DFT .       OIL EMULSION:   DRILLING FLUID TYPE
 DFD .                9.5:   DRILLING FLUID DENSITY
 TCS .HRS               1:   TIME CURCULATED STOPPED
 LUN .               1296:   LOGGING UNIT NUMBER
 ENGI.            JACKSON:   RECORDING ENGINEER
 WITN.          JORGENSEN:   WITNESSED BY
 CLNT.            A2DTECH:   CLIENT CODE
 ORIG.        2" 5" PRINT:   ORIGIN OF DATA
 UWI .       490250641500:   UNIQUE WELL ID
 DICO. A2D Technologies, Inc.:   DIGITIZING COMPANY
~OTHER INFORMATION
~A    DEPT        GR     NEUT   
# ...
  245.0000     5.3248    59.4078
  245.5000     5.4250    54.9303
  246.0000     5.4905    55.6971
  246.5000     5.6280    75.0189
  247.0000     5.6847    96.9669
  247.5000     5.6254   111.5064
  248.0000     5.6281   127.7361
  248.5000     5.6855   136.0944
  249.0000     5.7578   139.7647
  249.5000     5.8726   123.2961
  250.0000     5.9173   110.9445
  250.5000     5.8964   112.9310
  251.0000     5.8656   113.6086
  251.5000     5.8660   110.3448
  252.0000     5.8637    91.1544
  252.5000     5.8441    82.8335
  253.0000     5.8164    81.0720
  253.5000     5.7924    78.4684
  254.0000     5.7778    72.1140
  254.5000     5.7427    69.1342
  255.0000     5.6889    59.0358
  255.5000     5.7488    54.6476
  256.0000     5.7515    49.3253
  256.5000     5.5779    49.5316
  257.0000     5.3242    55.7341
  257.5000     4.9776    72.6215
  258.0000     4.7218   100.7496
  258.5000     4.7456   121.4767
  259.0000     4.8632   126.6521
  259.5000     5.1548   142.5040
  260.0000     5.2916   150.6747
  260.5000     5.3863   146.3832
  261.0000     5.4368   143.9627
  261.5000     5.4464   146.2346
  262.0000     5.4243   152.9985
  262.5000     5.3736   158.6396
  263.0000     5.4006   160.7196
  263.5000     5.4996   159.2391
  264.0000     5.6191   155.3223
  264.5000     5.6715   151.4056
  265.0000     5.6997   148.9880
  265.5000     5.7183   147.1341
  266.0000     5.7170   149.4003
  266.5000     5.6961   157.2903
  267.0000     5.6473   159.9354
  267.5000     5.5911   162.4813
  268.0000     5.5814   162.9685
  268.5000     5.7258   160.0825
  269.0000     5.7763   155.1349
  269.5000     5.8098   151.0322
  270.0000     5.8383   158.1714
  270.5000     5.8712   167.9346
  271.0000     5.8910   172.0794
  271.5000     5.8540   171.5330
  272.0000     5.8071   166.8666
  272.5000     5.7725   166.3232
  273.0000     5.7405   169.5279
  273.5000     5.7060   183.4160
  274.0000     5.8032   195.8017
  274.5000     5.9000   204.0666
  275.0000     5.9986   209.7105
  275.5000     5.9604   211.5068
  276.0000     5.8886   211.9940
  276.5000     5.7746   212.7624
  277.0000     5.6805   215.0301
  277.5000     5.5538   220.2975
  278.0000     5.4178   224.8126
  278.5000     5.3304   226.3306
  279.0000     5.2599   219.6056
  279.5000     5.2397   213.7180
  280.0000     5.4064   209.1454
  280.5000     5.4787   207.4774
  281.0000     5.5230   205.8097
  281.5000     5.5717   194.2106
  282.0000     5.5838   168.7406
  282.5000     5.5418   158.6395
  283.0000     5.4545   155.2877
  283.5000     5.3983   153.7106
  284.0000     5.4010   144.8276
  284.5000     5.4062   133.6958
  285.0000     5.3816   117.6913
  285.5000     5.3288   108.9032
  286.0000     5.2804    94.3029
  286.5000     5.3893    80.3600
  287.0000     5.5081    70.7300
  287.5000     5.6016    69.9025
  288.0000     5.6018   104.4978
  288.5000     5.4977   129.5348
  289.0000     5.3993   167.5045
  289.5000     5.2781   210.2526
  290.0000     4.9844   240.2549
  290.5000     4.7229   281.1291
  291.0000     4.6495   305.5126
  291.5000     4.6648   324.7376
  292.0000     4.7022   304.0480
  292.5000     4.7770   286.3570
  293.0000     4.8965   275.5996
  293.5000     4.9775   271.8718
  294.0000     5.0312   274.1380
  294.5000     5.0531   274.9049
  295.0000     5.0770   255.4377
  295.5000     5.0841   244.3029
  296.0000     5.0844   235.2324
  296.5000     5.2262   231.6904
  297.0000     5.4419   244.4530
  297.5000     5.4192   254.7803
  298.0000     5.1897   269.7895
  298.5000     5.0726   294.5462
  299.0000     5.1275   320.0553
  299.5000     5.2054   323.8193
  300.0000     5.2404   322.3388
  300.5000     5.1612   321.1444
  301.0000     5.0547   326.1422
  301.5000     5.0410   340.3877
  302.0000     4.9459   340.4048
  302.5000     4.9027   340.5610
  303.0000     4.8210   343.4442
  303.5000     4.6338   345.4510
  304.0000     4.6017   347.9766
  304.5000     4.5672   350.3411
  305.0000     4.5765   351.7595
  305.5000     4.6046   339.0390
  306.0000     4.6352   326.1617
  306.5000     4.6646   314.7989
  307.0000     4.6959   302.6862
  307.5000     4.6770   295.2211
  308.0000     4.5535   294.1529
  308.5000     4.6867   296.0721
  309.0000     4.7969   299.6327
  309.5000     4.9677   302.4579
  310.0000     5.0015   302.9485
  310.5000     4.7931   297.9949
  311.0000     4.8670   299.8354
  311.5000     5.0093   305.6946
  312.0000     5.1216   295.0543
  312.5000     5.1467   290.9795
  313.0000     5.0848   289.7851
  313.5000     4.9929   287.6160
  314.0000     4.9485   285.8971
  314.5000     4.9216   291.3988
  315.0000     4.8905   306.2218
  315.5000     4.8621   308.8031
  316.0000     4.8449   310.1974
  316.5000     4.8738   315.0336
  317.0000     4.9003   318.4780
  317.5000     4.8831   305.1163
  318.0000     4.7428   298.6357
  318.5000     4.5433   297.5450
  319.0000     4.4725   297.9360
  319.5000     4.4245   301.8481
  320.0000     4.3517   310.3479
  320.5000     4.2525   319.8863
  321.0000     4.2613   328.3737
  321.5000     4.2996   337.5200
  322.0000     4.3586   327.1208
  322.5000     4.4408   294.6984
  323.0000     4.4782   281.8092
  323.5000     4.3518   274.9660
  324.0000     4.3016   267.0202
  324.5000     4.2554   259.1039
  325.0000     4.3152   248.3143
  325.5000     4.3601   242.5787
  326.0000     4.3678   237.3962
  326.5000     4.3794   232.6301
  327.0000     4.4249   236.1920
  327.5000     4.5101   246.1581
  328.0000     4.5802   238.0110
  328.5000     4.6223   220.2020
  329.0000     4.6022   204.9866
  329.5000     4.5780   204.8664
  330.0000     4.7049   221.5131
  330.5000     4.7925   211.7911
  331.0000     4.8932   210.3224
  331.5000     4.9944   218.5725
  332.0000     5.0843   225.4473
  332.5000     5.2500   223.8724
  333.0000     5.4487   209.6349
  333.5000     5.5981   186.7389
  334.0000     5.6904   161.6243
  334.5000     5.7642   160.2137
  335.0000     5.8622   163.6556
  335.5000     5.9695   166.2454
  336.0000     6.0116   158.7723
  336.5000     5.9299   143.6558
  337.0000     5.8784   132.5789
  337.5000     5.8186   120.5993
  338.0000     5.7873   117.6312
  338.5000     5.7743   116.1357
  339.0000     5.8043   116.5767
  339.5000     5.8587   120.4662
  340.0000     5.9642   125.9393
  340.5000     6.0286   129.1454
  341.0000     5.8877   131.9715
  341.5000     5.7905   131.4993
  342.0000     5.7610   128.9404
  342.5000     5.7781   120.7846
  343.0000     5.8061   117.0390
  343.5000     5.8138   115.5720
  344.0000     5.7768   115.5951
  344.5000     5.7721   118.4784
  345.0000     5.8249   122.3766
  345.5000     5.8147   125.2473
  346.0000     5.7596   129.4903
  346.5000     5.7636   130.6803
  347.0000     5.7830   129.6052
  347.5000     5.8712   128.4662
  348.0000     6.0692   132.2375
  348.5000     6.2255   137.2177
  349.0000     6.2857   139.7684
  349.5000     6.1965   140.1249
  350.0000     6.1545   136.3069
  350.5000     6.2268   128.5819
  351.0000     6.2934   135.9495
  351.5000     6.3629   137.6124
  352.0000     6.3711   137.1514
  352.5000     6.2276   136.8973
  353.0000     6.2580   137.6701
  353.5000     6.2849   139.5502
  354.0000     6.3094   148.5555
  354.5000     6.4670   160.9664
  355.0000     6.6103   162.5187
  355.5000     6.6537   168.4974
  356.0000     6.4677   182.8386
  356.5000     6.3395   193.5981
  357.0000     6.2967   199.2899
  357.5000     6.2319   198.3133
  358.0000     6.1232   194.6028
  358.5000     5.9323   186.6042
  359.0000     5.8264   181.5368
  359.5000     5.9029   174.6449
  360.0000     6.0000   183.1585
  360.5000     6.0481   199.5788
  361.0000     6.0452   208.4359
  361.5000     6.0230   211.9090
  362.0000     6.0244   210.7147
  362.5000     6.0558   208.5832
  363.0000     6.0821   203.3010
  363.5000     6.1208   192.7865
  364.0000     6.1697   190.5847
  364.5000     6.2124   187.3539
  365.0000     6.2149   183.8489
  365.5000     6.1787   184.3665
  366.0000     6.1964   186.8821
