~VERSION INFORMATION
 VERS.                2.0:   CWLS LOG ASCII STANDARD - VERSION 2.0
 WRAP.                 NO:   ONE LINE PER DEPTH STEP
~WELL INFORMATION
#MNEM.UNIT      DATA TYPE    INFORMATION
#----------   ------------   ------------------------------
 STRT.F            2.0000:   START DEPTH
 STOP.F          689.0000:   STOP DEPTH
 STEP.F            0.5000:   STEP LENGTH
 NULL.          -999.2500:   NO VALUE
 COMP. U S NAVY-INTEX OIL:   COMPANY
 WELL. RES 3 TEAPOT DOM #74S-34:   WELL
 FLD .             TEAPOT:   FIELD
 LOC .      S34 T39N R78W:   LOCATION
 CNTY.            NATRONA:   COUNTY
 STAT.            WYOMING:   STATE
 CTRY. UNITED STATES OF AMERICA:   COUNTRY
 SRVC.      NL McCullough:   SERVICE COMPANY
 DATE.        10-AUG-1961:   LOGDATE
 API .       490250653900:   API NUMBER
~CURVE INFORMATION
#MNEM.UNIT       API CODE    CURVE DESCRIPTION
#----------   ------------   ------------------------------
 DEPT.F                  :   
 GR  .GAPI   35 310 01 00:   GAMMA RAY
 NPHI.DEC    35 890 00 00:   NEUTRON POROSITY
~PARAMETER INFORMATION
#MNEM.UNIT          VALUE    DESCRIPTION
#----------   ------------   ------------------------------
 PD  .                 GL:   PERMANENT DATUM
 EPD .F              5044:   ELEVATION PERMANENT DATUM
 LMF .                 KB:   LOG MEASURED FROM
 DAPD.F                 5:   FEET ABOVE PERMANENT DATUM
 DMF .                 KB:   DRILLING MEASURED FROM
 EKB .F              5049:   KELLING BUSHING
 EGL .F              5044:   GROUND LEVEL
 DATE.        10-AUG-1961:   RUN DATE
 RUN .                  1:   RUN NUMBER
 DD  .F               690:   DEPTH DRILLER
 DL  .F             690.5:   DEPTH LOGGER
 BLI .F               689:   BOTTOM LOG INTERVAL
 BS  .IN            7.875:   BIT SIZE
 BSD .F               690:   BIT SIZE AT DEPTH
 DFT .       OIL EMULSION:   DRILLING FLUID TYPE
 DFD .                9.9:   DRILLING FLUID DENSITY
 TCS .HRS               1:   TIME CURCULATED STOPPED
 ENGI.            JACKSON:   RECORDING ENGINEER
 WITN.          JORGENSON:   WITNESSED BY
 CLNT.            A2DTECH:   CLIENT CODE
 ORIG.           2" PRINT:   ORIGIN OF DATA
 UWI .       490250653900:   UNIQUE WELL ID
 DICO. A2D Technologies, Inc.:   DIGITIZING COMPANY
~OTHER INFORMATION
~A    DEPT        GR     NPHI   
# ...
  609.5000     5.1914     0.1820
  610.0000     5.0632     0.1762
  610.5000     5.1007     0.1693
  611.0000     4.9651     0.1705
  611.5000     4.8735     0.1672
  612.0000     4.7238     0.1684
  612.5000     4.8441     0.1702
  613.0000     4.8741     0.1687
  613.5000     5.4613     0.1678
  614.0000     5.3482     0.1681
  614.5000     5.4158     0.1597
  615.0000     5.1671     0.1581
  615.5000     4.9938     0.1660
  616.0000     4.8807     0.1644
  616.5000     4.8354     0.1466
  617.0000     4.9482     0.1424
  617.5000     5.3622     0.1493
  618.0000     5.5729     0.1608
  618.5000     5.6254     0.1575
  619.0000     5.5535     0.1725
  619.5000     5.3013     0.1705
  620.0000     4.9171     0.1778
  620.5000     4.7438     0.1759
  621.0000     4.9771     0.1711
  621.5000     5.0516     0.1787
  622.0000     5.1952     0.1738
  622.5000     4.8336     0.1681
  623.0000     4.8108     0.1566
  623.5000     4.7011     0.1523
  624.0000     4.9762     0.1569
  624.5000     4.7200     0.1546
  625.0000     4.5090     0.1660
  625.5000     4.4336     0.1702
  626.0000     4.5389     0.1632
  626.5000     4.6625     0.1705
  627.0000     4.7870     0.1766
  627.5000     5.0580     0.1629
  628.0000     5.5172     0.1599
  628.5000     5.7580     0.1647
  629.0000     5.6675     0.1750
  629.5000     5.7878     0.1739
  630.0000     5.5467     0.1699
  630.5000     5.7875     0.1644
  631.0000     5.8188     0.1590
  631.5000     5.5204     0.1660
  632.0000     5.3804     0.1664
  632.5000     5.2297     0.1832
  633.0000     5.7039     0.1805
  633.5000     5.6059     0.1823
  634.0000     5.3798     0.1899
  634.5000     5.3043     0.1800
  635.0000     5.3118     0.1714
  635.5000     5.2815     0.1708
  636.0000     4.9349     0.1629
  636.5000     4.3775     0.1684
  637.0000     3.7524     0.1714
  637.5000     3.4661     0.1790
  638.0000     3.3756     0.1784
  638.5000     3.4884     0.1723
  639.0000     3.6840     0.1696
  639.5000     3.6236     0.1671
  640.0000     4.0377     0.1614
  640.5000     3.9321     0.1430
  641.0000     4.2256     0.1390
  641.5000     4.2546     0.1381
  642.0000     4.2253     0.1549
  642.5000     4.0896     0.1672
  643.0000     3.8560     0.1744
  643.5000     4.0743     0.1765
  644.0000     3.9762     0.1805
  644.5000     4.0062     0.1828
  645.0000     4.0211     0.1853
  645.5000     4.0661     0.1899
  646.0000     3.5313     0.1962
  646.5000     3.6140     0.1941
  647.0000     3.8700     0.1987
  647.5000     4.2312     0.1965
  648.0000     4.4268     0.1947
  648.5000     4.2065     0.1765
  649.0000     4.1855     0.1749
  649.5000     4.2187     0.1890
  650.0000     4.5542     0.1850
  650.5000     4.5540     0.1953
  651.0000     4.3280     0.1929
  651.5000     4.4408     0.1768
  652.0000     4.4934     0.1675
  652.5000     4.1092     0.1690
  653.0000     4.1316     0.1738
  653.5000     3.9206     0.1732
  654.0000     3.6042     0.1756
  654.5000     4.0333     0.1724
  655.0000     4.2364     0.1723
  655.5000     4.2965     0.1726
  656.0000     4.2361     0.1708
  656.5000     4.3113     0.1638
  657.0000     4.0174     0.1598
  657.5000     4.1302     0.1496
  658.0000     4.3184     0.1351
  658.5000     4.4387     0.1393
  659.0000     4.7863     0.1433
  659.5000     5.0196     0.1573
  660.0000     5.2681     0.1599
  660.5000     5.2060     0.1732
  661.0000     5.1098     0.1684
  661.5000     5.1172     0.1587
  662.0000     5.2602     0.1596
  662.5000     5.3204     0.1499
  663.0000     5.1681     0.1620
  663.5000     4.7856     0.1756
  664.0000     4.7479     0.1784
  664.5000     4.8081     0.1772
  665.0000     4.7251     0.1784
  665.5000     4.6573     0.1678
  666.0000     4.7476     0.1663
  666.5000     4.5065     0.1911
  667.0000     4.6947     0.1784
  667.5000     4.8904     0.1820
  668.0000     4.7473     0.1747
  668.5000     4.6117     0.1663
  669.0000     5.2742     0.1756
  669.5000     5.3344     0.1775
  670.0000     4.6867     0.1811
  670.5000     4.6641     0.1796
  671.0000     4.7975     0.1805
  671.5000     5.0705     0.1808
  672.0000     5.2964     0.1741
  672.5000     4.6412     0.1678
  673.0000     4.5919     0.1484
  673.5000     4.8368     0.1657
  674.0000     4.7012     0.1632
  674.5000     4.8141     0.1735
  675.0000     4.8818     0.1683
  675.5000     4.8968     0.1717
  676.0000     4.9815     0.1750
  676.5000     5.0773     0.1608
  677.0000     4.9869     0.1439
  677.5000     4.9492     0.1488
  678.0000     5.0169     0.1623
  678.5000     5.4761     0.1584
  679.0000     5.3781     0.1660
  679.5000     5.5136     0.1702
  680.0000     5.6792     0.1708
  680.5000     5.6716     0.1566
  681.0000     5.4607     0.1747
  681.5000     5.3401     0.1793
  682.0000     5.6714     0.1711
  682.5000     5.6789     0.1689
  683.0000     5.6788     0.1566
  683.5000     5.6862     0.1605
  684.0000     5.6937     0.1584
  684.5000     5.6936     0.1387
  685.0000     5.6895     0.1314
  685.5000  -999.2500     0.1293
  686.0000  -999.2500     0.1293
  686.5000  -999.2500     0.1260
  687.0000  -999.2500     0.1070
  687.5000  -999.2500     0.0994
  688.0000  -999.2500     0.0964
  688.5000  -999.2500     0.0873
  689.0000  -999.2500     0.0784
