~VERSION INFORMATION
 VERS.                2.0:   CWLS LOG ASCII STANDARD - VERSION 2.0
 WRAP.                 NO:   ONE LINE PER DEPTH STEP
~WELL INFORMATION
#MNEM.UNIT      DATA TYPE    INFORMATION
#----------   ------------   ------------------------------
 STRT.F           80.0000:   START DEPTH
 STOP.F          744.0000:   STOP DEPTH
 STEP.F            0.5000:   STEP LENGTH
 NULL.          -999.2500:   NO VALUE
 COMP.               NAVY:   COMPANY
 WELL. RES 3 TEAPOT DOM #44-S-11:   WELL
 FLD .             TEAPOT:   FIELD
 LOC .      S11 T38N R78W:   LOCATION
 CNTY.            NATRONA:   COUNTY
 STAT.            WYOMING:   STATE
 CTRY. UNITED STATES OF AMERICA:   COUNTRY
 SRVC.       Schlumberger:   SERVICE COMPANY
 DATE.        09-JUL-1962:   LOGDATE
 API .       490250634600:   API NUMBER
~CURVE INFORMATION
#MNEM.UNIT       API CODE    CURVE DESCRIPTION
#----------   ------------   ------------------------------
 DEPT.F                  :   
 SPR .MV     05 010 01 00:   SPONTANEOUS POTENTIAL FROM RES.
 ASN .OHMM   05 041 16 00:   AMPLIFIED SHORT NORMAL 16"
 ILD .OHMM   05 120 46 00:   INDUCTION LOG DEEP
 CILD.MMHO   05 110 46 00:   CONDUCTIVITY INDUCTION LOG DEEP
 GR  .GAPI   30 310 01 00:   GAMMA RAY
~PARAMETER INFORMATION
#MNEM.UNIT          VALUE    DESCRIPTION
#----------   ------------   ------------------------------
 PD  .                 KB:   PERMANENT DATUM
 EPD .F              5182:   ELEVATION PERMANENT DATUM
 EKB .F              5182:   KELLING BUSHING
 EGL .F              5177:   GROUND LEVEL
 DATE.        09-JUL-1962:   RUN DATE
 RUN .                  1:   RUN NUMBER
 DD  .F               745:   DEPTH DRILLER
 DL  .F               745:   DEPTH LOGGER
 BLI .F               744:   BOTTOM LOG INTERVAL
 TLI .F                90:   TOP LOG INTERVAL
 BS  .IN             6.75:   BIT SIZE
 BSD .F               745:   BIT SIZE AT DEPTH
 DFT .           OIL EMUL:   DRILLING FLUID TYPE
 DFD .               10.3:   DRILLING FLUID DENSITY
 DFV .                 50:   DRILLING FLUID VISCOSITY
 DFL .                3.4:   DRILLING FLUID LOSS
 RMS .OHMM            7.0:   RESISTIVITY MUD SAMPLE
 MST .F                73:   MUD SAMPLE TEMPERATURE
 RMF .OHMM            4.5:   RESISTIVITY MUD FILTRATE SAMPLE
 MFST.F                73:   MUD FILTRATE SAMPLE TEMPERATURE
 RMC .OHMM           13.5:   RESISTIVITY MUD CAKE
 MCST.F                73:   MUD CAKE SAMPLE TEMPERATURE
 MFSS.               MEAS:   MUD FILTRATE SAMPLE SOURCE
 MCSS.               MEAS:   MUD CAKE SAMPLE SOURCE
 TCS .HRS            0030:   TIME CURCULATED STOPPED
 LUN .               2503:   LOGGING UNIT NUMBER
 LUL .               CSPR:   LOGGING UNIT LOCATION
 ENGI.           ELLERMAN:   RECORDING ENGINEER
 WITN.          JORGENSON:   WITNESSED BY
 CLNT.            A2DTECH:   CLIENT CODE
 ORIG.           5" PRINT:   ORIGIN OF DATA
 UWI .       490250634600:   UNIQUE WELL ID
 DICO. A2D Technologies, Inc.:   DIGITIZING COMPANY
~OTHER INFORMATION
~A   DEPT      SPR        ASN        ILD       CILD         GR   
# ...
  690.0000   -47.5921    10.6070    10.1365    91.8306    35.2349
  690.5000   -47.3003    10.6002    10.0545    92.6853    35.5294
  691.0000   -46.8573    10.5933     9.9725    93.5401    31.7267
  691.5000   -46.4137    10.5865     9.9665    94.3949    30.3520
  692.0000   -46.2744    10.6556     9.9604    95.2496    18.2034
  692.5000   -46.8984    10.6487    10.0303    95.3480    26.1452
  693.0000   -47.5218    10.6420    10.1001    95.4463    21.0261
  693.5000   -48.1453    10.7869    10.0938    95.5446    24.5134
  694.0000   -48.7687    10.8589    10.2395    95.6430    31.9327
  694.5000   -48.9348    10.9249    10.2334    95.7413    36.3655
  695.0000   -48.7958    11.0724    10.3035    95.0832    34.0803
  695.5000   -48.0476    11.2170    10.2971    95.1815    27.6980
  696.0000   -47.4391    11.4376    10.3684    94.5235    19.4947
  696.5000   -48.0749    11.7339    10.6643    91.0124    16.9061
  697.0000   -48.2411    12.1077    11.1134    85.4048    14.0161
  697.5000   -48.1021    12.5556    11.9419    79.7973    24.0200
  698.0000   -48.1160    13.3079    13.0739    74.1897    20.6726
  698.5000   -48.4346    14.4392    13.9024    68.5821    25.5195
  699.0000   -50.2775    15.2654    14.8068    62.9746    15.9498
  699.5000   -53.6449    16.0928    15.9388    57.3670     9.4157
  700.0000   -56.2500    17.8300    17.6014    51.7594     6.2223
  700.5000   -57.1813    19.9535    19.1886    46.1519     9.0873
  701.0000   -58.1096    21.4701    20.8518    40.9245    12.4144
  701.5000   -59.1966    21.8485    21.4526    37.9359     8.7539
  702.0000   -60.7562    22.3028    21.3707    37.2164     8.2874
  702.5000   -61.3489    23.0607    21.3087    38.0489    12.0623
  703.0000   -58.8871    21.7699    21.0789    39.5613    10.6817
  703.5000   -59.7211    20.6310    20.6973    41.1193     9.9117
  704.0000   -59.6889    21.9229    20.3885    41.9129    10.0485
  704.5000   -57.9680    21.9949    20.1551    43.4629    10.0298
  705.0000   -56.1433    21.9181    19.8457    43.5000     7.6755
  705.5000   -54.6079    21.4072    19.3709    44.2935    14.5562
  706.0000   -55.2780    20.0193    18.7886    45.8435    21.8211
  706.5000   -56.9500    20.1701    18.3312    46.6370    20.7979
  707.0000   -57.8384    20.4727    18.1013    47.4305    20.2737
  707.5000   -57.6398    20.6238    17.8714    48.2241    17.0684
  708.0000   -55.8668    19.7122    17.5657    49.7741    10.6801
  708.5000   -54.6518    19.1802    17.2599    51.3240    14.4588
  709.0000   -53.4368    18.8758    16.8025    52.8744    21.4241
  709.5000   -52.3743    18.4955    16.4967    53.7617    29.4516
  710.0000   -53.5983    18.0394    16.2668    55.2268    37.6346
  710.5000   -54.6699    17.8108    16.1129    56.0203    24.4141
  711.0000   -54.9793    17.8099    15.9589    57.5703    18.4811
  711.5000   -55.4412    17.7332    15.8049    58.3638    12.0929
  712.0000   -55.5982    17.2770    15.6509    59.1574     9.8055
  712.5000   -55.6027    16.8209    15.4210    60.7073    19.9537
  713.0000   -55.3024    16.5165    15.1153    61.5009    21.0010
  713.5000   -53.9349    16.2121    14.8095    62.2944    20.6825
  714.0000   -52.1102    16.0595    14.5797    62.3315    12.0181
  714.5000   -52.2672    16.0586    14.3498    62.3686    13.9872
  715.0000   -52.1193    16.0577    14.3475    62.4058    14.4161
  715.5000   -51.9714    16.0568    14.3538    62.4433    17.8460
  716.0000   -49.8418    15.9800    14.4309    62.4811    29.4052
  716.5000   -49.8463    15.9030    14.6437    61.7607    35.9190
  717.0000   -49.8508    15.9021    14.7938    61.0506    26.6476
  717.5000   -50.0078    15.7495    14.8674    61.8442    44.3831
  718.0000   -50.1648    15.6727    14.7887    62.6377    44.2226
  718.5000   -51.6937    15.3683    14.6347    62.6748  -999.2500
  719.0000   -52.1656    14.9880    14.4807    62.7119  -999.2500
  719.5000   -51.2455    14.3802    14.1750    64.2619  -999.2500
  720.0000   -50.4878    13.9240    13.6416    66.5683  -999.2500
  720.5000   -50.1875    13.9231    13.1841    68.8747  -999.2500
  721.0000   -50.0396    13.9222    12.8025    70.4247  -999.2500
  721.5000   -49.8917    13.8455    12.4968    71.9746  -999.2500
  722.0000   -49.8963    13.7687    12.3428    72.7686  -999.2500
  722.5000   -49.9009    13.6160    12.2647    73.5628  -999.2500
  723.0000   -49.9064    13.4634    12.2624    74.3645  -999.2500
  723.5000   -49.9109    13.3866    12.2602    74.4016  -999.2500
  724.0000   -49.9155    13.3098    12.3338    74.4387  -999.2500
  724.5000   -49.9200    13.3089    12.3315    74.4759  -999.2500
  725.0000   -49.9245    13.2322    12.4052    75.2694  -999.2500
  725.5000   -50.0815    13.2313    12.3270    75.3065  -999.2500
  726.0000   -50.0860    13.2233    12.3247    75.3436  -999.2500
  726.5000   -50.0906    13.1536    12.2466    75.3807  -999.2500
  727.0000   -50.0951    13.1527    12.2443    75.4178  -999.2500
  727.5000   -50.0997    13.1516    12.1657    74.6974  -999.2500
  728.0000   -50.1042    13.1507    12.1635    74.7356  -999.2500
  728.5000   -50.2612    13.0739    12.0095    75.5574  -999.2500
  729.0000   -49.1986    13.0730    11.8555    76.4096  -999.2500
  729.5000   -48.7447    12.9962    11.7015    77.1255  -999.2500
  730.0000   -48.7504    12.9195    11.5475    77.1626  -999.2500
  730.5000   -48.7549    12.7668    11.5452    77.9562  -999.2500
  731.0000   -48.7594    12.6900    11.5430    78.7497  -999.2500
  731.5000   -48.7640    12.5374    11.5407    79.5433  -999.2500
  732.0000   -48.9210    12.3847    11.4626    80.3368  -999.2500
  732.5000   -48.9255    12.3080    11.3845    81.1303  -999.2500
  733.0000   -48.9300    12.2312    11.3064    81.9239  -999.2500
  733.5000   -48.6297    12.1544    11.2283    81.9610  -999.2500
  734.0000   -48.1769    12.0777    11.1501    81.9981  -999.2500
  734.5000   -48.1814    12.0009    11.0720    82.7916  -999.2500
  735.0000   -48.1860    11.9241    11.0698    82.8542  -999.2500
  735.5000   -48.1905    11.9232    11.0675    83.6233  -999.2500
  736.0000   -48.1951    11.9223    11.0653    83.6687  -999.2500
  736.5000   -48.1997    11.8455    11.0685  -999.2500  -999.2500
  737.0000   -48.2042    11.8446    11.1366  -999.2500  -999.2500
  737.5000   -48.2089    11.9196    11.1343  -999.2500  -999.2500
  738.0000   -48.2143    11.8426    11.2080  -999.2500  -999.2500
  738.5000   -48.3713    11.9178    11.2052  -999.2500  -999.2500
  739.0000   -48.3758    11.9167    11.2788  -999.2500  -999.2500
  739.5000   -48.3804    11.9320    11.2007  -999.2500  -999.2500
  740.0000   -48.3849    11.9909    11.1984  -999.2500  -999.2500
  740.5000   -48.3894    12.0659    11.1962  -999.2500  -999.2500
  741.0000   -48.0880    12.0648    11.1939  -999.2500  -999.2500
  741.5000   -47.7876    12.0639    11.1158  -999.2500  -999.2500
  742.0000   -47.4884    12.1391    11.1136  -999.2500  -999.2500
  742.5000   -47.3405    12.1380    11.1113  -999.2500  -999.2500
  743.0000   -47.1915    12.1371    11.0332  -999.2500  -999.2500
  743.5000   -46.8911    12.2121    11.0310  -999.2500  -999.2500
  744.0000   -46.5908    12.2112    11.0287  -999.2500  -999.2500
