~VERSION INFORMATION
 VERS.                2.0:   CWLS LOG ASCII STANDARD - VERSION 2.0
 WRAP.                 NO:   ONE LINE PER DEPTH STEP
~WELL INFORMATION
#MNEM.UNIT      DATA TYPE    INFORMATION
#----------   ------------   ------------------------------
 STRT.F           30.0000:   START DEPTH
 STOP.F          602.0000:   STOP DEPTH
 STEP.F            0.5000:   STEP LENGTH
 NULL.          -999.2500:   NO VALUE
 COMP. FENIX & SCISSON U.S NAVY:   COMPANY
 WELL.   S-3 NPR #3 #51-3:   WELL
 FLD .             TEAPOT:   FIELD
 LOC .       S3 T38N R78W:   LOCATION
 CNTY.            NATRONA:   COUNTY
 STAT.            WYOMING:   STATE
 CTRY. UNITED STATES OF AMERICA:   COUNTRY
 SRVC.              Welex:   SERVICE COMPANY
 DATE.        08-MAR-1977:   LOGDATE
 API .       490251030800:   API NUMBER
~CURVE INFORMATION
#MNEM.UNIT       API CODE    CURVE DESCRIPTION
#----------   ------------   ------------------------------
 DEPT.F                  :   
 SPR .MV     07 010 01 00:   SPONTANEOUS POTENTIAL
 ILD .OHMM   07 120 46 00:   INDUCTION LOG DEEP
 ILM .OHMM   07 120 44 00:   INDUCTION LOG MEDIUM
 SGRD.OHMM   07 221 05 00:   SHALLOW SHORT GUARD RESISTIVITY
 CALD.IN     45 280 60 00:   CALIPER FROM DENSITY LOG
 CORR.G/C3   45 356 01 00:   DENSITY CORRECTION
 RHOB.G/C3   45 350 01 00:   BULK DENSITY
 DPHI.DEC    45 890 12 00:   DENSITY POROSITY SANDSTONE
 GRD .GAPI   45 310 01 00:   GAMMA RAY FROM DENSITY LOG
~PARAMETER INFORMATION
#MNEM.UNIT          VALUE    DESCRIPTION
#----------   ------------   ------------------------------
 PD  .                 GL:   PERMANENT DATUM
 EPD .F              5140:   ELEVATION PERMANENT DATUM
 LMF .                 GL:   LOG MEASURED FROM
 DAPD.F                  :   FEET ABOVE PERMANENT DATUM
 DMF .                 GL:   DRILLING MEASURED FROM
 EKB .F                  :   KELLING BUSHING
 EDF .F                  :   DRILLING FLOOR
 EGL .F              5140:   GROUND LEVEL
 DATE.             3-8-77:   RUN DATE
 RUN .                  1:   RUN NUMBER
 DD  .F               611:   DEPTH DRILLER
 DL  .F               555:   DEPTH LOGGER
 BLI .F               553:   BOTTOM LOG INTERVAL
 TLI .F                40:   TOP LOG INTERVAL
 CS  .IN            8.625:   CASING SIZE
 CBD .F                40:   CASING BOTTOM DRILLER
 CBL .F                40:   CASING BOTTOM LOGGER
 BS  .IN            7.875:   BIT SIZE
 BSD .F               611:   BIT SIZE AT DEPTH
 DFT .           CHEM GEL:   DRILLING FLUID TYPE
 DFD .                8.6:   DRILLING FLUID DENSITY
 DFV .                 42:   DRILLING FLUID VISCOSITY
 DFPH.                  8:   DRILLING FLUID PH
 DFL .                3.2:   DRILLING FLUID LOSS
 MSS .           FLOWLINE:   MUD SAMPLE SOURCE
 RMS .OHMM           1.49:   RESISTIVITY MUD SAMPLE
 MST .F                48:   MUD SAMPLE TEMPERATURE
 RMF .OHMM           1.07:   RESISTIVITY MUD FILTRATE SAMPLE
 MFST.F                48:   MUD FILTRATE SAMPLE TEMPERATURE
 RMC .OHMM           2.34:   RESISTIVITY MUD CAKE
 MCST.F                48:   MUD CAKE SAMPLE TEMPERATURE
 MFSS.           MEASURED:   MUD FILTRATE SAMPLE SOURCE
 MCSS.           MEASURED:   MUD CAKE SAMPLE SOURCE
 RMB .OHMM           1.19:   RESISTIVITY MUD AT BHT
 BHT .F                60:   BOTTOM HOLE TEMPERATURE
 TCS .HRS               2:   TIME CURCULATED STOPPED
 TLAB.HRS                :   TIME LOGGER AT BOTTOM
 MRT .F                60:   MAXIMUM RECORDED TEMPERATURE
 LUN .               0716:   LOGGING UNIT NUMBER
 LUL .             VERNAL:   LOGGING UNIT LOCATION
 ENGI.           CALLAHAN:   RECORDING ENGINEER
 WITN.         STUEBINGER:   WITNESSED BY
 CLNT.            A2DTECH:   CLIENT CODE
 ORIG.       2", 5" PRINT:   ORIGIN OF DATA
 UWI .       490251030800:   UNIQUE WELL ID
 DICO. A2D Technologies, Inc.:   DIGITIZING COMPANY
 OS  .                   :   OTHER SERVICES
 PWI .                   :   PRIMARY WELL IDENTIFIER
 R1  .                   :   REMARKS 1
 R2  .                   :   REMARKS 2
 LSRV.                   :   LOG MNEMONIC
~OTHER INFORMATION
~A   DEPT      SPR        ILD        ILM       SGRD       CALD       CORR       RHOB       DPHI        GRD   
# ...
  577.5000  -999.2500  -999.2500  -999.2500  -999.2500     7.8166     0.0104     2.4865     0.0959   115.3766
  578.0000  -999.2500  -999.2500  -999.2500  -999.2500     7.8011     0.0237     2.5096     0.0890   112.2169
  578.5000  -999.2500  -999.2500  -999.2500  -999.2500     7.8007     0.0237     2.5114     0.0872   112.3130
  579.0000  -999.2500  -999.2500  -999.2500  -999.2500     7.7853     0.0176     2.4941     0.0983   114.6331
  579.5000  -999.2500  -999.2500  -999.2500  -999.2500     7.7549     0.0055     2.4782     0.0989   114.1834
  580.0000  -999.2500  -999.2500  -999.2500  -999.2500     7.7395    -0.0006     2.4910     0.0996   115.3919
  580.5000  -999.2500  -999.2500  -999.2500  -999.2500     7.7391     0.0189     2.5082     0.0912   115.8459
  581.0000  -999.2500  -999.2500  -999.2500  -999.2500     7.7385     0.0309     2.5044     0.0879   115.3970
  581.5000  -999.2500  -999.2500  -999.2500  -999.2500     7.7381     0.0218     2.4937     0.0954   117.0573
  582.0000  -999.2500  -999.2500  -999.2500  -999.2500     7.7377     0.0278     2.4946     0.0948   116.5483
  582.5000  -999.2500  -999.2500  -999.2500  -999.2500     7.7522     0.0337     2.5006     0.0906   113.7506
  583.0000  -999.2500  -999.2500  -999.2500  -999.2500     7.7518     0.0352     2.5043     0.0888   111.7956
  583.5000  -999.2500  -999.2500  -999.2500  -999.2500     7.7513     0.0351     2.5042     0.0921   102.3106
  584.0000  -999.2500  -999.2500  -999.2500  -999.2500     7.7659     0.0245     2.5004     0.0976    58.6388
  584.5000  -999.2500  -999.2500  -999.2500  -999.2500     7.7954     0.0184     2.4876     0.0970    50.8104
  585.0000  -999.2500  -999.2500  -999.2500  -999.2500     7.8099     0.0169     2.4808     0.0991    50.3614
  585.5000  -999.2500  -999.2500  -999.2500  -999.2500     7.8393     0.0108     2.4665     0.1081    50.3700
  586.0000  -999.2500  -999.2500  -999.2500  -999.2500     7.8688     0.0047     2.4747     0.1154    50.8199
  586.5000  -999.2500  -999.2500  -999.2500  -999.2500     7.8834    -0.0014     2.4807     0.1097    50.8228
  587.0000  -999.2500  -999.2500  -999.2500  -999.2500     7.9129     0.0001     2.4664     0.1103    50.9763
  587.5000  -999.2500  -999.2500  -999.2500  -999.2500     7.9124     0.0045     2.4491     0.1214    50.9792
  588.0000  -999.2500  -999.2500  -999.2500  -999.2500     7.8969     0.0062     2.4637     0.1175    50.8308
  588.5000  -999.2500  -999.2500  -999.2500  -999.2500     7.8815     0.0104     2.4753     0.1106    50.8344
  589.0000  -999.2500  -999.2500  -999.2500  -999.2500     7.8661     0.0104     2.4745     0.1094    50.9880
  589.5000  -999.2500  -999.2500  -999.2500  -999.2500     7.8657     0.0103     2.4722     0.1119    50.9910
  590.0000  -999.2500  -999.2500  -999.2500  -999.2500     7.8503     0.0102     2.4654     0.1143    50.9945
  590.5000  -999.2500  -999.2500  -999.2500  -999.2500     7.8499     0.0117     2.4631     0.1158    51.1480
  591.0000  -999.2500  -999.2500  -999.2500  -999.2500     7.8644     0.0132     2.4698     0.1116    51.4521
  591.5000  -999.2500  -999.2500  -999.2500  -999.2500     7.8639     0.0161     2.4875     0.1011    51.6057
  592.0000  -999.2500  -999.2500  -999.2500  -999.2500     7.8634     0.0220     2.4961     0.0960    51.7592
  592.5000  -999.2500  -999.2500  -999.2500  -999.2500     7.8781     0.0235     2.4863     0.0975    52.0633
  593.0000  -999.2500  -999.2500  -999.2500  -999.2500     7.8775     0.0219     2.4810     0.0999    52.5311
  593.5000  -999.2500  -999.2500  -999.2500  -999.2500     7.8771     0.0158     2.4877     0.0985    61.8590
  594.0000  -999.2500  -999.2500  -999.2500  -999.2500     7.8766     0.0158     2.4944     0.0961    75.5660
  594.5000  -999.2500  -999.2500  -999.2500  -999.2500     7.8761     0.0217     2.5004     0.0952    56.2925
  595.0000  -999.2500  -999.2500  -999.2500  -999.2500     7.8757     0.0217     2.5034     0.0910    56.1441
  595.5000  -999.2500  -999.2500  -999.2500  -999.2500     7.8753    -0.0070     2.4981     0.0916    56.2984
  596.0000  -999.2500  -999.2500  -999.2500  -999.2500     7.8599    -0.0086     2.4732     0.1118    56.7531
  596.5000  -999.2500  -999.2500  -999.2500  -999.2500     7.8445    -0.0041     2.4709     0.1130    56.5989
  597.0000  -999.2500  -999.2500  -999.2500  -999.2500     7.7991     0.0034     2.4717     0.1124    56.3078
  597.5000  -999.2500  -999.2500  -999.2500  -999.2500     7.7836     0.0169     2.4716     0.1133    56.4613
  598.0000  -999.2500  -999.2500  -999.2500  -999.2500     7.7532     0.0198     2.4653     0.1202    56.6149
  598.5000  -999.2500  -999.2500  -999.2500  -999.2500     7.7229     0.0183     2.4437     0.1260    56.7684
  599.0000  -999.2500  -999.2500  -999.2500  -999.2500     7.7075     0.0287     2.4286     0.1293    56.7713
  599.5000  -999.2500  -999.2500  -999.2500  -999.2500     7.6920     0.0437     2.4399     0.1305    56.7742
  600.0000  -999.2500  -999.2500  -999.2500  -999.2500     7.6916     0.0587     2.4504     0.1230    56.7771
  600.5000  -999.2500  -999.2500  -999.2500  -999.2500     7.7211     0.0798     2.4451     0.1206    56.9307
  601.0000  -999.2500  -999.2500  -999.2500  -999.2500     7.7357     0.1068     2.4375     0.1233    57.2355
  601.5000  -999.2500  -999.2500  -999.2500  -999.2500     7.7351     0.1407     2.4192     0.1330    57.3890
  602.0000  -999.2500  -999.2500  -999.2500  -999.2500     7.7498     0.1707     2.4090     0.1280    57.3916
