~VERSION INFORMATION
 VERS.                2.0:   CWLS LOG ASCII STANDARD - VERSION 2.0
 WRAP.                 NO:   ONE LINE PER DEPTH STEP
~WELL INFORMATION
#MNEM.UNIT      DATA TYPE    INFORMATION
#----------   ------------   ------------------------------
 STRT.F           20.0000:   START DEPTH
 STOP.F          478.0000:   STOP DEPTH
 STEP.F            0.5000:   STEP LENGTH
 NULL.          -999.2500:   NO VALUE
 COMP. FENIX & SCISSON INC:   COMPANY
 WELL.   56 31 SX #56-3FP:   WELL
 FLD .             TEAPOT:   FIELD
 LOC .       S3 T38N R78W:   LOCATION
 CNTY.            NATRONA:   COUNTY
 STAT.            WYOMING:   STATE
 CTRY. UNITED STATES OF AMERICA:   COUNTRY
 SRVC.              Welex:   SERVICE COMPANY
 DATE.        06-JUN-1980:   LOGDATE
 API .       490251082300:   API NUMBER
~CURVE INFORMATION
#MNEM.UNIT       API CODE    CURVE DESCRIPTION
#----------   ------------   ------------------------------
 DEPT.F                  :   
 RHOB.G/C3   45 350 01 00:   BULK DENSITY
 CORR.G/C3   45 356 01 00:   DENSITY CORRECTION
 GRD .GAPI   45 310 01 00:   GAMMA RAY FROM DENSITY LOG
 CALD.IN     45 280 60 00:   CALIPER
 DPHI.DEC    45 890 12 00:   DENSITY POROSITY SANDSTONE
 NPHI.DEC    42 890 03 00:   NEUTRON POROSITY SANDSTONE
 SPR .MV     07 010 01 00:   SPONTANEOUS POTENTIAL
 ILD .OHMM   07 120 46 00:   INDUCTION LOG DEEP
 ILM .OHMM   07 120 44 00:   INDUCTION LOG MEDIUM
 SGRD.OHMM   07 220 05 00:   SHALLOW GUARD RESISTIVITY
~PARAMETER INFORMATION
#MNEM.UNIT          VALUE    DESCRIPTION
#----------   ------------   ------------------------------
 PD  .                 GL:   PERMANENT DATUM
 EPD .F              5173:   ELEVATION PERMANENT DATUM
 LMF .                 KB:   LOG MEASURED FROM
 DAPD.F                 5:   FEET ABOVE PERMANENT DATUM
 DMF .                 KB:   DRILLING MEASURED FROM
 EKB .F              5178:   KELLING BUSHING
 EGL .F              5173:   GROUND LEVEL
 DATE.             6-6-80:   RUN DATE
 RUN .                  1:   RUN NUMBER
 DD  .F               450:   DEPTH DRILLER
 DL  .F               476:   DEPTH LOGGER
 BLI .F               474:   BOTTOM LOG INTERVAL
 TLI .F                30:   TOP LOG INTERVAL
 BS  .IN            9.875:   BIT SIZE
 BSD .F               450:   BIT SIZE AT DEPTH
 DFT .            KCL MUD:   DRILLING FLUID TYPE
 DFD .                9.5:   DRILLING FLUID DENSITY
 DFV .                 48:   DRILLING FLUID VISCOSITY
 DFPH.                7.5:   DRILLING FLUID PH
 DFL .                  7:   DRILLING FLUID LOSS
 MSS .           FLOWLINE:   MUD SAMPLE SOURCE
 RMS .OHMM           1.56:   RESISTIVITY MUD SAMPLE
 MST .F                62:   MUD SAMPLE TEMPERATURE
 RMF .OHMM           1.24:   RESISTIVITY MUD FILTRATE SAMPLE
 MFST.F                62:   MUD FILTRATE SAMPLE TEMPERATURE
 RMC .OHMM           1.87:   RESISTIVITY MUD CAKE
 MCST.F                62:   MUD CAKE SAMPLE TEMPERATURE
 MFSS.           MEASURED:   MUD FILTRATE SAMPLE SOURCE
 MCSS.           MEASURED:   MUD CAKE SAMPLE SOURCE
 RMB .OHMM           1.32:   RESISTIVITY MUD AT BHT
 BHT .F                73:   BOTTOM HOLE TEMPERATURE
 TCS .HRS               6:   TIME CURCULATED STOPPED
 MRT .F                73:   MAXIMUM RECORDED TEMPERATURE
 LUN .               1892:   LOGGING UNIT NUMBER
 LUL .             CASPER:   LOGGING UNIT LOCATION
 ENGI.               REIN:   RECORDING ENGINEER
 WITN.              AMEND:   WITNESSED BY
 CLNT.            A2DTECH:   CLIENT CODE
 ORIG.        2" 5" PRINT:   ORIGIN OF DATA
 UWI .       490251082300:   UNIQUE WELL ID
 DICO. A2D Technologies, Inc.:   DIGITIZING COMPANY
~OTHER INFORMATION
~A   DEPT     RHOB       CORR        GRD       CALD       DPHI       NPHI        SPR          ILD        ILM     SGRD   
# ...
  388.5000     2.4424     0.0880    73.5433     9.7416     0.1495     0.2557   -16.8097     6.0868     8.2556     9.7885
  389.0000     2.4409     0.0911    73.7750     9.7385     0.1484     0.2535   -16.7511     6.0791     8.2087     9.7056
  389.5000     2.4417     0.0885    74.0067     9.7354     0.1479     0.2541   -16.6912     6.0713     8.1615     9.6386
  390.0000     2.4383     0.0803    74.2385     9.7326     0.1512     0.2533   -16.6424     6.0635     8.1145     9.5722
  390.5000     2.4295     0.0746    74.4703     9.7327     0.1549     0.2536   -16.8966     6.0557     8.0679     9.5061
  391.0000     2.4310     0.0769    74.7011     9.7327     0.1558     0.2549   -17.1682     6.0480     8.0215     9.4406
  391.5000     2.4292     0.0775    74.9339     9.7327     0.1558     0.2551   -17.4384     6.0402     8.0135     9.3755
  392.0000     2.4102     0.0599    75.0567     9.7327     0.1677     0.2520   -17.7104     6.0326     8.0135     9.3108
  392.5000     2.4001     0.0423    75.0971     9.7327     0.1714     0.2551   -17.8363     6.0265     8.0135     9.2466
  393.0000     2.4093     0.0490    75.1340     9.7327     0.1647     0.2595   -17.8752     6.0084     8.0135     9.1982
  393.5000     2.4237     0.0591    75.1705     9.7327     0.1551     0.2581   -17.9125     5.9908     8.0135     9.2158
  394.0000     2.4310     0.0692    75.2063     9.7327     0.1540     0.2576   -17.9497     5.9733     8.0133     9.2301
  394.5000     2.4293     0.0676    75.2382     9.7327     0.1558     0.2582   -17.9871     5.9559     8.0210     9.2442
  395.0000     2.4281     0.0632    75.4920     9.7327     0.1626     0.2562   -18.0244     5.9385     8.0299     9.2584
  395.5000     2.4106     0.0379    75.7640     9.7327     0.1742     0.2557   -18.0618     5.9212     8.0387     9.2727
  396.0000     2.3969     0.0395    76.0371     9.7327     0.1674     0.2587   -18.0992     5.9039     8.0475     9.2832
  396.5000     2.4057     0.0422    76.3094     9.7327     0.1725     0.2580   -18.1367     5.8867     8.0564     9.2031
  397.0000     2.3964     0.0243    76.5816     9.7326     0.1789     0.2572   -18.1747     5.8696     8.0653     9.1404
  397.5000     2.3898     0.0265    76.8542     9.7311     0.1766     0.2598   -18.2042     5.8524     8.0741     9.0781
  398.0000     2.3924     0.0322    77.1298     9.7296     0.1762     0.2628   -18.1175     5.8354     8.0826     9.0163
  398.5000     2.4003     0.0366    77.4173     9.7282     0.1759     0.2658   -18.0305     5.8183     8.0875     8.9550
  399.0000     2.3997     0.0370    77.2124     9.7267     0.1741     0.2688   -17.9443     5.8014     8.0272     8.9235
  399.5000     2.3957     0.0375    76.9705     9.7252     0.1714     0.2713   -17.8588     5.7845     7.9868     8.8961
  400.0000     2.4040     0.0380    76.7289     9.7238     0.1618     0.2738   -17.8437     5.7674     7.9467     8.8666
  400.5000     2.4140     0.0391    76.4883     9.7223     0.1638     0.2763   -17.9020     5.7529     7.9067     8.7974
  401.0000     2.4135     0.0415    76.2476     9.7209     0.1658     0.2766   -17.9598     5.7422     7.8670     8.7003
  401.5000     2.4137     0.0439    76.0118     9.7194     0.1634     0.2752   -18.0179     5.7317     7.8274     8.6043
  402.0000     2.4181     0.0462    75.9101     9.7179     0.1733     0.2738   -18.0760     5.7213     7.7880     8.5094
  402.5000     2.3941     0.0373    76.1605     9.7165     0.1778     0.2724   -18.1342     5.7108     7.7489     8.3904
  403.0000     2.4009     0.0360    76.4037     9.7150     0.1684     0.2710   -18.1969     5.7004     7.7098     8.4141
  403.5000     2.4108     0.0426    76.6475     9.7136     0.1684     0.2696   -18.0808     5.6900     7.6538     8.4464
  404.0000     2.4037     0.0450    76.8912     9.7129     0.1774     0.2683   -17.9018     5.6797     7.6652     8.4792
  404.5000     2.3971     0.0346    77.1348     9.7129     0.1769     0.2687   -17.8166     5.6693     7.6878     8.5119
  405.0000     2.4023     0.0404    77.3785     9.7129     0.1789     0.2691   -17.8149     5.6590     7.7101     8.5449
  405.5000     2.4062     0.0279    77.6222     9.7129     0.1873     0.2694   -17.8148     5.6487     7.7324     8.5780
  406.0000     2.3821     0.0143    77.8658     9.7129     0.1907     0.2698   -17.8150     5.6384     7.7547     8.6249
  406.5000     2.3711     0.0022    78.1095     9.7129     0.1941     0.2697   -17.8150     5.6281     7.7772     8.5976
  407.0000     2.3678     0.0024    78.3540     9.7129     0.1937     0.2676   -17.8157     5.6178     7.7956     8.5500
  407.5000     2.3658     0.0024    78.6053     9.7129     0.1833     0.2655   -17.8159     5.6076     7.7648     8.5027
  408.0000     2.3795     0.0026    78.8344     9.7129     0.1766     0.2634   -17.7676     5.5918     7.7336     8.4557
  408.5000     2.3945     0.0131    79.0698     9.7129     0.1655     0.2638   -17.3978     5.5531     7.7026     8.4089
  409.0000     2.4094     0.0245    79.3060     9.7129     0.1552     0.2668   -17.0268     5.5147     7.6719     8.3562
  409.5000     2.4216     0.0360    79.5422     9.7129     0.1517     0.2695   -16.6567     5.4766     7.6284     8.2999
  410.0000     2.4359     0.0474    79.7784     9.7129     0.1461     0.2707   -16.2869     5.4388     7.5680     8.2439
  410.5000     2.4506     0.0587    80.0146     9.7129     0.1412     0.2777   -15.9163     5.4012     7.5079     8.1883
  411.0000     2.4548     0.0663    80.2508     9.7130     0.1428     0.2819   -15.5321     5.3639     7.4482     8.1331
  411.5000     2.4508     0.0654    80.4870     9.7142     0.1444     0.2834   -15.5622     5.3268     7.3891     8.0783
  412.0000     2.4466     0.0647    80.7232     9.7153     0.1463     0.2864   -15.7063     5.2900     7.3304     8.0238
  412.5000     2.4425     0.0639    80.9597     9.7165     0.1450     0.2869   -15.8537     5.2534     7.2580     7.9696
  413.0000     2.4457     0.0630    81.1960     9.7176     0.1435     0.2858   -16.0002     5.2171     7.1785     7.8246
  413.5000     2.4358     0.0627    81.4295     9.7187     0.1303     0.2824   -16.1441     5.1810     7.0999     7.5754
  414.0000     2.4575     0.0814    81.5675     9.7199     0.1227     0.2759   -16.1952     5.1452     7.0222     7.4454
  414.5000     2.4829     0.1014    81.5090     9.7210     0.1227     0.2769   -16.0577     5.1097     6.9453     7.4454
  415.0000     2.4837     0.0926    81.4535     9.7222     0.1312     0.2781   -15.9233     5.0744     6.8693     7.4454
  415.5000     2.4720     0.0751    81.3895     9.7233     0.1462     0.2802   -15.7874     5.0393     6.7942     7.4454
  416.0000     2.4509     0.0577    81.7358     9.7244     0.1521     0.2854   -15.6564     4.9613     6.7190     7.3011
  416.5000     2.4327     0.0402    82.1921     9.7256     0.1614     0.2907   -15.7309     4.7821     6.6292     7.0963
  417.0000     2.4201     0.0233    82.6508     9.7267     0.1659     0.2927   -15.8180     4.6095     6.4943     6.9001
  417.5000     2.4186     0.0309    83.1089     9.7279     0.1603     0.2934   -15.9043     4.4430     6.3635     6.7332
  418.0000     2.4245     0.0399    83.5668     9.7290     0.1563     0.2946   -15.9864     4.2826     6.2354     6.5704
  418.5000     2.4275     0.0488    84.0255     9.7301     0.1567     0.2958   -15.9164     4.1279     6.1099     6.4115
  419.0000     2.4257     0.0576    84.4874     9.7313     0.1574     0.2966   -15.7395     3.9789     5.9077     6.2725
  419.5000     2.4282     0.0666    84.9220     9.7325     0.1558     0.2976   -15.5552     3.8352     5.5536     6.1392
  420.0000     2.4285     0.0677    85.1654     9.7318     0.1590     0.2982   -15.3680     3.6967     5.2215     5.8851
  420.5000     2.4249     0.0634    85.1421     9.7307     0.1574     0.2941   -15.0027     3.5747     5.0146     4.9465
  421.0000     2.4290     0.0590    84.7924     9.7295     0.1558     0.2894   -14.3234     3.4662     5.0526     4.0292
  421.5000     2.4328     0.0525    83.8352     9.7284     0.1588     0.2783   -13.6499     3.3610     5.0861     3.4400
