~VERSION INFORMATION
 VERS.                2.0:   CWLS LOG ASCII STANDARD - VERSION 2.0
 WRAP.                 NO:   ONE LINE PER DEPTH STEP
~WELL INFORMATION
#MNEM.UNIT      DATA TYPE    INFORMATION
#----------   ------------   ------------------------------
 STRT.F           47.0000:   START DEPTH
 STOP.F          790.0000:   STOP DEPTH
 STEP.F            0.5000:   STEP LENGTH
 NULL.          -999.2500:   NO VALUE
 COMP. LAWRENCE/ALLISON INC:   COMPANY
 WELL. NPR #3 #21-16 SX 2:   WELL
 FLD .             NPR #3:   FIELD
 LOC .       S2 T38N R78W:   LOCATION
 CNTY.            NATRONA:   COUNTY
 STAT.            WYOMING:   STATE
 CTRY. UNITED STATES OF AMERICA:   COUNTRY
 SRVC.           Gearhart:   SERVICE COMPANY
 DATE.        16-MAY-1986:   LOGDATE
 API .       490251106700:   API NUMBER
~CURVE INFORMATION
#MNEM.UNIT       API CODE    CURVE DESCRIPTION
#----------   ------------   ------------------------------
 DEPT.F                  :   
 CNS .DEC    42 890 00 00:   NEUTRON POROSITY
 GRD .GAPI   45 310 01 00:   GAMMA RAY FROM DENSITY LOG
~PARAMETER INFORMATION
#MNEM.UNIT          VALUE    DESCRIPTION
#----------   ------------   ------------------------------
 PD  .                 GL:   PERMANENT DATUM
 LMF .                 GL:   LOG MEASURED FROM
 DATE.        16-MAY-1986:   RUN DATE
 RUN .                  1:   RUN NUMBER
 DD  .F               835:   DEPTH DRILLER
 DL  .F               835:   DEPTH LOGGER
 BLI .F               835:   BOTTOM LOG INTERVAL
 TLI .F                70:   TOP LOG INTERVAL
 CS  .IN              4.5:   CASING SIZE
 DFT .              WATER:   DRILLING FLUID TYPE
 LUN .               6084:   LOGGING UNIT NUMBER
 LUL .           GILLETTE:   LOGGING UNIT LOCATION
 ENGI.                COX:   RECORDING ENGINEER
 WITN.             STRONG:   WITNESSED BY
 CLNT.            A2DTECH:   CLIENT CODE
 ORIG.           5" PRINT:   ORIGIN OF DATA
 UWI .       490251106700:   UNIQUE WELL ID
 DICO. A2D Technologies, Inc.:   DIGITIZING COMPANY
 R1  .                 NE:   REMARKS 1
~OTHER INFORMATION
~A   DEPT        CNS       GRD  
# ...
  168.5000     0.2822    87.7676
  169.0000     0.2834    87.7676
  169.5000     0.2943    87.4618
  170.0000     0.3016    87.1560
  170.5000     0.3004    86.8502
  171.0000     0.2904    86.8502
  171.5000     0.2889    86.5443
  172.0000     0.2883    86.2385
  172.5000     0.2750    86.8502
  173.0000     0.2684    87.7676
  173.5000     0.2702    88.9908
  174.0000     0.2885    90.2141
  174.5000     0.3215    89.6024
  175.0000     0.3716    89.2966
  175.5000     0.3929    88.9908
  176.0000     0.3971    88.9908
  176.5000     0.3987    88.9908
  177.0000     0.3990    88.9908
  177.5000     0.3987    88.9908
  178.0000     0.3845    87.1560
  178.5000     0.3464    84.4037
  179.0000     0.3386    82.5688
  179.5000     0.3383    82.2630
  180.0000     0.3253    82.5688
  180.5000     0.3078    84.1080
  181.0000     0.3054    85.6474
  181.5000     0.3042    86.8502
  182.0000     0.2960    86.5036
  182.5000     0.2858    86.2385
  183.0000     0.2807    87.7676
  183.5000     0.2813    88.6850
  184.0000     0.2958    89.2966
  184.5000     0.3514    89.9083
  185.0000     0.3605    90.5199
  185.5000     0.3535    90.8257
  186.0000     0.3372    90.8257
  186.5000     0.3363    90.5199
  187.0000     0.3366    89.6024
  187.5000     0.3369    88.3792
  188.0000     0.3514    86.8502
  188.5000     0.3838    83.7920
  189.0000     0.3877    81.6514
  189.5000     0.3853    80.7339
  190.0000     0.3484    82.2630
  190.5000     0.2941    85.6269
  191.0000     0.2875    87.7676
  191.5000     0.2725    89.2966
  192.0000     0.2530    90.2141
  192.5000     0.2509    89.2966
  193.0000     0.2518    86.8502
  193.5000     0.2663    84.0979
  194.0000     0.2917    81.9572
  194.5000     0.2899    84.7095
  195.0000     0.2791    87.4618
  195.5000     0.2688    89.3169
  196.0000     0.2604    91.1724
  196.5000     0.2573    93.0276
  197.0000     0.2573    94.2303
  197.5000     0.2607    95.4639
  198.0000     0.2888    96.3303
  198.5000     0.3158    98.7768
  199.0000     0.3491   101.2232
  199.5000     0.3788   101.5291
  200.0000     0.3798   100.8578
  200.5000     0.3715    96.4353
  201.0000     0.3398    91.4310
  201.5000     0.3109    87.1466
  202.0000     0.3085    87.1435
  202.5000     0.3221    88.6695
  203.0000     0.3278    88.6665
  203.5000     0.3266    87.7460
  204.0000     0.3171    83.1558
  204.5000     0.3007    81.6237
  205.0000     0.2931    81.6206
  205.5000     0.2862    82.8408
  206.0000     0.2810    88.3424
  206.5000     0.2928    94.4555
  207.0000     0.3218    96.2875
  207.5000     0.3436    94.1436
  208.0000     0.3545    90.4709
  208.5000     0.3433    89.5504
  209.0000     0.3276    89.8532
  209.5000     0.3158    90.4617
  210.0000     0.3071    90.7645
  210.5000     0.3001    91.3730
  211.0000     0.2956    91.9816
  211.5000     0.2941    91.9786
  212.0000     0.2935    91.3639
  212.5000     0.2977    83.4098
  213.0000     0.3056    80.9603
  213.5000     0.3210    81.2872
  214.0000     0.3271    84.6607
  214.5000     0.3379    88.3399
  215.0000     0.3467    90.1224
  215.5000     0.3645    89.4340
  216.0000     0.3839    87.0581
  216.5000     0.3933    88.0705
  217.0000     0.3969    91.4437
  217.5000     0.3987    95.0815
  218.0000     0.3990    97.7942
  218.5000     0.3990    98.3579
  219.0000     0.3993    94.9661
  219.5000     0.3993    86.1391
  220.0000     0.3691    81.5284
  220.5000     0.3456    79.9963
  221.0000     0.3498    79.9933
  221.5000     0.3501    81.8251
  222.0000     0.3350    85.1860
  222.5000     0.3136    88.8527
  223.0000     0.3075    91.9077
  223.5000     0.3063    90.0698
  224.0000     0.3075    87.9261
  224.5000     0.3224    89.4521
  225.0000     0.3205    92.8130
  225.5000     0.3136    94.6455
  226.0000     0.3112    94.0301
  226.5000     0.3217    93.4162
  227.0000     0.3461    94.9414
  227.5000     0.3753    96.4674
  228.0000     0.3988    98.2992
  228.5000     0.3997   100.1311
  229.0000     0.4000   102.2687
  229.5000     0.4000   104.1005
  230.0000     0.4000   105.3215
  230.5000     0.3771   101.0363
  231.0000     0.3328    95.5287
  231.5000     0.3084    91.5501
  232.0000     0.2991    88.1831
  232.5000     0.3043    86.9568
  233.0000     0.3200    88.1770
  233.5000     0.3197    90.9263
  234.0000     0.2947    94.2871
  234.5000     0.2811    96.4255
  235.0000     0.2805    94.2810
  235.5000     0.2793    91.8315
  236.0000     0.2723    89.9936
  236.5000     0.2693    89.0731
  237.0000     0.2705    89.9875
  237.5000     0.2687    91.2077
  238.0000     0.2648    91.5112
  238.5000     0.2642    89.3667
  239.0000     0.2772    87.2230
  239.5000     0.3032    86.6091
  240.0000     0.3144    90.2750
  240.5000     0.3150    92.4134
  241.0000     0.3090    89.9631
  241.5000     0.3011    90.5717
  242.0000     0.2915    94.2384
  242.5000     0.2773    97.2934
  243.0000     0.2703   100.0427
  243.5000     0.2646   101.5687
  244.0000     0.2607   102.1773
  244.5000     0.2733   101.5626
  245.0000     0.2782   100.6421
  245.5000     0.2658   100.0274
  246.0000     0.2513   100.3303
  246.5000     0.2492   100.6331
  247.0000     0.2486   100.9358
  247.5000     0.2492   101.5443
  248.0000     0.2707    99.7064
  248.5000     0.2800    95.7278
  249.0000     0.2816    91.7492
  249.5000     0.2807    89.6055
  250.0000     0.2618    87.4618
  250.5000     0.2523    85.9327
  251.0000     0.2438    85.2803
  251.5000     0.2334    83.4862
  252.0000     0.2295    83.1804
  252.5000     0.2556    84.4037
  253.0000     0.2692    85.9327
  253.5000     0.2713    87.1560
  254.0000     0.2629    83.7920
  254.5000     0.2568    85.9327
  255.0000     0.2553    85.0153
  255.5000     0.2556    82.8746
  256.0000     0.2496    81.6514
  256.5000     0.2475    81.6514
  257.0000     0.2472    83.4862
  257.5000     0.2587    93.5780
  258.0000     0.3422   101.3048
  258.5000     0.3992   105.3211
  259.0000     0.3998   108.8685
  259.5000     0.3995   111.6208
  260.0000     0.3992   113.4557
  260.5000     0.3979   113.1498
  261.0000     0.3505   105.5046
  261.5000     0.3267    94.8012
  262.0000     0.2989    86.8502
  262.5000     0.2617    81.9572
  263.0000     0.2337    80.7339
  263.5000     0.2143    79.5107
  264.0000     0.2001    77.6758
  264.5000     0.1974    75.5352
  265.0000     0.1980    72.7829
  265.5000     0.1996    69.9897
  266.0000     0.2142    68.8073
  266.5000     0.2264    71.5596
  267.0000     0.2267    75.8410
  267.5000     0.2276    81.3456
  268.0000     0.2331    86.2385
  268.5000     0.2588    90.5199
  269.0000     0.2868    93.5780
  269.5000     0.2998    95.1070
  270.0000     0.2908    91.4373
  270.5000     0.2699    85.6269
  271.0000     0.2587    83.4862
  271.5000     0.2521    82.2630
  272.0000     0.2438    81.6514
  272.5000     0.2366    81.0398
  273.0000     0.2315    80.1019
  273.5000     0.2313    78.8584
  274.0000     0.2288    78.2875
  274.5000     0.2258    79.5107
  275.0000     0.2237    81.0398
  275.5000     0.2216    82.8746
  276.0000     0.2228    83.1804
  276.5000     0.2270    81.9572
  277.0000     0.2277    79.5107
  277.5000     0.2261    77.9817
  278.0000     0.2222    77.6758
  278.5000     0.2198    78.8991
  279.0000     0.2177    81.3456
  279.5000     0.2168    84.4037
  280.0000     0.2358    85.6269
  280.5000     0.2395    86.5443
  281.0000     0.2398    86.8502
  281.5000     0.2343    86.5443
  282.0000     0.2235    85.3211
  282.5000     0.2204    83.7920
  283.0000     0.2207    81.6514
  283.5000     0.2214    79.8165
  284.0000     0.2174    78.2875
  284.5000     0.2096    80.1223
  285.0000     0.2084    80.7339
  285.5000     0.2090    79.8165
  286.0000     0.2135    74.3119
  286.5000     0.2277    74.9235
  287.0000     0.2283    76.7584
  287.5000     0.2235    79.5107
  288.0000     0.2217    83.8329
  288.5000     0.2253    85.0153
  289.0000     0.2434    82.5688
  289.5000     0.2564    79.8165
