~VERSION INFORMATION
 VERS.                2.0:   CWLS LOG ASCII STANDARD - VERSION 2.0
 WRAP.                 NO:   ONE LINE PER DEPTH STEP
~WELL INFORMATION
#MNEM.UNIT      DATA TYPE    INFORMATION
#----------   ------------   ------------------------------
 STRT.F           70.0000:   START DEPTH
 STOP.F          806.0000:   STOP DEPTH
 STEP.F            0.5000:   STEP LENGTH
 NULL.          -999.2500:   NO VALUE
 COMP. U S NAVY/INTEX OIL CO:   COMPANY
 WELL. RES 3 TEAPOT DOME #33-S-2:   WELL
 FLD .             TEAPOT:   FIELD
 LOC .       S2 T38N R78W:   LOCATION
 CNTY.            NATRONA:   COUNTY
 STAT.            WYOMING:   STATE
 CTRY. UNITED STATES OF AMERICA:   COUNTRY
 SRVC.         Lane Wells:   SERVICE COMPANY
 DATE.        15-MAR-1980:   LOGDATE
 API .       490250644600:   API NUMBER
~CURVE INFORMATION
#MNEM.UNIT       API CODE    CURVE DESCRIPTION
#----------   ------------   ------------------------------
 DEPT.F                  :   
 GR  .GAPI   30 310 01 00:   GAMMA RAY
 SPR .MV     05 010 01 00:   SPONTANEOUS POTENTIAL FROM RES.
 CILD.MMHO   05 110 46 00:   CONDUCTIVITY INDUCTION LOG DEEP
 ASN .OHMM   05 041 16 00:   AMPLIFIED SHORT NORMAL 16"
 ILD .OHMM   05 120 46 00:   INDUCTION LOG DEEP
~PARAMETER INFORMATION
#MNEM.UNIT          VALUE    DESCRIPTION
#----------   ------------   ------------------------------
 PD  .                 GL:   PERMANENT DATUM
 EPD .F              5119:   ELEVATION PERMANENT DATUM
 LMF .                 KB:   LOG MEASURED FROM
 DAPD.F                 5:   FEET ABOVE PERMANENT DATUM
 DMF .                 KB:   DRILLING MEASURED FROM
 EKB .F              5124:   KELLING BUSHING
 EGL .F              5119:   GROUND LEVEL
 DATE.            3-15-60:   RUN DATE
 RUN .                  1:   RUN NUMBER
 DD  .F               810:   DEPTH DRILLER
 DL  .F               808:   DEPTH LOGGER
 BLI .F               806:   BOTTOM LOG INTERVAL
 TLI .F                70:   TOP LOG INTERVAL
 CS  .IN            8.625:   CASING SIZE
 CBD .F                12:   CASING BOTTOM DRILLER
 BS  .IN            7.875:   BIT SIZE
 BSD .F               810:   BIT SIZE AT DEPTH
 DFT .   GEL/OIL EMULSION:   DRILLING FLUID TYPE
 DFD .                6.8:   DRILLING FLUID DENSITY
 DFV .                 34:   DRILLING FLUID VISCOSITY
 DFPH.                7.6:   DRILLING FLUID PH
 DFL .                9.4:   DRILLING FLUID LOSS
 MSS .           FLOWLINE:   MUD SAMPLE SOURCE
 RMS .OHMM            4.2:   RESISTIVITY MUD SAMPLE
 MST .F                65:   MUD SAMPLE TEMPERATURE
 RMF .OHMM            3.3:   RESISTIVITY MUD FILTRATE SAMPLE
 MFST.F                68:   MUD FILTRATE SAMPLE TEMPERATURE
 RMC .OHMM              4:   RESISTIVITY MUD CAKE
 MCST.F                68:   MUD CAKE SAMPLE TEMPERATURE
 MFSS.                MUD:   MUD FILTRATE SAMPLE SOURCE
 MCSS.              PRESS:   MUD CAKE SAMPLE SOURCE
 RMB .OHMM            3.9:   RESISTIVITY MUD AT BHT
 BHT .F                71:   BOTTOM HOLE TEMPERATURE
 MRT .F                71:   MAXIMUM RECORDED TEMPERATURE
 LUN .             L-4474:   LOGGING UNIT NUMBER
 LUL .             CASPER:   LOGGING UNIT LOCATION
 ENGI.      GRIGGS/NELSON:   RECORDING ENGINEER
 WITN.   JORGENSEN/HUDSON:   WITNESSED BY
 CLNT.            A2DTECH:   CLIENT CODE
 ORIG. 1", 2.5", 5" PRINT:   ORIGIN OF DATA
 UWI .       490250644600:   UNIQUE WELL ID
 DICO. A2D Technologies, Inc.:   DIGITIZING COMPANY
~OTHER INFORMATION
~A   DEPT       GR        SPR        CILD         ASN        ILD 
# ...
  314.0000  -999.2500   -32.5608    48.5660     7.9922     7.6621
  314.5000  -999.2500   -32.6726    47.8995     7.9734     7.7113
  315.0000  -999.2500   -32.7558    47.0590     8.0389     7.7488
  315.5000  -999.2500   -32.9445    46.3623     8.1351     7.7821
  316.0000  -999.2500   -33.1694    45.4950     8.2126     7.8273
  316.5000  -999.2500   -33.0982    44.8157     8.2736     7.8747
  317.0000  -999.2500   -32.6358    46.1145     8.3518     7.8849
  317.5000  -999.2500   -32.2404    47.6202     8.4522     7.8349
  318.0000  -999.2500   -32.3921    48.9421     8.5184     7.7486
  318.5000  -999.2500   -32.9083    50.4237     8.4806     7.6645
  319.0000  -999.2500   -33.1598    51.7809     8.3309     7.5916
  319.5000  -999.2500   -32.8798    53.2207     8.1217     7.5166
  320.0000  -999.2500   -32.4023    54.6228     7.9042     7.4359
  320.5000  -999.2500   -32.1173    56.0170     7.7137     7.3579
  321.0000  -999.2500   -32.0257    57.4638     7.5923     7.2829
  321.5000  -999.2500   -31.9254    58.8150     7.5641     7.2039
  322.0000  -999.2500   -31.7946    60.0808     7.5978     7.1238
  322.5000  -999.2500   -31.8199    61.4797     7.6393     7.0500
  323.0000  -999.2500   -32.1197    62.8853     7.6618     6.9757
  323.5000  -999.2500   -32.5740    63.7881     7.6556     6.8895
  324.0000  -999.2500   -32.9566    63.9246     7.6120     6.8085
  324.5000  -999.2500   -33.1590    63.7802     7.5470     6.7744
  325.0000  -999.2500   -33.2283    63.9229     7.4934     6.8034
  325.5000  -999.2500   -33.2307    63.8277     7.4466     6.8642
  326.0000  -999.2500   -33.1615    62.0554     7.3769     6.9185
  326.5000  -999.2500   -33.0014    60.6500     7.3108     6.9614
  327.0000  -999.2500   -32.7891    59.2447     7.3284     7.0073
  327.5000  -999.2500   -32.5892    57.8393     7.4568     7.0593
  328.0000  -999.2500   -32.4192    56.4340     7.6324     7.1093
  328.5000  -999.2500   -32.2445    55.0286     7.7911     7.1552
  329.0000  -999.2500   -32.0451    53.6232     7.9324     7.2026
  329.5000  -999.2500   -31.8600    52.2179     8.0687     7.2535
  330.0000  -999.2500   -31.7562    50.8125     8.1718     7.3029
  330.5000  -999.2500   -31.7596    49.4072     8.2150     7.3481
  331.0000  -999.2500   -31.8294    48.5972     8.2295     7.3954
  331.5000  -999.2500   -31.9049    50.4312     8.2639     7.4499
  332.0000  -999.2500   -31.9643    51.7194     8.3048     7.4974
  332.5000  -999.2500   -32.0207    52.4048     8.2896     7.5117
  333.0000  -999.2500   -32.0798    50.5137     8.1998     7.4875
  333.5000  -999.2500   -32.1212    48.5972     8.0870     7.4502
  334.0000  -999.2500   -32.1225    48.5972     7.9934     7.4227
  334.5000  -999.2500   -32.1014    49.1065     7.9008     7.3990
  335.0000  -999.2500   -32.1089    50.0727     7.7902     7.3653
  335.5000  -999.2500   -32.1411    51.0388     7.6967     7.3325
  336.0000  -999.2500   -32.1385    52.4048     7.6591     7.3280
  336.5000  -999.2500   -32.1624    52.4048     7.6638     7.3616
  337.0000  -999.2500   -32.3894    51.8242     7.6787     7.4165
  337.5000  -999.2500   -32.7367    50.8580     7.7050     7.4732
  338.0000  -999.2500   -32.7715    49.8918     7.7544     7.5277
  338.5000  -999.2500   -32.3367    48.5972     7.8138     7.5834
  339.0000  -999.2500   -31.9547    44.7896     7.8791     7.6388
  339.5000  -999.2500   -32.1458    44.0444     7.9959     7.6926
  340.0000  -999.2500   -32.6466    42.9402     8.2078     7.7489
  340.5000  -999.2500   -32.8242    41.8360     8.4677     7.8073
  341.0000  -999.2500   -32.5796    40.7441     8.6677     7.8597
  341.5000  -999.2500   -32.2939    39.6089     8.7735     7.9091
  342.0000  -999.2500   -32.1376    38.4814     8.8570     7.9714
  342.5000  -999.2500   -31.9797    37.2010     8.9598     8.0396
  343.0000  -999.2500   -31.8112    38.7678     9.0066     8.0699
  343.5000  -999.2500   -31.7826    41.0553     8.9189     8.0262
  344.0000  -999.2500   -31.9047    43.0506     8.7327     7.9249
  344.5000  -999.2500   -32.0349    45.3729     8.5342     7.8138
  345.0000  -999.2500   -32.1080    47.3470     8.3500     7.7209
  345.5000  -999.2500   -32.1787    49.6856     8.1712     7.6359
  346.0000  -999.2500   -32.2865    51.6440     8.0076     7.5350
  346.5000  -999.2500   -32.3977    53.9941     7.8618     7.4202
  347.0000  -999.2500   -32.4607    56.1395     7.7309     7.3362
  347.5000  -999.2500   -32.4610    55.4528     7.6595     7.3339
  348.0000  -999.2500   -32.4239    54.3001     7.6896     7.4113
  348.5000  -999.2500   -32.3851    53.3996     7.7628     7.5160
  349.0000  -999.2500   -32.3587    52.4048     7.8034     7.6121
  349.5000  -999.2500   -32.3341    50.5296     7.8723     7.7091
  350.0000  -999.2500   -32.3000    48.5972     8.0779     7.8114
  350.5000  -999.2500   -32.2629    46.6648     8.3582     7.8869
  351.0000  -999.2500   -32.2362    44.7325     8.5289     7.9105
  351.5000  -999.2500   -32.2149    42.8001     8.5380     7.9021
  352.0000  -999.2500   -32.1763    40.8677     8.5088     7.8963
  352.5000  -999.2500   -32.1291    38.9354     8.5379     7.9010
  353.0000  -999.2500   -32.1354    37.1744     8.6003     7.9040
  353.5000  -999.2500   -32.2402    37.1744     8.6525     7.9013
  354.0000  -999.2500   -32.3864    37.1744     8.7031     7.8999
  354.5000  -999.2500   -32.4562    37.1744     8.7657     7.9021
  355.0000  -999.2500   -32.4002    37.1744     8.8285     7.9029
  355.5000  -999.2500   -32.2791    37.1744     8.8822     7.9006
  356.0000  -999.2500   -32.1792    37.9232     8.9262     7.9002
  356.5000  -999.2500   -32.1305    38.5673     8.9445     7.9036
  357.0000  -999.2500   -32.1151    39.2114     8.9119     7.9031
  357.5000  -999.2500   -32.1139    39.8555     8.8264     7.8918
  358.0000  -999.2500   -32.1192    40.4997     8.7164     7.8690
  358.5000  -999.2500   -32.1210    41.1438     8.6134     7.8333
  359.0000  -999.2500   -32.1144    41.7879     8.5235     7.7889
  359.5000  -999.2500   -32.1124    42.4320     8.4308     7.7569
  360.0000  -999.2500   -32.1248    43.0761     8.3253     7.7466
  360.5000  -999.2500   -32.1266    43.7203     8.2270     7.7238
  361.0000  -999.2500   -32.0822    44.3644     8.1765     7.6550
  361.5000  -999.2500   -31.9835    44.7896     8.1909     7.5772
  362.0000  -999.2500   -31.8405    44.2717     8.2326     7.5633
  362.5000  -999.2500   -31.6819    43.8853     8.2392     7.6214
  363.0000  -999.2500   -31.5672    43.4988     8.1927     7.6902
  363.5000  -999.2500   -31.5006    43.1123     8.1416     7.7332
  364.0000  -999.2500   -31.3685    42.7258     8.1436     7.7719
  364.5000  -999.2500   -31.1403    42.3394     8.2044     7.8251
  365.0000  -999.2500   -31.0437    41.9529     8.2857     7.8777
  365.5000  -999.2500   -31.2563    41.5664     8.3548     7.9204
  366.0000  -999.2500   -31.5442    41.1800     8.4104     7.9688
  366.5000  -999.2500   -31.5779    40.9820     8.4699     8.0289
  367.0000  -999.2500   -31.4791    40.4593     8.5441     8.0782
  367.5000  -999.2500   -31.6156    40.1079     8.6213     8.0970
  368.0000  -999.2500   -31.9724    39.7566     8.6728     8.0935
  368.5000  -999.2500   -32.1929    39.4053     8.6803     8.0883
  369.0000  -999.2500   -32.1566    39.0539     8.6555     8.0892
  369.5000  -999.2500   -32.0785    38.7026     8.6298     8.0923
  370.0000  -999.2500   -32.0976    38.3512     8.6304     8.0932
  370.5000  -999.2500   -32.1374    37.9999     8.6682     8.0901
  371.0000  -999.2500   -32.1315    37.6486     8.7346     8.0864
  371.5000  -999.2500   -32.1011    37.1744     8.8089     8.0964
  372.0000  -999.2500   -32.0457    36.3367     8.8782     8.1367
  372.5000  -999.2500   -31.9484    35.0484     8.9507     8.2065
  373.0000  -999.2500   -31.8389    33.7602     9.0384     8.2856
  373.5000  -999.2500   -31.7397    32.4719     9.1401     8.3568
  374.0000  -999.2500   -31.6236    31.1837     9.2551     8.4235
  374.5000  -999.2500   -31.4952    29.5591     9.3931     8.4988
