~VERSION INFORMATION
 VERS.                2.0:   CWLS LOG ASCII STANDARD - VERSION 2.0
 WRAP.                 NO:   ONE LINE PER DEPTH STEP
~WELL INFORMATION
#MNEM.UNIT      DATA TYPE    INFORMATION
#----------   ------------   ------------------------------
 STRT.F           60.0000:   START DEPTH
 STOP.F         1143.0000:   STOP DEPTH
 STEP.F            0.5000:   STEP LENGTH
 NULL.          -999.2500:   NO VALUE
 COMP. U S NAVY-INTEX OIL:   COMPANY
 WELL.    N.P.R . 3 #63-2:   WELL
 FLD .             TEAPOT:   FIELD
 LOC .       S2 T38N R78W:   LOCATION
 CNTY.            NATRONA:   COUNTY
 STAT.            WYOMING:   STATE
 CTRY. UNITED STATES OF AMERICA:   COUNTRY
 SRVC. Schlumberger Well Surveying Corp:   SERVICE COMPANY
 DATE.        24-MAY-1964:   LOGDATE
 API .       490250645500:   API NUMBER
~CURVE INFORMATION
#MNEM.UNIT       API CODE    CURVE DESCRIPTION
#----------   ------------   ------------------------------
 DEPT.F                  :   
 SPR .MV     05 010 01 00:   SPONTANEOUS POTENTIAL FROM RES.
 ASN .OHMM   05 041 16 00:   AMPLIFIED SHORT NORMAL 16"
 ILD .OHMM   05 120 46 00:   INDUCTION LOG DEEP
 CILD.MMHO   05 110 46 00:   CONDUCTIVITY INDUCTION LOG DEEP
 CALS.IN     60 280 50 00:   CALIPER FROM SONIC LOG
 DT  .US/F   60 520 33 00:   INTERVAL TRANSIT TIME
~PARAMETER INFORMATION
#MNEM.UNIT          VALUE    DESCRIPTION
#----------   ------------   ------------------------------
 PD  .                 GL:   PERMANENT DATUM
 EPD .F              5181:   ELEVATION PERMANENT DATUM
 LMF .                 KB:   LOG MEASURED FROM
 DAPD.F                 5:   FEET ABOVE PERMANENT DATUM
 DMF .                 KB:   DRILLING MEASURED FROM
 EKB .F              5186:   KELLING BUSHING
 EGL .F              5181:   GROUND LEVEL
 DATE.        24-MAY-1964:   RUN DATE
 RUN .                  1:   RUN NUMBER
 DD  .F              1140:   DEPTH DRILLER
 DL  .F              1144:   DEPTH LOGGER
 BLI .F              1143:   BOTTOM LOG INTERVAL
 TLI .F                82:   TOP LOG INTERVAL
 CS  .IN            8.625:   CASING SIZE
 CBD .F                10:   CASING BOTTOM DRILLER
 BS  .IN            7.875:   BIT SIZE
 BSD .F              1140:   BIT SIZE AT DEPTH
 DFT .            GEL/OIL:   DRILLING FLUID TYPE
 DFD .                9.0:   DRILLING FLUID DENSITY
 DFV .                 63:   DRILLING FLUID VISCOSITY
 DFPH.                8.0:   DRILLING FLUID PH
 DFL .                7.6:   DRILLING FLUID LOSS
 MSS .           FLOWLINE:   MUD SAMPLE SOURCE
 RMS .OHMM           0.87:   RESISTIVITY MUD SAMPLE
 MST .F                84:   MUD SAMPLE TEMPERATURE
 RMF .OHMM           0.43:   RESISTIVITY MUD FILTRATE SAMPLE
 MFST.F                84:   MUD FILTRATE SAMPLE TEMPERATURE
 RMC .OHMM           1.52:   RESISTIVITY MUD CAKE
 MCST.F                84:   MUD CAKE SAMPLE TEMPERATURE
 MFSS.                 FP:   MUD FILTRATE SAMPLE SOURCE
 MCSS.                 FP:   MUD CAKE SAMPLE SOURCE
 TCS .HRS               2:   TIME CURCULATED STOPPED
 LUN .               4507:   LOGGING UNIT NUMBER
 LUL .               CSPR:   LOGGING UNIT LOCATION
 ENGI.             DANNER:   RECORDING ENGINEER
 WITN.          JORGENSEN:   WITNESSED BY
 CLNT.            A2DTECH:   CLIENT CODE
 ORIG.       2", 5" PRINT:   ORIGIN OF DATA
 UWI .       490250645500:   UNIQUE WELL ID
 DICO. A2D Technologies, Inc.:   DIGITIZING COMPANY
~OTHER INFORMATION
~A   DEPT      SPR          ASN        ILD      CILD      CALS         DT   
# ...
 1048.0000   -45.7831    23.0932    18.1262    58.7801     7.7674    88.4875
 1048.5000   -45.9337    24.2629    18.6173    56.0626     7.7372    90.7526
 1049.0000   -46.0843    25.4327    19.0244    53.3452     7.7069    88.5647
 1049.5000   -46.2349    26.7339    19.4315    51.1596     7.6918    82.7541
 1050.0000   -46.2349    26.1461    19.6697    50.8287     7.6918    80.9862
 1050.5000   -46.3855    24.6867    19.3760    53.0830     7.7368    82.9198
 1051.0000   -46.3855    21.7243    18.3183    56.4535     7.7819    83.2860
 1051.5000   -46.3855    19.8630    17.5025    61.3591     7.7967    79.6798
 1052.0000   -46.3855    18.8605    16.2963    64.4779     7.7963    82.2687
 1052.5000   -46.3855    18.5462    14.8649    66.8865     7.7809    87.1269
 1053.0000   -46.2349    18.2599    14.4204    69.6305     7.7806    89.3301
 1053.5000   -46.2349    18.0214    14.1892    71.4184     7.7803    92.5014
 1054.0000   -46.0100    17.7955    14.0390    72.6355     7.7800    93.2576
 1054.5000   -45.9191    17.6588    13.9640    73.3848     7.7797    93.8629
 1055.0000   -45.7831    17.5272    13.9640    73.3811     7.7794    94.3927
 1055.5000   -45.7374    17.3580    13.9640    73.3768     7.7943    94.6206
 1056.0000   -45.4819    17.1227    13.9640    72.6205     7.7939    94.6976
 1056.5000   -45.2545    17.0329    13.8889    72.6167     7.7936    94.6991
 1057.0000   -45.1807    16.7569    13.8018    72.6129     7.7933    94.7757
 1057.5000   -45.1807    16.7034    13.7387    73.3626     7.8082    94.4757
 1058.0000   -45.2771    16.5311    13.7107    73.3579     7.7927    94.1753
 1058.5000   -45.4819    16.3738    13.6637    73.3547     7.7924    93.6481
 1059.0000   -45.6325    16.2197    13.5445    74.1039     7.7921    94.4801
 1059.5000   -45.6325    16.0799    13.4239    74.5506     7.7918    94.7077
 1060.0000   -45.7831    15.9045    13.2883    75.6029     7.7915    94.0303
 1060.5000   -45.7831    15.7791    13.1827    76.3512     7.7761    93.5031
 1061.0000   -45.7831    15.6250    13.0621    77.4047     7.7910    93.7314
 1061.5000   -45.9337    15.5443    12.9414    77.8540     7.8058    93.9593
 1062.0000   -46.0843    15.3279    12.7628    79.0563     7.8054    93.1306
 1062.5000   -46.2349    15.2525    12.6877    80.2583     7.8051    92.6793
 1063.0000   -46.2349    15.2520    12.5466    81.6035     7.8048    92.7563
 1063.5000   -46.0843    15.1388    12.3839    82.3532     7.8197    93.2861
 1064.0000   -46.0843    15.0263    12.2143    83.1124     7.8345    93.2121
 1064.5000   -45.9337    14.9507    12.0676    84.3149     7.8341    92.6853
 1065.0000   -45.7831    14.9503    11.8619    85.3544     7.8338    92.4604
 1065.5000   -45.7274    14.8749    11.8223    85.3497     7.8033    92.2355
 1066.0000   -45.6325    14.8382    11.8679    85.3464     7.7878    92.1615
 1066.5000   -45.3950    14.7931    12.0120    85.3426     7.7725    92.3140
 1067.0000   -45.3042    14.7236    12.0120    85.3389     7.7722    92.2400
 1067.5000   -45.1807    14.7434    12.0871    85.1655     7.7568    92.5182
 1068.0000   -45.2389    14.8725    12.1622    83.8249     7.7716    94.0546
 1068.5000   -45.3313    14.9817    12.1707    82.7461     7.7713    94.5844
 1069.0000   -45.4819    15.1715    12.2372    82.2891     7.7710    94.4350
 1069.5000   -45.4819    15.0470    12.2127    81.5550     7.7707    94.2101
 1070.0000   -45.4819    14.9269    12.0871    82.4800     7.7855    93.8342
 1070.5000   -45.6325    14.7203    11.9354    84.5591     7.7852    93.4584
 1071.0000   -45.6325    14.5787    11.7770    85.9660     7.7849    93.1580
 1071.5000   -45.6325    14.3446    11.6187    87.5929     7.7846    92.7821
 1072.0000   -45.6004    14.2491    11.5596    88.7953     7.7842    92.2553
 1072.5000   -45.4819    14.0437    11.4389    89.9975     7.7839    92.1059
 1073.0000   -45.4186    13.9683    11.2613    90.5648     7.7836    92.0315
 1073.5000   -45.3278    13.9679    11.2613    89.8080     7.7986    91.8820
 1074.0000   -45.1807    13.9674    11.2953    89.0162     7.7981    91.5820
 1074.5000   -45.1115    13.9669    11.4910    87.8062     7.7978    91.2816
 1075.0000   -44.7289    14.0415    11.7118    85.8432     7.7975    90.9813
 1075.5000   -44.5783    14.2658    11.9985    83.7685     7.7972    89.8507
 1076.0000   -44.2711    14.6402    12.3874    81.5764     7.7818    87.2861
 1076.5000   -44.0296    15.2394    12.6471    79.2432     7.7815    85.3254
 1077.0000   -43.7882    15.8354    12.8378    78.7450     7.7661    82.9118
 1077.5000   -43.3735    16.4191    12.7628    78.4827     7.7356    80.8001
 1078.0000   -43.3052    16.7372    12.5666    79.2316     7.7202    79.7450
 1078.5000   -43.0638    16.6515    12.3874    79.5758     7.7199    79.5125
 1079.0000   -42.8223    16.2116    12.0450    81.5788     7.7196    80.5781
 1079.5000   -42.7711    15.5795    11.6832    84.4876     7.7345    82.1645
 1080.0000   -42.7711    14.6864    11.1862    88.6547     7.7492    83.9774
 1080.5000   -42.8419    13.7363    10.9099    91.2610     7.7641    85.5764
 1081.0000   -42.9327    13.3555    10.6607    93.8705     7.7789    87.0848
 1081.5000   -43.0723    13.1358    10.3939    95.8257     7.7785    87.6121
 1082.0000   -43.1687    12.9441    10.1231    97.0280     7.7782    87.9079
 1082.5000   -43.3735    12.8240    10.0601    98.2304     7.7779    88.0729
 1083.0000   -43.3735    12.6845     9.9850    98.7726     7.7625    88.3641
 1083.5000   -43.3735    12.6588     9.9850    99.5219     7.7622    88.5920
 1084.0000   -43.5241    12.6087     9.9850    99.5181     7.7619    88.7444
 1084.5000   -43.5688    12.5686     9.9850    99.5136     7.7768    88.8214
 1085.0000   -43.6747    12.5328     9.9850    99.5106     7.7764    88.7474
 1085.5000   -43.6747    12.5322     9.9850   100.2595     7.7761    88.6731
 1086.0000   -43.6747    12.5319     9.9850   100.2560     7.7909    88.5240
 1086.5000   -43.5241    12.5314     9.9850   100.2523     7.7906    88.3745
 1087.0000   -43.3735    12.5309     9.9850   100.2478     7.7902    88.2251
 1087.5000   -43.2229    12.5305     9.9850   100.2447     7.8051    88.2266
 1088.0000   -42.9940    12.5299     9.9850   100.2407     7.8047    88.2281
 1088.5000   -42.7525    12.5295     9.9850   100.2372     7.8044    88.0032
 1089.0000   -42.4699    12.5290     9.9850   100.2335     7.8041    87.7028
 1089.5000   -42.3193    12.5286    10.0045   100.2290     7.8039    88.0062
 1090.0000   -42.3193    12.5281    10.0601   101.0270     7.7884    88.3096
 1090.5000   -42.5507    12.5276    10.0601   102.0100     7.7881    88.3865
 1091.0000   -42.7711    12.5272    10.0601   103.2300     7.7727    88.3122
 1091.5000   -42.9217    12.5267    10.0601   103.2266     7.7724    87.9367
 1092.0000   -42.9739    12.5263    10.0601   103.2229     7.7721    87.5608
 1092.5000   -42.9217    12.5258    10.0601   103.2191     7.7718    87.3359
 1093.0000   -42.8384    12.5253    10.0601   103.2153     7.7715    87.0355
 1093.5000   -42.7711    12.5248    10.0601   102.4582     7.7712    86.8861
 1094.0000   -42.7711    12.5243    10.0601   102.4548     7.7709    87.1895
 1094.5000   -42.5658    12.5239    10.0601   102.4146     7.7706    87.4174
 1095.0000   -42.4699    12.5234    10.0601   101.6943     7.7854    87.6453
 1095.5000   -42.3193    12.5230    10.0601   101.5011     7.7851    87.8757
 1096.0000   -42.1687    12.5225    10.0711   100.9334     7.7848    88.0307
 1096.5000   -42.1687    12.5220    10.1351   100.9300     7.7845    88.3291
 1097.0000   -42.1687    12.5216    10.1351   100.1732     7.7994    88.4915
 1097.5000   -42.1687    12.5211    10.1351   100.1694     7.7991    88.6340
 1098.0000   -42.0181    12.5206    10.0601   100.9193     7.8139    88.7867
 1098.5000   -42.0181    12.5042    10.0466   100.9146     7.8136    88.9392
 1099.0000   -42.0181    12.4447     9.9099   101.6641     7.8284    88.9407
 1099.5000   -41.9584    12.2784     9.8053   102.4623     7.8281    89.3195
