~VERSION INFORMATION
 VERS.                2.0:   CWLS LOG ASCII STANDARD - VERSION 2.0
 WRAP.                 NO:   ONE LINE PER DEPTH STEP
~WELL INFORMATION
#MNEM.UNIT      DATA TYPE    INFORMATION
#----------   ------------   ------------------------------
 STRT.F           38.0000:   START DEPTH
 STOP.F          890.0000:   STOP DEPTH
 STEP.F            0.5000:   STEP LENGTH
 NULL.          -999.2500:   NO VALUE
 COMP. FENIX & SCISSON INC:   COMPANY
 WELL.       43 SX #14-14:   WELL
 FLD .             TEAPOT:   FIELD
 LOC .      S14 T38N R78W:   LOCATION
 CNTY.            NATRONA:   COUNTY
 STAT.            WYOMING:   STATE
 CTRY. UNITED STATES OF AMERICA:   COUNTRY
 SRVC.            Unknown:   SERVICE COMPANY
 DATE.        28-APR-1978:   LOGDATE
 API .       490251063600:   API NUMBER
~CURVE INFORMATION
#MNEM.UNIT       API CODE    CURVE DESCRIPTION
#----------   ------------   ------------------------------
 DEPT.F                  :   
 SPR .MV     05 010 01 00:   SPONTANEOUS POTENTIAL FROM RES.
 SN  .OHMM   05 040 16 00:   SHORT NORMAL 16"
 ILD .OHMM   05 120 46 00:   INDUCTION LOG DEEP
 CILD.MMHO   05 110 46 00:   CONDUCTIVITY INDUCTION LOG DEEP
 CALD.IN     45 280 60 00:   CALIPER FROM DENSITY LOG
 GRD .GAPI   45 310 01 00:   GAMMA RAY FROM DENSITY LOG
 CORR.G/C3   45 356 01 00:   DENSITY CORRECTION
 DPHI.DEC    45 890 12 00:   DENSITY POROSITY SANDSTONE
 DEN .G/C3   45 350 01 00:   COMPENSATED BULK DENSTIY
~PARAMETER INFORMATION
#MNEM.UNIT          VALUE    DESCRIPTION
#----------   ------------   ------------------------------
 PD  .                 GL:   PERMANENT DATUM
 EPD .F              5217:   ELEVATION PERMANENT DATUM
 LMF .                 KB:   LOG MEASURED FROM
 DMF .                 KB:   DRILLING MEASURED FROM
 EKB .F              5221:   KELLING BUSHING
 EGL .F              5217:   GROUND LEVEL
 DATE.        28-APR-1978:   RUN DATE
 RUN .                  1:   RUN NUMBER
 DD  .F               890:   DEPTH DRILLER
 DL  .F               890:   DEPTH LOGGER
 BLI .F               884:   BOTTOM LOG INTERVAL
 TLI .F                40:   TOP LOG INTERVAL
 CS  .IN            8.625:   CASING SIZE
 CBD .F                40:   CASING BOTTOM DRILLER
 CBL .F                40:   CASING BOTTOM LOGGER
 BS  .IN            7.875:   BIT SIZE
 BSD .F               890:   BIT SIZE AT DEPTH
 DFT .                KCL:   DRILLING FLUID TYPE
 DFD .                8.7:   DRILLING FLUID DENSITY
 DFV .                 34:   DRILLING FLUID VISCOSITY
 DFL .                4.8:   DRILLING FLUID LOSS
 MSS .            MUD PIT:   MUD SAMPLE SOURCE
 RMS .OHMM             .4:   RESISTIVITY MUD SAMPLE
 MST .F                56:   MUD SAMPLE TEMPERATURE
 RMF .OHMM            .38:   RESISTIVITY MUD FILTRATE SAMPLE
 MFST.F                64:   MUD FILTRATE SAMPLE TEMPERATURE
 RMC .OHMM              1:   RESISTIVITY MUD CAKE
 MCST.F                66:   MUD CAKE SAMPLE TEMPERATURE
 MFSS.               MEAS:   MUD FILTRATE SAMPLE SOURCE
 RMB .OHMM             .3:   RESISTIVITY MUD AT BHT
 BHT .F                74:   BOTTOM HOLE TEMPERATURE
 TCS .HRS            0100:   TIME CURCULATED STOPPED
 MRT .F                74:   MAXIMUM RECORDED TEMPERATURE
 LUN .               2958:   LOGGING UNIT NUMBER
 LUL .               CASP:   LOGGING UNIT LOCATION
 ENGI.             MILLER:   RECORDING ENGINEER
 WITN.           MCGINLEY:   WITNESSED BY
 CLNT.            A2DTECH:   CLIENT CODE
 ORIG.           5" PRINT:   ORIGIN OF DATA
 UWI .       490251063600:   UNIQUE WELL ID
 DICO. A2D Technologies, Inc.:   DIGITIZING COMPANY
~OTHER INFORMATION
~A   DEPT      SPR         SN        ILD       CILD       CALD        GRD       CORR       DPHI        DEN   
# ...
  257.0000   -39.6804     6.5393     6.4727   140.6204     8.1064    73.4939     0.0144     0.1414     2.4203
  257.5000   -39.9698     6.3641     6.3431   139.8209     8.1071    73.5012     0.0130     0.1531     2.4076
  258.0000   -40.1122     6.2364     6.2162   140.5027     8.1079    73.5086     0.0132     0.1711     2.3828
  258.5000   -40.4030     6.0276     6.0083   142.6658     8.1086    74.2655     0.0148     0.1951     2.3693
  259.0000   -40.3970     5.6673     5.7278   149.3401     8.0942    77.1234     0.0164     0.2112     2.3010
  259.5000   -40.5410     5.1480     5.3118   163.5051     8.0501    78.2422     0.0180     0.2305     2.2845
  260.0000   -40.5335     4.6534     4.8585   209.1307     7.9760    81.6357     0.0241     0.2707     2.2552
  260.5000   -40.5276     4.1230     4.0069   258.5017     7.9783    89.2891     0.0318     0.2800     2.1996
  261.0000   -40.5217     3.5037     3.1707   304.8764     8.0226    89.8962     0.0394     0.2796     2.1643
  261.5000   -40.5157     2.8899     2.7255   344.5095     8.0383    89.9035     0.0485     0.2778     2.1463
  262.0000   -40.5098     2.5537     2.4587   396.1277     8.0538    89.7609     0.0577     0.2523     2.1621
  262.5000   -40.2071     2.4510     2.4599   414.7870     7.8751    89.0186     0.0639     0.2093     2.1885
  263.0000   -39.9044     2.4522     2.4781   428.2029     7.6962    87.8265     0.0564     0.1799     2.2743
  263.5000   -39.3050     2.5218     2.6020   430.3997     7.7418    80.6375     0.0355     0.1389     2.3646
  264.0000   -38.5572     2.7216     2.7892   398.4548     7.9072    67.3014     0.0266     0.1246     2.4316
  264.5000   -37.5127     3.1253     3.1595   356.8401     7.8181    67.6147     0.0252     0.1236     2.4271
  265.0000   -36.9133     3.9253     3.7303   317.0725     7.7590    68.8956     0.0298     0.1182     2.4264
  265.5000   -36.6106     4.7630     4.4653   274.3086     7.7597    70.7735     0.0360     0.1182     2.4264
  266.0000   -36.3080     5.9411     5.6097   212.8181     7.7756    71.2306     0.0376     0.1145     2.4348
  266.5000   -36.0053     6.9170     6.8084   142.3389     7.8212    69.7387     0.0377     0.1157     2.4401
  267.0000   -35.7026     7.5167     8.6721   111.5601     7.9417    68.3967     0.0378     0.1244     2.4416
  267.5000   -35.6967     7.8373     9.0430   100.2568     7.9874    67.5045     0.0379     0.1310     2.4406
  268.0000   -35.6907     8.0044     9.0473    97.1933     7.9582    67.8117     0.0365     0.1322     2.4237
  268.5000   -35.6848     8.0631     8.6847    98.6242     7.9288    69.7680     0.0307     0.1334     2.4238
  269.0000   -35.8272     8.0665     8.3365   104.5495     7.9446    69.7753     0.0278     0.1361     2.4178
  269.5000   -36.2664     7.9046     7.8927   111.2238     7.9753    69.9326     0.0294     0.1561     2.4066
  270.0000   -36.8539     7.5875     7.5242   119.3963     8.0210    70.3993     0.0325     0.1654     2.3863
  270.5000   -37.8865     7.2330     6.8348   136.5575     8.1280    80.4124     0.0387     0.1672     2.3360
  271.0000   -38.6239     6.6157     6.1234   159.7112     8.2472    88.2472     0.0390     0.1636     2.3421
  271.5000   -39.2115     5.9682     5.8779   171.6458     8.3078    88.4027     0.0359     0.1584     2.3556
  272.0000   -39.0557     5.3841     5.8808   170.8127     8.3684    82.1150     0.0329     0.1488     2.3828
  272.5000   -38.4563     5.2393     5.8836   165.5020     8.3990    74.4761     0.0301     0.1368     2.4061
  273.0000   -37.7085     5.3148     5.9682   166.2006     8.4147    70.4355     0.0273     0.1394     2.4039
  273.5000   -36.9607     5.6184     6.0541   166.1165     8.4155    69.9912     0.0289     0.1415     2.4040
  274.0000   -36.2129     6.2762     6.3567   165.3002     8.4162    70.1503     0.0305     0.1421     2.4048
  274.5000   -35.4651     7.0596     6.9087   153.2480     8.4019    70.0077     0.0321     0.1415     2.3988
  275.0000   -34.4206     8.1066     7.7187   136.7013     8.3728    69.8651     0.0322     0.1414     2.3944
  275.5000   -33.5245     8.6887     8.5645   117.9075     8.3421    69.8726     0.0339     0.1420     2.3922
  276.0000   -32.6283     8.8130     9.1175   102.1099     8.2995    69.8816     0.0340     0.1438     2.3922
  276.5000   -32.0289     8.8776     9.7735    88.5595     8.2552    70.7884     0.0341     0.1453     2.3938
  277.0000   -31.2811     9.0669    10.2620    86.9941     8.1962    71.9951     0.0342     0.1462     2.3946
  277.5000   -30.6817     9.2602    10.4817    87.6779     8.0772    71.4028     0.0343     0.1464     2.3946
  278.0000   -30.2307     9.5231    10.6324    86.8596     8.0330    70.8104     0.0345     0.1485     2.3945
  278.5000   -30.2247     9.8611    10.7854    85.2943     8.0036    70.3661     0.0361     0.1482     2.3812
  279.0000   -30.2188    10.3529    11.0162    82.9798     7.9596    66.4772     0.0362     0.1470     2.3835
  279.5000   -30.0645    10.5736    11.3300    79.9163     7.9603    63.6360     0.0363     0.1475     2.3858
  280.0000   -29.9102    10.7249    11.4929    76.1037     7.9760    64.8427     0.0364     0.1484     2.3866
  280.5000   -29.9042    10.9535    11.7390    73.0402     7.9439    67.5725     0.0366     0.1478     2.3822
  281.0000   -29.8983    11.0339    11.9902    72.2239     7.8430    69.8411     0.0367     0.1448     2.3807
  281.5000   -29.7440    11.0384    12.2469    71.4076     7.8437    70.4137     0.0368     0.1390     2.3913
  282.0000   -29.5897    10.8906    12.4231    70.5913     7.8744    70.4211     0.0369     0.1366     2.4041
  282.5000   -29.5838    10.7460    12.6890    70.5241     7.9350    69.9786     0.0323     0.1363     2.4072
  283.0000   -29.5778    10.7515    12.7830    71.2060     8.0106    68.7865     0.0311     0.1396     2.4042
  283.5000   -29.5719    10.9807    12.8777    71.1360     8.0412    67.8943     0.0313     0.1483     2.3959
  284.0000   -29.5659    11.2148    13.0629    69.5630     8.0420    67.4500     0.0314     0.1494     2.3840
  284.5000   -29.5600    11.3752    13.3426    67.2410     8.0277    67.3074     0.0285     0.1488     2.3826
  285.0000   -29.5549    11.4586    13.6282    64.9438     7.9985    66.8666     0.0271     0.1560     2.3789
  285.5000   -29.5481    11.6225    13.9199    63.3783     7.9678    66.2744     0.0273     0.1581     2.3752
  286.0000   -29.5422    11.7078    14.1201    63.3109     7.9103    63.8189     0.0259     0.1622     2.3707
  286.5000   -29.5362    11.8752    14.3232    62.4469     7.9111    61.7476     0.0290     0.1577     2.3610
  287.0000   -29.6801    12.0451    14.4294    60.9288     7.9567    60.7510     0.0323     0.1580     2.3513
  287.5000   -29.5244    12.1334    14.5363    60.0500     7.9874    60.3086     0.0397     0.1589     2.3506
  288.0000   -29.2217    12.1384    14.6440    58.4768     8.0330    59.8661     0.0413     0.1591     2.3581
  288.5000   -28.9190    12.0588    14.7525    56.9813     8.0487    59.7217     0.0400     0.1579     2.3657
  289.0000   -28.9131    12.1485    14.8618    56.8290     8.0494    60.0307     0.0416     0.1555     2.3605
  289.5000   -28.7588    12.4075    14.9719    55.2559     8.0352    60.0380     0.0477     0.1615     2.3606
  290.0000   -28.4561    12.4985    15.3983    53.7828     8.0359    60.4951     0.0553     0.1629     2.3696
  290.5000   -28.3018    12.6772    15.7279    52.2172     8.1594    65.7498     0.0614     0.1617     2.3479
  291.0000   -28.2958    12.8585    16.0646    51.2858     8.1873    67.5562     0.0616     0.1584     2.3472
  291.5000   -28.2899    13.0424    16.4084    49.8352     8.2179    67.7257     0.0602     0.1578     2.3578
  292.0000   -28.2840    13.1381    16.5300    47.5206     8.2636    68.3728     0.0618     0.1595     2.3774
  292.5000   -28.2780    13.1435    16.8839    46.5667     8.2194    69.5291     0.0619     0.1520     2.3812
  293.0000   -28.2721    13.2399    17.1267    44.9938     8.0106    69.9844     0.0905     0.1541     2.3609
