~VERSION INFORMATION
 VERS.                2.0:   CWLS LOG ASCII STANDARD - VERSION 2.0
 WRAP.                 NO:   ONE LINE PER DEPTH STEP
~WELL INFORMATION
#MNEM.UNIT      DATA TYPE    INFORMATION
#----------   ------------   ------------------------------
 STRT.F           29.0000:   START DEPTH
 STOP.F          720.0000:   STOP DEPTH
 STEP.F            0.5000:   STEP LENGTH
 NULL.          -999.2500:   NO VALUE
 COMP.    FENIX & SCISSON:   COMPANY
 WELL. RES 3 TEAPOT DOM #21-S-14:   WELL
 FLD .        TEAPOT DOME:   FIELD
 LOC .      S14 T38N R78W:   LOCATION
 CNTY.            NATRONA:   COUNTY
 STAT.            WYOMING:   STATE
 CTRY. UNITED STATES OF AMERICA:   COUNTRY
 SRVC.            Unknown:   SERVICE COMPANY
 DATE.        25-MAY-1978:   LOGDATE
 API .       490251063300:   API NUMBER
~CURVE INFORMATION
#MNEM.UNIT       API CODE    CURVE DESCRIPTION
#----------   ------------   ------------------------------
 DEPT.F                  :   
 CALD.IN     45 280 60 00:   CALIPER FROM DENSITY LOG
 CORR.G/C3   45 356 01 00:   DENSITY CORRECTION
 DPHI.DEC    45 890 12 00:   DENSITY POROSITY SANDSTONE
 GRD .GAPI   45 310 01 00:   GAMMA RAY FROM DENSITY LOG
 RHOB.G/C3   45 350 01 00:   BULK DENSITY
 ILD .OHMM   05 120 46 00:   INDUCTION LOG DEEP
 SN  .OHMM   05 040 16 00:   SHORT NORMAL 16"
 SPR .MV     05 010 01 00:   SPONTANEOUS POTENTIAL FROM RES.
~PARAMETER INFORMATION
#MNEM.UNIT          VALUE    DESCRIPTION
#----------   ------------   ------------------------------
 PD  .                 GL:   PERMANENT DATUM
 EPD .F              5232:   ELEVATION PERMANENT DATUM
 LMF .                 KB:   LOG MEASURED FROM
 DAPD.F                 4:   FEET ABOVE PERMANENT DATUM
 DMF .                 KB:   DRILLING MEASURED FROM
 EKB .F              5236:   KELLING BUSHING
 EGL .F              5232:   GROUND LEVEL
 DATE.        25-MAY-1978:   RUN DATE
 RUN .                  1:   RUN NUMBER
 DD  .F               716:   DEPTH DRILLER
 DL  .F               727:   DEPTH LOGGER
 BLI .F               720:   BOTTOM LOG INTERVAL
 TLI .F                44:   TOP LOG INTERVAL
 CS  .IN            8.625:   CASING SIZE
 CBD .F                40:   CASING BOTTOM DRILLER
 CBL .F                44:   CASING BOTTOM LOGGER
 BS  .IN            7.875:   BIT SIZE
 BSD .F               716:   BIT SIZE AT DEPTH
 DFT .                KCL:   DRILLING FLUID TYPE
 DFD .                8.6:   DRILLING FLUID DENSITY
 DFV .                 31:   DRILLING FLUID VISCOSITY
 DFPH.                9.5:   DRILLING FLUID PH
 DFL .               10.8:   DRILLING FLUID LOSS
 MSS .            MUD PIT:   MUD SAMPLE SOURCE
 RMS .OHMM           0.32:   RESISTIVITY MUD SAMPLE
 MST .F                82:   MUD SAMPLE TEMPERATURE
 RMF .OHMM           0.34:   RESISTIVITY MUD FILTRATE SAMPLE
 MFST.F                72:   MUD FILTRATE SAMPLE TEMPERATURE
 RMC .OHMM            0.8:   RESISTIVITY MUD CAKE
 MCST.F                72:   MUD CAKE SAMPLE TEMPERATURE
 MFSS.               MEAS:   MUD FILTRATE SAMPLE SOURCE
 RMB .OHMM           0.35:   RESISTIVITY MUD AT BHT
 BHT .F                74:   BOTTOM HOLE TEMPERATURE
 TCS .HRS               1:   TIME CURCULATED STOPPED
 MRT .F                74:   MAXIMUM RECORDED TEMPERATURE
 LUN .               2958:   LOGGING UNIT NUMBER
 LUL .               CASP:   LOGGING UNIT LOCATION
 ENGI.             MILLER:   RECORDING ENGINEER
 WITN.           MCGINLEY:   WITNESSED BY
 CLNT.            A2DTECH:   CLIENT CODE
 ORIG.           5" PRINT:   ORIGIN OF DATA
 UWI .       490251063300:   UNIQUE WELL ID
 DICO. A2D Technologies, Inc.:   DIGITIZING COMPANY
~OTHER INFORMATION
~A   DEPT     CALD       CORR       DPHI         GRD      RHOB        ILD         SN        SPR   
# ...
  434.0000     7.3534     0.0013     0.1271    81.5881     2.4571     6.7716     7.0135   -27.4596
  434.5000     7.3548    -0.0030     0.1327    83.0187     2.4534     6.8268     7.1246   -27.4399
  435.0000     7.3709    -0.0043     0.1330    83.0317     2.4521     6.9277     7.2241   -27.4242
  435.5000     7.4318     0.0034     0.1311    80.8059     2.4537     7.0304     7.3310   -27.2596
  436.0000     7.4479     0.0200     0.1264    77.5353     2.4552     7.1347     7.3373   -27.3929
  436.5000     7.4338     0.0262     0.1160    76.3511     2.4628     7.2406     7.3946   -27.3765
  437.0000     7.4203     0.0264     0.1145    78.1584     2.4779     7.2975     7.4523   -27.5100
  437.5000     7.3916     0.0206     0.1130    82.8359     2.4869     7.4058     7.4589   -27.6391
  438.0000     7.3931     0.0118     0.1192    84.3070     2.4886     7.4129     7.4668   -27.7761
  438.5000     7.3942     0.0090     0.1195    84.1675     2.4795     7.4726     7.4733   -27.7564
  439.0000     7.3954     0.0094     0.1195    85.0793     2.4752     7.4796     7.4797   -27.8894
  439.5000     7.3816     0.0124     0.1176    85.8386     2.4753     7.4865     7.4862   -27.8735
  440.0000     7.3528     0.0126     0.1158    86.5979     2.4791     7.4935     7.4927   -27.8540
  440.5000     7.3092     0.0128     0.1169    86.7801     2.4800     7.5004     7.4992   -27.9910
  441.0000     7.3103     0.0130     0.1163    82.7433     2.4793     7.5076     7.5593   -27.9713
  441.5000     7.3432     0.0147     0.1118    82.4578     2.4802     7.4627     7.5658   -27.9555
  442.0000     7.3575     0.0134     0.1090    83.8174     2.4847     7.4714     7.6232   -27.9398
  442.5000     7.1945     0.0135     0.1120    86.9647     2.4864     7.4783     7.5267   -28.0729
  443.0000     7.0758     0.0138     0.1099    87.5747     2.4879     7.4321     7.5332   -28.0565
  443.5000     7.3762     0.0170     0.1068    83.2594     2.4895     7.4407     7.4878   -28.0374
  444.0000     7.4072     0.0112     0.1104    80.1380     2.4933     7.4478     7.4427   -28.1744
  444.5000     7.4098     0.0054     0.1163    77.1660     2.4971     7.4563     7.4508   -28.1547
  445.0000     7.3941     0.0025     0.1178    74.1841     2.4800     7.4119     7.4572   -28.1390
  445.5000     7.3635     0.0117     0.1183    73.9084     2.4749     7.3661     7.3612   -28.1232
  446.0000     7.3521     0.0149     0.1171    78.7008     2.4742     7.2719     7.3169   -28.1071
  446.5000     7.3535     0.0151     0.1158    83.3407     2.4766     7.1804     7.2726   -28.0878
  447.0000     7.3547     0.0123     0.1170    86.3388     2.4759     7.0869     7.1297   -28.0720
  447.5000     7.3558     0.0080     0.1182    87.0948     2.4745     6.9500     6.9910   -28.2051
  448.0000     7.3570     0.0037     0.1385    85.1708     2.4694     6.8155     6.8535   -28.4869
  448.5000     7.3432     0.0039     0.1390    84.7360     2.4605     6.7268     6.6265   -28.9176
  449.0000     7.3444     0.0041     0.1407    84.2905     2.4471     6.5513     6.4514   -29.1995
  449.5000     7.3458     0.0043     0.1458    83.2727     2.4390     6.3789     6.3682   -29.3286
  450.0000     7.4016     0.0060     0.1543    81.4184     2.4301     6.2110     6.1575   -29.3168
  450.5000     7.4833     0.0077     0.1621    81.8130     2.4040     5.9434     5.8948   -29.5303
  451.0000     7.4253     0.0050     0.1723    82.8766     2.4004     5.6490     5.5606   -29.7319
  451.5000     7.3668    -0.0023     0.1878    82.2984     2.3968     5.3870     5.1195   -29.7173
  452.0000     7.3690    -0.0035     0.2087    79.4813     2.3752     5.1018     4.8077   -29.7024
  452.5000     7.3857    -0.0018     0.2248    78.3060     2.3274     4.6358     4.5002   -29.6850
  453.0000     7.4181     0.0015     0.2425    78.7870     2.2931     4.0619     3.8687   -29.6706
  453.5000     7.4640     0.0107     0.2638    80.7365     2.2731     3.5732     3.3721   -29.6561
  454.0000     7.4810     0.0229     0.2683    82.2431     2.2328     3.2245     3.0168   -29.6417
  454.5000     7.4678     0.0366     0.2635    79.8786     2.2254     2.8111     2.7935   -29.3297
  455.0000     7.2005     0.0443     0.2344    79.5942     2.2307     2.5194     2.4773   -28.1248
  455.5000     6.9033     0.0416     0.2048    79.4685     2.2645     2.3533     2.3622   -24.4939
  456.0000     6.3968     0.0011     0.1779    76.3529     2.3155     2.2910     2.2992   -23.3304
  456.5000     6.6078     0.0301     0.1634    74.5806     2.3489     2.3088     2.3335   -23.9112
  457.0000     7.0588     0.0393     0.1498    77.7441     2.3786     2.3428     2.4009   -25.0873
  457.5000     7.4006     0.0126     0.1341    81.4887     2.4123     2.5475     2.4701   -26.5609
  458.0000     7.4202     0.0039     0.1287    79.4179     2.4401     2.8668     2.7611   -27.1418
  458.5000     7.3921    -0.0004     0.1391    79.4367     2.4604     3.3625     3.2448   -27.1273
  459.0000     7.3942    -0.0032     0.1459    85.7242     2.4485     3.6810     3.6583   -27.2619
  459.5000     7.3657    -0.0029     0.1462    91.8624     2.4315     4.0296     4.1905   -27.2470
  460.0000     7.3375    -0.0027     0.1460    94.2693     2.4271     4.8252     4.9162   -27.2293
  460.5000     7.2799    -0.0009     0.1488    95.1846     2.4233     5.1384     5.1284   -27.2148
  461.0000     7.0275     0.0023     0.1544    92.6299     2.4191     5.2502     5.2401   -27.2004
  461.5000     6.9246     0.0160     0.1535    92.3854     2.4184     5.2917     5.2443   -27.1860
  462.0000     6.9567     0.0357     0.1556    93.4537     2.4171     5.2960     5.2849   -27.3240
  462.5000     6.9883     0.0509     0.1588    92.7262     2.4149     5.3369     5.3258   -27.3059
  463.0000     7.0349     0.0661     0.1570    92.4418     2.4120     5.4154     5.3347   -27.2915
  463.5000     7.2459     0.0888     0.1366    91.8683     2.4122     5.3455     5.0836   -26.6558
  464.0000     6.6946     0.1115     0.1342    90.3946     2.4331     4.7907     4.8465   -24.8781
  464.5000     6.8757     0.0957     0.1388    87.7230     2.4483     4.5997     4.6866   -24.2685
  465.0000     7.1017     0.0820     0.1413    85.9546     2.4454     4.5095     4.5625   -23.8076
  465.5000     7.1963     0.0943     0.1281    86.4259     2.4380     4.4821     4.5338   -23.6444
  466.0000     7.2996     0.0975     0.1197    86.7432     2.4531     4.4866     4.4761   -23.3323
  466.5000     7.2713     0.0977     0.1149    87.0605     2.4629     4.5213     4.5108   -23.4673
  467.0000     7.3333     0.0980     0.1100    87.2286     2.4788     4.5562     4.6116   -23.4523
  467.5000     6.9763     0.0982     0.1073    87.3919     2.4841     4.6875     4.8422   -23.4375
  468.0000     7.1574     0.0984     0.1046    88.9080     2.4942     4.8895     5.0863   -23.4198
  468.5000     6.9648     0.0753     0.1024    90.1239     2.4978     5.1017     5.3059   -23.4054
  469.0000     7.5047     0.0511     0.1015    90.5881     2.4957     5.3680     5.5349   -23.3910
  469.5000     7.1766     0.0393     0.1042    90.0139     2.4943     5.7058     5.7738   -23.5290
  470.0000     7.1195     0.0276     0.1107    86.0028     2.4922     6.0344     6.0648   -24.7014
  470.5000     7.3758     0.0158     0.1181    81.9918     2.4885     6.3380     6.4147   -25.5799
  471.0000     7.3626     0.0086     0.1220    81.8566     2.4849     6.6570     6.6455   -26.1607
  471.5000     7.3643     0.0028     0.1210    83.0742     2.4742     6.8017     6.7436   -26.3115
  472.0000     7.3661     0.0016     0.1288    85.0333     2.4627     6.8542     6.8441   -26.4294
  472.5000     7.3524     0.0018     0.1302    85.6493     2.4583     6.8597     6.9449   -26.5602
  473.0000     7.3397     0.0036     0.1299    85.6925     2.4562     6.7712     6.9374   -26.6946
  473.5000     7.3265     0.0068     0.1281    88.9750     2.4555     6.6391     6.8593   -26.6802
  474.0000     7.3133     0.0100     0.1250    93.0221     2.4594     6.5534     6.8175   -26.6658
