~VERSION INFORMATION
 VERS.                2.0:   CWLS LOG ASCII STANDARD - VERSION 2.0
 WRAP.                 NO:   ONE LINE PER DEPTH STEP
~WELL INFORMATION
#MNEM.UNIT      DATA TYPE    INFORMATION
#----------   ------------   ------------------------------
 STRT.F           70.0000:   START DEPTH
 STOP.F          884.0000:   STOP DEPTH
 STEP.F            0.5000:   STEP LENGTH
 NULL.          -999.2500:   NO VALUE
 COMP. U S NAVY/INTEX OIL CO:   COMPANY
 WELL.   NPR#3 "S" #16-35:   WELL
 FLD .             TEAPOT:   FIELD
 LOC .      S35 T39N R78W:   LOCATION
 CNTY.            NATRONA:   COUNTY
 STAT.            WYOMING:   STATE
 CTRY. UNITED STATES OF AMERICA:   COUNTRY
 SRVC.         Lane Wells:   SERVICE COMPANY
 DATE.        21-MAR-1960:   LOGDATE
 API .       490250651800:   API NUMBER
~CURVE INFORMATION
#MNEM.UNIT       API CODE    CURVE DESCRIPTION
#----------   ------------   ------------------------------
 DEPT.F                  :   
 SPR .MV     05 010 01 00:   SPONTANEOUS POTENTIAL FROM RES.
 ASN .OHMM   05 040 16 00:   AMPLIFIED SHORT NORMAL 16"
 ILD .OHMM   05 120 46 00:   INDUCTION LOG DEEP
 CILD.MMHO   05 110 46 00:   CONDUCTIVITY INDUCTION LOG DEEP
 GR  .GAPI   30 310 01 00:   GAMMA RAY
~PARAMETER INFORMATION
#MNEM.UNIT          VALUE    DESCRIPTION
#----------   ------------   ------------------------------
 PD  .                 GL:   PERMANENT DATUM
 EPD .F              5091:   ELEVATION PERMANENT DATUM
 LMF .                 KB:   LOG MEASURED FROM
 DAPD.F                 5:   FEET ABOVE PERMANENT DATUM
 DMF .                 KB:   DRILLING MEASURED FROM
 EKB .F              5096:   KELLING BUSHING
 EGL .F              5091:   GROUND LEVEL
 DATE.          3-21-1960:   RUN DATE
 RUN .                  1:   RUN NUMBER
 DD  .F               913:   DEPTH DRILLER
 DL  .F               885:   DEPTH LOGGER
 BLI .F               883:   BOTTOM LOG INTERVAL
 TLI .F                70:   TOP LOG INTERVAL
 CS  .IN            8.625:   CASING SIZE
 CBD .F                12:   CASING BOTTOM DRILLER
 BS  .IN            7.875:   BIT SIZE
 BSD .F               913:   BIT SIZE AT DEPTH
 DFT .   GEL-OIL EMULSION:   DRILLING FLUID TYPE
 DFD .                9.9:   DRILLING FLUID DENSITY
 DFV .                 40:   DRILLING FLUID VISCOSITY
 MSS .           FLOWLINE:   MUD SAMPLE SOURCE
 RMS .OHMM              3:   RESISTIVITY MUD SAMPLE
 MST .F                64:   MUD SAMPLE TEMPERATURE
 RMF .OHMM            2.2:   RESISTIVITY MUD FILTRATE SAMPLE
 MFST.F                64:   MUD FILTRATE SAMPLE TEMPERATURE
 RMC .OHMM              4:   RESISTIVITY MUD CAKE
 MCST.F                64:   MUD CAKE SAMPLE TEMPERATURE
 MFSS.                MUD:   MUD FILTRATE SAMPLE SOURCE
 MCSS.              PRESS:   MUD CAKE SAMPLE SOURCE
 RMB .OHMM            2.7:   RESISTIVITY MUD AT BHT
 BHT .F                70:   BOTTOM HOLE TEMPERATURE
 MRT .F                70:   MAXIMUM RECORDED TEMPERATURE
 LUN .             L-4474:   LOGGING UNIT NUMBER
 LUL .             CASPER:   LOGGING UNIT LOCATION
 ENGI.             NELSON:   RECORDING ENGINEER
 WITN.          JORGENSEN:   WITNESSED BY
 CLNT.            A2DTECH:   CLIENT CODE
 ORIG.      2" & 5" PRINT:   ORIGIN OF DATA
 UWI .       490250651800:   UNIQUE WELL ID
 DICO. A2D Technologies, Inc.:   DIGITIZING COMPANY
~OTHER INFORMATION
~A   DEPT      SPR          ASN      ILD        CILD        GR   
# ...
  558.0000   -24.0920     9.7002     7.3014   146.6702  -999.2500
  558.5000   -23.9128     9.8491     7.4362   144.0178  -999.2500
  559.0000   -23.7367    10.0242     7.5715   141.3646  -999.2500
  559.5000   -23.5603    10.2730     7.7062   138.7114  -999.2500
  560.0000   -23.3808    10.3764     7.8413   136.0582  -999.2500
  560.5000   -23.2298    10.6002     7.9759   133.4043  -999.2500
  561.0000   -23.2212    10.8299     8.1111   130.7508  -999.2500
  561.5000   -23.2151    11.0679     8.2460   128.1442  -999.2500
  562.0000   -23.2564    11.3021     8.3800   125.0300  -999.2500
  562.5000   -23.5636    11.5378     8.5236   121.9613  -999.2500
  563.0000   -23.8675    11.7722     8.7932   118.8926  -999.2500
  563.5000   -24.1509    12.0080     9.0592   115.8238  -999.2500
  564.0000   -24.4912    12.2440     9.3318   112.7551  -999.2500
  564.5000   -24.6407    12.4370     9.5938   109.6864  -999.2500
  565.0000   -24.4458    12.3733     9.8674   106.6177  -999.2500
  565.5000   -24.3013    12.2405     9.9462   103.5489  -999.2500
  566.0000   -24.1133    12.1244     9.9104   101.1405  -999.2500
  566.5000   -24.0062    12.0025     9.8947   101.1405  -999.2500
  567.0000   -24.1453    11.8832     9.8702   101.1405  -999.2500
  567.5000   -24.1495    11.7624     9.8489   102.2503  -999.2500
  568.0000   -24.1795    11.6427     9.8282   103.6912  -999.2500
  568.5000   -24.1940    11.5215     9.8026   105.1322  -999.2500
  569.0000   -24.2175    11.4036     9.7889   106.5732  -999.2500
  569.5000   -24.2389    11.2799     9.7011   108.0141  -999.2500
  570.0000   -24.2563    11.1660     9.5185   109.4551  -999.2500
  570.5000   -24.2852    11.0032     9.3255   110.8960  -999.2500
  571.0000   -24.2889    10.9032     9.1915   112.3370  -999.2500
  571.5000   -24.4181    10.9169     9.1359   113.7780  -999.2500
  572.0000   -24.6204    10.9103     9.0635   115.2190  -999.2500
  572.5000   -24.7964    10.9143     8.9994   116.6599  -999.2500
  573.0000   -24.7507    10.9125     8.9309   117.3469  -999.2500
  573.5000   -24.5875    10.9135     8.8647   117.3469  -999.2500
  574.0000   -24.4450    10.9148     8.7976   117.3469  -999.2500
  574.5000   -24.2930    10.9040     8.7309   117.3469  -999.2500
  575.0000   -24.1457    10.8011     8.6639   117.3469  -999.2500
  575.5000   -23.9958    10.7006     8.5970   117.3469  -999.2500
  576.0000   -23.8472    10.5952     8.5300   118.3341  -999.2500
  576.5000   -23.6982    10.5012     8.4631   119.8405  -999.2500
  577.0000   -23.5481    10.4047     8.3961   121.3470  -999.2500
  577.5000   -23.4132    10.3060     8.3292   122.8535  -999.2500
  578.0000   -23.4016    10.2144     8.2622   124.3599  -999.2500
  578.5000   -23.4031    10.1235     8.1952   125.8664  -999.2500
  579.0000   -23.4031    10.0240     8.1283   127.3729  -999.2500
  579.5000   -23.4042     9.9382     8.0613   128.8793  -999.2500
  580.0000   -23.4026     9.8729     7.9944   130.3858  -999.2500
  580.5000   -23.4066     9.7977     7.9274   131.8923  -999.2500
  581.0000   -23.3997     9.7266     7.8605   133.3987  -999.2500
  581.5000   -23.4139     9.6533     7.7935   134.9052  -999.2500
  582.0000   -23.3090     9.5812     7.7266   136.4117  -999.2500
  582.5000   -23.1410     9.5085     7.6596   137.9181  -999.2500
  583.0000   -22.9981     9.4360     7.5928   139.4256  -999.2500
  583.5000   -22.8468     9.3635     7.5255   140.9331  -999.2500
  584.0000   -22.6957     9.2909     7.4595   142.4407  -999.2500
  584.5000   -22.6825     9.2182     7.3936   143.9481  -999.2500
  585.0000   -22.6998     9.1455     7.3276   145.4550  -999.2500
  585.5000   -22.7125     9.0730     7.2629   146.9569  -999.2500
  586.0000   -22.7267     9.0000     7.1976   148.4634  -999.2500
  586.5000   -22.7406     8.9287     7.1329   149.7599  -999.2500
  587.0000   -22.7545     8.8532     7.0674   150.0396  -999.2500
  587.5000   -22.7687     8.8031     7.0032   150.2851  -999.2500
  588.0000   -22.7827     8.8355     6.9363   150.5306  -999.2500
  588.5000   -22.7971     8.8707     6.8873   150.7761  -999.2500
  589.0000   -22.8102     8.8999     6.8717   151.0216  -999.2500
  589.5000   -22.8261     8.9451     6.8589   151.2671  -999.2500
  590.0000   -22.8363     8.9035     6.8452   151.5606  -999.2500
  590.5000   -22.8591     8.7025     6.8341   152.5434  -999.2500
  591.0000   -22.8022     8.5106     6.8171   155.6593  -999.2500
  591.5000   -22.5759     8.3102     6.8123   158.7753  -999.2500
  592.0000   -22.3490     8.1158     6.7301   161.8912  -999.2500
  592.5000   -22.1189     7.9174     6.5416   165.0072  -999.2500
  593.0000   -21.8900     7.7198     6.3604   168.0556  -999.2500
  593.5000   -21.6604     7.5484     6.1727   171.2721  -999.2500
  594.0000   -21.4358     7.6070     6.0017   173.0567  -999.2500
  594.5000   -23.4821     7.7105     6.1532   174.8633  -999.2500
  595.0000   -23.7883     7.8061     6.1601   179.1661  -999.2500
  595.5000   -23.9537     7.9092     6.1705   180.8589  -999.2500
  596.0000   -24.1588     7.5878     6.1694   180.1538  -999.2500
  596.5000   -24.4461     7.5922     6.1771   177.7866  -999.2500
  597.0000   -24.5138     7.5928     6.1836   175.4194  -999.2500
  597.5000   -24.3790     7.5834     6.1912   173.0522  -999.2500
  598.0000   -24.2769     7.6642     6.1971   170.8019  -999.2500
  598.5000   -24.1577     7.7813     6.2059   171.6686  -999.2500
  599.0000   -24.0478     7.7461     6.2094   172.4945  -999.2500
  599.5000   -23.9323     7.7198     6.2221   173.3203  -999.2500
  600.0000   -23.8200     7.6891     6.2183   174.1462  -999.2500
  600.5000   -23.7062     7.7611     6.3025   173.1286  -999.2500
  601.0000   -23.5916     7.8697     6.3456   171.3534  -999.2500
  601.5000   -23.4989     7.9676     6.3553   169.5782  -999.2500
  602.0000   -23.6122     8.0646     6.3751   167.8030  -999.2500
  602.5000   -23.7447     8.1721     6.3906   166.0278  -999.2500
  603.0000   -23.8804     8.2131     6.4079   165.2144  -999.2500
  603.5000   -24.0066     8.1792     6.4248   164.8961  -999.2500
  604.0000   -24.1501     8.1577     6.4412   164.5777  -999.2500
  604.5000   -24.1635     8.1301     6.4588   164.2594  -999.2500
  605.0000   -24.0478     8.1052     6.4742   163.9411  -999.2500
  605.5000   -23.9479     8.0757     6.4937   163.6321  -999.2500
  606.0000   -23.8397     8.0050     6.4823   165.0936  -999.2500
  606.5000   -23.7349     7.9250     6.4495   166.5138  -999.2500
  607.0000   -23.6310     7.8826     6.4222   167.9340  -999.2500
  607.5000   -23.5236     7.8563     6.3925   169.3541  -999.2500
  608.0000   -23.4204     7.8635     6.3639   170.8019  -999.2500
  608.5000   -23.3258     7.9015     6.3351   171.0892  -999.2500
  609.0000   -23.5692     7.9557     6.3056   171.3823  -999.2500
  609.5000   -23.8835     7.9994     6.2779   171.6754  -999.2500
  610.0000   -24.1714     7.9680     6.2456   171.9684  -999.2500
  610.5000   -24.0611     7.9239     6.2269   172.2615  -999.2500
  611.0000   -23.8980     7.8849     6.2294   172.5545  -999.2500
  611.5000   -23.6919     7.8369     6.2284   172.8453  -999.2500
  612.0000   -23.9061     7.8527     6.2290   173.1365  -999.2500
  612.5000   -24.3437     7.8915     6.2290   173.4286  -999.2500
  613.0000   -24.1893     7.8189     6.2289   173.7204  -999.2500
  613.5000   -23.9953     7.7513     6.2296   174.0117  -999.2500
  614.0000   -23.7965     7.6734     6.2289   174.3024  -999.2500
  614.5000   -23.5992     7.6491     6.2275   175.8548  -999.2500
  615.0000   -23.4096     7.6572     6.1613   177.8437  -999.2500
  615.5000   -23.1998     7.5832     6.0677   179.8218  -999.2500
  616.0000   -23.1569     7.5003     5.9784   181.7999  -999.2500
  616.5000   -23.2558     7.4240     5.8871   183.7780  -999.2500
  617.0000   -23.3265     7.3319     5.7969   185.7561  -999.2500
  617.5000   -23.4169     7.2871     5.7060   187.7342  -999.2500
  618.0000   -23.4623     7.2437     5.6157   189.7123  -999.2500
  618.5000   -23.3381     7.1089     5.5248   191.6904  -999.2500
