~VERSION INFORMATION
 VERS.                2.0:   CWLS LOG ASCII STANDARD - VERSION 2.0
 WRAP.                 NO:   ONE LINE PER DEPTH STEP
~WELL INFORMATION
#MNEM.UNIT      DATA TYPE    INFORMATION
#----------   ------------   ------------------------------
 STRT.F           30.0000:   START DEPTH
 STOP.F          691.0000:   STOP DEPTH
 STEP.F            0.5000:   STEP LENGTH
 NULL.          -999.2500:   NO VALUE
 COMP. U.S. DEPARTMENT OF ENERGY:   COMPANY
 WELL. NAVAL PETROLEUM RESERVE #3 #77-S-34:   WELL
 FLD .        TEAPOT DOME:   FIELD
 LOC .      S34 T39N R78W:   LOCATION
 CNTY.            NATRONA:   COUNTY
 STAT.            WYOMING:   STATE
 CTRY. UNITED STATES OF AMERICA:   COUNTRY
 SRVC.              Welex:   SERVICE COMPANY
 DATE.        26-APR-1977:   LOGDATE
 API .       490251034700:   API NUMBER
~CURVE INFORMATION
#MNEM.UNIT       API CODE    CURVE DESCRIPTION
#----------   ------------   ------------------------------
 DEPT.F                  :   
 CALD.IN     45 280 60 00:   CALIPER FROM DENSITY LOG
 CORR.G/C3   45 356 01 00:   DENSITY CORRECTION
 DPHI.DEC    45 890 12 00:   DENSITY POROSITY SANDSTONE
 RHOB.G/C3   45 350 01 00:   BULK DENSITY
 GRD .GAPI   45 310 01 00:   GAMMA RAY FROM DENSITY LOG
 ILD .OHMM   07 120 46 00:   INDUCTION LOG DEEP
 ILM .OHMM   07 120 44 00:   INDUCTION LOG MEDIUM
 SGRD.OHMM   07 220 05 00:   SHALLOW GUARD RESISTIVITY
 SPR .MV     07 010 01 00:   SPONTANEOUS POTENTIAL FROM RES.
~PARAMETER INFORMATION
#MNEM.UNIT          VALUE    DESCRIPTION
#----------   ------------   ------------------------------
 PD  .                 GL:   PERMANENT DATUM
 EPD .F              5075:   ELEVATION PERMANENT DATUM
 LMF .                 GL:   LOG MEASURED FROM
 DMF .                 GL:   DRILLING MEASURED FROM
 EGL .F              5075:   GROUND LEVEL
 DATE.          4-26-1977:   RUN DATE
 RUN .                  1:   RUN NUMBER
 DD  .F               700:   DEPTH DRILLER
 DL  .F               693:   DEPTH LOGGER
 BLI .F               691:   BOTTOM LOG INTERVAL
 TLI .F                35:   TOP LOG INTERVAL
 CS  .IN            8.625:   CASING SIZE
 CBD .F                40:   CASING BOTTOM DRILLER
 CBL .F                39:   CASING BOTTOM LOGGER
 BS  .IN            7.875:   BIT SIZE
 BSD .F               700:   BIT SIZE AT DEPTH
 DFT .            KCL MUD:   DRILLING FLUID TYPE
 DFD .                9.5:   DRILLING FLUID DENSITY
 DFV .                 35:   DRILLING FLUID VISCOSITY
 DFPH.               10.5:   DRILLING FLUID PH
 DFL .                 12:   DRILLING FLUID LOSS
 MSS .           FLOWLINE:   MUD SAMPLE SOURCE
 RMS .OHMM            .32:   RESISTIVITY MUD SAMPLE
 MST .F                66:   MUD SAMPLE TEMPERATURE
 RMF .OHMM            .28:   RESISTIVITY MUD FILTRATE SAMPLE
 MFST.F                66:   MUD FILTRATE SAMPLE TEMPERATURE
 RMC .OHMM            .49:   RESISTIVITY MUD CAKE
 MCST.F                66:   MUD CAKE SAMPLE TEMPERATURE
 RMB .OHMM            .28:   RESISTIVITY MUD AT BHT
 BHT .F                74:   BOTTOM HOLE TEMPERATURE
 TCS .HRS             1.5:   TIME CURCULATED STOPPED
 MRT .F                74:   MAXIMUM RECORDED TEMPERATURE
 LUN .               8611:   LOGGING UNIT NUMBER
 LUL .           GILLETTE:   LOGGING UNIT LOCATION
 ENGI.            C. DOAK:   RECORDING ENGINEER
 WITN.       MR. ROB LYON:   WITNESSED BY
 CLNT.            A2DTECH:   CLIENT CODE
 ORIG.           5" PRINT:   ORIGIN OF DATA
 UWI .       490251034700:   UNIQUE WELL ID
 DICO. A2D Technologies, Inc.:   DIGITIZING COMPANY
~OTHER INFORMATION
~A   DEPT       CALD      CORR      DPHI         RHOB       GRD       ILD        ILM       SGRD        SPR   
# ...
   66.5000     8.0179     0.0200     0.2510     2.2540   123.2436     2.2126     2.5585     3.1813   -40.9567
   67.0000     8.0179     0.0201     0.2492     2.2593   124.2900     2.1680     2.4719     3.0322   -40.8072
   67.5000     8.0030     0.0217     0.2450     2.2631   125.0374     2.1538     2.4213     2.8703   -40.5082
   68.0000     8.0030     0.0248     0.2388     2.2737   122.7527     2.1846     2.3718     2.6383   -40.0598
   68.5000     7.9880     0.0279     0.2298     2.2923   115.7698     2.2776     2.4719     2.2562   -39.6114
   69.0000     7.9880     0.0295     0.2154     2.3162   112.9297     2.4100     2.6665     2.4013   -39.4185
   69.5000     7.9880     0.0281     0.1921     2.3402   112.7339     2.5627     2.9364     3.2085   -39.3124
   70.0000     7.9880     0.0222     0.1807     2.3701   114.5042     2.6902     3.2337     4.5616   -39.3124
   70.5000     7.9880     0.0193     0.1831     2.3716   116.3677     2.8437     3.5612     4.5946   -39.1629
   71.0000     7.9880     0.0149     0.1852     2.3694   115.4709     3.0059     3.7371     4.5639   -39.1629
   71.5000     8.0030     0.0120     0.1831     2.3701   114.1256     3.2218     3.8415     4.5029   -39.6114
   72.0000     8.0030     0.0091     0.1795     2.3776   113.5277     3.4291     3.8948     4.5041   -39.6114
   72.5000     8.0179     0.0107     0.1726     2.3904   115.3214     3.5751     3.8948     4.4743   -39.4619
   73.0000     8.0179     0.0123     0.1684     2.3956   115.6203     3.7017     3.9761     4.4758   -39.3124
   73.5000     8.0030     0.0124     0.1660     2.3979   115.4709     3.8065     4.1439     4.5079   -39.1629
   74.0000     7.9880     0.0126     0.1615     2.3971   116.5252     3.8608     4.3486     4.5091   -39.0115
   74.5000     7.9880     0.0127     0.1687     2.3956   118.0120     3.9157     4.5698     4.5446   -38.7145
   75.0000     7.9880     0.0128     0.1672     2.3979   117.2646     4.0544     4.8220     4.6060   -38.4155
   75.5000     7.9880     0.0129     0.1660     2.3994   116.6667     4.2307     4.9910     4.7360   -38.2661
   76.0000     7.9880     0.0130     0.1689     2.3867   118.9088     4.4377     5.1304     5.1814   -37.9671
   76.5000     7.9880     0.0131     0.1773     2.3777   119.8057     4.5633     5.2376     5.7501   -37.8176
   77.0000     8.0030     0.0132     0.1818     2.3733   119.5067     4.6282     5.2738     5.8690   -37.6682
   77.5000     8.0030     0.0133     0.1854     2.3703   118.0120     4.6297     5.2376     5.8302   -37.5187
   78.0000     8.0030     0.0149     0.1872     2.3658   114.8729     4.5368     5.0952     5.5574   -37.3692
   78.5000     8.0030     0.0180     0.1881     2.3644   114.2750     4.4454     4.9227     5.3705   -37.2197
   79.0000     7.9880     0.0196     0.1893     2.3599   114.1256     4.3856     4.7234     5.2623   -37.2197
   79.5000     7.9880     0.0227     0.1919     2.3569   113.8266     4.2975     4.6268     4.9812   -37.2197
   80.0000     7.9880     0.0243     0.1958     2.3524   116.9656     4.2109     4.4701     4.6827   -37.0703
   80.5000     7.9880     0.0244     0.1982     2.3495   118.6253     4.1546     4.3787     4.3719   -37.0703
   81.0000     7.9880     0.0245     0.1958     2.3462   119.5067     4.1563     4.4090     4.2541   -36.9208
   81.5000     7.9880     0.0246     0.1821     2.3629   119.9552     4.1577     4.4701     4.5279   -36.9208
   82.0000     7.9880     0.0247     0.1671     2.3906   120.4036     4.1606     4.5635     4.7530   -36.9208
   82.5000     7.9880     0.0264     0.1665     2.3974   120.8595     4.1895     4.6588     4.7543   -36.9208
   83.0000     7.9880     0.0280     0.1698     2.3959   121.5994     4.1909     4.6931     4.8571   -36.9208
   83.5000     7.9880     0.0281     0.1675     2.3989   121.7489     4.1631     4.7560     5.0615   -36.9208
   84.0000     7.9880     0.0282     0.1629     2.4019   121.4499     4.1648     4.6910     5.2767   -36.9208
   84.5000     7.9880     0.0283     0.1623     2.4034   119.9552     4.1665     4.6588     5.3513   -36.9208
   85.0000     7.9880     0.0284     0.1700     2.3952   117.4140     4.1679     4.5950     4.9961   -36.7713
   85.5000     7.9731     0.0270     0.1788     2.3795   116.6667     4.1402     4.5635     5.1730   -36.9208
   86.0000     7.9581     0.0256     0.1838     2.3706   116.6667     4.1419     4.5321     5.0337   -36.9208
   86.5000     7.9581     0.0257     0.1829     2.3683   116.5172     4.0865     4.5635     4.6673   -36.9208
   87.0000     7.9581     0.0258     0.1754     2.3713   115.6203     4.1165     4.6268     4.4180   -36.9208
   87.5000     7.9581     0.0259     0.1685     2.3856   113.3782     4.2622     4.8220     4.6700   -36.9208
   88.0000     7.9581     0.0281     0.1631     2.3961   110.8371     4.3828     4.9567     5.1445   -36.9208
   88.5000     7.9581     0.0291     0.1595     2.4043   108.5949     4.5082     5.0952     5.6284   -36.9208
   89.0000     7.9581     0.0292     0.1577     2.4088   109.5107     4.6991     5.2376     5.7925   -36.9208
   89.5000     7.9581     0.0308     0.1598     2.4111   110.0897     4.8320     5.3839     5.5888   -36.9208
   90.0000     7.9581     0.0309     0.1658     2.4103   109.6413     4.9688     5.4586     5.3309   -36.9208
   90.5000     7.9581     0.0325     0.1679     2.3991   107.8475     5.0394     5.5726     5.4437   -36.9208
   91.0000     7.9581     0.0356     0.1682     2.3961   104.9965     5.1114     5.6889     6.1221   -36.9208
   91.5000     7.9581     0.0388     0.1682     2.3977   104.5590     5.1841     5.5343     6.7026   -37.0703
   92.0000     7.9581     0.0419     0.1688     2.3962   104.8580     5.2217     5.4211     7.1778   -37.2197
   92.5000     7.9581     0.0450     0.1696     2.3932   102.7653     5.2595     5.4211     6.1273   -37.5212
   93.0000     7.9731     0.0481     0.1678     2.3955   100.6697     5.2613     5.3839     4.9156   -37.9671
   93.5000     7.9880     0.0482     0.1651     2.4007   100.2242     5.2634     5.3839     4.3431   -38.2661
   94.0000     7.9880     0.0483     0.1633     2.4037   101.1211     5.2651     5.3469     5.7240   -38.7145
   94.5000     7.9880     0.0484     0.1762     2.3843   102.7653     5.2668     5.2738     6.8024   -39.3124
   95.0000     8.0030     0.0470     0.1879     2.3514   105.4559     5.2685     5.2376     6.4836   -40.0598
   95.5000     7.9880     0.0426     0.2052     2.3230   108.7444     5.1628     5.0952     5.8080   -40.6577
   96.0000     7.9880     0.0397     0.2326     2.2883   113.2287     4.4993     4.8045     5.1840   -41.2556
   96.5000     7.9880     0.0353     0.2555     2.2437   118.3109     3.6097     4.2014     5.4243   -41.8535
   97.0000     7.9880     0.0279     0.2716     2.2198   123.2436     3.1895     3.8415     5.3514   -42.3019
   97.5000     7.9880     0.0220     0.2967     2.1697   127.4140     2.6489     3.3702     4.7608   -42.6009
   98.0000     7.9880     0.0176     0.2994     2.1484   130.5680     2.2769     2.8415     3.8769   -42.6009
   98.5000     7.9880     0.0132     0.2992     2.1301   131.1659     2.0118     2.2139     2.3418   -42.4514
   99.0000     7.9880     0.0103     0.2991     2.1241   130.2691     1.9045     2.0382     2.1416   -41.8535
   99.5000     7.9880     0.0089     0.2989     2.1226   128.4176     1.8380     1.9829     1.9995   -41.2556
  100.0000     7.9881     0.0075     0.2988     2.1481   124.9473     1.7912     1.9692     1.8160   -40.8072
  100.5000     7.9584     0.0120     0.2862     2.1810   120.1046     1.9732     2.2761     1.8418   -40.3587
  101.0000     7.9588     0.0165     0.2524     2.2401   113.3782     2.1888     2.6857     1.9874   -39.6114
  101.5000     7.9591     0.0226     0.2165     2.3153   103.6831     2.5305     3.3716     2.1743   -38.7145
  102.0000     7.9594     0.0303     0.1692     2.3875    99.4768     3.0280     4.0895     6.1436   -38.2661
  102.5000     7.9596     0.0361     0.1683     2.3935    98.4305     3.6234     4.6301     8.0397   -37.8176
