~VERSION INFORMATION
 VERS.                2.0:   CWLS LOG ASCII STANDARD - VERSION 2.0
 WRAP.                 NO:   ONE LINE PER DEPTH STEP
~WELL INFORMATION
#MNEM.UNIT      DATA TYPE    INFORMATION
#----------   ------------   ------------------------------
 STRT.F           11.0000:   START DEPTH
 STOP.F          915.0000:   STOP DEPTH
 STEP.F            0.5000:   STEP LENGTH
 NULL.          -999.2500:   NO VALUE
 COMP. U S NAVY/INTEX OIL CO:   COMPANY
 WELL.       N.P.R. #3-35:   WELL
 FLD .           TEAPOT E:   FIELD
 LOC .      S35 T39N R78W:   LOCATION
 CNTY.            NATRONA:   COUNTY
 STAT.            WYOMING:   STATE
 CTRY. UNITED STATES OF AMERICA:   COUNTRY
 SRVC.       Schlumberger:   SERVICE COMPANY
 DATE.        25-JUL-1953:   LOGDATE
 API .       490250653700:   API NUMBER
~CURVE INFORMATION
#MNEM.UNIT       API CODE    CURVE DESCRIPTION
#----------   ------------   ------------------------------
 DEPT.F                  :   
 SPR .MV     05 010 01 00:   SPONTANEOUS POTENTIAL FROM RES.
 CILD.MMHO   05 110 46 00:   CONDUCTIVITY INDUCTION LOG DEEP
 ILD .OHMM   05 120 46 00:   INDUCTION LOG DEEP
 ASN .OHMM   05 041 16 00:   AMPLIFIED SHORT NORMAL 16"
 GR  .GAPI   30 310 01 00:   GAMMA RAY
~PARAMETER INFORMATION
#MNEM.UNIT          VALUE    DESCRIPTION
#----------   ------------   ------------------------------
 EPD .F              5097:   ELEVATION PERMANENT DATUM
 LMF .                 KB:   LOG MEASURED FROM
 DMF .                 KB:   DRILLING MEASURED FROM
 EKB .F              5102:   KELLING BUSHING
 EGL .F              5097:   GROUND LEVEL
 DATE.           7-2-1963:   RUN DATE
 RUN .                  1:   RUN NUMBER
 DD  .F               916:   DEPTH DRILLER
 DL  .F               916:   DEPTH LOGGER
 BLI .F               915:   BOTTOM LOG INTERVAL
 TLI .F                90:   TOP LOG INTERVAL
 CS  .IN            8.625:   CASING SIZE
 CBD .F                10:   CASING BOTTOM DRILLER
 BS  .IN             6.75:   BIT SIZE
 BSD .F               916:   BIT SIZE AT DEPTH
 DFT .            GEL/OIL:   DRILLING FLUID TYPE
 DFD .                9.6:   DRILLING FLUID DENSITY
 DFV .                 67:   DRILLING FLUID VISCOSITY
 DFPH.                  9:   DRILLING FLUID PH
 DFL .                4.2:   DRILLING FLUID LOSS
 MSS .          FLOW LINE:   MUD SAMPLE SOURCE
 RMS .OHMM           2.92:   RESISTIVITY MUD SAMPLE
 MST .F                86:   MUD SAMPLE TEMPERATURE
 RMF .OHMM            2.6:   RESISTIVITY MUD FILTRATE SAMPLE
 MFST.F                86:   MUD FILTRATE SAMPLE TEMPERATURE
 RMC .OHMM           2.49:   RESISTIVITY MUD CAKE
 MCST.F                86:   MUD CAKE SAMPLE TEMPERATURE
 MFSS.                  M:   MUD FILTRATE SAMPLE SOURCE
 MCSS.                  M:   MUD CAKE SAMPLE SOURCE
 TCS .HRS              .5:   TIME CURCULATED STOPPED
 LUN .               4507:   LOGGING UNIT NUMBER
 ENGI.             KNOBEL:   RECORDING ENGINEER
 WITN.          JORGENSON:   WITNESSED BY
 CLNT.            A2DTECH:   CLIENT CODE
 ORIG.       2", 5" PRINT:   ORIGIN OF DATA
 UWI .       490250653700:   UNIQUE WELL ID
 DICO. A2D Technologies, Inc.:   DIGITIZING COMPANY
~OTHER INFORMATION
~A   DEPT      SPR       CILD        ILD        ASN          GR  
# ...
  377.0000   -34.0612   120.9514     7.7004     8.0194    48.2253
  377.5000   -34.2412   116.6055     7.9187     8.0503    49.8711
  378.0000   -34.4215   113.8510     7.8234     8.1900    50.0840
  378.5000   -34.6001   115.6185     7.6925     8.3348    49.4482
  379.0000   -34.5925   117.9363     7.5615     8.2715    43.8579
  379.5000   -34.5567   120.2542     7.4313     8.1531    46.1707
  380.0000   -34.5204   122.5720     7.3014     8.0329    47.6259
  380.5000   -34.4846   124.8898     7.1687     7.9136    45.1756
  381.0000   -34.4495   130.1714     7.0366     7.7471    45.9180
  381.5000   -34.4095   140.0840     6.5323     7.5382    42.9479
  382.0000   -34.2516   169.8804     5.6970     7.1431    40.5455
  382.5000   -34.0947   205.1417     4.8598     6.7135    40.0938
  383.0000   -33.9400   255.0818     4.0171     6.0423    43.3843
  383.5000   -33.7776   309.9938     3.1918     5.3689    46.0696
  384.0000   -33.3923   364.9059     2.8491     4.6957    48.8146
  384.5000   -33.0055   406.8116     2.5057     4.0061    50.8342
  385.0000   -32.6240   432.8437     2.2487     3.7390    52.4891
  385.5000   -32.3123   445.4355     2.2567     3.6339    52.5216
  386.0000   -32.3222   432.4569     2.3126     3.5304    52.6055
  386.5000   -32.3220   406.3623     2.5499     3.4316    47.9622
  387.0000   -32.3105   354.0142     2.9133     3.5735    46.1876
  387.5000   -32.6587   304.7917     3.4349     3.7470    45.3019
  388.0000   -33.0720   255.5149     4.0624     4.0558    39.8766
  388.5000   -33.4782   206.2191     5.3862     5.3506    29.4380
  389.0000   -34.1318   156.9082     6.9868     6.8758    23.1540
  389.5000   -34.8189   123.9915     8.5740     7.8929    24.2421
  390.0000   -35.1457   104.6962     9.5427     8.6111    26.3820
  390.5000   -35.4518    91.8153    10.3543     9.3287    26.5435
  391.0000   -35.4620    88.1133    11.1592    10.0289    23.2608
  391.5000   -35.4597    84.4701    11.5860    10.1652    21.9705
  392.0000   -35.3188    85.5194    10.7637    10.1657    21.2268
  392.5000   -35.0758   100.3952     9.4291    10.1672    22.8359
  393.0000   -34.8315   123.6894     8.0926    10.0209    27.1860
  393.5000   -34.5863   146.9836     6.8382     9.6168    29.1589
  394.0000   -34.3407   164.1613     6.1743     8.7340    29.7763
  394.5000   -34.0961   174.8359     5.6936     7.5062    34.2846
  395.0000   -33.8622   175.5809     5.6435     6.2641    39.8666
  395.5000   -33.0858   178.2782     5.5890     6.4878    44.0298
  396.0000   -32.1613   181.6502     5.5337     6.6540    44.5930
  396.5000   -32.9927   181.3838     5.6141     6.5136    39.8076
  397.0000   -33.9656   174.0156     5.8306     6.3997    30.0904
  397.5000   -35.0069   153.1320     6.7598     7.8200    30.2380
  398.0000   -35.4387   132.2350     7.7615     9.1215    29.0492
  398.5000   -35.8609   114.2347     8.5384     9.3805    27.9524
  399.0000   -35.7765   101.2592     8.8043     9.5998    26.8989
  399.5000   -35.6795   100.7563     9.0746     9.8251    27.7160
  400.0000   -35.7581   100.2046     9.3452    10.0529    29.8619
  400.5000   -35.8410    99.6529     9.6158    10.2800    29.4474
  401.0000   -36.1491    98.9447     9.8861    10.4958    28.8576
  401.5000   -36.6988    96.9380    10.1251    10.5708    28.2558
  402.0000   -37.2157    94.9313    10.1590    10.7317    28.8885
  402.5000   -37.1888    92.9246    10.1937    10.7644    29.6374
  403.0000   -36.9829    90.7660    10.2290    10.8067    23.1633
  403.5000   -36.8000    90.2623    10.1937    10.8504    25.4111
  404.0000   -36.8429    91.0148    10.1534    10.8954    27.3168
  404.5000   -37.0776    91.7673    10.1350    10.9402    26.1704
  405.0000   -37.3128    92.5199    10.1712    10.9850    26.1298
  405.5000   -37.5494    93.2724    10.2164    11.0297    29.1144
  406.0000   -37.7862    93.6171    10.4278    11.0748    24.2837
  406.5000   -38.0229    91.6030    10.6533    11.1193    30.7994
  407.0000   -38.2567    89.5889    10.8310    11.1579    36.7576
  407.5000   -38.4930    87.5754    11.0105    11.4255    37.3597
  408.0000   -38.2970    85.5597    11.1916    11.7528    38.1203
  408.5000   -37.7746    83.5451    11.3730    12.0842    37.8914
  409.0000   -37.4610    81.5297    11.5573    12.2967    37.4743
  409.5000   -37.2961    80.4653    11.5845    12.4233    38.2164
  410.0000   -37.1428    80.9792    11.5727    12.5497    39.7204
  410.5000   -37.3372    81.4931    11.5595    12.6756    39.7133
  411.0000   -37.5493    82.0070    11.5465    12.8026    38.5209
  411.5000   -37.7601    82.5209    11.5336    12.8122    39.5664
  412.0000   -37.9681    83.0348    11.5208    12.7447    40.7560
  412.5000   -38.1023    83.5487    11.5080    12.6762    40.1518
  413.0000   -38.3884    84.0627    11.4947    12.6061    39.1653
  413.5000   -38.9196    84.2689    11.5180    12.5445    37.6810
  414.0000   -39.4244    83.2526    11.5635    12.6706    34.5261
  414.5000   -39.3087    82.2366    11.6081    12.8034    31.3427
  415.0000   -39.0973    81.2202    11.6531    12.9351    30.6988
  415.5000   -38.8811    80.2083    11.7203    13.0674    30.8723
  416.0000   -39.0520    79.2235    12.0310    13.2304    31.5248
  416.5000   -39.4360    76.4229    12.5810    13.5116    29.5487
  417.0000   -39.8241    73.6983    13.1262    13.7899    27.7815
  417.5000   -40.2168    70.9737    13.6725    14.0501    26.7734
  418.0000   -40.1462    68.2491    14.2207    14.6532    25.6987
  418.5000   -40.0017    65.5245    14.7629    15.2884    28.9651
  419.0000   -39.8344    62.8227    15.0871    15.9305    30.2813
  419.5000   -39.2210    60.1889    15.4527    16.5720    29.7953
  420.0000   -38.7373    59.6712    15.7907    17.2141    30.9011
  420.5000   -38.4720    60.2565    15.7789    17.6656    31.9663
  421.0000   -38.8898    62.8860    15.3523    16.5416    33.2911
  421.5000   -39.4196    65.8359    14.9335    16.9215    40.0888
  422.0000   -40.1377    68.7857    14.2785    16.5396    38.6819
  422.5000   -41.7277    71.7356    13.6430    15.7036    35.9537
  423.0000   -43.5623    74.6854    13.0682    14.8685    33.4208
  423.5000   -45.3933    76.2523    12.6837    14.3055    34.1472
  424.0000   -46.4860    77.6385    12.2582    14.0338    31.2406
  424.5000   -46.8040    79.0247    11.8160    13.7727    33.6595
  425.0000   -46.9394    80.2728    11.7023    13.5097    38.8598
  425.5000   -46.8836    79.6936    11.6985    13.2391    44.0248
  426.0000   -46.8291    79.3298    11.6994    13.1483    47.3730
  426.5000   -46.7849    80.3174    11.6998    13.1153    36.9261
  427.0000   -46.2340    81.3051    11.6996    13.0850    38.6171
  427.5000   -45.5068    82.3715    11.6982    13.0635    36.4380
  428.0000   -44.7742    81.4019    11.7039    13.0640    35.2523
  428.5000   -44.0435    80.2728    12.0025    13.0640    36.7904
  429.0000   -43.4104    78.3105    12.3332    13.0642    40.1823
  429.5000   -43.4076    76.0447    12.6854    13.0646    42.5610
  430.0000   -43.4108    77.9436    12.2134    13.0646    41.2901
  430.5000   -43.4117    84.1698    11.4982    13.0264    39.2542
  431.0000   -43.3658    90.7309    10.7743    12.7631    43.9323
  431.5000   -42.9769    97.5842    10.0515    12.5172    46.4431
  432.0000   -41.4478   104.8186     9.3303    11.5687    46.7657
  432.5000   -39.6163   112.0543     8.6738    10.4349    52.5085
  433.0000   -37.0811   119.3389     8.1416     9.4232    55.6177
  433.5000   -34.4430   127.2403     7.7352     9.1747    57.9159
  434.0000   -32.9702   135.1417     7.3274     8.6161    60.8377
  434.5000   -32.0793   143.0430     6.9168     8.2797    59.1932
  435.0000   -32.1113   150.9444     6.4586     8.0429    57.5626
  435.5000   -32.1138   156.2886     6.2763     7.8039    59.6560
  436.0000   -32.1127   157.5042     6.1817     7.5560    61.9552
  436.5000   -32.1133   158.7198     6.0903     7.3307    57.2459
  437.0000   -32.1129   157.9972     6.0783     7.2170    53.5210
  437.5000   -32.1115   156.7681     6.1969     7.1207    53.6835
