~VERSION INFORMATION
 VERS.                2.0:   CWLS LOG ASCII STANDARD - VERSION 2.0
 WRAP.                 NO:   ONE LINE PER DEPTH STEP
~WELL INFORMATION
#MNEM.UNIT      DATA TYPE    INFORMATION
#----------   ------------   ------------------------------
 STRT.F           34.0000:   START DEPTH
 STOP.F          445.0000:   STOP DEPTH
 STEP.F            0.5000:   STEP LENGTH
 NULL.          -999.2500:   NO VALUE
 COMP. FENIX & SCISSON U.S. NAVY:   COMPANY
 WELL.       NPR #64-S-10:   WELL
 FLD .             TEAPOT:   FIELD
 LOC .      S10 T38N R78W:   LOCATION
 CNTY.            NATRONA:   COUNTY
 STAT.            WYOMING:   STATE
 CTRY. UNITED STATES OF AMERICA:   COUNTRY
 SRVC.              Welex:   SERVICE COMPANY
 DATE.        08-APR-1977:   LOGDATE
 API .       490251033400:   API NUMBER
~CURVE INFORMATION
#MNEM.UNIT       API CODE    CURVE DESCRIPTION
#----------   ------------   ------------------------------
 DEPT.F                  :   
 SPR .MV     07 010 01 00:   SPONTANEOUS POTENTIAL
 ILD .OHMM   07 120 46 00:   INDUCTION LOG DEEP
 ILM .OHMM   07 120 44 00:   INDUCTION LOG MEDIUM
 SGRD.OHMM   07 221 05 00:   SHALLOW SHORT GUARD RESISTIVITY
 CALD.IN     45 280 60 00:   CALIPER FROM DENSITY LOG
 GRD .GAPI   45 310 01 00:   GAMMA RAY FROM DENSITY LOG
 CORR.G/C3   45 356 01 00:   DENSITY CORRECTION
 RHOB.G/C3   45 350 01 00:   BULK DENSITY
 DPHI.DEC    45 890 12 00:   DENSITY POROSITY SANDSTONE
~PARAMETER INFORMATION
#MNEM.UNIT          VALUE    DESCRIPTION
#----------   ------------   ------------------------------
 PD  .                 GL:   PERMANENT DATUM
 EPD .F              5183:   ELEVATION PERMANENT DATUM
 LMF .                 GL:   LOG MEASURED FROM
 DMF .                 GL:   DRILLING MEASURED FROM
 EGL .F              5183:   GROUND LEVEL
 DATE.        08-APR-1977:   RUN DATE
 RUN .                  1:   RUN NUMBER
 DD  .F               455:   DEPTH DRILLER
 DL  .F               447:   DEPTH LOGGER
 BLI .F               445:   BOTTOM LOG INTERVAL
 TLI .F                34:   TOP LOG INTERVAL
 CS  .IN            8.625:   CASING SIZE
 BS  .IN            7.875:   BIT SIZE
 BSD .F               455:   BIT SIZE AT DEPTH
 DFT .           KCL- GEL:   DRILLING FLUID TYPE
 DFD .                8.3:   DRILLING FLUID DENSITY
 TCS .HRS            0100:   TIME CURCULATED STOPPED
 MRT .F                62:   MAXIMUM RECORDED TEMPERATURE
 ENGI.        E. CALLAHAN:   RECORDING ENGINEER
 WITN.            R. LYON:   WITNESSED BY
 CLNT.            A2DTECH:   CLIENT CODE
 ORIG.           5" PRINT:   ORIGIN OF DATA
 UWI .       490251033400:   UNIQUE WELL ID
 DICO. A2D Technologies, Inc.:   DIGITIZING COMPANY
~OTHER INFORMATION
~A   DEPT      SPR        ILD        ILM       SGRD       CALD        GRD        CORR        RHOB     DPHI   
# ...
  143.5000   -37.1760     8.2265     8.8089    10.7879     7.6398   117.5164     0.0533     2.4642     0.1207
  144.0000   -37.1866     8.1658     8.6841    10.9361     7.6712   117.9834     0.0579     2.4582     0.1158
  144.5000   -37.3458     8.1621     8.5019    11.2411     7.6876   117.4003     0.0626     2.4651     0.1134
  145.0000   -37.6554     8.0455     8.3814    11.0074     7.6891   116.0699     0.0657     2.4719     0.1122
  145.5000   -37.8146     7.9857     8.2048    10.6301     7.6906   115.0384     0.0628     2.4682     0.1124
  146.0000   -38.1242     7.9820     8.0886    10.6273     7.6621   113.5584     0.0494     2.4495     0.1181
  146.5000   -38.4337     7.9232     7.9740    10.6989     7.6487   114.7691     0.0450     2.4248     0.1328
  147.0000   -38.7433     7.8105     7.8610    10.7710     7.6352   115.8303     0.0489     2.4211     0.1385
  147.5000   -38.6018     7.6984     7.7497    10.6041     7.6368   115.8670     0.0535     2.4249     0.1373
  148.0000   -38.4601     7.5364     7.4301    10.0448     7.6535   115.1126     0.0589     2.4220     0.1366
  148.5000   -38.1590     7.2762     7.0263     9.6336     7.6550   114.8281     0.0643     2.4145     0.1369
  149.0000   -37.7260     6.9764     6.6444     9.1121     7.6412   115.1422     0.0682     2.4086     0.1435
  149.5000   -37.4363     6.5510     6.2833     8.7890     7.6430   116.0539     0.0698     2.4049     0.1450
  150.0000   -37.2925     6.0946     5.7393     8.3402     7.6591   118.9088     0.0712     2.4004     0.1491
  150.5000   -37.3035     5.5934     5.3421     7.8177     7.6332   119.1963     0.0704     2.3892     0.1581
  151.0000   -37.3124     5.0922     4.9450     7.2953     7.6094   118.6487     0.0747     2.3765     0.1683
  151.5000   -37.4715     4.9220     4.5478     6.7728     7.6048   115.6770     0.0794     2.3458     0.1779
  152.0000   -37.4804     4.4302     4.1906     6.1695     7.6068   113.8967     0.0795     2.3286     0.1923
  152.5000   -37.6396     3.9426     3.7884     5.5201     7.6233   114.6665     0.0781     2.3031     0.2067
  153.0000   -37.7988     3.4550     3.3560     4.8040     7.6251   115.5813     0.0602     2.2649     0.2220
  153.5000   -37.8076     3.0458     3.0867     4.1808     7.6119   116.6455     0.0468     2.2507     0.2397
  154.0000   -37.9669     2.8605     2.9803     3.5390     7.6138   118.4572     0.0394     2.2319     0.2505
  154.5000   -38.1263     2.9197     2.9791     3.2555     7.6155   119.9698     0.0366     2.2463     0.2430
  155.0000   -38.2874     3.0008     3.0405     3.9513     7.6323   122.0804     0.0337     2.2854     0.2240
  155.5000   -38.4466     3.1056     3.1465     7.2280     7.6341   125.9847     0.0353     2.3306     0.2039
  156.0000   -38.7562     3.2365     3.3017     4.9480     7.6508   127.7919     0.0355     2.3412     0.1861
  156.5000   -38.7650     3.5920     3.5373     3.4600     7.6526   125.5721     0.0431     2.3480     0.1840
  157.0000   -38.7738     4.0336     3.9252     6.1056     7.6551   126.0384     0.0493     2.3676     0.1767
  157.5000   -38.7827     4.4328     4.2467     8.7517     7.6712   128.4480     0.0539     2.4052     0.1452
  158.0000   -38.7915     4.7501     4.7273     9.0580     7.6879   129.5122     0.0540     2.4218     0.1307
  158.5000   -38.8003     5.2498     5.0647     9.0542     7.6897   130.2775     0.0527     2.4347     0.1307
  159.0000   -38.8091     5.5474     5.3887     8.8649     7.6915   130.8933     0.0528     2.4415     0.1262
  159.5000   -38.8181     5.7812     5.6545     8.6196     7.6783   131.3597     0.0545     2.4385     0.1252
  160.0000   -38.8271     5.9832     5.8924     8.3811     7.6642   131.5271     0.0651     2.4138     0.1351
  160.5000   -38.8378     6.1069     6.0563     8.2041     7.6370   131.2460     0.0683     2.4316     0.1297
  161.0000   -38.8466     6.1473     6.1384     8.1463     7.6079   130.0681     0.0684     2.4414     0.1252
  161.5000   -38.8555     6.0606     6.0507     8.1996     7.5808   129.4836     0.0655     2.4351     0.1260
  162.0000   -38.8643     5.8520     5.8421     8.4858     7.5665   130.2534     0.0641     2.4276     0.1344
  162.5000   -38.8731     5.4580     5.5566     8.9666     7.5545   130.1218     0.0628     2.4202     0.1404
  163.0000   -38.8819     5.1795     5.2540     9.2163     7.5564   129.8363     0.0614     2.4090     0.1416
  163.5000   -38.8908     4.9837     5.0788     8.8372     7.5731   131.5029     0.0615     2.4015     0.1494
  164.0000   -38.8996     4.9476     5.0068     5.0744     7.5749   132.7166     0.0647     2.3997     0.1506
  164.5000   -38.9084     4.9459     4.9358     4.6360     7.5916   132.8796     0.0678     2.4114     0.1439
  165.0000   -38.9173     4.9442     4.8997     7.2209     7.6099   131.1082     0.0710     2.4303     0.1316
  165.5000   -38.9263     4.9426     4.9323     8.0092     7.6401   130.2248     0.0711     2.4409     0.1234
  166.0000   -38.9371     5.0099     5.1037     6.0487     7.6568   130.3967     0.0727     2.4462     0.1216
  166.5000   -38.9459     5.0782     5.3184     5.4293     7.6735   132.3578     0.0714     2.4493     0.1204
  167.0000   -38.9547     5.2192     5.5038     8.4565     7.6753   132.9736     0.0670     2.4584     0.1168
  167.5000   -38.9635     5.4016     5.7373     8.6920     7.6621   133.5894     0.0596     2.4622     0.1145
  168.0000   -38.9724     5.6486     5.9474     7.7227     7.6490   134.2052     0.0552     2.4510     0.1189
  168.5000   -38.8286     5.8663     6.2708     7.4578     7.6508   134.3681     0.0509     2.4443     0.1227
  169.0000   -38.8396     6.2416     6.5346     9.5010     7.6526   132.2978     0.0495     2.4458     0.1213
  169.5000   -38.8485     6.5954     6.8095     9.9010     7.6544   128.1304     0.0496     2.4549     0.1181
  170.0000   -38.7068     6.9212     7.0959    10.1759     7.6561   124.8598     0.0513     2.4603     0.1155
  170.5000   -38.7158     7.2630     7.3433    10.4584     7.6430   123.3784     0.0529     2.4573     0.1169
  171.0000   -38.5742     7.5168     7.5994    10.6051     7.6448   124.4472     0.0545     2.4544     0.1181
  171.5000   -38.5852     7.6192     7.7025    10.8198     7.6466   125.2125     0.0577     2.4552     0.1167
  172.0000   -38.4415     7.7230     7.7529    10.8913     7.6484   125.9778     0.0593     2.4590     0.1153
  172.5000   -38.1517     7.7204     7.8036    10.8867     7.6352   126.7430     0.0625     2.4598     0.1153
  173.0000   -38.0102     7.7175     7.7464    10.7333     7.6221   127.8073     0.0641     2.4584     0.1183
  173.5000   -37.8664     7.6086     7.6891    10.4363     7.6239   129.7684     0.0642     2.4502     0.1216
  174.0000   -37.7249     7.5009     7.5277    10.0774     7.6257   130.2347     0.0659     2.4450     0.1197
  174.5000   -37.5833     7.3440     7.4210     9.8667     7.6275   128.7579     0.0645     2.4534     0.1170
  175.0000   -37.5944     7.2403     7.3667     9.8634     7.6293   128.1734     0.0632     2.4557     0.1188
  175.5000   -37.4526     7.1879     7.3128     9.7920     7.6311   129.6906     0.0603     2.4482     0.1212
  176.0000   -37.3112     7.1358     7.2593     9.6539     7.6478   130.9043     0.0566     2.4505     0.1211
  176.5000   -37.1697     7.0840     7.1564     9.5096     7.6496   130.6232     0.0531     2.4454     0.1241
  177.0000   -37.0281     6.8879     6.8619     9.2537     7.6514   129.1464     0.0487     2.4296     0.1289
  177.5000   -36.7362     6.6972     6.4889     9.1232     7.6532   128.4169     0.0451     2.4192     0.1385
  178.0000   -36.7472     6.3334     6.2184     9.0571     7.6578   129.6306     0.0414     2.4102     0.1445
  178.5000   -36.7561     6.0732     6.0491     8.9915     7.6717   130.9938     0.0461     2.4013     0.1487
  179.0000   -36.6123     5.7831     5.8807     8.8648     7.6735   132.3570     0.0507     2.3976     0.1504
  179.5000   -36.7737     5.6621     5.7974     8.5600     7.6753   131.3286     0.0539     2.4037     0.1513
