~VERSION INFORMATION
 VERS.                2.0:   CWLS LOG ASCII STANDARD - VERSION 2.0
 WRAP.                 NO:   ONE LINE PER DEPTH STEP
~WELL INFORMATION
#MNEM.UNIT      DATA TYPE    INFORMATION
#----------   ------------   ------------------------------
 STRT.F           30.0000:   START DEPTH
 STOP.F          715.0000:   STOP DEPTH
 STEP.F            0.5000:   STEP LENGTH
 NULL.          -999.2500:   NO VALUE
 COMP. FENIX & SCISSON INC:   COMPANY
 WELL.   NPR-3 #84SX15-15:   WELL
 FLD .             TEAPOT:   FIELD
 LOC .      S15 T38N R78W:   LOCATION
 CNTY.            NATRONA:   COUNTY
 STAT.            WYOMING:   STATE
 CTRY. UNITED STATES OF AMERICA:   COUNTRY
 SRVC.            Unknown:   SERVICE COMPANY
 DATE.        15-MAY-1978:   LOGDATE
 API .       490251064000:   API NUMBER
~CURVE INFORMATION
#MNEM.UNIT       API CODE    CURVE DESCRIPTION
#----------   ------------   ------------------------------
 DEPT.F                  :   
 SPR .MV     05 010 01 00:   SPONTANEOUS POTENTIAL FROM RES.
 SN  .OHMM   05 040 16 00:   SHORT NORMAL 16"
 ILD .OHMM   05 120 46 00:   INDUCTION LOG DEEP
 CALD.IN     45 280 60 00:   CALIPER FROM DENSITY LOG
 GRD .GAPI   45 310 01 00:   GAMMA RAY FROM DENSITY LOG
 CORR.G/C3   45 356 01 00:   DENSITY CORRECTION
 DPHI.DEC    45 890 12 00:   DENSITY POROSITY SANDSTONE
 DEN .G/C3   45 350 01 00:   COMPENSATED BULK DENSITY
~PARAMETER INFORMATION
#MNEM.UNIT          VALUE    DESCRIPTION
#----------   ------------   ------------------------------
 PD  .                 GL:   PERMANENT DATUM
 EPD .F              5247:   ELEVATION PERMANENT DATUM
 LMF .                 KB:   LOG MEASURED FROM
 DMF .                 KB:   DRILLING MEASURED FROM
 EKB .F              5251:   KELLING BUSHING
 EGL .F              5247:   GROUND LEVEL
 DATE.        15-MAY-1978:   RUN DATE
 RUN .                  1:   RUN NUMBER
 DD  .F               725:   DEPTH DRILLER
 DL  .F               720:   DEPTH LOGGER
 BLI .F               713:   BOTTOM LOG INTERVAL
 TLI .F                40:   TOP LOG INTERVAL
 CS  .IN            8.625:   CASING SIZE
 CBD .F                40:   CASING BOTTOM DRILLER
 CBL .F                40:   CASING BOTTOM LOGGER
 BS  .IN            7.875:   BIT SIZE
 BSD .F               725:   BIT SIZE AT DEPTH
 DFT .                KCL:   DRILLING FLUID TYPE
 DFD .                8.6:   DRILLING FLUID DENSITY
 DFV .                 33:   DRILLING FLUID VISCOSITY
 DFPH.                9.5:   DRILLING FLUID PH
 DFL .                 12:   DRILLING FLUID LOSS
 MSS .           FLOWLINE:   MUD SAMPLE SOURCE
 RMS .OHMM             .2:   RESISTIVITY MUD SAMPLE
 MST .F                80:   MUD SAMPLE TEMPERATURE
 RMF .OHMM            .18:   RESISTIVITY MUD FILTRATE SAMPLE
 MFST.F                83:   MUD FILTRATE SAMPLE TEMPERATURE
 RMC .OHMM            .26:   RESISTIVITY MUD CAKE
 MCST.F                83:   MUD CAKE SAMPLE TEMPERATURE
 MFSS.               MEAS:   MUD FILTRATE SAMPLE SOURCE
 RMB .OHMM             .2:   RESISTIVITY MUD AT BHT
 BHT .F                80:   BOTTOM HOLE TEMPERATURE
 TCS .HRS            0200:   TIME CURCULATED STOPPED
 MRT .F                80:   MAXIMUM RECORDED TEMPERATURE
 LUN .               3006:   LOGGING UNIT NUMBER
 LUL .               CASP:   LOGGING UNIT LOCATION
 ENGI.             MILLER:   RECORDING ENGINEER
 WITN.           MCGINLEY:   WITNESSED BY
 CLNT.            A2DTECH:   CLIENT CODE
 ORIG.           5" PRINT:   ORIGIN OF DATA
 UWI .       490251064000:   UNIQUE WELL ID
 DICO. A2D Technologies, Inc.:   DIGITIZING COMPANY
~OTHER INFORMATION
~A   DEPT      SPR         SN        ILD       CALD         GRD      CORR       DPHI        DEN   
# ...
  637.5000    -1.8798     9.5930    11.4825     7.4773    58.5616     0.0639     0.1579     2.4120
  638.0000    -2.0331     9.5910    11.3225     7.4924    60.3915     0.0846     0.1482     2.4275
  638.5000    -2.1865     9.5891    11.1647     7.4169    62.3123     0.1025     0.1471     2.4530
  639.0000    -2.4913     9.5871    11.0854     7.2508    63.0755     0.0790     0.1459     2.4478
  639.5000    -2.7940     9.5851    11.0832     7.1148    63.9458     0.0498     0.1330     2.4305
  640.0000    -2.6466     9.5831    11.0804     7.0695    61.0438     0.0437     0.1300     2.4606
  640.5000    -2.6642     9.5812    11.0781     7.1299    60.0301     0.0391     0.1207     2.4696
  641.0000    -2.8030     9.5792    10.8484     7.2508    61.1024     0.0377     0.1306     2.4666
  641.5000    -2.7006     9.5772    10.7715     7.4169    62.7581     0.0376     0.1339     2.4606
  642.0000    -2.5689     9.5752    10.8445     7.4773    63.9539     0.0376     0.1339     2.4576
  642.5000    -2.3607     9.6397    10.8417     7.4924    64.3976     0.0391     0.1318     2.4606
  643.0000    -1.9133     9.6377    10.8395     7.4320    64.0894     0.0436     0.1255     2.4666
  643.5000    -1.1637     9.6357    10.8373     7.3263    63.4940     0.0467     0.1225     2.4696
  644.0000    -3.7238     9.6337    10.8350     7.3565    64.1205     0.0418     0.1268     2.4688
  644.5000    -4.9298     9.6986    10.9080     7.4924    65.9201     0.0373     0.1259     2.4688
  645.0000    -5.2336     9.6966    10.9057     7.5529    66.3554     0.0313     0.1199     2.4696
  645.5000    -5.2365     9.6945    10.9035     7.4320    65.7395     0.0357     0.1184     2.4726
  646.0000    -5.2395     9.7024    10.9012     7.2054    64.6947     0.0387     0.1292     2.4786
  646.5000    -5.2425     9.7578    11.0507     7.3112    63.3152     0.0432     0.1295     2.4643
  647.0000    -5.5462     9.7557    11.0485     7.3565    62.1386     0.0431     0.1295     2.4636
  647.5000    -6.0004     9.7533    10.8945     7.1299    62.2892     0.0416     0.1283     2.4666
  648.0000    -6.1537     9.7513    10.6686     7.0091    59.2771     0.0430     0.1227     2.4703
  648.5000    -6.3071     9.7493    10.5929     7.3414    62.3000     0.0490     0.1151     2.4778
  649.0000    -6.4604     9.7472    10.5183     7.4320    64.0993     0.0610     0.1088     2.4876
  649.5000    -6.7642     9.7452    10.5891     7.3716    64.6988     0.0655     0.1098     2.4989
  650.0000    -6.7746     9.7391    10.7398     7.3565    64.6988     0.0466     0.1209     2.4839
  650.5000    -6.8240     9.6829    10.7727     7.4255    64.8509     0.0375     0.1226     2.4799
  651.0000    -6.8734     9.6267    10.8027     7.4931    64.8524     0.0309     0.1245     2.4759
  651.5000    -6.9265     9.5706    10.6507     7.3103    64.3659     0.0309     0.1161     2.4755
  652.0000    -7.0799     9.5144    10.2150     7.3197    63.4999     0.0327     0.1137     2.4875
  652.5000    -7.0829     9.4678     9.9336     7.5393    68.3211     0.0354     0.1128     2.4912
  653.0000    -7.2363     9.4658     9.9309     7.6152    70.7318     0.0354     0.1116     2.4956
  653.5000    -7.3897     9.4639     9.9977     7.6608    69.0771     0.0369     0.1083     2.4926
  654.0000    -7.5430     9.4619     9.9943     7.6158    68.3252     0.0370     0.1065     2.4896
  654.5000    -7.6235     9.5261     9.9915     7.4801    67.8749     0.0370     0.1077     2.4843
  655.0000    -7.7383     9.5236     9.9888     7.4049    68.3285     0.0400     0.1069     2.4835
  655.5000    -7.8530     9.4560     9.9172     7.4354    68.9324     0.0415     0.1066     2.4875
  656.0000    -7.9678     9.4541     9.9145     7.4507    71.3436     0.0385     0.1042     2.4995
  656.5000    -8.0826     9.4522     9.8434     7.4209    69.9896     0.0370     0.1015     2.5014
  657.0000    -8.1973     9.4502     9.8407     7.3608    68.3345     0.0310     0.1057     2.4991
  657.5000    -8.3159     9.4482     9.5696     7.3611    68.3360     0.0235     0.1141     2.4930
  658.0000    -8.4693     9.4463     9.5010     7.3160    68.3375     0.0190     0.1210     2.4817
  658.5000    -8.6226     9.4443     9.4330     7.3617    68.7908     0.0191     0.1243     2.4772
  659.0000    -8.6256     9.3774     9.3009     7.4224    68.9429     0.0251     0.1256     2.4719
  659.5000    -8.6286     9.4402     9.2983     7.4982    69.3962     0.0296     0.1235     2.4696
  660.0000    -8.6316     9.4385     9.2957     7.5589    68.9459     0.0296     0.1176     2.4741
  660.5000    -9.0858     9.4363     9.2291     7.6196    68.3449     0.0266     0.1127     2.4868
  661.0000    -9.2391     9.4345     9.2266     7.6653    66.6898     0.0266     0.1167     2.4905
  661.5000    -9.2421     9.4326     9.1605     7.6202    65.4624     0.0267     0.1172     2.4837
  662.0000    -9.0947     9.4306     9.0948     7.5601    67.1446     0.0267     0.1154     2.4837
  662.5000    -9.0977     9.2351     9.0297     7.5000    67.7485     0.0300     0.1079     2.4917
  663.0000    -9.1007     9.1064     8.9650     7.6211    66.5214     0.0372     0.1019     2.5039
  663.5000    -9.2541     8.9795     8.7180     7.5133    64.1250     0.0373     0.1034     2.5016
  664.0000    -9.2535     8.9158     8.5367     7.3801    64.3435     0.0358     0.1067     2.4971
  664.5000    -9.2425     8.8525     8.4755     7.3652    67.1579     0.0313     0.1236     2.4865
  665.0000    -9.2315     8.7291     8.4732     7.3656    75.5876     0.0268     0.1252     2.4775
  665.5000    -9.2204     8.6074     8.4125     7.4414    74.2337     0.0208     0.1260     2.4722
  666.0000    -9.2094     8.6056     8.4101     7.5022    69.7171     0.0178     0.1234     2.4714
  666.5000    -9.1984     8.4857     8.3499     7.5780    68.8146     0.0148     0.1188     2.4758
  667.0000    -9.1873     8.3674     8.3476     7.5631    68.8165     0.0193     0.1209     2.4773
  667.5000    -9.1763     8.3657     8.2878     7.5030    68.3658     0.0238     0.1191     2.4796
  668.0000    -9.1653     8.3048     8.2855     7.3825    67.0123     0.0299     0.1122     2.4834
  668.5000    -9.1543     8.1885     8.1694     7.2469    65.8086     0.0374     0.1095     2.4946
  669.0000    -9.1432     8.1324     8.1109     7.2018    67.1658     0.0374     0.1092     2.4952
  669.5000    -9.1397     8.0191     7.9422     7.2777    70.0288     0.0329     0.1104     2.4936
  670.0000    -9.1435     7.9073     7.7234     7.3686    73.3435     0.0299     0.1167     2.4883
  670.5000    -9.1465     7.7393     7.5106     7.3991    75.0016     0.0239     0.1273     2.4770
  671.0000    -9.1489     7.4787     6.9107     7.4145    74.8525     0.0194     0.1330     2.4650
  671.5000    -9.1519     7.2635     5.8929     7.4299    74.2516     0.0194     0.1453     2.4537
  672.0000    -9.1549     6.9709     5.4222     7.4000    72.5965     0.0212     0.1595     2.4341
  672.5000    -9.1579     6.6805     5.1646     7.4003    70.7907     0.0255     0.1613     2.4175
  673.0000    -9.1612     6.4625     5.0922     7.4308    72.1477     0.0302     0.1541     2.4107
  673.5000    -8.8634     6.2126     5.1262     7.4462    79.6793     0.0676     0.1273     2.4227
  674.0000    -7.8138     5.7774     5.1961     7.4616    87.5121     0.0616     0.1129     2.4640
  674.5000    -7.6657     5.6634     5.4147     7.4921    94.8931     0.0376     0.1019     2.4775
  675.0000    -7.6694     5.8277     5.8008     7.5076    91.8825     0.0331     0.0957     2.5113
  675.5000    -7.8228     6.0318     6.3887     7.5230    87.9327     0.0376     0.0901     2.5278
  676.0000    -7.8258     6.4077     6.7970     7.5221    75.1446     0.0542     0.0961     2.5270
  676.5000    -7.8288     7.0210     7.2816     7.5085    71.9536     0.0376     0.0994     2.5134
  677.0000    -7.8318     7.6690     7.5880     7.4737    69.9789     0.0316     0.1000     2.5051
  677.5000    -7.8348     8.2163     7.9621     7.4034    68.9984     0.0332     0.0949     2.5088
