~VERSION INFORMATION
 VERS.                2.0:   CWLS LOG ASCII STANDARD - VERSION 2.0
 WRAP.                 NO:   ONE LINE PER DEPTH STEP
~WELL INFORMATION
#MNEM.UNIT      DATA TYPE    INFORMATION
#----------   ------------   ------------------------------
 STRT.F            0.0000:   START DEPTH
 STOP.F         3139.0000:   STOP DEPTH
 STEP.F            0.5000:   STEP LENGTH
 NULL.          -999.2500:   NO VALUE
 COMP. BROWN JOHN E&C INC:   COMPANY
 WELL.       TX-10 #63-10:   WELL
 FLD .             TEAPOT:   FIELD
 LOC .      S10 T38N R78W:   LOCATION
 CNTY.            NATRONA:   COUNTY
 STAT.            WYOMING:   STATE
 CTRY. UNITED STATES OF AMERICA:   COUNTRY
 SRVC.       Schlumberger:   SERVICE COMPANY
 DATE.        05-OCT-1982:   LOGDATE
 API .       490251090100:   API NUMBER
~CURVE INFORMATION
#MNEM.UNIT       API CODE    CURVE DESCRIPTION
#----------   ------------   ------------------------------
 DEPT.F                  :   
 DPHI.DEC    45 890 12 00:   DENSITY POROSITY  SANDSTONE
 GRD .GAPI   45 310 01 00:   GAMMA RAY FROM DENSITY LOG
 NPHI.DEC    42 890 03 00:   NEUTRON POROSITY SANDSTONE
 CALD.IN     45 280 60 00:   CALIPER FROM DENSITY LOG
 CORR.G/C3   45 356 01 00:   DENSITY CORRECTION
 RHOB.G/C3   45 350 01 00:   BULK DENSITY
 ILD .OHMM   07 120 46 00:   INDUCTION LOG DEEP
 ILM .OHMM   07 120 44 00:   INDUCTION LOG MEDIUM
 SFLU.OHMM   07 220 01 00:   SPHERICALLY FOCUSED LOG UNAVERAGED RESISTIVITY
 SPR .MV     07 010 01 00:   SPONTANEOUS POTENTIAL
~PARAMETER INFORMATION
#MNEM.UNIT          VALUE    DESCRIPTION
#----------   ------------   ------------------------------
 PD  .                 GL:   PERMANENT DATUM
 EPD .F              5189:   ELEVATION PERMANENT DATUM
 LMF .                 KB:   LOG MEASURED FROM
 DAPD.F                10:   FEET ABOVE PERMANENT DATUM
 DMF .                 KB:   DRILLING MEASURED FROM
 EKB .F              5199:   KELLING BUSHING
 EGL .F              5189:   GROUND LEVEL
 DATE.        05-OCT-1982:   RUN DATE
 RUN .                  1:   RUN NUMBER
 DD  .F              3200:   DEPTH DRILLER
 DL  .F              3142:   DEPTH LOGGER
 BLI .F              3139:   BOTTOM LOG INTERVAL
 TLI .F               484:   TOP LOG INTERVAL
 CS  .IN            9.625:   CASING SIZE
 CBD .F               482:   CASING BOTTOM DRILLER
 CBL .F               484:   CASING BOTTOM LOGGER
 BS  .IN            7.875:   BIT SIZE
 BSD .F              3200:   BIT SIZE AT DEPTH
 DFT .        KCL/POLYMER:   DRILLING FLUID TYPE
 DFD .                8.6:   DRILLING FLUID DENSITY
 DFV .                 38:   DRILLING FLUID VISCOSITY
 DFPH.                8.5:   DRILLING FLUID PH
 DFL .                6.8:   DRILLING FLUID LOSS
 MSS .           MUD TANK:   MUD SAMPLE SOURCE
 RMS .OHMM            .40:   RESISTIVITY MUD SAMPLE
 MST .F                64:   MUD SAMPLE TEMPERATURE
 RMF .OHMM            .34:   RESISTIVITY MUD FILTRATE SAMPLE
 MFST.F                64:   MUD FILTRATE SAMPLE TEMPERATURE
 RMC .OHMM            .36:   RESISTIVITY MUD CAKE
 MCST.F                64:   MUD CAKE SAMPLE TEMPERATURE
 MFSS.               MEAS:   MUD FILTRATE SAMPLE SOURCE
 MCSS.               CALC:   MUD CAKE SAMPLE SOURCE
 RMB .OHMM             .2:   RESISTIVITY MUD AT BHT
 BHT .F               125:   BOTTOM HOLE TEMPERATURE
 TCS .HRS            2300:   TIME CURCULATED STOPPED
 TLAB.HRS            0500:   TIME LOGGER AT BOTTOM
 MRT .F               125:   MAXIMUM RECORDED TEMPERATURE
 LUN .               8043:   LOGGING UNIT NUMBER
 LUL .                GLT:   LOGGING UNIT LOCATION
 ENGI.            NEUFFER:   RECORDING ENGINEER
 WITN.             STRONG:   WITNESSED BY
 CLNT.            A2DTECH:   CLIENT CODE
 ORIG.           5" PRINT:   ORIGIN OF DATA
 UWI .       490251090100:   UNIQUE WELL ID
 DICO. A2D Technologies, Inc.:   DIGITIZING COMPANY
~OTHER INFORMATION
~A    DEPT    DPHI          GRD     NPHI       CALD       CORR       RHOB        ILD        ILM       SFLU        SPR   
# ...
 1541.0000     0.0710    91.6634     0.2851    11.3924     0.0935     2.5220     8.6188     7.1668     8.5247   -83.6300
 1541.5000     0.0593    95.3300     0.2786    11.3769     0.1170     2.5460     8.5561     6.9707     8.5205   -83.6356
 1542.0000     0.0537    95.3272     0.2851    11.4221     0.1346     2.5737     8.4931     7.0667     8.4003   -83.6413
 1542.5000     0.0478    95.6195     0.2965    11.4674     0.1672     2.5812     8.5495     7.3137     8.3970   -83.6484
 1543.0000     0.0587    95.3210     0.3066    11.4671     0.1436     2.5564     8.6046     7.5175     8.3937   -83.5007
 1543.5000     0.0775    94.4333     0.3148    11.4499     0.0881     2.5263     8.6608     7.7270     8.3897   -83.2037
 1544.0000     0.0926    90.0057     0.3110    11.4057     0.0522     2.5039     8.7770     7.8342     8.4446   -82.9055
 1544.5000     0.0855    87.6345     0.3014    11.3903     0.0471     2.5167     8.8021     7.9964     8.5006   -82.7606
 1545.0000     0.0755    88.8196     0.2992    11.3445     0.0464     2.5271     8.8921     7.9401     8.6465   -82.6129
 1545.5000     0.0714    90.5867     0.2986    11.3138     0.0471     2.5391     9.0122     7.8302     8.7909   -82.6201
 1546.0000     0.0678    89.6990     0.2894    11.2983     0.0456     2.5451     9.0079     7.7688     8.9097   -82.4737
 1546.5000     0.0611    89.4013     0.2732    11.3132     0.0532     2.5518     9.1296     7.5623     9.0302   -82.6327
 1547.0000     0.0528    92.0527     0.2682    11.3129     0.0714     2.5593     9.1260     7.4576     9.1590   -82.6384
 1547.5000     0.0422    93.5255     0.2782    11.3278     0.1261     2.5780     9.1848     7.3544     9.2122   -82.6455
 1548.0000     0.0378    93.2271     0.2862    11.3123     0.1733     2.5960     9.1812     7.6115     9.2077   -82.8031
 1548.5000     0.0470    87.6189     0.2903    11.3120     0.1436     2.5810     9.1145     7.9324     9.2041   -82.9608
 1549.0000     0.0532    85.2563     0.2758    11.3269     0.1246     2.5712     9.0403     7.9866     9.2004   -82.9666
 1549.5000     0.0523    84.9592     0.2632    11.3265     0.1063     2.5735     8.8585     7.9272     9.1327   -82.9735
 1550.0000     0.0499    90.5605     0.2599    11.3111     0.1015     2.5690     8.7345     7.6600     8.9419   -82.9792
 1550.5000     0.0544    93.4992     0.2688    11.3414     0.0995     2.5645     8.7902     7.3991     8.8157   -83.0941
 1551.0000     0.0588    92.8953     0.2770    11.3414     0.0927     2.5569     8.6664     7.1419     8.6099   -83.3397
 1551.5000     0.0620    93.1792     0.2817    11.4021     0.0790     2.5448     8.5442     7.1387     8.3342   -83.5854
 1552.0000     0.0697    93.7580     0.2852    11.4325     0.0516     2.5186     8.2504     6.9404     8.2167   -83.9270
 1552.5000     0.0935    94.6291     0.2907    11.4476     0.0447     2.5043     8.0781     6.7951     8.2135   -83.9375
 1553.0000     0.0779    92.5530     0.2990    11.4628     0.0842     2.5297     8.0750     6.9343     8.0969   -83.9459
 1553.5000     0.0662    88.7071     0.3062    11.4628     0.1374     2.5559     8.1271     7.2234     8.2072   -83.8023
 1554.0000     0.0620    86.3361     0.3102    11.4628     0.1343     2.5476     8.2940     7.4224     8.3751   -83.8128
 1554.5000     0.0777    87.7971     0.3018    11.4628     0.1001     2.5205     8.4061     7.6268     8.5464   -83.8212
 1555.0000     0.0868    90.4408     0.2900    11.4476     0.0737     2.5183     8.5195     7.7294     8.6624   -83.6777
 1555.5000     0.0824    92.4946     0.2792    11.4476     0.0590     2.5265     8.7550     7.7794     8.9013   -83.5362
 1556.0000     0.0812    94.8433     0.2736    11.4325     0.0461     2.5257     8.8725     7.7216     9.0926   -83.3905
 1556.5000     0.0856    95.7172     0.2745    11.4325     0.0438     2.5204     8.9998     7.7180     9.1437   -83.4012
 1557.0000     0.0848    95.4083     0.2768    11.4325     0.0430     2.5203     9.1762     7.6607     9.1393   -83.4115
 1557.5000     0.0842    94.2172     0.2806    11.4628     0.0361     2.5128     9.2363     7.6046     9.1358   -83.2659
 1558.0000     0.0907    94.2060     0.2836    11.4628     0.0331     2.5023     9.1683     7.5489     9.1315   -83.1244
 1558.5000     0.0963    95.9884     0.2871    11.4628     0.0346     2.5120     9.1017     7.5447     9.0833   -83.1349
 1559.0000     0.0842    96.8387     0.2901    11.4932     0.0444     2.5292     9.0982     7.5938     8.9352   -83.2953
 1559.5000     0.0708    95.3498     0.2930    11.5235     0.0666     2.5576     8.9656     7.5902     8.8104   -83.3040
 1560.0000     0.0565    94.4537     0.2942    11.5235     0.0862     2.5696     8.8428     7.5859     8.6861   -83.3142
 1560.5000     0.0585    94.4425     0.2931    11.5387     0.0846     2.5508     8.7182     7.5825     8.6230   -83.3222
 1561.0000     0.0697    94.4287     0.2886    11.5235     0.0861     2.5477     8.5945     7.5791     8.6189   -83.3331
 1561.5000     0.0608    93.5326     0.2748    11.5235     0.1142     2.5724     8.5912     7.6274     8.6155   -83.3404
 1562.0000     0.0452    89.9816     0.2660    11.5235     0.1366     2.6009     8.5879     7.6239     8.5392   -83.1958
 1562.5000     0.0361    89.0855     0.2839    11.5235     0.1316     2.5693     8.5838     7.6206     8.4900   -83.2084
 1563.0000     0.0529    89.3666     0.2919    11.5235     0.0951     2.5423     8.5805     7.6699     8.5455   -83.2168
 1563.5000     0.0691    90.5354     0.2954    11.5235     0.0792     2.5498     8.6965     7.6656     8.6016   -83.3751
 1564.0000     0.0638    90.8221     0.2887    11.5245     0.0829     2.5572     8.7534     7.6095     8.5974   -83.0824
 1564.5000     0.0596    89.9232     0.2846    11.5539     0.0776     2.5549     8.8717     7.6058     8.7145   -82.9388
 1565.0000     0.0620    89.9093     0.2896    11.5083     0.0768     2.5564     8.9907     7.6018     8.8927   -82.6454
 1565.5000     0.0635    90.7831     0.2958    11.4780     0.0791     2.5616     9.1754     7.5461     9.0755   -82.6538
 1566.0000     0.0541    92.2469     0.2875    11.4476     0.0874     2.5735     9.2985     7.5426     9.1982   -82.6643
 1566.5000     0.0476    93.1207     0.2840    11.4325     0.1003     2.5773     9.2950     7.5385     9.0435   -82.6727
 1567.0000     0.0482    93.9945     0.2825    11.4021     0.0904     2.5764     9.1639     7.5351     8.9058   -82.6811
 1567.5000     0.0493    94.8656     0.2853    11.4173     0.0873     2.5734     9.0340     7.5839     8.8134   -82.6916
 1568.0000     0.0502    95.4472     0.2908    11.4173     0.0866     2.5711     8.9067     7.5797     8.8095   -82.7000
 1568.5000     0.0526    94.5483     0.2967    11.4325     0.0820     2.5628     8.8979     7.5763     8.6852   -82.7084
 1569.0000     0.0599    93.3215     0.2999    11.4325     0.0679     2.5486     8.7770     7.6254     8.6015   -83.0229
 1569.5000     0.0714    92.7534     0.2955    11.4476     0.0584     2.5380     8.7736     7.5687     8.6180   -83.0312
 1570.0000     0.0735    92.1523     0.2967    11.4476     0.0523     2.5372     8.7702     7.5653     8.5850   -83.0397
 1570.5000     0.0758    91.8462     0.3002    11.4476     0.0477     2.5281     8.7661     7.5099     8.6114   -83.3541
 1571.0000     0.0820    92.1533     0.3014    11.4310     0.0446     2.5213     8.7627     7.4540     8.6075   -83.3625
 1571.5000     0.0842    93.0038     0.2985    11.4021     0.0416     2.5206     8.7593     7.4616     8.6039   -83.3709
 1572.0000     0.0680    93.2877     0.2920    11.4173     0.0499     2.5370     8.8769     7.4990     8.5998   -83.6854
 1572.5000     0.0552    93.5715     0.2876    11.4476     0.0598     2.5549     8.8735     7.5475     8.6564   -83.6938
 1573.0000     0.0517    93.5575     0.2835    11.4481     0.0711     2.5661     8.8701     7.5964     8.7733   -83.3982
 1573.5000     0.0532    93.5437     0.2800    11.4476     0.0795     2.5691     8.9891     7.7510     8.9526   -83.1027
 1574.0000     0.0594    93.5326     0.2782    11.4476     0.0863     2.5578     9.1106     7.9097     9.0436   -82.8071
