~VERSION INFORMATION
 VERS.                2.0:   CWLS LOG ASCII STANDARD - VERSION 2.0
 WRAP.                 NO:   ONE LINE PER DEPTH STEP
~WELL INFORMATION
#MNEM.UNIT      DATA TYPE    INFORMATION
#----------   ------------   ------------------------------
 STRT.F           12.0000:   START DEPTH
 STOP.F          664.5000:   STOP DEPTH
 STEP.F            0.5000:   STEP LENGTH
 NULL.          -999.2500:   NO VALUE
 COMP. LAWRENCE/ALLISON INC:   COMPANY
 WELL.   23-16 SHX #14-14:   WELL
 FLD .             TEAPOT:   FIELD
 LOC .      S14 T38N R78W:   LOCATION
 CNTY.            NATRONA:   COUNTY
 STAT.            WYOMING:   STATE
 CTRY. UNITED STATES OF AMERICA:   COUNTRY
 SRVC.           Gearhart:   SERVICE COMPANY
 DATE.        03-JUL-1987:   LOGDATE
 API .       490251114200:   API NUMBER
~CURVE INFORMATION
#MNEM.UNIT       API CODE    CURVE DESCRIPTION
#----------   ------------   ------------------------------
 DEPT.F                  :   
 RILD.OHMM   07 120 46 00:   INDUCTION LOG DEEP RESISTIVITY
 RILM.OHMM   07 120 44 00:   INDUCTION LOG MEDIUM RESISTIVITY
 GRR .GAPI   07 310 01 00:   GAMMA RAY FROM RES. LOG
~PARAMETER INFORMATION
#MNEM.UNIT          VALUE    DESCRIPTION
#----------   ------------   ------------------------------
 PD  .                 GL:   PERMANENT DATUM
 EPD .F              5203:   ELEVATION PERMANENT DATUM
 LMF .                 KB:   LOG MEASURED FROM
 DAPD.F                 8:   FEET ABOVE PERMANENT DATUM
 DMF .                 KB:   DRILLING MEASURED FROM
 EKB .F              5211:   KELLING BUSHING
 EDF .F              5210:   DRILLING FLOOR
 EGL .F              5203:   GROUND LEVEL
 DATE.             7-3-87:   RUN DATE
 RUN .                  1:   RUN NUMBER
 DD  .F               679:   DEPTH DRILLER
 DL  .F               672:   DEPTH LOGGER
 BLI .F               664:   BOTTOM LOG INTERVAL
 TLI .F                48:   TOP LOG INTERVAL
 CS  .IN            8.625:   CASING SIZE
 CBD .F                48:   CASING BOTTOM DRILLER
 CBL .F                48:   CASING BOTTOM LOGGER
 BS  .IN            7.875:   BIT SIZE
 BSD .F               679:   BIT SIZE AT DEPTH
 DFT .               FOAM:   DRILLING FLUID TYPE
 TCS .HRS            1345:   TIME CURCULATED STOPPED
 TLAB.HRS            1450:   TIME LOGGER AT BOTTOM
 MRT .F                80:   MAXIMUM RECORDED TEMPERATURE
 LUN .               7597:   LOGGING UNIT NUMBER
 LUL .           GILLETTE:   LOGGING UNIT LOCATION
 ENGI.            WANGLER:   RECORDING ENGINEER
 WITN.             STRONG:   WITNESSED BY
 CLNT.            A2DTECH:   CLIENT CODE
 ORIG.       2", 5" PRINT:   ORIGIN OF DATA
 UWI .       490251114200:   UNIQUE WELL ID
 DICO. A2D Technologies, Inc.:   DIGITIZING COMPANY
~OTHER INFORMATION
~A   DEPT     RILD       RILM         GRR  
   12.0000  -999.2500  -999.2500    75.7576
   12.5000  -999.2500  -999.2500    75.7576
   13.0000  -999.2500  -999.2500    74.5454
   13.5000  -999.2500  -999.2500    73.8480
   14.0000  -999.2500  -999.2500    73.3868
   14.5000  -999.2500  -999.2500    75.3332
   15.0000  -999.2500  -999.2500    78.8514
   15.5000  -999.2500  -999.2500    81.0153
   16.0000  -999.2500  -999.2500    75.7179
   16.5000  -999.2500  -999.2500    70.3604
   17.0000  -999.2500  -999.2500    66.8390
   17.5000  -999.2500  -999.2500    68.1172
   18.0000  -999.2500  -999.2500    70.1283
   18.5000  -999.2500  -999.2500    69.5070
   19.0000  -999.2500  -999.2500    68.2436
   19.5000  -999.2500  -999.2500    68.8616
   20.0000  -999.2500  -999.2500    69.8984
   20.5000  -999.2500  -999.2500    70.8127
   21.0000  -999.2500  -999.2500    71.7305
   21.5000  -999.2500  -999.2500    72.6488
   22.0000  -999.2500  -999.2500    73.5614
   22.5000  -999.2500  -999.2500    74.1823
   23.0000  -999.2500  -999.2500    72.9450
   23.5000  -999.2500  -999.2500    71.1799
   24.0000  -999.2500  -999.2500    68.3128
   24.5000  -999.2500  -999.2500    65.4184
   25.0000  -999.2500  -999.2500    64.6768
   25.5000  -999.2500  -999.2500    70.2581
   26.0000  -999.2500  -999.2500    72.1720
   26.5000  -999.2500  -999.2500    69.2738
   27.0000  -999.2500  -999.2500    66.0275
   27.5000  -999.2500  -999.2500    65.9462
   28.0000  -999.2500  -999.2500    66.8910
   28.5000  -999.2500  -999.2500    66.2693
   29.0000  -999.2500  -999.2500    65.0954
   29.5000  -999.2500  -999.2500    64.7702
   30.0000  -999.2500  -999.2500    64.5468
   30.5000  -999.2500  -999.2500    63.1045
   31.0000  -999.2500  -999.2500    60.8380
   31.5000  -999.2500  -999.2500    60.1863
   32.0000  -999.2500  -999.2500    63.9928
   32.5000  -999.2500  -999.2500    68.4533
   33.0000  -999.2500  -999.2500    72.9347
   33.5000  -999.2500  -999.2500    76.1762
   34.0000  -999.2500  -999.2500    71.8037
   34.5000  -999.2500  -999.2500    65.4977
   35.0000  -999.2500  -999.2500    59.3320
   35.5000  -999.2500  -999.2500    53.4934
   36.0000  -999.2500  -999.2500    55.2695
   36.5000  -999.2500  -999.2500    60.9655
   37.0000  -999.2500  -999.2500    66.5681
   37.5000  -999.2500  -999.2500    72.1859
   38.0000  -999.2500  -999.2500    77.9037
   38.5000  -999.2500  -999.2500    82.8420
   39.0000  -999.2500  -999.2500    82.6254
   39.5000  -999.2500  -999.2500    81.6016
   40.0000  -999.2500  -999.2500    81.0207
   40.5000  -999.2500  -999.2500    80.9554
   41.0000  -999.2500  -999.2500    79.0073
   41.5000  -999.2500  -999.2500    77.1168
   42.0000  -999.2500  -999.2500    75.7195
   42.5000  -999.2500  -999.2500    76.9658
   43.0000  -999.2500  -999.2500    78.3503
   43.5000  -999.2500  -999.2500    79.7392
   44.0000  -999.2500  -999.2500    78.6012
   44.5000  -999.2500  -999.2500    76.3380
   45.0000  -999.2500  -999.2500    75.3484
   45.5000  -999.2500  -999.2500    77.8265
   46.0000  -999.2500  -999.2500    82.0847
   46.5000  -999.2500  -999.2500    86.3647
   47.0000  -999.2500  -999.2500    90.6486
   47.5000  -999.2500  -999.2500    94.8719
   48.0000     2.4461    10.7568    99.1224
   48.5000     2.2298     3.5977   103.3387
   49.0000     2.8499     2.8750   107.5341
   49.5000     3.4407     2.5858   109.7195
   50.0000     4.3541     2.5858   108.8464
   50.5000     5.6270     2.7263   107.1200
   51.0000     4.7458     2.9396   105.4001
   51.5000     3.9364     3.1695   103.6751
   52.0000     3.4694     3.3820   101.9514
   52.5000     3.2590     3.2067   100.2277
   53.0000     3.2207     3.0602    98.5035
   53.5000     3.1808     2.9374    96.7737
   54.0000     3.1406     2.9010    95.0509
   54.5000     3.0916     2.8650    93.4841
   55.0000     2.9869     2.8365    94.0441
   55.5000     2.8857     2.7331    97.5302
   56.0000     2.7880     2.6334   101.0120
   56.5000     2.6936     2.5373   104.4583
   57.0000     2.6024     2.4448   106.6961
   57.5000     2.5143     2.3556   102.6689
   58.0000     2.4292     2.2696    98.7118
   58.5000     2.4012     2.1866    95.9981
   59.0000     2.4207     2.1290    96.5848
   59.5000     2.4622     2.1488   103.0662
   60.0000     2.5288     2.2751   109.7550
   60.5000     2.6580     2.4379   115.1900
   61.0000     2.7922     2.6125   115.4581
   61.5000     2.9367     2.7989   111.5820
   62.0000     3.0899     2.9985   107.0491
   62.5000     3.2522     3.1090   103.2450
   63.0000     3.4231     3.2717   103.1342
   63.5000     3.6060     3.4134   105.7163
   64.0000     3.6455     3.4772   108.2664
   64.5000     3.5292     3.4772   110.8311
   65.0000     3.4361     3.4093   113.3864
   65.5000     3.3455     3.2336   115.9424
   66.0000     3.2590     3.0670   118.4996
   66.5000     3.0850     2.9090   121.0941
   67.0000     2.9044     2.7591   121.7993
   67.5000     2.7574     2.6170   120.3421
   68.0000     2.6179     2.4821   118.6863
   68.5000     2.4854     2.3542   119.8841
   69.0000     2.4688     2.2431   123.5762
   69.5000     2.5563     2.1687   127.4250
   70.0000     2.6520     2.2298   128.0464
   70.5000     2.8736     2.4670   124.6567
   71.0000     3.1694     2.7599   120.3228
   71.5000     3.4969     3.0875   115.9713
   72.0000     3.8621     3.4541   111.6676
   72.5000     4.1278     3.8857   108.8511
   73.0000     4.3710     4.1499   109.1054
   73.5000     4.6269     4.4352   109.7919
   74.0000     4.8979     4.7427   110.0160
   74.5000     5.1772     5.0383   107.3848
   75.0000     5.3924     5.0337   106.8749
   75.5000     5.5979     5.1304   106.8862
   76.0000     5.8112     5.1279   105.8725
   76.5000     6.0326     5.4978   104.6337
   77.0000     6.2625     5.7737   105.6135
   77.5000     6.4651     6.0635   107.5017
   78.0000     6.5859     6.2881   109.2345
   78.5000     6.6367     6.3702   108.5766
   79.0000     6.6960     6.4061   107.2380
   79.5000     6.7559     6.4421   105.7836
   80.0000     6.8163     6.4783   104.2999
   80.5000     6.8979     6.5253   102.9234
   81.0000     6.8788     6.4891   101.5788
   81.5000     6.8579     6.4312    99.8300
   82.0000     6.8370     6.3671    99.2610
   82.5000     6.8162     6.3037   100.0664
   83.0000     6.7954     6.2739   101.8290
   83.5000     6.7747     6.2344   103.5181
   84.0000     6.7541     6.1952   105.2027
   84.5000     6.7337     6.1561   106.8861
   85.0000     6.7087     6.1174   108.5697
   85.5000     6.7098     6.0788   110.2519
   86.0000     6.5352     6.0406   112.1059
   86.5000     6.4139     6.0036   114.7872
   87.0000     6.2951     5.9733   117.5564
   87.5000     6.1785     5.9440   118.6167
   88.0000     6.1158     5.9148   117.4548
   88.5000     6.1727     5.8935   115.4264
   89.0000     6.1995     5.8935   113.6909
   89.5000     6.2968     5.8935   113.8929
   90.0000     6.3957     5.9415   114.9317
   90.5000     6.4961     6.0113   115.9878
   91.0000     6.5981     6.0820   116.0826
   91.5000     6.7018     6.1793   113.2592
   92.0000     6.8070     6.3022   110.2926
   92.5000     6.9139     6.4275   107.3344
   93.0000     7.0232     6.5552   104.4680
   93.5000     7.0930     6.7714   103.2413
   94.0000     7.0922     6.8979   105.0059
   94.5000     7.1525     6.8972   109.2329
   95.0000     7.2041     6.8965   113.5115
   95.5000     7.2247     6.9008   112.9454
   96.0000     7.0531     6.8366   109.9403
   96.5000     6.8070     6.6670   106.8942
   97.0000     6.5694     6.5512   105.7486
   97.5000     6.3401     6.4372   106.0391
   98.0000     6.1188     6.3253   105.6544
   98.5000     5.5669     6.0647   103.8702
   99.0000     4.7327     5.7428   102.1277
   99.5000     4.0235     5.5238   101.5937
  100.0000     3.4206     4.4430   102.2711
  100.5000     3.0170     3.6379   103.1825
  101.0000     2.6772     2.9787   107.0037
  101.5000     2.4331     2.5713   113.5593
  102.0000     2.2331     2.3093   120.1082
  102.5000     2.0706     2.0740   126.8402
