~VERSION INFORMATION
 VERS.                2.0:   CWLS LOG ASCII STANDARD - VERSION 2.0
 WRAP.                 NO:   ONE LINE PER DEPTH STEP
~WELL INFORMATION
#MNEM.UNIT      DATA TYPE    INFORMATION
#----------   ------------   ------------------------------
 STRT.F           30.0000:   START DEPTH
 STOP.F         1178.5000:   STOP DEPTH
 STEP.F            0.5000:   STEP LENGTH
 NULL.          -999.2500:   NO VALUE
 COMP. FENIX & SCISSON INC:   COMPANY
 WELL.     64-S-14 #14-14:   WELL
 FLD .        TEAPOT DOME:   FIELD
 LOC .      S14 T38N R78W:   LOCATION
 CNTY.            NATRONA:   COUNTY
 STAT.            WYOMING:   STATE
 CTRY. UNITED STATES OF AMERICA:   COUNTRY
 SRVC.            Unknown:   SERVICE COMPANY
 DATE.        19-APR-1978:   LOGDATE
 API .       490251061400:   API NUMBER
~CURVE INFORMATION
#MNEM.UNIT       API CODE    CURVE DESCRIPTION
#----------   ------------   ------------------------------
 DEPT.F                  :   
 SPR .MV     05 010 01 00:   SPONTANEOUS POTENTIAL
 SN  .OHMM   05 040 16 00:   SHORT NORMAL 16'
 ILD .OHMM   05 120 46 00:   INDUCTION LOG DEEP
 CALD.IN     45 280 60 00:   CALIPER
 GRD .GAPI   45 310 01 00:   GAMMA RAY FROM DENSITY LOG
 RHOB.G/C3   45 350 01 00:   BULK DENSITY
 DPHI.DEC    45 890 12 00:   DENSITY POROSITY SANDSTONE
 CORR.G/C3   45 356 01 00:   DENSITY CORRECTION
~PARAMETER INFORMATION
#MNEM.UNIT          VALUE    DESCRIPTION
#----------   ------------   ------------------------------
 PD  .                 GL:   PERMANENT DATUM
 EPD .F              5235:   ELEVATION PERMANENT DATUM
 LMF .                 KB:   LOG MEASURED FROM
 DMF .                 KB:   DRILLING MEASURED FROM
 EKB .F              5299:   KELLING BUSHING
 EGL .F              5295:   GROUND LEVEL
 DATE.          4-19-1978:   RUN DATE
 RUN .                  1:   RUN NUMBER
 DD  .F              1180:   DEPTH DRILLER
 DL  .F              1182:   DEPTH LOGGER
 BLI .F              1176:   BOTTOM LOG INTERVAL
 TLI .F                50:   TOP LOG INTERVAL
 CS  .IN            8.625:   CASING SIZE
 CBD .F                40:   CASING BOTTOM DRILLER
 CBL .F                50:   CASING BOTTOM LOGGER
 BS  .IN            7.875:   BIT SIZE
 BSD .F              1180:   BIT SIZE AT DEPTH
 DFT .                KCL:   DRILLING FLUID TYPE
 DFD .                8.7:   DRILLING FLUID DENSITY
 DFV .                 33:   DRILLING FLUID VISCOSITY
 DFPH.               10.5:   DRILLING FLUID PH
 DFL .               12.3:   DRILLING FLUID LOSS
 MSS .            MUD PIT:   MUD SAMPLE SOURCE
 RMS .OHMM            .54:   RESISTIVITY MUD SAMPLE
 MST .F                62:   MUD SAMPLE TEMPERATURE
 RMF .OHMM            .65:   RESISTIVITY MUD FILTRATE SAMPLE
 MFST.F                60:   MUD FILTRATE SAMPLE TEMPERATURE
 RMC .OHMM            .35:   RESISTIVITY MUD CAKE
 MCST.F                60:   MUD CAKE SAMPLE TEMPERATURE
 MFSS.           MEASURED:   MUD FILTRATE SAMPLE SOURCE
 RMB .OHMM            .42:   RESISTIVITY MUD AT BHT
 BHT .F                80:   BOTTOM HOLE TEMPERATURE
 TCS .HRS               2:   TIME CURCULATED STOPPED
 MRT .F                80:   MAXIMUM RECORDED TEMPERATURE
 LUN .               2955:   LOGGING UNIT NUMBER
 LUL .               CASP:   LOGGING UNIT LOCATION
 ENGI.             MILLER:   RECORDING ENGINEER
 WITN.           MCGINLEY:   WITNESSED BY
 CLNT.            A2DTECH:   CLIENT CODE
 ORIG.      2" & 5" PRINT:   ORIGIN OF DATA
 UWI .       490251061400:   UNIQUE WELL ID
 DICO. A2D Technologies, Inc.:   DIGITIZING COMPANY
~OTHER INFORMATION
~A   DEPT      SPR         SN        ILD       CALD         GRD      RHOB       DPHI       CORR   
# ...
 1042.5000   -40.0550    10.9774    10.5483     7.6916    65.6426     2.3681     0.1763     0.0095
 1043.0000   -40.0550    10.8771    10.4866     7.7067    64.8325     2.3658     0.1758     0.0144
 1043.5000   -40.0550    10.7493    10.3662     7.7376    64.4012     2.3688     0.1753     0.0186
 1044.0000   -40.0550    10.6230    10.2472     7.7683    68.6050     2.3734     0.1727     0.0132
 1044.5000   -40.0550    10.4981    10.1295     7.7994    70.6621     2.3738     0.1697     0.0112
 1045.0000   -40.0550    10.3748    10.0132     7.8099    70.9194     2.3658     0.1789     0.0151
 1045.5000   -40.0550    10.2529     9.8982     7.8101    70.9015     2.3645     0.1775     0.0191
 1046.0000   -40.0550    10.1324     9.7845     7.8100    71.0310     2.3767     0.1753     0.0205
 1046.5000   -40.0550    10.0133     9.6721     7.8286    72.2011     2.3770     0.1731     0.0205
 1047.0000   -40.0550     9.8956     9.5611     7.8645    74.4167     2.3819     0.1690     0.0203
 1047.5000   -40.0550     9.7794     9.4513     7.9005    76.6825     2.3927     0.1639     0.0187
 1048.0000   -40.0550     9.6644     9.3427     7.9352    76.8447     2.4031     0.1589     0.0170
 1048.5000   -40.0550     9.5509     9.2355     7.9690    72.8014     2.4058     0.1581     0.0154
 1049.0000   -40.0550     9.4386     9.1294     7.9569    70.0233     2.3994     0.1612     0.0137
 1049.5000   -40.0550     9.3277     9.0246     7.9464    67.4436     2.3925     0.1629     0.0131
 1050.0000   -40.0550     9.2181     8.9209     7.9357    66.8617     2.3969     0.1612     0.0162
 1050.5000   -40.0550     9.1098     8.8185     7.9251    71.0031     2.4004     0.1594     0.0191
 1051.0000   -40.0550     9.0027     8.7172     7.9145    73.5605     2.4032     0.1570     0.0220
 1051.5000   -40.0550     8.9286     8.6072     7.9038    73.4759     2.4086     0.1543     0.0248
 1052.0000   -40.0550     8.9396     8.6072     7.8932    72.0703     2.4141     0.1516     0.0260
 1052.5000   -40.0550     8.9482     8.6072     7.8826    70.5135     2.4163     0.1508     0.0273
 1053.0000   -40.0550     8.9567     8.6072     7.8720    69.8794     2.4162     0.1514     0.0287
 1053.5000   -40.0550     8.9653     8.6072     7.8613    70.2011     2.4160     0.1519     0.0300
 1054.0000   -40.0550     8.9739     8.6072     7.8507    70.6495     2.4158     0.1514     0.0270
 1054.5000   -40.0550     8.9824     8.6072     7.8401    70.4475     2.4156     0.1515     0.0212
 1055.0000   -40.0550     8.9910     8.6072     7.8294    70.1878     2.4110     0.1547     0.0169
 1055.5000   -40.0550     8.9996     8.6073     7.8188    69.9626     2.4052     0.1579     0.0196
 1056.0000   -40.0550     9.0105     8.6070     7.8081    71.2469     2.4131     0.1597     0.0189
 1056.5000   -40.0550     8.9945     8.5873     7.7975    73.9126     2.4033     0.1600     0.0164
 1057.0000   -40.0550     8.9710     8.5651     7.7897    72.8529     2.4004     0.1596     0.0138
 1057.5000   -40.0549     8.9476     8.5431     7.7905    71.6364     2.3997     0.1593     0.0113
 1058.0000   -40.0550     8.9244     8.5212     7.8052    70.4037     2.3989     0.1613     0.0087
 1058.5000   -40.0549     8.9012     8.4993     7.8153    69.4964     2.3996     0.1614     0.0102
 1059.0000   -40.0548     8.8780     8.4774     7.8304    69.3976     2.4033     0.1592     0.0122
 1059.5000   -40.0609     8.8549     8.4556     7.8455    69.6755     2.4065     0.1574     0.0141
 1060.0000   -40.0689     8.8319     8.4339     7.8607    69.8976     2.4036     0.1583     0.0161
 1060.5000   -40.0770     8.8090     8.4122     7.8759    69.6143     2.4018     0.1593     0.0180
 1061.0000   -40.0850     8.7860     8.3906     7.8911    69.5137     2.4039     0.1583     0.0200
 1061.5000   -40.0931     8.7632     8.3690     7.9063    70.2262     2.4061     0.1544     0.0219
 1062.0000   -40.1012     8.7404     8.3475     7.9215    71.9992     2.4043     0.1576     0.0239
 1062.5000   -40.1092     8.7177     8.3260     7.9367    73.2349     2.4015     0.1567     0.0258
 1063.0000   -40.1173     8.6950     8.3046     7.9519    70.8904     2.4089     0.1532     0.0278
 1063.5000   -40.1253     8.6724     8.2833     7.9673    68.5778     2.4203     0.1496     0.0284
 1064.0000   -40.1334     8.6499     8.2620     7.9829    68.5415     2.4240     0.1480     0.0242
 1064.5000   -40.1414     8.6274     8.2408     8.0120    69.6456     2.4242     0.1483     0.0199
 1065.0000   -40.1495     8.6073     8.2218     8.0254    69.8961     2.4237     0.1488     0.0181
 1065.5000   -40.1576     8.6229     8.2365     8.0265    69.6590     2.4241     0.1493     0.0173
 1066.0000   -40.1656     8.6368     8.2499     8.0138    69.3897     2.4297     0.1453     0.0164
 1066.5000   -40.1737     8.6510     8.2635     8.0015    69.1183     2.4356     0.1417     0.0156
 1067.0000   -40.1817     8.6651     8.2770     7.9893    68.7293     2.4416     0.1380     0.0148
 1067.5000   -40.1898     8.6793     8.2906     7.9770    68.1035     2.4455     0.1370     0.0139
 1068.0000   -40.1978     8.6935     8.3042     7.9648    67.4906     2.4455     0.1361     0.0131
 1068.5000   -40.2059     8.7078     8.3178     7.9525    66.8887     2.4460     0.1352     0.0151
 1069.0000   -40.2140     8.7220     8.3314     7.9403    67.8466     2.4476     0.1344     0.0231
 1069.5000   -40.2220     8.7363     8.3450     7.9281    69.0120     2.4541     0.1272     0.0254
 1070.0000   -40.2307     8.7506     8.3587     7.9158    70.0855     2.4568     0.1321     0.0226
 1070.5000   -40.2388     8.6864     8.2974     7.9036    70.1042     2.4467     0.1352     0.0196
 1071.0000   -40.2350     8.7161     8.3264     7.8919    69.9741     2.4484     0.1319     0.0207
 1071.5000   -40.1030     8.7587     8.3679     7.8736    69.1152     2.4609     0.1257     0.0243
 1072.0000   -40.4980     8.8015     8.4097     7.8552    68.2349     2.4741     0.1194     0.0281
 1072.5000   -40.9596     8.8445     8.4517     7.8367    67.3464     2.4872     0.1131     0.0231
 1073.0000   -41.2500     8.8877     8.4939     7.8183    66.4697     2.4992     0.1084     0.0166
 1073.5000   -41.2587     8.9312     8.5363     7.7998    66.0911     2.5006     0.1101     0.0106
 1074.0000   -41.2715     8.9748     8.5789     7.7815    68.6210     2.4901     0.1170     0.0104
 1074.5000   -41.2838     9.0187     8.6218     7.7653    70.5022     2.4745     0.1263     0.0137
 1075.0000   -41.2959     9.0627     8.6648     7.7530    71.9059     2.4591     0.1328     0.0173
 1075.5000   -41.3083     9.0937     8.6864     7.7407    73.9989     2.4590     0.1288     0.0206
 1076.0000   -41.3206     9.0108     8.5993     7.7284    76.0797     2.4602     0.1307     0.0205
 1076.5000   -41.3329     8.9195     8.5209     7.7161    78.1465     2.4576     0.1306     0.0205
 1077.0000   -41.3453     8.8291     8.4431     7.7036    79.4519     2.4600     0.1303     0.0205
 1077.5000   -41.3576     8.7235     8.3660     7.6897    78.0850     2.4572     0.1323     0.0228
 1078.0000   -41.3699     8.5819     8.2896     7.7509    76.8476     2.4499     0.1344     0.0290
 1078.5000   -41.3823     8.4426     8.2215     7.8211    77.1727     2.4543     0.1272     0.0345
 1079.0000   -41.3946     8.3675     8.1955     7.8916    77.7076     2.4626     0.1276     0.0334
 1079.5000   -41.4070     8.3550     8.1719     7.9619    78.2503     2.4635     0.1280     0.0328
 1080.0000   -41.4193     8.3425     8.1482     8.0345    78.4614     2.4668     0.1233     0.0409
 1080.5000   -41.4316     8.3301     8.1247     8.0497    78.2068     2.4785     0.1156     0.0493
 1081.0000   -41.4440     8.3176     8.1012     8.0341    78.1314     2.4885     0.1146     0.0482
 1081.5000   -41.4563     8.3052     8.0778     8.0164    79.0804     2.4880     0.1153     0.0453
 1082.0000   -41.4686     8.2928     8.0545     8.0147    79.5494     2.4855     0.1156     0.0423
 1082.5000   -41.4810     8.2804     8.0312     8.0410    77.3801     2.4897     0.1128     0.0352
