~VERSION INFORMATION
 VERS.                2.0:   CWLS LOG ASCII STANDARD - VERSION 2.0
 WRAP.                 NO:   ONE LINE PER DEPTH STEP
~WELL INFORMATION
#MNEM.UNIT      DATA TYPE    INFORMATION
#----------   ------------   ------------------------------
 STRT.F           40.0000:   START DEPTH
 STOP.F          490.0000:   STOP DEPTH
 STEP.F            0.5000:   STEP LENGTH
 NULL.          -999.2500:   NO VALUE
 COMP.    FENIX & SCISSON:   COMPANY
 WELL. RES 3 TEAPOT DOM #76-10:   WELL
 FLD .        TEAPOT DOME:   FIELD
 LOC .      S10 T38N R78W:   LOCATION
 CNTY.            NATRONA:   COUNTY
 STAT.            WYOMING:   STATE
 CTRY. UNITED STATES OF AMERICA:   COUNTRY
 SRVC.           BIRDWELL:   SERVICE COMPANY
 DATE.        19-JUN-1978:   LOGDATE
 API .       490251065100:   API NUMBER
~CURVE INFORMATION
#MNEM.UNIT       API CODE    CURVE DESCRIPTION
#----------   ------------   ------------------------------
 DEPT.F                  :   
 CALD.IN     45 280 60 00:   CALIPER FROM DENSITY LOG
 CORR.G/C3   45 356 01 00:   DENSITY CORRECTION
 DPHI.DEC    45 890 12 00:   DENSITY POROSITY SANDSTONE
 GRD .GAPI   45 310 01 00:   GAMMA RAY FROM DENSITY LOG
 RHOB.G/C3   45 350 01 00:   BULK DENSITY
 ILD .OHMM   05 120 46 00:   INDUCTION LOG DEEP
 SN  .OHMM   05 040 16 00:   SHORT NORMAL 16"
 SPR .MV     05 010 01 00:   SPONTANEOUS POTENTIAL FROM RES.
~PARAMETER INFORMATION
#MNEM.UNIT          VALUE    DESCRIPTION
#----------   ------------   ------------------------------
 PD  .                 GL:   PERMANENT DATUM
 EPD .F              5185:   ELEVATION PERMANENT DATUM
 LMF .                 KB:   LOG MEASURED FROM
 DAPD.F                 4:   FEET ABOVE PERMANENT DATUM
 DMF .                 KB:   DRILLING MEASURED FROM
 EKB .F              5189:   KELLING BUSHING
 EGL .F              5185:   GROUND LEVEL
 DATE.        19-JUN-1978:   RUN DATE
 RUN .                  1:   RUN NUMBER
 DD  .F               485:   DEPTH DRILLER
 DL  .F               490:   DEPTH LOGGER
 BLI .F               490:   BOTTOM LOG INTERVAL
 TLI .F                50:   TOP LOG INTERVAL
 CS  .IN            8.625:   CASING SIZE
 CBD .F                30:   CASING BOTTOM DRILLER
 CBL .F                30:   CASING BOTTOM LOGGER
 BS  .IN            7.875:   BIT SIZE
 BSD .F               485:   BIT SIZE AT DEPTH
 DFT .                KCL:   DRILLING FLUID TYPE
 DFD .                8.7:   DRILLING FLUID DENSITY
 DFV .                 34:   DRILLING FLUID VISCOSITY
 DFPH.               10.5:   DRILLING FLUID PH
 MSS .           FLOWLINE:   MUD SAMPLE SOURCE
 RMS .OHMM           0.24:   RESISTIVITY MUD SAMPLE
 MST .F                70:   MUD SAMPLE TEMPERATURE
 RMF .OHMM           0.24:   RESISTIVITY MUD FILTRATE SAMPLE
 MFST.F                72:   MUD FILTRATE SAMPLE TEMPERATURE
 RMC .OHMM           0.28:   RESISTIVITY MUD CAKE
 MCST.F                78:   MUD CAKE SAMPLE TEMPERATURE
 MFSS.               MEAS:   MUD FILTRATE SAMPLE SOURCE
 MCSS.               MEAS:   MUD CAKE SAMPLE SOURCE
 RMB .OHMM           0.27:   RESISTIVITY MUD AT BHT
 BHT .F                74:   BOTTOM HOLE TEMPERATURE
 TCS .HRS               1:   TIME CURCULATED STOPPED
 MRT .F                74:   MAXIMUM RECORDED TEMPERATURE
 LUN .               2958:   LOGGING UNIT NUMBER
 LUL .               CASP:   LOGGING UNIT LOCATION
 ENGI.           REYNOLDS:   RECORDING ENGINEER
 WITN.           MCGINLEY:   WITNESSED BY
 CLNT.            A2DTECH:   CLIENT CODE
 ORIG.           5" PRINT:   ORIGIN OF DATA
 UWI .       490251065100:   UNIQUE WELL ID
 DICO. A2D Technologies, Inc.:   DIGITIZING COMPANY
~OTHER INFORMATION
~A   DEPT     CALD       CORR       DPHI        GRD       RHOB        ILD         SN        SPR   
# ...
   80.5000     7.3592     0.0292     0.1032   114.5816     2.4991     6.1525     7.9393   -48.3861
   81.0000     7.3310     0.0263     0.1044   114.4332     2.4947     6.1525     7.9930   -48.3905
   81.5000     7.3317     0.0233     0.1062   114.6019     2.4902     6.1525     8.0473   -48.3949
   82.0000     7.3322     0.0205     0.1074   115.3438     2.4835     6.1525     7.9356   -48.3995
   82.5000     7.2880     0.0206     0.1146   116.0996     2.4790     6.1103     7.7183   -48.2532
   83.0000     7.2286     0.0266     0.1185   116.8444     2.4805     6.1103     7.5589   -48.2576
   83.5000     7.1841     0.0297     0.1131   117.3108     2.4858     6.1103     7.4542   -48.2617
   84.0000     7.1397     0.0327     0.1115   117.4642     2.4873     6.1103     7.3509   -48.2663
   84.5000     7.1103     0.0328     0.1113   117.3157     2.4873     6.1103     7.4009   -48.2708
   85.0000     7.1410     0.0329     0.1107   116.7068     2.4874     6.1103     7.4512   -48.2760
   85.5000     7.1565     0.0270     0.1092   115.8167     2.4904     6.1103     7.3988   -48.4316
   86.0000     7.1421     0.0241     0.1068   115.6683     2.4926     6.1103     7.3469   -48.4359
   86.5000     7.0978     0.0212     0.1080   115.9730     2.4837     6.1525     7.2952   -48.4402
   87.0000     7.0833     0.0227     0.1128   117.0723     2.4777     6.1525     7.2404   -48.4456
   87.5000     7.0540     0.0273     0.1170   118.2384     2.4785     6.1525     7.1932   -48.4499
   88.0000     7.0697     0.0289     0.1176   117.9400     2.4807     6.1525     7.2421   -48.4543
   88.5000     7.1002     0.0304     0.1173   116.1356     2.4815     6.1951     7.2913   -48.1560
   89.0000     7.1008     0.0290     0.1167   113.1270     2.4826     6.2055     7.2902   -48.0081
   89.5000     7.1013     0.0291     0.1164   112.3761     2.4853     6.2812     7.2892   -47.8621
   90.0000     7.1020     0.0277     0.1155   112.3795     2.4877     6.3246     7.2378   -47.7151
   90.5000     7.0875     0.0203     0.1072   112.3825     2.4936     6.3246     7.2446   -47.5682
   91.0000     7.1181     0.0054     0.1029   112.3860     2.4966     6.3683     7.2862   -47.4212
   91.5000     7.2688     0.0339     0.1140   114.0454     2.4912     6.3683     7.3568   -47.2753
   92.0000     7.4343     0.0504     0.1188   118.5663     2.4757     6.3683     7.4371   -47.2808
   92.5000     7.5398     0.0460     0.1038   119.1716     2.5004     6.3683     7.4873   -47.2851
   93.0000     7.6003     0.0446     0.1014   118.5727     2.5027     6.4124     7.5902   -47.4407
   93.5000     7.5709     0.0446     0.1038   118.2743     2.4982     6.4265     7.6951   -47.4454
   94.0000     7.5266     0.0432     0.1032   118.4297     2.4967     6.5014     7.7472   -47.6006
   94.5000     7.5121     0.0433     0.1023   119.3348     2.4975     6.5014     7.7986   -47.6060
   95.0000     7.5278     0.0403     0.1017   120.6931     2.4998     6.5229     7.9074   -47.7617
   95.5000     7.5284     0.0389     0.1011   121.1470     2.4998     6.5464     7.9609   -47.7660
   96.0000     7.4990     0.0375     0.1014   118.1807     2.4968     6.5464     7.9599   -47.7700
   96.5000     7.4846     0.0376     0.1041   116.1842     2.4916     6.5464     7.9588   -47.7746
   97.0000     7.4853     0.0377     0.1083   117.3918     2.4886     6.5464     7.9577   -47.7791
   97.5000     7.5008     0.0362     0.1068   119.2018     2.4894     6.5464     7.9566   -47.7844
   98.0000     7.5463     0.0348     0.1089   120.4102     2.4894     6.5464     7.9006   -47.7887
   98.5000     7.5770     0.0349     0.1116   120.2624     2.4849     6.5464     7.8995   -47.7553
   99.0000     7.6076     0.0335     0.1134   119.5122     2.4812     6.5464     7.8985   -47.6460
   99.5000     7.6231     0.0321     0.1101   116.7615     2.4782     6.5464     7.8974   -47.5428
  100.0000     7.6087     0.0321     0.1116   113.4944     2.4763     6.5014     7.8964   -47.5034
  100.5000     7.5793     0.0318     0.1158   111.9912     2.4745     6.3688     7.8947   -46.7428
  101.0000     7.5500     0.0313     0.1179   111.6757     2.4738     6.4133     7.8931   -46.7375
  101.5000     7.5177     0.0308     0.1200   114.6952     2.4730     6.4856     7.8915   -46.7332
  102.0000     7.5049     0.0303     0.1212   116.5554     2.4730     6.5032     7.8898   -46.7292
  102.5000     7.4881     0.0298     0.1137   117.1694     2.4753     6.5487     7.8339   -46.7247
  103.0000     7.4606     0.0279     0.1128   117.3316     2.4790     6.5491     7.8320   -46.8707
  103.5000     7.4458     0.0235     0.1164   116.5828     2.4790     6.6098     7.8006   -46.8665
  104.0000     7.4012     0.0205     0.1191   115.8517     2.4768     6.6470     7.7751   -46.7110
  104.5000     7.3708     0.0191     0.1206   115.8633     2.4760     6.6874     7.8341   -46.7065
  105.0000     7.3268     0.0221     0.1193   116.0256     2.4775     6.7341     7.8946   -46.7014
  105.5000     7.3121     0.0237     0.1173   116.0372     2.4798     6.8280     7.9334   -46.6075
  106.0000     7.2824     0.0267     0.1167   115.5970     2.4821     6.8758     8.0447   -46.5366
  106.5000     7.2978     0.0282     0.1155   114.2532     2.4828     6.9238     8.1668   -46.2080
  107.0000     7.3131     0.0268     0.1140   111.1777     2.4820     6.9242     8.3209   -46.0783
  107.5000     7.3133     0.0209     0.1128   107.8034     2.4813     6.9786     8.3769   -45.7715
  108.0000     7.3136     0.0149     0.1176   107.6615     2.4798     7.0699     8.5503   -45.4636
  108.5000     7.3140     0.0120     0.1182   111.1399     2.4790     7.1686     8.6676   -45.4594
  109.0000     7.3142     0.0135     0.1173   113.5611     2.4813     7.3239     8.9088   -45.3038
  109.5000     7.3146     0.0151     0.1176   111.9161     2.4828     7.5241     9.0542   -45.2920
  110.0000     7.3213     0.0181     0.1140   110.7229     2.4843     7.7349     9.1549   -45.1430
  110.5000     7.3301     0.0196     0.1116   111.7063     2.4850     7.8428     9.2166   -44.9875
  111.0000     7.3418     0.0182     0.1110   114.2129     2.4858     7.7895     9.2783   -44.9832
  111.5000     7.3457     0.0182     0.1107   112.4173     2.4865     7.7900     9.4051   -44.9780
  112.0000     7.3460     0.0153     0.1092   108.8144     2.4865     7.8445     9.5346   -44.8224
  112.5000     7.3407     0.0153     0.1080   105.3622     2.4865     7.8993     9.6649   -44.8182
  113.0000     7.3167     0.0139     0.1092   102.2111     2.4858     8.1208     9.8002   -44.6626
  113.5000     7.2870     0.0139     0.1116    99.9262     2.4843     8.2340     9.9314   -44.6574
  114.0000     7.2573     0.0155     0.1128    97.1168     2.4813     8.4067    10.0376   -44.5015
  114.5000     7.2426     0.0155     0.1143    96.0713     2.4789     8.5241    10.0657   -44.5255
  115.0000     7.2729     0.0155     0.1182   100.1521     2.4783     8.5836    10.0633   -44.6445
  115.5000     7.2882     0.0171     0.1203   100.9167     2.4745     8.5841     9.9921   -44.7131
  116.0000     7.3335     0.0216     0.1212   100.7748     2.4715     8.5218     9.7852   -44.7875
  116.5000     7.3487     0.0291     0.1194   100.7893     2.4700     8.4677     9.5165   -44.9347
  117.0000     7.3490     0.0352     0.1185   101.2831     2.4738     8.4100     9.3837   -45.2315
  117.5000     7.3793     0.0382     0.1179   102.8652     2.4760     8.3529     9.2532   -45.2265
  118.0000     7.4097     0.0412     0.1176   104.2909     2.4752     8.1826     9.0941   -45.2224
  118.5000     7.4249     0.0413     0.1179   104.4531     2.4738     8.0155     8.9970   -45.2065
  119.0000     7.4552     0.0413     0.1188   104.7659     2.4730     7.9609     8.8718   -45.0620
  119.5000     7.4405     0.0414     0.1182   106.4342     2.4760     7.9069     8.8701   -44.9059
  120.0000     7.3958     0.0414     0.1164   109.1566     2.4790     7.9075     8.8683   -44.8368
  120.5000     7.3511     0.0415     0.1155   110.3735     2.4805     7.9080     8.8662   -44.6979
