~VERSION INFORMATION
 VERS.                2.0:   CWLS LOG ASCII STANDARD - VERSION 2.0
 WRAP.                 NO:   ONE LINE PER DEPTH STEP
~WELL INFORMATION
#MNEM.UNIT      DATA TYPE    INFORMATION
#----------   ------------   ------------------------------
 STRT.F         1400.0000:   START DEPTH
 STOP.F         3422.0000:   STOP DEPTH
 STEP.F            0.5000:   STEP LENGTH
 NULL.          -999.2500:   NO VALUE
 COMP. LAWRENCE/ALLISON INC:   COMPANY
 WELL.   NPR 3 #36-STX-23:   WELL
 FLD .             TEAPOT:   FIELD
 LOC .      S23 T38N R78W:   LOCATION
 CNTY.            NATRONA:   COUNTY
 STAT.            WYOMING:   STATE
 CTRY. UNITED STATES OF AMERICA:   COUNTRY
 SRVC.            Unknown:   SERVICE COMPANY
 DATE.        04-JAN-1985:   LOGDATE
 API .       490251137700:   API NUMBER
~CURVE INFORMATION
#MNEM.UNIT       API CODE    CURVE DESCRIPTION
#----------   ------------   ------------------------------
 DEPT.F                  :   
 ROP .MIN/FT 91 810 01 00:   RAT OF DRILLING PENETRATION
 TGAS.UNITS  91 830 01 00:   TOTAL GAS UNIT
~PARAMETER INFORMATION
#MNEM.UNIT          VALUE    DESCRIPTION
#----------   ------------   ------------------------------
 DATE.           1-4-1985:   RUN DATE
 RUN .                  1:   RUN NUMBER
 DD  .F              3427:   DEPTH DRILLER
 TLI .F              1400:   TOP LOG INTERVAL
 BSD .F              3427:   BIT SIZE AT DEPTH
 WITN. RAY ANDERSON/JACK HARBISON:   WITNESSED BY
 CLNT.            A2DTECH:   CLIENT CODE
 ORIG.           5" PRINT:   ORIGIN OF DATA
 UWI .       490251137700:   UNIQUE WELL ID
 DICO. A2D Technologies, Inc.:   DIGITIZING COMPANY
~OTHER INFORMATION
~A  DEPT       ROP       TGAS   
# ...
 2493.5000     0.7726     0.0000
 2494.0000     0.7731     0.0000
 2494.5000     0.7736     0.0000
 2495.0000     0.7740     0.0000
 2495.5000     0.7745     0.0000
 2496.0000     0.7750     0.0000
 2496.5000     0.7755     0.0000
 2497.0000     0.7760     0.0000
 2497.5000     0.7764     0.0000
 2498.0000     0.7769     0.0000
 2498.5000     0.7774     0.0000
 2499.0000     0.7779     0.0000
 2499.5000     0.7784     0.0000
 2500.0000     0.7788     0.0000
 2500.5000     0.7737     0.0000
 2501.0000     0.7696     0.0000
 2501.5000     0.7694     0.0000
 2502.0000     0.7692     0.0000
 2502.5000     0.7690     0.0000
 2503.0000     0.7687     0.0000
 2503.5000     0.7685     0.0000
 2504.0000     0.7683     0.0000
 2504.5000     0.7681     0.0000
 2505.0000     0.7679     0.0000
 2505.5000     0.7677     0.0000
 2506.0000     0.7674     0.0000
 2506.5000     0.7672     0.0000
 2507.0000     0.7670     0.0000
 2507.5000     0.7668     0.0000
 2508.0000     0.7666     0.0000
 2508.5000     0.7664     0.0000
 2509.0000     0.7662     0.0000
 2509.5000     0.7659     0.0000
 2510.0000     0.7657     0.0000
 2510.5000     0.7655     0.0000
 2511.0000     0.7653     0.0000
 2511.5000     0.7650     0.0000
 2512.0000     0.7645     0.0000
 2512.5000     0.7640     0.0000
 2513.0000     0.7634     0.0000
 2513.5000     0.7629     0.0000
 2514.0000     0.7623     0.0000
 2514.5000     0.7618     0.0000
 2515.0000     0.7613     0.0000
 2515.5000     0.7607     0.0000
 2516.0000     0.7602     0.0000
 2516.5000     0.7597     0.0000
 2517.0000     0.7591     0.0000
 2517.5000     0.7586     0.0000
 2518.0000     0.7152     0.0000
 2518.5000     0.6584     0.0000
 2519.0000     0.6016     0.0000
 2519.5000     0.5448     0.0000
 2520.0000     0.5097     0.0000
 2520.5000     0.5102     0.0000
 2521.0000     0.5107     0.0000
 2521.5000     0.5111     0.0000
 2522.0000     0.5116     0.0000
 2522.5000     0.5121     0.0000
 2523.0000     0.5126     0.0000
 2523.5000     0.5131     0.0000
 2524.0000     0.5135     0.0000
 2524.5000     0.5140     0.0000
 2525.0000     0.5145     0.0000
 2525.5000     0.5150     0.0000
 2526.0000     0.5154     0.0000
 2526.5000     0.5159     0.0000
 2527.0000     0.5164     0.0000
 2527.5000     0.5169     0.0000
 2528.0000     0.5174     0.0000
 2528.5000     0.5178     0.0000
 2529.0000     0.5183     0.0000
 2529.5000     0.5188     0.0000
 2530.0000     0.5193     0.0000
 2530.5000     0.5198     0.0000
 2531.0000     0.5202     0.0000
 2531.5000     0.5207     0.0000
 2532.0000     0.5212     0.0000
 2532.5000     0.5217     0.0000
 2533.0000     0.5221     0.0000
 2533.5000     0.5226     0.0000
 2534.0000     0.5231     0.0000
 2534.5000     0.5236     0.0000
 2535.0000     0.5241     0.0000
 2535.5000     0.5245     0.0000
 2536.0000     0.5250     0.0000
 2536.5000     0.5255     0.0000
 2537.0000     0.5260     0.0000
 2537.5000     0.5265     0.0000
 2538.0000     0.5269     0.0000
 2538.5000     0.5274     0.0000
 2539.0000     0.5279     0.0000
 2539.5000     0.5284     0.0000
 2540.0000     0.5288     0.0000
 2540.5000     0.5282     0.0000
 2541.0000     0.5275     0.0000
 2541.5000     0.5268     0.0000
 2542.0000     0.5261     0.0000
 2542.5000     0.5255     0.0000
 2543.0000     0.5248     0.0000
 2543.5000     0.5241     0.0000
 2544.0000     0.5234     0.0000
 2544.5000     0.5228     0.0000
 2545.0000     0.5221     0.0000
 2545.5000     0.5214     0.0000
 2546.0000     0.5404     0.0000
 2546.5000     0.6079     0.0000
 2547.0000     0.6849     0.0000
 2547.5000     0.7332     0.0000
 2548.0000     0.7141     0.0000
 2548.5000     0.6277     0.0000
 2549.0000     0.5702     0.0000
 2549.5000     0.5415     0.0000
 2550.0000     0.5320     0.0000
 2550.5000     0.5322     0.0000
 2551.0000     0.5324     0.0000
 2551.5000     0.5325     0.0000
 2552.0000     0.5327     0.0000
 2552.5000     0.5329     0.0000
 2553.0000     0.5330     0.0000
 2553.5000     0.5332     0.0000
 2554.0000     0.5333     0.0000
 2554.5000     0.5335     0.0000
 2555.0000     0.5337     0.0000
 2555.5000     0.5338     0.0000
 2556.0000     0.5340     0.0000
 2556.5000     0.5341     0.0000
 2557.0000     0.5343     0.0000
 2557.5000     0.5345     0.0000
 2558.0000     0.5346     0.0000
 2558.5000     0.5348     0.0000
 2559.0000     0.5349     0.0000
 2559.5000     0.5351     0.0000
 2560.0000     0.5353     0.0000
 2560.5000     0.5354     0.0000
 2561.0000     0.5349     0.0000
 2561.5000     0.5343     0.0000
 2562.0000     0.5337     0.0000
 2562.5000     0.5331     0.0000
 2563.0000     0.5326     0.0000
 2563.5000     0.5320     0.0000
 2564.0000     0.5314     0.0000
 2564.5000     0.5308     0.0000
 2565.0000     0.5303     0.0000
 2565.5000     0.5297     0.0000
 2566.0000     0.5291     0.0000
 2566.5000     0.5285     0.0000
 2567.0000     0.5280     0.0000
 2567.5000     0.5274     0.0000
 2568.0000     0.5268     0.0000
 2568.5000     0.5262     0.0000
 2569.0000     0.5257     0.0000
 2569.5000     0.5251     0.0000
 2570.0000     0.5245     0.0000
 2570.5000     0.5239     0.0000
 2571.0000     0.5234     0.0000
 2571.5000     0.5228     0.0000
 2572.0000     0.5222     0.0000
 2572.5000     0.5216     0.0000
 2573.0000     0.5210     0.0000
 2573.5000     0.5205     0.0000
 2574.0000     0.5199     0.0000
 2574.5000     0.5193     0.0000
 2575.0000     0.5187     0.0000
 2575.5000     0.5182     0.0000
 2576.0000     0.5176     0.0000
 2576.5000     0.5170     0.0000
 2577.0000     0.5164     0.0000
 2577.5000     0.5159     0.0000
 2578.0000     0.5153     0.0000
 2578.5000     0.5147     0.0000
 2579.0000     0.5141     0.0000
 2579.5000     0.5136     0.0000
 2580.0000     0.5130     0.0000
 2580.5000     0.5130     0.0000
 2581.0000     0.5131     0.0000
 2581.5000     0.5133     0.0000
 2582.0000     0.5135     0.0000
 2582.5000     0.5136     0.0000
 2583.0000     0.5138     0.0000
 2583.5000     0.5139     0.0000
 2584.0000     0.5141     0.0000
 2584.5000     0.5143     0.0000
 2585.0000     0.5144     0.0000
 2585.5000     0.5146     0.0000
 2586.0000     0.5147     0.0000
 2586.5000     0.5149     0.0000
 2587.0000     0.5151     0.0000
 2587.5000     0.5152     0.0000
 2588.0000     0.5154     0.0000
 2588.5000     0.5155     0.0000
 2589.0000     0.5157     0.0000
 2589.5000     0.5159     0.0000
 2590.0000     0.5160     0.0000
 2590.5000     0.5162     0.0000
 2591.0000     0.5163     0.0000
 2591.5000     0.5165     0.0000
 2592.0000     0.5167     0.0000
 2592.5000     0.5168     0.0000
 2593.0000     0.5170     0.0000
 2593.5000     0.5171     0.0000
 2594.0000     0.5173     0.0000
 2594.5000     0.5175     0.0000
 2595.0000     0.5176     0.0000
 2595.5000     0.5178     0.0000
 2596.0000     0.5179     0.0000
 2596.5000     0.5181     0.0000
 2597.0000     0.5183     0.0000
 2597.5000     0.5184     0.0000
 2598.0000     0.5186     0.0000
 2598.5000     0.5188     0.0000
 2599.0000     0.5189     0.0000
 2599.5000     0.5191     0.0000
 2600.0000     0.5192     0.0000
 2600.5000     0.5194     0.0000
 2601.0000     0.5195     0.0000
 2601.5000     0.5196     0.0000
 2602.0000     0.5197     0.0000
 2602.5000     0.5199     0.0000
 2603.0000     0.5200     0.0000
 2603.5000     0.5201     0.0000
 2604.0000     0.5202     0.0000
 2604.5000     0.5204     0.0000
 2605.0000     0.5205     0.0000
 2605.5000     0.5206     0.0000
 2606.0000     0.5208     0.0000
 2606.5000     0.5209     0.0000
 2607.0000     0.5210     0.0000
 2607.5000     0.5211     0.0000
 2608.0000     0.5213     0.0000
 2608.5000     0.5214     0.0000
 2609.0000     0.5215     0.0000
 2609.5000     0.5216     0.0000
 2610.0000     0.5218     0.0000
 2610.5000     0.5219     0.0000
 2611.0000     0.5220     0.0000
 2611.5000     0.5221     0.0000
 2612.0000     0.5223     0.0000
 2612.5000     0.5224     0.0000
 2613.0000     0.5225     0.0000
 2613.5000     0.5227     0.0000
 2614.0000     0.5235     0.0000
 2614.5000     0.5244     0.0000
