~VERSION INFORMATION
 VERS.                2.0:   CWLS LOG ASCII STANDARD - VERSION 2.0
 WRAP.                 NO:   ONE LINE PER DEPTH STEP
~WELL INFORMATION
#MNEM.UNIT      DATA TYPE    INFORMATION
#----------   ------------   ------------------------------
 STRT.F           32.0000:   START DEPTH
 STOP.F          648.0000:   STOP DEPTH
 STEP.F            0.5000:   STEP LENGTH
 NULL.          -999.2500:   NO VALUE
 COMP. LAWRENCE/ALLISON INC:   COMPANY
 WELL.    17-16 SX #17-11:   WELL
 FLD .             TEAPOT:   FIELD
 LOC .      S11 T38N R78W:   LOCATION
 CNTY.            NATRONA:   COUNTY
 STAT.            WYOMING:   STATE
 CTRY. UNITED STATES OF AMERICA:   COUNTRY
 SRVC.           Gearhart:   SERVICE COMPANY
 DATE.        12-JUL-1987:   LOGDATE
 API .       490251115200:   API NUMBER
~CURVE INFORMATION
#MNEM.UNIT       API CODE    CURVE DESCRIPTION
#----------   ------------   ------------------------------
 DEPT.F                  :   
 GRR .GAPI   07 310 01 00:   GAMMA RAY
 ILD .OHMM   07 120 46 00:   INDUCTION LOG DEEP
 ILM .OHMM   07 120 44 00:   INDUCTION LOG MEDIUM
~PARAMETER INFORMATION
#MNEM.UNIT          VALUE    DESCRIPTION
#----------   ------------   ------------------------------
 PD  .                 GL:   PERMANENT DATUM
 EPD .F              5231:   ELEVATION PERMANENT DATUM
 LMF .                 KB:   LOG MEASURED FROM
 DAPD.F                 8:   FEET ABOVE PERMANENT DATUM
 DMF .                 KB:   DRILLING MEASURED FROM
 EKB .F              5239:   KELLING BUSHING
 EDF .F              5237:   DRILLING FLOOR
 EGL .F              5231:   GROUND LEVEL
 DATE.        12-JUL-1987:   RUN DATE
 RUN .                  1:   RUN NUMBER
 DD  .F               650:   DEPTH DRILLER
 DL  .F               656:   DEPTH LOGGER
 BLI .F               654:   BOTTOM LOG INTERVAL
 TLI .F                30:   TOP LOG INTERVAL
 CS  .IN            8.625:   CASING SIZE
 CBD .F                48:   CASING BOTTOM DRILLER
 CBL .F                48:   CASING BOTTOM LOGGER
 BS  .IN            7.875:   BIT SIZE
 BSD .F               650:   BIT SIZE AT DEPTH
 DFT .                AIR:   DRILLING FLUID TYPE
 TLAB.HRS            1051:   TIME LOGGER AT BOTTOM
 MRT .F                80:   MAXIMUM RECORDED TEMPERATURE
 LUN .               7597:   LOGGING UNIT NUMBER
 LUL .           GILLETTE:   LOGGING UNIT LOCATION
 ENGI.         WEATHERMON:   RECORDING ENGINEER
 WITN.         MR. STRONG:   WITNESSED BY
 CLNT.            A2DTECH:   CLIENT CODE
 ORIG.           5" PRINT:   ORIGIN OF DATA
 UWI .       490251115200:   UNIQUE WELL ID
 DICO. A2D Technologies, Inc.:   DIGITIZING COMPANY
~OTHER INFORMATION
~A   DEPT       GRR       ILD        ILM   
# ...
  305.0000   114.0800     6.6122     6.3838
  305.5000   115.9104     6.3748     6.1148
  306.0000   114.4175     5.7587     5.6401
  306.5000   112.0183     5.5626     5.2622
  307.0000   111.4317     5.4864     4.8758
  307.5000   112.1551     5.4867     4.7426
  308.0000   114.4927     5.5638     4.7759
  308.5000   112.9998     5.6029     4.8095
  309.0000   112.1067     5.6424     4.9452
  309.5000   112.4309     5.7227     5.1937
  310.0000   113.0528     5.8831     5.5862
  310.5000   110.0494     6.0913     6.1338
  311.0000   108.8586     6.3950     6.4844
  311.5000   107.6678     6.7606     6.7606
  312.0000   106.7792     7.0486     7.0486
  312.5000   108.9627     7.2475     7.2475
  313.0000   111.3507     7.4005     7.3493
  313.5000   113.1810     7.5567     7.4525
  314.0000   113.4964     7.7162     7.6629
  314.5000   112.9099     7.8791     7.7705
  315.0000   112.9320     7.9347     7.8798
  315.5000   112.0433     7.9905     7.9905
  316.0000   112.0610     7.9910     8.0465
  316.5000   112.3808     8.0472     8.1033
  317.0000   114.5538     8.1038     8.1602
  317.5000   117.6536     8.2176     8.2176
  318.0000   120.8975     8.2182     8.2182
  318.5000   120.0088     8.2760     8.2188
  319.0000   119.1202     8.3342     8.2193
  319.5000   118.8313     8.4513     8.2199
  320.0000   119.4577     8.5108     8.2778
  320.5000   120.0796     8.5707     8.3360
  321.0000   119.4930     8.5713     8.4531
  321.5000   118.9065     8.6316     8.4537
  322.0000   117.9377     8.6321     8.4543
  322.5000   114.2598     8.5729     8.4548
  323.0000   109.2963     8.5736     8.4554
  323.5000   110.2203     8.5149     8.4560
  324.0000   112.3528     8.4566     8.4566
  324.5000   113.8811     8.3405     8.3988
  325.0000   116.6178     8.2836     8.3411
  325.5000   119.0524     8.2267     8.2267
  326.0000   116.9553     8.1703     8.1138
  326.5000   114.8582     8.0584     8.1145
  327.0000   112.7610     8.0030     8.0030
  327.5000   113.9879     7.8388     7.8388
  328.0000   116.1241     7.6778     7.6778
  328.5000   117.9545     7.5159     7.4639
  329.0000   118.2698     7.2642     7.1640
  329.5000   117.0835     7.0169     6.9684
  330.0000   117.7054     6.6846     6.7780
  330.5000   118.6294     6.2368     6.4570
  331.0000   119.5535     5.8190     5.9003
  331.5000   119.8733     5.3173     5.4292
  332.0000   118.9045     4.7258     4.9268
  332.5000   115.9811     4.1422     4.4708
  333.0000   114.7904     3.8359     4.0236
  333.5000   113.5996     3.5139     3.6164
  334.0000   114.5280     3.0528     3.2722
  334.5000   116.3584     2.9082     2.9901
  335.0000   117.5846     2.9084     2.8683
  335.5000   118.5086     2.9493     2.7707
  336.0000   118.2242     3.0115     2.7902
  336.5000   119.1482     3.1181     2.9090
  337.0000   120.6767     3.2509     3.2061
  337.5000   121.6012     3.4848     3.5335
  338.0000   120.7162     3.8226     3.8522
  338.5000   119.8276     4.2921     4.3521
  339.0000   118.9345     4.6330     4.8636
  339.5000   118.9566     5.1775     5.3232
  340.0000   120.4849     5.5886     5.6275
  340.5000   122.0131     5.7863     5.8672
  341.0000   126.5625     5.9085     5.9496
  341.5000   126.8823     5.9500     5.9500
  342.0000   125.6717     5.9093     5.9504
  342.5000   123.5448     5.8282     5.9070
  343.0000   124.8250     5.6622     5.8147
  343.5000   127.2596     5.4761     5.5143
  344.0000   130.2984     5.3265     5.1807
  344.5000   132.4309     5.1810     4.9012
  345.0000   132.7463     5.0745     4.8004
  345.5000   129.7473     5.0398     4.8009
  346.0000   124.3269     5.0753     4.8683
  346.5000   121.0213     5.1466     5.0057
  347.0000   121.6839     5.2562     5.1479
  347.5000   123.5247     5.4086     5.3762
  348.0000   125.3084     5.6730     5.6730
  348.5000   126.2324     5.8331     5.9974
  349.0000   126.5522     6.0816     6.2528
  349.5000   126.5699     6.3406     6.4741
  350.0000   126.5861     6.5769     6.6947
  350.5000   125.0342     6.9306     6.9294
  351.0000   122.4029     7.2874     7.1640
  351.5000   121.2099     7.4936     7.3986
  352.0000   121.2356     7.5994     7.5994
  352.5000   122.7668     7.6533     7.6534
  353.0000   125.2044     7.6544     7.6015
  353.5000   127.9440     7.6024     7.5499
  354.0000   131.2879     7.4470     7.3954
  354.5000   133.4233     7.2943     7.2944
  355.0000   131.0171     7.1947     7.0956
  355.5000   129.4964     7.0477     6.9988
  356.0000   127.7501     6.8556     6.8083
  356.5000   126.5623     6.6688     6.5315
  357.0000   126.2756     6.4871     6.3533
  357.5000   127.2078     6.2667     6.1376
  358.0000   131.1559     6.0041     5.8473
  358.5000   137.2188     5.6097     5.6486
  359.0000   135.4267     5.3074     5.3443
  359.5000   131.5198     4.9520     5.0120
  360.0000   128.4995     4.8844     4.6530
  360.5000   126.0213     4.8853     4.4948
  361.0000   117.9917     4.8859     4.4955
  361.5000   114.6839     4.9894     4.6549
  362.0000   119.5435     5.1663     4.7866
  362.5000   126.5127     5.3930     5.0256
  363.0000   132.2735     5.8556     5.5392
  363.5000   132.8932     6.2773     6.1052
  364.0000   128.3873     6.6366     6.5523
  364.5000   126.2931     6.9197     6.9198
  365.0000   126.0116     7.2149     7.2150
  365.5000   129.0585     7.4190     7.3678
  366.0000   132.4024     7.5238     7.4718
  366.5000   133.3242     7.6300     7.5773
  367.0000   128.5161     7.6842     7.6842
  367.5000   125.5156     7.6854     7.6853
  368.0000   124.9268     7.7400     7.6863
  368.5000   128.5780     7.7411     7.6874
  369.0000   132.8282     7.7421     7.6352
  369.5000   134.6616     7.7432     7.6365
  370.0000   133.7361     7.7442     7.6375
  370.5000   132.2909     7.6916     7.6386
  371.0000   132.0043     7.6927     7.6396
  371.5000   132.3322     7.6938     7.6406
  372.0000   131.4464     7.6948     7.6417
  372.5000   127.8417     7.6426     7.6427
  373.0000   125.4454     7.6971     7.6437
  373.5000   126.6745     7.6982     7.6448
  374.0000   130.6226     7.6992     7.6460
  374.5000   133.0604     7.7003     7.6471
  375.0000   132.7786     7.7102     7.6481
  375.5000   131.2938     7.7560     7.6491
  376.0000   130.4029     7.7570     7.6502
  376.5000   130.7308     7.7581     7.6512
  377.0000   131.3557     7.7055     7.5993
  377.5000   133.7932     7.4957     7.3360
  378.0000   137.7413     7.2411     7.1332
  378.5000   141.6894     6.9950     6.9465
  379.0000   145.9396     6.7573     6.7574
  379.5000   148.6793     6.7583     6.7116
  380.0000   147.1893     6.7124     6.7125
  380.5000   146.6057     6.5711     6.7134
  381.0000   145.4230     6.3010     6.5305
  381.5000   141.8182     5.9267     6.2216
  382.0000   130.6606     5.6464     5.8831
  382.5000   128.2643     5.5308     5.6354
  383.0000   127.3734     5.4553     5.1966
  383.5000   132.5351     5.4181     4.8826
  384.0000   138.9246     5.4190     4.8158
  384.5000   137.6344     5.4955     4.9867
  385.0000   135.3212     5.4975     5.2721
  385.5000   134.1282     5.6183     5.5739
  386.0000   132.6382     5.8930     5.9340
  386.5000   132.9661     6.1873     6.3200
  387.0000   132.0804     6.4962     6.5933
  387.5000   129.9862     6.6800     6.7266
  388.0000   128.7976     6.7742     6.7275
  388.5000   127.0063     6.7752     6.7284
  389.0000   125.4805     6.7292     6.5906
  389.5000   123.0715     6.4985     6.3226
  390.0000   124.0521     6.1390     5.9820
  390.5000   125.8854     5.7389     5.6596
  391.0000   128.3230     5.2082     5.3547
  391.5000   130.1562     4.8596     5.2815
  392.0000   131.3853     4.7601     5.2457
  392.5000   132.3123     4.7939     5.2832
  393.0000   131.1245     4.9638     5.3577
  393.5000   128.4260     5.1043     5.5477
  394.0000   126.9361     5.2862     5.7444
  394.5000   127.5609     5.6023     6.0311
  395.0000   127.2794     5.9904     6.3323
  395.5000   126.9979     6.3333     6.6034
