~VERSION INFORMATION
 VERS.                2.0:   CWLS LOG ASCII STANDARD - VERSION 2.0
 WRAP.                 NO:   ONE LINE PER DEPTH STEP
~WELL INFORMATION
#MNEM.UNIT      DATA TYPE    INFORMATION
#----------   ------------   ------------------------------
 STRT.F           16.0000:   START DEPTH
 STOP.F         2438.0000:   STOP DEPTH
 STEP.F            0.5000:   STEP LENGTH
 NULL.          -999.2500:   NO VALUE
 COMP. FENIX & SCISSON INC:   COMPANY
 WELL.      15 SHX #27-27:   WELL
 FLD .             TEAPOT:   FIELD
 LOC .      S27 T39N R78W:   LOCATION
 CNTY.            NATRONA:   COUNTY
 STAT.            WYOMING:   STATE
 CTRY. UNITED STATES OF AMERICA:   COUNTRY
 SRVC.            Unknown:   SERVICE COMPANY
 DATE.        09-JUN-1978:   LOGDATE
 API .       490251064100:   API NUMBER
~CURVE INFORMATION
#MNEM.UNIT       API CODE    CURVE DESCRIPTION
#----------   ------------   ------------------------------
 DEPT.F                  :   
 CALD.IN     45 280 60 00:   CALIPER FROM DENSITY LOG
 GRD .GAPI   45 310 01 00:   GAMMA RAY FROM DENSITY LOG
 CORR.G/C3   45 356 01 00:   DENSITY CORRECTION
 RHOB.G/C3   45 350 01 00:   BULK DENSITY
 DPHI.DEC    45 890 10 00:   DENSITY POROSITY LIMESTONE
~PARAMETER INFORMATION
#MNEM.UNIT          VALUE    DESCRIPTION
#----------   ------------   ------------------------------
 PD  .                 GL:   PERMANENT DATUM
 EPD .F              5062:   ELEVATION PERMANENT DATUM
 LMF .                 KB:   LOG MEASURED FROM
 DAPD.F                10:   FEET ABOVE PERMANENT DATUM
 DMF .                 KB:   DRILLING MEASURED FROM
 EKB .F              5072:   KELLING BUSHING
 EGL .F              5062:   GROUND LEVEL
 DATE.        09-JUN-1978:   RUN DATE
 RUN .                  1:   RUN NUMBER
 DD  .F              2450:   DEPTH DRILLER
 DL  .F              2445:   DEPTH LOGGER
 BLI .F              2438:   BOTTOM LOG INTERVAL
 TLI .F                10:   TOP LOG INTERVAL
 CS  .IN            9.625:   CASING SIZE
 CBD .F               688:   CASING BOTTOM DRILLER
 CBL .F               694:   CASING BOTTOM LOGGER
 BS  .IN             8.75:   BIT SIZE
 BSD .F              2450:   BIT SIZE AT DEPTH
 DFT .           AIR MIST:   DRILLING FLUID TYPE
 TCS .HRS               1:   TIME CURCULATED STOPPED
 LUN .               2958:   LOGGING UNIT NUMBER
 LUL .                CPR:   LOGGING UNIT LOCATION
 ENGI.             MILLER:   RECORDING ENGINEER
 WITN.           MCGINLEY:   WITNESSED BY
 CLNT.            A2DTECH:   CLIENT CODE
 ORIG.           5" PRINT:   ORIGIN OF DATA
 UWI .       490251064100:   UNIQUE WELL ID
 DICO. A2D Technologies, Inc.:   DIGITIZING COMPANY
~OTHER INFORMATION
~A   DEPT     CALD         GRD      CORR       RHOB       DPHI   
# ...
 1114.0000     9.3617    89.1804  -999.2500     2.5351     0.0084
 1114.5000     9.3635    87.3548  -999.2500     2.5336     0.0101
 1115.0000     9.3499    90.3122  -999.2500     2.5321     0.0132
 1115.5000     9.3057    92.0007  -999.2500     2.5298     0.0159
 1116.0000     9.2917    94.1692  -999.2500     2.5292     0.0134
 1116.5000     9.3093    96.1956  -999.2500     2.5362     0.0051
 1117.0000     9.3417    95.1311  -999.2500     2.5393     0.0049
 1117.5000     9.3921    88.8511  -999.2500     2.5410     0.0057
 1118.0000     9.4685    89.4834  -999.2500     2.5418     0.0044
 1118.5000     9.5009    89.6505  -999.2500     2.5419     0.0053
 1119.0000     9.5641    89.3612  -999.2500     2.5396     0.0068
 1119.5000     9.6272    91.9950  -999.2500     2.5366     0.0071
 1120.0000     9.6136    96.0082  -999.2500     2.5344     0.0101
 1120.5000     9.4621    96.1753  -999.2500     2.5321     0.0126
 1121.0000     9.2951    92.2038  -999.2500     2.5314     0.0138
 1121.5000     9.4662    91.6068  -999.2500     2.5330     0.0134
 1122.0000     9.4982    92.2397  -999.2500     2.5362     0.0076
 1122.5000     9.3163    94.4703  -999.2500     2.5370     0.0075
 1123.0000     9.2261    95.5058  -999.2500     2.5348     0.0118
 1123.5000     9.2432    91.9907  -999.2500     2.5318     0.0155
 1124.0000     9.2756    88.7828  -999.2500     2.5288     0.0115
 1124.5000     9.3234    91.7194  -999.2500     2.5281     0.0130
 1125.0000     9.3406    97.8817  -999.2500     2.5181     0.0166
 1125.5000     9.3424    96.8243  -999.2500     2.5166     0.0209
 1126.0000     9.3442    94.5381  -999.2500     2.5175     0.0249
 1126.5000     9.3306    92.8599  -999.2500     2.5322     0.0140
 1127.0000     9.2561    88.7984  -999.2500     2.5461     0.0005
 1127.5000     9.2421    83.6901  -999.2500     2.5446     0.0076
 1128.0000     9.2751    80.1705  -999.2500     2.5246     0.0226
 1128.5000     9.2922    82.9579  -999.2500     2.5217     0.0069
 1129.0000     9.3400    87.4305  -999.2500     2.5418     0.0004
 1129.5000     9.4491    88.5237  -999.2500     2.5465     0.0016
 1130.0000     9.5276    88.0808  -999.2500     2.5442     0.0053
 1130.5000     9.5447    87.0234  -999.2500     2.5397     0.0108
 1131.0000     9.4243    86.1038  -999.2500     2.5343     0.0095
 1131.5000     9.3494    82.2551  -999.2500     2.5306     0.0089
 1132.0000     9.3200    85.0848  -999.2500     2.5299     0.0163
 1132.5000     9.3065    88.9384  -999.2500     2.5343     0.0138
 1133.0000     9.3087    87.4248  -999.2500     2.5531    -0.0023
 1133.5000     9.3412    85.2921  -999.2500     2.5594    -0.0085
 1134.0000     9.3736    83.4668  -999.2500     2.5556    -0.0073
 1134.5000     9.4061    79.6444  -999.2500     2.5533    -0.0064
 1135.0000     9.4412    79.5084  -999.2500     2.5519     0.0010
 1135.5000     9.5175    81.8528  -999.2500     2.5473     0.0033
 1136.0000     9.5500    83.2566  -999.2500     2.5296     0.0278
 1136.5000     9.5518    83.8681  -999.2500     2.5041     0.0354
 1137.0000     9.5535    83.2716  -999.2500     2.5075     0.0175
 1137.5000     9.5553    79.4492  -999.2500     2.5337     0.0110
 1138.0000     9.5725    76.2414  -999.2500     2.5384     0.0101
 1138.5000     9.5742    76.8737  -999.2500     2.5315     0.0137
 1139.0000     9.5761    79.1958  -999.2500     2.5193     0.0199
 1139.5000     9.5629    79.2137  -999.2500     2.5116     0.0242
 1140.0000     9.5034    79.0780  -999.2500     2.5094     0.0291
 1140.5000     9.5665    78.4860  -999.2500     2.5087     0.0263
 1141.0000     9.5832    77.7359  -999.2500     2.5097     0.0244
 1141.5000     9.4014    76.6785  -999.2500     2.5104     0.0293
 1142.0000     9.3874    75.3140  -999.2500     2.5105     0.0231
 1142.5000     9.4663    73.6422  -999.2500     2.5082     0.0249
 1143.0000     9.5141    73.6601  -999.2500     2.5075     0.0323
 1143.5000     9.5160    76.9039  -999.2500     2.5099     0.0282
 1144.0000     9.5181    73.2351  -999.2500     2.5161     0.0211
 1144.5000     9.5199    70.3216  -999.2500     2.5200     0.0174
 1145.0000     9.5064    70.6641  -999.2500     2.5225     0.0226
 1145.5000     9.4924    73.7542  -999.2500     2.5256     0.0204
 1146.0000     9.3566    80.5310  -999.2500     2.5257     0.0192
 1146.5000     9.3230    82.0850  -999.2500     2.5257     0.0185
 1147.0000     9.4368    78.1091  -999.2500     2.5258     0.0148
 1147.5000     9.5026    71.6754  -999.2500     2.5259     0.0132
 1148.0000     9.5482    70.3108  -999.2500     2.5259     0.0138
 1148.5000     9.4580    71.2504  -999.2500     2.5237     0.0166
 1149.0000     9.4286    73.7431  -999.2500     2.5174     0.0254
 1149.5000     9.4462    74.0512  -999.2500     2.5007     0.0393
 1150.0000     9.5553    67.2327  -999.2500     2.4969     0.0341
 1150.5000     9.5720    65.0266  -999.2500     2.5116     0.0272
 1151.0000     9.6040    75.1811  -999.2500     2.5132     0.0263
 1151.5000     9.6054    78.5768  -999.2500     2.5171     0.0232
 1152.0000     9.6070    72.1414  -999.2500     2.5272     0.0062
 1152.5000     9.6083    69.8535  -999.2500     2.5435     0.0090
 1153.0000     9.5790    70.3347  -999.2500     2.5366     0.0151
 1153.5000     9.5189    69.2756  -999.2500     2.5212     0.0209
 1154.0000     9.4743    68.2126  -999.2500     2.5190     0.0194
 1154.5000     9.4438    69.1545  -999.2500     2.5229     0.0129
 1155.0000     9.4309    69.3244  -999.2500     2.5453     0.0042
 1155.5000     9.4326    67.6082  -999.2500     2.5492     0.0036
 1156.0000     9.4339    66.7455  -999.2500     2.5447     0.0066
 1156.5000     9.4506    67.5339  -999.2500     2.5439     0.0075
 1157.0000     9.4979    68.0110  -999.2500     2.5440     0.0057
 1157.5000     9.5918    67.4128  -999.2500     2.5433     0.0050
 1158.0000     9.7156    66.9677  -999.2500     2.5380     0.0112
 1158.5000     9.8090    68.0761  -999.2500     2.5342     0.0145
 1159.0000     9.8410    69.0017  -999.2500     2.5319     0.0148
 1159.5000     9.8423    69.0179  -999.2500     2.5328     0.0136
 1160.0000     9.7823    68.2661  -999.2500     2.5375     0.0043
 1160.5000     9.6916    67.6679  -999.2500     2.5475     0.0018
 1161.0000     9.5992    66.9161  -999.2500     2.5499     0.0008
 1161.5000     9.5105    66.4696  -999.2500     2.5492     0.0042
 1162.0000     9.4505    65.7238  -999.2500     2.5361     0.0116
 1162.5000     9.4518    67.8906  -999.2500     2.5316     0.0140
 1163.0000     9.4532    70.0574  -999.2500     2.5270     0.0177
 1163.5000     9.4545    70.3808  -999.2500     2.5148     0.0254
 1164.0000     9.4558    70.3971  -999.2500     2.5233     0.0084
 1164.5000     9.4575    70.7205  -999.2500     2.5365     0.0059
 1165.0000     9.4588    74.5269  -999.2500     2.5334     0.0111
 1165.5000     9.4755    75.5190  -999.2500     2.5201     0.0194
 1166.0000     9.5228    71.3878  -999.2500     2.5120     0.0286
 1166.5000     9.5855    69.4071  -999.2500     2.5121     0.0268
 1167.0000     9.5868    69.4233  -999.2500     2.5121     0.0267
 1167.5000     9.5575    70.8221  -999.2500     2.5129     0.0252
 1168.0000     9.5281    74.4002  -999.2500     2.5176     0.0159
 1168.5000     9.5451    74.8484  -999.2500     2.5285     0.0085
 1169.0000     9.5464    71.6429  -999.2500     2.5410     0.0060
 1169.5000     9.5631    68.5870  -999.2500     2.5379     0.0063
 1170.0000     9.5951    68.1383  -999.2500     2.5333     0.0111
 1170.5000     9.6118    69.6947  -999.2500     2.5303     0.0161
 1171.0000     9.6288    75.6133  -999.2500     2.5457     0.0019
 1171.5000     9.6301    79.1015  -999.2500     2.5474     0.0013
 1172.0000     9.6314    80.8075  -999.2500     2.5362     0.0188
 1172.5000     9.6328    82.3598  -999.2500     2.5190     0.0255
 1173.0000     9.6341    82.0688  -999.2500     2.5129     0.0264
 1173.5000     9.6354    79.7809  -999.2500     2.5121     0.0258
 1174.0000     9.6371    76.2500  -999.2500     2.5268     0.0122
 1174.5000     9.6384    71.9834  -999.2500     2.5308     0.0107
