~VERSION INFORMATION
 VERS.                2.0:   CWLS LOG ASCII STANDARD - VERSION 2.0
 WRAP.                 NO:   ONE LINE PER DEPTH STEP
~WELL INFORMATION
#MNEM.UNIT      DATA TYPE    INFORMATION
#----------   ------------   ------------------------------
 STRT.F           28.5000:   START DEPTH
 STOP.F          625.0000:   STOP DEPTH
 STEP.F            0.5000:   STEP LENGTH
 NULL.          -999.2500:   NO VALUE
 COMP. FENIX & SCISSON INC:   COMPANY
 WELL.    NPR ##3 13-SX-3:   WELL
 FLD .             TEAPOT:   FIELD
 LOC .       S3 T38N R78W:   LOCATION
 CNTY.            NATRONA:   COUNTY
 STAT.            WYOMING:   STATE
 CTRY. UNITED STATES OF AMERICA:   COUNTRY
 SRVC.       Schlumberger:   SERVICE COMPANY
 DATE.        25-FEB-1977:   LOGDATE
 API .       490251028400:   API NUMBER
~CURVE INFORMATION
#MNEM.UNIT       API CODE    CURVE DESCRIPTION
#----------   ------------   ------------------------------
 DEPT.F                  :   
 SPR .MV     07 010 01 00:   SPONTANEOUS POTENTIAL
 ILD .OHMM   07 120 46 00:   INDUCTION LOG DEEP
 LL8 .OHMM   07 220 08 00:   LATEROLOG-8 RES.
 ILM .OHMM   07 120 44 00:   INDUCTION LOG MEDIUM
 GRD .GAPI   45 310 01 00:   GAMMA RAY FROM DENSITY LOG
 CALD.IN     45 280 60 00:   CALIPER
 RHOB.G/C3   45 350 01 00:   BULK DENSITY
 CORR.G/C3   45 356 01 00:   DENSITY CORRECTION
 DPOR.DEC    45 890 12 00:   DENSITY POROSITY SANDSTONE
~PARAMETER INFORMATION
#MNEM.UNIT          VALUE    DESCRIPTION
#----------   ------------   ------------------------------
 PD  .                 GL:   PERMANENT DATUM
 EPD .F              5227:   ELEVATION PERMANENT DATUM
 LMF .                 GL:   LOG MEASURED FROM
 DMF .                 GL:   DRILLING MEASURED FROM
 EKB .F              5232:   KELLING BUSHING
 EGL .F              5227:   GROUND LEVEL
 DATE.          2-25-1977:   RUN DATE
 RUN .                  1:   RUN NUMBER
 DD  .F               629:   DEPTH DRILLER
 DL  .F               626:   DEPTH LOGGER
 BLI .F               620:   BOTTOM LOG INTERVAL
 TLI .F                40:   TOP LOG INTERVAL
 CS  .IN            8.625:   CASING SIZE
 CBD .F                40:   CASING BOTTOM DRILLER
 CBL .F                40:   CASING BOTTOM LOGGER
 BS  .IN            7.875:   BIT SIZE
 BSD .F               629:   BIT SIZE AT DEPTH
 DFT .                KCL:   DRILLING FLUID TYPE
 DFD .                8.8:   DRILLING FLUID DENSITY
 DFV .                 45:   DRILLING FLUID VISCOSITY
 DFPH.                  8:   DRILLING FLUID PH
 DFL .                8.2:   DRILLING FLUID LOSS
 MSS .                PIT:   MUD SAMPLE SOURCE
 RMS .OHMM           .508:   RESISTIVITY MUD SAMPLE
 MST .F                60:   MUD SAMPLE TEMPERATURE
 RMF .OHMM           .419:   RESISTIVITY MUD FILTRATE SAMPLE
 MFST.F                58:   MUD FILTRATE SAMPLE TEMPERATURE
 MFSS.                  M:   MUD FILTRATE SAMPLE SOURCE
 RMB .OHMM            .41:   RESISTIVITY MUD AT BHT
 BHT .F                75:   BOTTOM HOLE TEMPERATURE
 TCS .HRS            1700:   TIME CURCULATED STOPPED
 TLAB.HRS            2130:   TIME LOGGER AT BOTTOM
 MRT .F                75:   MAXIMUM RECORDED TEMPERATURE
 LUN .               5642:   LOGGING UNIT NUMBER
 LUL .               CSPR:   LOGGING UNIT LOCATION
 ENGI.             MARTIN:   RECORDING ENGINEER
 CLNT.            A2DTECH:   CLIENT CODE
 ORIG.       2", 5" PRINT:   ORIGIN OF DATA
 UWI .       490251028400:   UNIQUE WELL ID
 DICO. A2D Technologies, Inc.:   DIGITIZING COMPANY
~OTHER INFORMATION
~A   DEPT      SPR        ILD        LL8        ILM         GRD      CALD         RHOB     CORR       DPOR   
# ...
  320.5000   -45.1654     6.1168     7.2635     6.3168   108.4045     8.2282     2.4249    -0.0017     0.1395
  321.0000   -44.9848     5.5306     6.9063     5.8195   108.6516     8.2288     2.4179     0.0042     0.1417
  321.5000   -45.0796     5.0609     6.5666     5.2793   108.9364     8.2295     2.4044     0.0063     0.1449
  322.0000   -45.4079     4.4310     6.2436     4.7555   109.1133     8.2301     2.3879     0.0037     0.1601
  322.5000   -45.6589     3.8359     5.8555     4.2534   106.9149     8.2307     2.3652     0.0012     0.1821
  323.0000   -45.2735     3.3033     5.1970     3.6927   104.6391     8.2313     2.3222    -0.0006     0.2065
  323.5000   -44.8878     2.7957     4.2089     3.1698   102.3996     8.2319     2.2801     0.0078     0.2309
  324.0000   -44.8130     2.3326     3.4087     2.7209   100.6633     8.2326     2.2383     0.0145     0.2554
  324.5000   -45.0240     2.2319     2.4855     2.3561    99.3255     8.2332     2.1966     0.0056     0.2799
  325.0000   -45.2281     2.1209     2.5352     2.2451   100.5697     8.2338     2.1732    -0.0034     0.2896
  325.5000   -45.7689     2.2323     2.6273     2.4992   102.9914     8.2345     2.2078    -0.0105     0.2603
  326.0000   -46.1238     2.4610     2.4175     2.7139   105.9059     8.2351     2.2665    -0.0031     0.2279
  326.5000   -46.1815     2.7188     4.2320     2.9470   108.8260     8.2357     2.3249    -0.0104     0.1794
  327.0000   -46.2375     2.9359     3.3739     3.2474   111.7834     8.2363     2.3573     0.0278     0.1815
  327.5000   -46.3370     3.1355     2.5896     3.6343   112.5467     8.2370     2.3479     0.0148     0.1860
  328.0000   -46.1338     3.6632     3.9011     4.0617   111.8671     8.2376     2.3426    -0.0108     0.1900
  328.5000   -45.3951     4.2449     5.0468     4.5364   112.2340     8.2382     2.3972    -0.0060     0.1567
  329.0000   -44.6459     4.7935     5.6247     5.0665   113.3107     8.2388     2.4486     0.0039     0.1234
  329.5000   -43.7789     5.3601     6.2657     5.6365   112.5628     8.2395     2.4574     0.0120     0.1216
  330.0000   -42.8129     5.8949     6.9373     6.2584   111.0008     8.2401     2.4549     0.0149     0.1198
  330.5000   -43.3990     6.1931     7.3201     6.7475   110.7008     8.2407     2.4517     0.0182     0.1245
  331.0000   -43.6278     6.5063     7.6801     7.0838   112.1600     8.2414     2.4487     0.0167     0.1288
  331.5000   -43.4422     6.7475     7.4600     7.4012   113.5923     8.2420     2.4385     0.0139     0.1342
  332.0000   -43.1457     6.8762     7.2567     7.6094   115.0275     8.2426     2.4263     0.0059     0.1409
  332.5000   -42.3806     6.8727     7.0590     7.4286   116.4586     8.2432     2.4161    -0.0009     0.1475
  333.0000   -41.6321     6.8737     6.8734     7.1558   117.2575     8.2439     2.4069     0.0035     0.1520
  333.5000   -41.4114     6.8751     7.2945     6.8930   116.5082     8.2445     2.4126     0.0085     0.1478
  334.0000   -41.2864     6.3522     7.8326     6.6399   113.8470     8.2450     2.4298     0.0182     0.1362
  334.5000   -41.1701     6.0028     7.8895     6.3960   111.7547     8.2359     2.4203     0.0383     0.1424
  335.0000   -40.7599     5.6728     7.9098     6.1611   113.4190     8.2085     2.4001     0.0276     0.1512
  335.5000   -40.0178     5.3612     4.9321     5.8736   114.8103     8.1813     2.3801     0.0168     0.1640
  336.0000   -38.4999     5.2757     5.1542     5.6839   113.9104     8.1538     2.3677     0.0291     0.1780
  336.5000   -37.3736     5.2394     5.5054     5.5566   111.4568     8.1270     2.3845     0.0040     0.1624
  337.0000   -39.5015     5.2033     5.1827     5.5927   111.5438     8.1420     2.4020     0.0199     0.1397
  337.5000   -41.7054     5.1675     4.8818     5.6185   112.9396     8.1595     2.4173     0.0280     0.1439
  338.0000   -42.6464     5.0658     5.4276     5.6445   114.3794     8.1769     2.4124     0.0161     0.1517
  338.5000   -42.8426     5.1603     5.9285     5.7590   115.8359     8.1942     2.4109     0.0019     0.1365
  339.0000   -42.7344     5.4531     6.1873     6.0179   117.4207     8.2062     2.4197    -0.0029     0.1394
  339.5000   -42.6228     5.7791     6.3833     6.2883   119.5947     8.2073     2.4280     0.0010     0.1388
  340.0000   -42.5165     6.1246     6.7638     6.5709   120.1415     8.2087     2.4439     0.0067     0.1345
  340.5000   -42.5752     6.4908     7.1738     6.8734   119.4018     8.2100     2.4676    -0.0003     0.1182
  341.0000   -42.6447     6.8734     7.6086     7.1346   118.6691     8.2113     2.4630    -0.0092     0.1191
  341.5000   -42.7004     6.9680     7.9733     7.3975   118.2612     8.2126     2.4563    -0.0035     0.1201
  342.0000   -42.3495     7.0925     8.1859     7.6801   118.6430     8.2139     2.4611     0.0069     0.1183
  342.5000   -41.7243     7.1987     8.4042     7.6926   119.0014     8.2152     2.4826     0.0176     0.1138
  343.0000   -40.6028     7.1987     8.5093     7.7147   119.3549     8.2165     2.4732     0.0267     0.1106
  343.5000   -40.6031     7.2656     8.5529     7.7370   119.7238     8.2178     2.4519     0.0137     0.1196
  344.0000   -41.7624     7.2350     8.5814     7.7515   120.3217     8.2192     2.4451     0.0062     0.1265
  344.5000   -44.1424     7.1797     8.3129     7.6178   118.9378     8.2205     2.4401     0.0019     0.1297
  345.0000   -44.7486     7.1248     8.1195     7.5204   116.7342     8.2218     2.4394    -0.0022     0.1283
  345.5000   -45.3264     7.0668     7.9303     7.4240   114.6043     8.2231     2.4460    -0.0048     0.1251
  346.0000   -45.3987     6.9947     7.7456     7.3275   113.1091     8.2244     2.4526     0.0016     0.1220
  346.5000   -45.4832     6.8618     7.5652     7.1325   112.7627     8.2257     2.4590     0.0070     0.1198
  347.0000   -45.5691     6.6993     7.3889     6.9322   115.0255     8.2270     2.4536     0.0044     0.1250
  347.5000   -45.6551     6.3246     7.2172     6.7226   116.4616     8.2283     2.4429     0.0007     0.1299
  348.0000   -45.5440     5.9708     7.0027     6.4658   115.6108     8.2296     2.4330    -0.0014     0.1347
  348.5000   -45.4749     5.6368     7.0754     6.1549   116.4345     8.2310     2.4233     0.0012     0.1394
  349.0000   -45.8031     5.3221     7.1802     5.7720   118.5078     8.2323     2.4137     0.0037     0.1443
  349.5000   -46.1027     5.0301     7.2894     5.4136   120.6883     8.2336     2.4038     0.0061     0.1491
  350.0000   -45.4847     4.7541     7.4012     5.1235   122.3263     8.2349     2.3804     0.0153     0.1593
  350.5000   -45.2939     4.4933     5.4781     4.8490   123.4441     8.2362     2.3579     0.0267     0.1719
  351.0000   -45.6366     4.2468     3.3484     4.6196   120.1749     8.2375     2.3245     0.0340     0.1844
  351.5000   -45.8078     4.0575     3.6419     4.8422   117.4505     8.2388     2.3400     0.0109     0.1939
  352.0000   -45.5025     4.4004     4.3417     5.0640   115.5746     8.2402     2.3882     0.0005     0.1642
  352.5000   -45.2060     4.7297     5.1981     5.3427   115.9984     8.2415     2.4389    -0.0025     0.1337
  353.0000   -44.9075     5.0820     6.0949     5.6552   117.1648     8.2428     2.4358    -0.0055     0.1277
  353.5000   -44.6059     5.4084     5.8554     5.9869   118.2774     8.2441     2.4339    -0.0063     0.1292
  354.0000   -44.3257     5.8080     5.7659     6.3377   119.3869     8.2454     2.4426     0.0067     0.1289
  354.5000   -44.8159     6.2621     7.3192     6.7092   120.2963     8.2467     2.4469     0.0172     0.1277
  355.0000   -45.3602     6.6499     7.5373     6.9662   118.9800     8.2480     2.4409     0.0114     0.1277
  355.5000   -45.8684     6.8894     7.6197     7.1305   117.6949     8.2493     2.4478     0.0124     0.1299
  356.0000   -45.4029     6.9906     7.6992     7.2986   116.4215     8.2506     2.4436     0.0087     0.1327
  356.5000   -44.4914     7.0838     7.7812     7.4397   115.1052     8.2520     2.4355    -0.0079     0.1331
