~VERSION INFORMATION
 VERS.                2.0:   CWLS LOG ASCII STANDARD - VERSION 2.0
 WRAP.                 NO:   ONE LINE PER DEPTH STEP
~WELL INFORMATION
#MNEM.UNIT      DATA TYPE    INFORMATION
#----------   ------------   ------------------------------
 STRT.F           70.0000:   START DEPTH
 STOP.F          865.0000:   STOP DEPTH
 STEP.F            0.5000:   STEP LENGTH
 NULL.          -999.2500:   NO VALUE
 COMP. U S NAVY/INTEX OIL CO:   COMPANY
 WELL.   54S 11 NPR #3-11:   WELL
 FLD .             TEAPOT:   FIELD
 LOC .      S11 T38N R78W:   LOCATION
 CNTY.            NATRONA:   COUNTY
 STAT.            WYOMING:   STATE
 CTRY. UNITED STATES OF AMERICA:   COUNTRY
 SRVC.         Lane Wells:   SERVICE COMPANY
 DATE.        11-MAR-1960:   LOGDATE
 API .       490250634900:   API NUMBER
~CURVE INFORMATION
#MNEM.UNIT       API CODE    CURVE DESCRIPTION
#----------   ------------   ------------------------------
 DEPT.F                  :   
 SPR .MV     05 010 01 00:   SPONTANEOUS POTENTIAL FROM RES.
 ASN .OHMM   05 041 16 00:   AMPLIFIED SHORT NORMAL 16"
 ILD .OHMM   05 120 46 00:   INDUCTION LOG DEEP
 CILD.MMHO   05 110 46 00:   CONDUCTIVITY INDUCTION LOG DEEP
~PARAMETER INFORMATION
#MNEM.UNIT          VALUE    DESCRIPTION
#----------   ------------   ------------------------------
 PD  .                 GL:   PERMANENT DATUM
 EPD .F              5198:   ELEVATION PERMANENT DATUM
 LMF .                 KB:   LOG MEASURED FROM
 DAPD.F                 5:   FEET ABOVE PERMANENT DATUM
 DMF .                 KB:   DRILLING MEASURED FROM
 EKB .F              5203:   KELLING BUSHING
 EGL .F              5198:   GROUND LEVEL
 DATE.            3-11-60:   RUN DATE
 RUN .                  1:   RUN NUMBER
 DD  .F               870:   DEPTH DRILLER
 DL  .F               867:   DEPTH LOGGER
 BLI .F               865:   BOTTOM LOG INTERVAL
 TLI .F                70:   TOP LOG INTERVAL
 CS  .IN            8.625:   CASING SIZE
 CBD .F                12:   CASING BOTTOM DRILLER
 BS  .IN            7.875:   BIT SIZE
 BSD .F               870:   BIT SIZE AT DEPTH
 DFT .   GEL/OIL EMULSION:   DRILLING FLUID TYPE
 DFD .                9.2:   DRILLING FLUID DENSITY
 DFV .                 36:   DRILLING FLUID VISCOSITY
 DFPH.                7.5:   DRILLING FLUID PH
 DFL .                4.4:   DRILLING FLUID LOSS
 MSS .                PIT:   MUD SAMPLE SOURCE
 RMS .OHMM            6.8:   RESISTIVITY MUD SAMPLE
 MST .F                54:   MUD SAMPLE TEMPERATURE
 RMF .OHMM            4.2:   RESISTIVITY MUD FILTRATE SAMPLE
 MFST.F                69:   MUD FILTRATE SAMPLE TEMPERATURE
 RMC .OHMM            5.1:   RESISTIVITY MUD CAKE
 MCST.F                69:   MUD CAKE SAMPLE TEMPERATURE
 MFSS.              PRESS:   MUD FILTRATE SAMPLE SOURCE
 MCSS.              PRESS:   MUD CAKE SAMPLE SOURCE
 RMB .OHMM            5.2:   RESISTIVITY MUD AT BHT
 BHT .F                70:   BOTTOM HOLE TEMPERATURE
 TCS .HRS              .5:   TIME CURCULATED STOPPED
 MRT .F                70:   MAXIMUM RECORDED TEMPERATURE
 LUN .             L-4474:   LOGGING UNIT NUMBER
 LUL .             CASPER:   LOGGING UNIT LOCATION
 ENGI.      GRIGGS/NELSON:   RECORDING ENGINEER
 WITN.   JORGENSEN/HUDSON:   WITNESSED BY
 CLNT.            A2DTECH:   CLIENT CODE
 ORIG.       2", 5" PRINT:   ORIGIN OF DATA
 UWI .       490250634900:   UNIQUE WELL ID
 DICO. A2D Technologies, Inc.:   DIGITIZING COMPANY
~OTHER INFORMATION
~A   DEPT       SPR         ASN        ILD      CILD  
# ...
  289.0000   -13.4666     5.6301     5.3073   223.8071
  289.5000   -13.5171     5.7663     5.3028   221.1396
  290.0000   -13.5667     5.8416     5.2909   218.4721
  290.5000   -13.5529     5.9148     5.2786   215.8047
  291.0000   -13.4597     6.0025     5.2664   213.2030
  291.5000   -13.3673     6.0914     5.2542   215.8050
  292.0000   -13.2746     6.1312     5.2419   218.3396
  292.5000   -13.1822     6.1444     5.2298   220.8835
  293.0000   -13.0891     6.0413     5.2179   223.4216
  293.5000   -13.0481     5.9377     5.2098   225.9619
  294.0000   -13.0474     5.8233     5.1466   228.5011
  294.5000   -13.0474     5.7006     5.1014   232.2470
  295.0000   -13.0475     5.5807     4.9184   240.6305
  295.5000   -13.0475     5.3055     4.7343   249.0140
  296.0000   -13.0475     4.9512     4.5500   257.3975
  296.5000   -13.0475     4.5672     4.3686   280.8106
  297.0000   -13.0475     4.1737     4.0829   312.7623
  297.5000   -13.0475     3.7785     3.7554   343.2029
  298.0000   -13.0477     3.3834     3.4249   373.8004
  298.5000   -13.0475     2.9878     3.0941   404.3653
  299.0000   -13.0317     2.5937     2.7531   434.9301
  299.5000   -12.9476     2.2714     2.5851   465.4949
  300.0000   -12.8652     2.2141     2.4611   496.0598
  300.5000   -12.7826     2.1411     2.3312   526.6246
  301.0000   -12.6970     2.1993     2.5220   526.0737
  301.5000   -12.7488     2.2971     2.8201   515.9872
  302.0000   -12.8336     2.5250     2.5808   482.7169
  302.5000   -12.9193     3.1906     2.9985   443.2882
  303.0000   -13.0048     3.8230     3.3856   403.8596
  303.5000   -13.0902     4.4608     3.7742   364.4310
  304.0000   -13.1740     5.0834     4.1629   324.9240
  304.5000   -13.1911     5.8036     4.5516   285.7001
  305.0000   -13.0754     6.5314     4.9406   255.7066
  305.5000   -12.9619     7.2496     5.3327   231.1910
  306.0000   -12.8481     8.0246     5.7357   211.9352
  306.5000   -12.7342     8.2715     5.7650   200.2254
  307.0000   -12.6197     7.8357     5.7760   199.4919
  307.5000   -12.5058     7.3502     5.7889   198.7131
  308.0000   -12.5479     6.8591     5.8025   207.6033
  308.5000   -12.6601     6.3692     5.8161   217.0784
  309.0000   -12.7711     5.8795     5.8297   226.5535
  309.5000   -12.8816     5.3895     5.8433   236.0286
  310.0000   -12.9929     4.9144     5.8569   245.5036
  310.5000   -12.9785     5.0215     5.8705   254.8618
  311.0000   -12.8451     5.1594     5.8841   249.0270
  311.5000   -12.7109     5.5348     5.8977   243.2633
  312.0000   -12.5761     6.1546     5.9105   237.4997
  312.5000   -12.4413     7.3312     5.9210   226.9330
  313.0000   -12.3184     7.8549     5.9603   212.5238
  313.5000   -12.3146    10.0115     6.4591   198.1147
  314.0000   -12.3309    10.4531     6.9525   183.7056
  314.5000   -12.5962    10.8682     7.4425   169.2964
  315.0000   -12.8543    11.2821     7.9335   154.8873
  315.5000   -13.1103    11.6154     8.3155   140.4782
  316.0000   -13.3663    11.9029     8.6402   134.4631
  316.5000   -13.6219    12.1909     8.7464   133.1294
  317.0000   -13.8819    12.4757     8.7481   131.7957
  317.5000   -13.8943    12.7295     8.7478   130.4619
  318.0000   -13.8010    12.9943     8.7476   129.1297
  318.5000   -13.8468    13.1651     8.7476   128.0990
  319.0000   -14.2234    13.2159     8.7476   128.2761
  319.5000   -14.5947    13.2680     8.7476   128.4428
  320.0000   -14.9784    13.3212     8.7476   128.6095
  320.5000   -14.9616    13.2940     8.7476   128.7762
  321.0000   -14.7933    13.1160     8.7476   128.9429
  321.5000   -14.4455    12.9433     8.7476   129.1096
  322.0000   -14.1091    12.7711     8.7476   129.2764
  322.5000   -13.7731    12.5988     8.7477   129.4431
  323.0000   -13.4356    12.4265     8.7475   129.6098
  323.5000   -13.0964    12.2541     8.7410   129.7765
  324.0000   -13.0503    12.0805     8.7204   131.1535
  324.5000   -13.3297    11.8993     8.7000   132.3912
  325.0000   -14.1515    12.0843     8.6796   133.2062
  325.5000   -14.9642    12.2919     8.6592   134.0213
  326.0000   -15.7782    12.2581     8.6388   134.8363
  326.5000   -16.5928    12.2855     8.6184   135.3194
  327.0000   -17.2286    12.3101     8.5980   135.0147
  327.5000   -17.1453    12.3386     8.5780   134.6822
  328.0000   -17.0321    12.4410     8.5842   134.3489
  328.5000   -16.9196    12.5510     8.6253   134.0128
  329.0000   -16.8062    12.6606     8.6658   133.6810
  329.5000   -16.7100    12.7714     8.7057   131.6969
  330.0000   -17.0590    12.8768     8.7526   130.6618
  330.5000   -17.4312    13.2392     8.9606   128.5660
  331.0000   -17.8014    13.9378     9.1757   126.4701
  331.5000   -18.1767    14.6349     9.3901   124.4519
  332.0000   -18.3098    15.2723     9.6042   122.6809
  332.5000   -17.6556    15.8538     9.8184   119.4206
  333.0000   -16.9935    16.4419    10.0326   116.1604
  333.5000   -16.3368    18.2037    10.2467   112.9001
  334.0000   -15.6732    20.8349    10.4609   109.6399
  334.5000   -15.5915    23.4661    10.6750   106.3796
  335.0000   -15.8747    26.0973    10.8895   103.1166
  335.5000   -15.3252    28.7285    11.1034    99.8518
  336.0000   -14.3277    31.3650    11.3193    96.5991
  336.5000   -13.3260    34.0073    11.3449    95.7662
  337.0000   -12.7414    37.4456    11.3032    97.2831
  337.5000   -14.4423    34.8323    11.1281    98.5284
  338.0000   -16.1122    30.8438    10.8969   100.3623
  338.5000   -17.7760    26.8966    10.5221   104.5621
  339.0000   -19.4403    22.9510    10.0821   109.7581
  339.5000   -21.1103    19.5231     9.6415   114.9541
  340.0000   -22.7616    17.7802     9.2001   120.1501
  340.5000   -23.6600    16.0403     8.7474   125.3462
  341.0000   -21.9534    14.6685     8.6570   130.5422
  341.5000   -20.3223    14.2760     8.6558   133.0393
  342.0000   -18.6941    13.8796     8.6573   134.7653
  342.5000   -17.0919    13.6128     8.6610   136.4913
  343.0000   -15.9727    13.6589     8.5077   138.2173
  343.5000   -15.0480    13.3161     8.3244   139.9434
  344.0000   -13.9386    13.1035     8.1400   141.6694
  344.5000   -12.8934    12.6777     7.9546   143.3954
  345.0000   -13.6748    11.8344     7.8401   145.1214
  345.5000   -14.1425    10.9917     7.5854   148.9943
  346.0000   -13.7547    10.0954     7.3336   156.3298
  346.5000   -12.7502     9.9367     7.0811   163.6654
  347.0000   -11.7530     9.1508     6.8287   171.0009
  347.5000   -10.7542     8.2902     6.5762   178.3365
  348.0000    -9.7530     7.4607     6.3239   185.6721
  348.5000    -9.0473     6.6723     6.0708   193.0076
  349.0000    -9.1624     5.8811     5.8796   200.3432
  349.5000    -9.3040     5.8122     5.7578   204.8532
  350.0000    -9.4445     5.8041     5.6352   206.3203
  350.5000    -9.5758     5.8357     5.5702   207.7695
  351.0000    -9.5502     5.8683     5.5576   207.7751
  351.5000    -9.5185     5.9010     5.5460   207.7706
  352.0000    -9.4875     5.9315     5.5347   207.7679
  352.5000    -9.4564     5.9005     5.5232   207.7613
  353.0000    -9.4244     5.8441     5.5117   207.7776
  353.5000    -9.4062     5.7877     5.5003   209.2385
  354.0000    -9.5746     5.7312     5.4887   210.6220
  354.5000    -9.7405     5.6744     5.4818   211.9974
  355.0000    -9.9045     5.6180     5.4777   213.2030
  355.5000   -10.0721     5.5784     5.4736   213.0259
  356.0000   -10.0202     5.6576     5.4696   212.7442
  356.5000    -9.8585     5.7362     5.4655   212.4612
  357.0000    -9.6932     5.8142     5.4614   212.1790
  357.5000    -9.5293     5.8792     5.4573   211.8969
  358.0000    -9.4271     5.8712     5.4532   211.6147
  358.5000    -9.6182     5.8320     5.4492   212.1616
  359.0000    -9.8037     5.8320     5.4451   213.6408
  359.5000    -9.9886     5.8441     5.4410   214.2521
  360.0000   -10.1734     5.8579     5.4369   214.8649
  360.5000   -10.3581     5.8102     5.4328   215.4750
  361.0000   -10.5429     5.7452     5.4288   216.0857
  361.5000   -10.7276     5.6798     5.4247   216.6973
