~VERSION INFORMATION
 VERS.                2.0:   CWLS LOG ASCII STANDARD - VERSION 2.0
 WRAP.                 NO:   ONE LINE PER DEPTH STEP
~WELL INFORMATION
#MNEM.UNIT      DATA TYPE    INFORMATION
#----------   ------------   ------------------------------
 STRT.F            4.0000:   START DEPTH
 STOP.F         1997.5000:   STOP DEPTH
 STEP.F            0.5000:   STEP LENGTH
 NULL.          -999.2500:   NO VALUE
 COMP. LAWRENCE/ALLISON INC:   COMPANY
 WELL. NPR 3 66 SX #32-11:   WELL
 FLD .             TEAPOT:   FIELD
 LOC .      S11 T38N R78W:   LOCATION
 CNTY.            NATRONA:   COUNTY
 STAT.            WYOMING:   STATE
 CTRY. UNITED STATES OF AMERICA:   COUNTRY
 SRVC.      NL McCullough:   SERVICE COMPANY
 DATE.        16-SEP-1988:   LOGDATE
 API .       490251108600:   API NUMBER
~CURVE INFORMATION
#MNEM.UNIT       API CODE    CURVE DESCRIPTION
#----------   ------------   ------------------------------
 DEPT.F                  :   
 ROP .MIN/FT 91 810 01 00:   RATE OF DRILLING PENETRATION
 GR  .GAPI   81 310 01 00:   GAMMA RAY FROM CEMENT BOND LOG
 TGAS.UNITS  91 830 01 00:   TOTAL GAS FROM HOTWIRE
~PARAMETER INFORMATION
#MNEM.UNIT          VALUE    DESCRIPTION
#----------   ------------   ------------------------------
 PD  .                 GL:   PERMANENT DATUM
 EPD .F              5170:   ELEVATION PERMANENT DATUM
 LMF .                 KB:   LOG MEASURED FROM
 DMF .                 KB:   DRILLING MEASURED FROM
 EKB .F              5170:   KELLING BUSHING
 EGL .F              5170:   GROUND LEVEL
 DATE.        16-SEP-1988:   RUN DATE
 RUN .                  1:   RUN NUMBER
 DD  .F               837:   DEPTH DRILLER
 DL  .F               737:   DEPTH LOGGER
 BLI .F               733:   BOTTOM LOG INTERVAL
 CS  .IN              5.5:   CASING SIZE
 CBD .F               836:   CASING BOTTOM DRILLER
 BSD .F               837:   BIT SIZE AT DEPTH
 DFT .              WATER:   DRILLING FLUID TYPE
 TCS .HRS             1.5:   TIME CURCULATED STOPPED
 ENGI.          BANGERTER:   RECORDING ENGINEER
 WITN.               LOWE:   WITNESSED BY
 CLNT.            A2DTECH:   CLIENT CODE
 ORIG.           5" PRINT:   ORIGIN OF DATA
 UWI .       490251108600:   UNIQUE WELL ID
 DICO. A2D Technologies, Inc.:   DIGITIZING COMPANY
~OTHER INFORMATION
~A    DEPT     ROP          GR      TGAS   
# ...
 1187.0000     0.2988  -999.2500    11.4042
 1187.5000     0.2986  -999.2500    11.4043
 1188.0000     0.2984  -999.2500    11.4043
 1188.5000     0.2982  -999.2500    11.4044
 1189.0000     0.2980  -999.2500    11.4044
 1189.5000     0.2978  -999.2500    11.4045
 1190.0000     0.2976  -999.2500    11.4045
 1190.5000     0.2974  -999.2500    11.4046
 1191.0000     0.2972  -999.2500    11.4046
 1191.5000     0.2970  -999.2500    11.4047
 1192.0000     0.2968  -999.2500    11.4047
 1192.5000     0.2966  -999.2500    11.4048
 1193.0000     0.2964  -999.2500    11.4048
 1193.5000     0.2962  -999.2500    11.4049
 1194.0000     0.2960  -999.2500    11.4049
 1194.5000     0.2958  -999.2500    11.4050
 1195.0000     0.2956  -999.2500    11.4050
 1195.5000     0.2953  -999.2500    11.4051
 1196.0000     0.2951  -999.2500    11.4051
 1196.5000     0.2949  -999.2500    11.4052
 1197.0000     0.2947  -999.2500    11.4052
 1197.5000     0.2945  -999.2500    11.4053
 1198.0000     0.2943  -999.2500    11.4053
 1198.5000     0.2941  -999.2500    11.4054
 1199.0000     0.2939  -999.2500    11.4054
 1199.5000     0.2937  -999.2500    11.4055
 1200.0000     0.2935  -999.2500    11.4055
 1200.5000     0.2935  -999.2500    11.3747
 1201.0000     0.2935  -999.2500    11.3439
 1201.5000     0.2935  -999.2500    11.3131
 1202.0000     0.2935  -999.2500    11.2822
 1202.5000     0.2935  -999.2500    11.2514
 1203.0000     0.2935  -999.2500    11.2206
 1203.5000     0.2935  -999.2500    11.1897
 1204.0000     0.2935  -999.2500    11.1589
 1204.5000     0.2935  -999.2500    11.1281
 1205.0000     0.2935  -999.2500    11.0973
 1205.5000     0.2935  -999.2500    11.0664
 1206.0000     0.2935  -999.2500    11.0356
 1206.5000     0.2935  -999.2500    11.0048
 1207.0000     0.2935  -999.2500    10.9740
 1207.5000     0.2935  -999.2500    10.9431
 1208.0000     0.2935  -999.2500    10.9123
 1208.5000     0.2935  -999.2500    10.8815
 1209.0000     0.2935  -999.2500    10.8507
 1209.5000     0.2935  -999.2500    10.8198
 1210.0000     0.2935  -999.2500    10.7890
 1210.5000     0.2935  -999.2500    10.7582
 1211.0000     0.2935  -999.2500    10.7274
 1211.5000     0.2935  -999.2500    10.6965
 1212.0000     0.2935  -999.2500    10.6657
 1212.5000     0.2935  -999.2500    10.6349
 1213.0000     0.2935  -999.2500    10.6041
 1213.5000     0.2935  -999.2500    10.5732
 1214.0000     0.2935  -999.2500    10.5424
 1214.5000     0.2935  -999.2500    10.5116
 1215.0000     0.2935  -999.2500    10.4808
 1215.5000     0.2935  -999.2500    10.4499
 1216.0000     0.2935  -999.2500    10.4191
 1216.5000     0.2935  -999.2500    10.3872
 1217.0000     0.2935  -999.2500    13.4372
 1217.5000     0.2935  -999.2500    17.5917
 1218.0000     0.2935  -999.2500    21.6109
 1218.5000     0.2935  -999.2500    20.0016
 1219.0000     0.2935  -999.2500    13.1889
 1219.5000     0.2935  -999.2500    13.1267
 1220.0000     0.2935  -999.2500    13.0598
 1220.5000     0.2935  -999.2500    12.9656
 1221.0000     0.2935  -999.2500    12.8714
 1221.5000     0.2935  -999.2500    12.7772
 1222.0000     0.2935  -999.2500    12.6829
 1222.5000     0.2935  -999.2500    12.5887
 1223.0000     0.2935  -999.2500    12.4945
 1223.5000     0.2935  -999.2500    12.4002
 1224.0000     0.2935  -999.2500    12.3060
 1224.5000     0.2935  -999.2500    12.2118
 1225.0000     0.2935  -999.2500    12.1176
 1225.5000     0.2935  -999.2500    12.0233
 1226.0000     0.2935  -999.2500    11.9291
 1226.5000     0.2935  -999.2500    11.8349
 1227.0000     0.2935  -999.2500    11.7407
 1227.5000     0.2935  -999.2500    11.6464
 1228.0000     0.2935  -999.2500    11.5522
 1228.5000     0.2935  -999.2500    11.4580
 1229.0000     0.2935  -999.2500    11.3637
 1229.5000     0.2935  -999.2500    11.2695
 1230.0000     0.2935  -999.2500    11.1753
 1230.5000     0.2935  -999.2500    11.0811
 1231.0000     0.2935  -999.2500    10.9868
 1231.5000     0.2935  -999.2500    10.8926
 1232.0000     0.2935  -999.2500    10.7984
 1232.5000     0.2935  -999.2500    10.7042
 1233.0000     0.2935  -999.2500    10.6099
 1233.5000     0.2935  -999.2500    10.5157
 1234.0000     0.2935  -999.2500    10.4215
 1234.5000     0.2935  -999.2500    10.3273
 1235.0000     0.2935  -999.2500    10.2330
 1235.5000     0.2935  -999.2500    10.1388
 1236.0000     0.2935  -999.2500    10.0446
 1236.5000     0.2935  -999.2500    14.0179
 1237.0000     0.2935  -999.2500    19.2325
 1237.5000     0.2935  -999.2500    23.3194
 1238.0000     0.2935  -999.2500    19.1113
 1238.5000     0.2935  -999.2500    14.9033
 1239.0000     0.2935  -999.2500    10.6952
 1239.5000     0.2935  -999.2500    10.6346
 1240.0000     0.2935  -999.2500    10.5740
 1240.5000     0.2935  -999.2500    10.5614
 1241.0000     0.2935  -999.2500    10.5483
 1241.5000     0.2935  -999.2500    10.5352
 1242.0000     0.2935  -999.2500    10.5221
 1242.5000     0.2935  -999.2500    10.5090
 1243.0000     0.2935  -999.2500    10.4960
 1243.5000     0.2935  -999.2500    10.4829
 1244.0000     0.2935  -999.2500    10.4698
 1244.5000     0.2935  -999.2500    10.4567
 1245.0000     0.2935  -999.2500    10.4436
 1245.5000     0.2935  -999.2500    10.4306
 1246.0000     0.2935  -999.2500    10.4175
 1246.5000     0.2935  -999.2500    10.4044
 1247.0000     0.2935  -999.2500    10.3913
 1247.5000     0.2935  -999.2500    10.3782
 1248.0000     0.2935  -999.2500    10.3652
 1248.5000     0.2935  -999.2500    10.3521
 1249.0000     0.2935  -999.2500    10.3390
 1249.5000     0.2935  -999.2500    10.3259
 1250.0000     0.2935  -999.2500    10.3128
 1250.5000     0.2936  -999.2500    10.2980
 1251.0000     0.2937  -999.2500    10.3495
 1251.5000     0.2938  -999.2500    10.4091
 1252.0000     0.2939  -999.2500    10.4687
 1252.5000     0.2940  -999.2500    10.5284
 1253.0000     0.2941  -999.2500    10.5880
 1253.5000     0.2942  -999.2500    10.6476
 1254.0000     0.2943  -999.2500    10.7073
 1254.5000     0.2944  -999.2500    10.7669
 1255.0000     0.2945  -999.2500    10.8265
 1255.5000     0.2946  -999.2500    10.8862
 1256.0000     0.2947  -999.2500    10.9458
 1256.5000     0.2948  -999.2500    11.1029
 1257.0000     0.2949  -999.2500    13.3962
 1257.5000     0.2950  -999.2500    17.9122
 1258.0000     0.2951  -999.2500    23.3549
 1258.5000     0.2952  -999.2500    21.2847
 1259.0000     0.2953  -999.2500    16.3570
 1259.5000     0.2954  -999.2500    13.6512
 1260.0000     0.2955  -999.2500    12.8755
 1260.5000     0.2956  -999.2500    12.9079
 1261.0000     0.2957  -999.2500    12.9403
 1261.5000     0.2958  -999.2500    12.9727
 1262.0000     0.2959  -999.2500    13.0051
 1262.5000     0.2960  -999.2500    13.0374
 1263.0000     0.2961  -999.2500    13.0698
 1263.5000     0.2962  -999.2500    13.1022
 1264.0000     0.2963  -999.2500    13.1346
 1264.5000     0.2964  -999.2500    13.1670
 1265.0000     0.2965  -999.2500    13.1994
 1265.5000     0.2966  -999.2500    13.2317
 1266.0000     0.2967  -999.2500    13.2641
 1266.5000     0.2968  -999.2500    13.2965
 1267.0000     0.2969  -999.2500    13.3289
 1267.5000     0.2970  -999.2500    13.3613
 1268.0000     0.2971  -999.2500    13.3937
 1268.5000     0.2972  -999.2500    13.4260
 1269.0000     0.2973  -999.2500    13.4584
 1269.5000     0.2974  -999.2500    13.4908
 1270.0000     0.2975  -999.2500    13.5232
 1270.5000     0.2976  -999.2500    13.5556
 1271.0000     0.2977  -999.2500    13.5880
 1271.5000     0.2978  -999.2500    13.6203
 1272.0000     0.2979  -999.2500    13.6527
 1272.5000     0.2980  -999.2500    13.6851
 1273.0000     0.2981  -999.2500    13.7175
 1273.5000     0.2982  -999.2500    13.7499
 1274.0000     0.2983  -999.2500    13.7823
 1274.5000     0.2984  -999.2500    13.8146
 1275.0000     0.2985  -999.2500    13.8470
 1275.5000     0.2986  -999.2500    13.8794
 1276.0000     0.2987  -999.2500    13.9118
 1276.5000     0.2988  -999.2500    14.5774
 1277.0000     0.2989  -999.2500    17.0410
 1277.5000     0.2990  -999.2500    20.9794
