~VERSION INFORMATION
 VERS.                2.0:   CWLS LOG ASCII STANDARD - VERSION 2.0
 WRAP.                 NO:   ONE LINE PER DEPTH STEP
~WELL INFORMATION
#MNEM.UNIT      DATA TYPE    INFORMATION
#----------   ------------   ------------------------------
 STRT.F            0.5000:   START DEPTH
 STOP.F         2271.5000:   STOP DEPTH
 STEP.F            0.5000:   STEP LENGTH
 NULL.          -999.2500:   NO VALUE
 COMP. BROWN JOHN E&C INC:   COMPANY
 WELL. NPR 3 STX-11 #27-11:   WELL
 FLD .             TEAPOT:   FIELD
 LOC .      S11 T38N R78W:   LOCATION
 CNTY.            NATRONA:   COUNTY
 STAT.            WYOMING:   STATE
 CTRY. UNITED STATES OF AMERICA:   COUNTRY
 SRVC.      Dresser Atlas:   SERVICE COMPANY
 DATE.        20-JAN-1993:   LOGDATE
 API .       490251108500:   API NUMBER
~CURVE INFORMATION
#MNEM.UNIT       API CODE    CURVE DESCRIPTION
#----------   ------------   ------------------------------
 DEPT.F                  :   
 ILD .OHMM   07 120 46 00:   INDUCTION LOG DEEP
 ILM .OHMM   07 120 44 00:   INDUCTION LOG MEDIUM
 GRR .GAPI   07 310 01 00:   GAMMA RAY FROM RES. LOG.
~PARAMETER INFORMATION
#MNEM.UNIT          VALUE    DESCRIPTION
#----------   ------------   ------------------------------
 PD  .                 GL:   PERMANENT DATUM
 EPD .F              5187:   ELEVATION PERMANENT DATUM
 LMF .                 KB:   LOG MEASURED FROM
 DAPD.F                12:   FEET ABOVE PERMANENT DATUM
 DMF .                 KB:   DRILLING MEASURED FROM
 EKB .F            5198.8:   KELLING BUSHING
 EDF .F            5197.8:   DRILLING FLOOR
 EGL .F              5187:   GROUND LEVEL
 DATE.            1-20-93:   RUN DATE
 RUN .                  1:   RUN NUMBER
 DD  .F              2279:   DEPTH DRILLER
 DL  .F              2279:   DEPTH LOGGER
 BLI .F              2271:   BOTTOM LOG INTERVAL
 TLI .F               692:   TOP LOG INTERVAL
 CS  .IN            8.625:   CASING SIZE
 CBD .F               689:   CASING BOTTOM DRILLER
 CBL .F               692:   CASING BOTTOM LOGGER
 BS  .IN            7.875:   BIT SIZE
 BSD .F              2279:   BIT SIZE AT DEPTH
 DFT .                OIL:   DRILLING FLUID TYPE
 BHT .F                92:   BOTTOM HOLE TEMPERATURE
 TCS .HRS               2:   TIME CURCULATED STOPPED
 MRT .F                92:   MAXIMUM RECORDED TEMPERATURE
 LUN .            HL-6274:   LOGGING UNIT NUMBER
 LUL .             CASPER:   LOGGING UNIT LOCATION
 ENGI.             RAUTIO:   RECORDING ENGINEER
 WITN.             STRONG:   WITNESSED BY
 CLNT.            A2DTECH:   CLIENT CODE
 ORIG.  2", 5", 20" PRINT:   ORIGIN OF DATA
 UWI .       490251108500:   UNIQUE WELL ID
 DICO. A2D Technologies, Inc.:   DIGITIZING COMPANY
~OTHER INFORMATION
~A    DEPT     ILD        ILM         GRR  
# ...
 1729.5000     7.6434     7.5249   114.8594
 1730.0000     7.6538     7.5467   118.7775
 1730.5000     7.6643     7.5686   122.7101
 1731.0000     7.6747     7.5906   123.5815
 1731.5000     7.6852     7.6127   121.7746
 1732.0000     7.6940     7.6242   121.4835
 1732.5000     7.6670     7.5719   122.0960
 1733.0000     7.6418     7.5369   122.6250
 1733.5000     7.6166     7.5019   121.2803
 1734.0000     7.5914     7.4672   119.8814
 1734.5000     7.5542     7.4160   118.4998
 1735.0000     7.5797     7.4414   117.4885
 1735.5000     7.6303     7.4907   117.7048
 1736.0000     7.6817     7.5411   117.9134
 1736.5000     7.7141     7.5876   116.3630
 1737.0000     7.7409     7.6338   115.7966
 1737.5000     7.7675     7.6802   116.5359
 1738.0000     7.7943     7.7269   114.6352
 1738.5000     7.8215     7.7662   111.8131
 1739.0000     7.8381     7.7185   109.8248
 1739.5000     7.7903     7.6777   111.7025
 1740.0000     7.7553     7.6370   114.5564
 1740.5000     7.7206     7.5966   118.1682
 1741.0000     7.6859     7.5564   121.7803
 1741.5000     7.6516     7.5165   123.5896
 1742.0000     7.6244     7.4847   122.8534
 1742.5000     7.6979     7.5571   121.5401
 1743.0000     7.7598     7.6179   121.4875
 1743.5000     7.8221     7.6791   121.5047
 1744.0000     7.8850     7.7408   121.0066
 1744.5000     7.9483     7.8030   115.6982
 1745.0000     7.9842     7.8382   111.3176
 1745.5000     7.8908     7.8382   113.7136
 1746.0000     7.8264     7.7756   117.3270
 1746.5000     7.7625     7.6380   117.6499
 1747.0000     7.6992     7.5028   118.2612
 1747.5000     7.6364     7.4575   119.8532
 1748.0000     7.5541     7.4160   119.5443
 1748.5000     7.5626     7.4243   118.0726
 1749.0000     7.5751     7.4366   119.1003
 1749.5000     7.5877     7.4490   122.4297
 1750.0000     7.6003     7.4613   125.0562
 1750.5000     7.6130     7.4737   123.8964
 1751.0000     7.6294     7.4857   118.2050
 1751.5000     7.6738     7.4907   114.6320
 1752.0000     7.7185     7.4959   119.1396
 1752.5000     7.7662     7.5012   124.8336
 1753.0000     7.7411     7.5065   124.1462
 1753.5000     7.7144     7.5118   115.7449
 1754.0000     7.6879     7.5171   111.4009
 1754.5000     7.6615     7.5224   114.5138
 1755.0000     7.6242     7.5277   118.0333
 1755.5000     7.6328     7.5330   120.0967
 1756.0000     7.6476     7.5383   119.7019
 1756.5000     7.6624     7.5436   116.3826
 1757.0000     7.6773     7.5487   112.5335
 1757.5000     7.6936     7.5538   110.5722
 1758.0000     7.6572     7.5092   113.4323
 1758.5000     7.6117     7.4659   115.9893
 1759.0000     7.5665     7.4226   116.4578
 1759.5000     7.5215     7.3796   118.1085
 1760.0000     7.4768     7.3368   122.8361
 1760.5000     7.4323     7.2943   122.6831
 1761.0000     7.3881     7.2520   117.8277
 1761.5000     7.3478     7.2135   114.9910
 1762.0000     7.4627     7.3262   118.0704
 1762.5000     7.5702     7.4318   122.7533
 1763.0000     7.6793     7.5389   123.1196
 1763.5000     7.7901     7.6476   120.5201
 1764.0000     7.9109     7.7662   117.8642
 1764.5000     7.9298     7.7662   117.3041
 1765.0000     7.9503     7.7663   118.6665
 1765.5000     7.9709     7.7662   119.7103
 1766.0000     7.9842     7.7662   118.2659
 1766.5000     7.7590     7.7664   116.8306
 1767.0000     7.6230     7.7663   116.4930
 1767.5000     7.6160     7.7675   117.0178
 1768.0000     7.6091     7.6848   115.9713
 1768.5000     7.6021     7.6163   115.0143
 1769.0000     7.5952     7.5485   116.0840
 1769.5000     7.5883     7.4810   117.3775
 1770.0000     7.5814     7.4161   117.5436
 1770.5000     7.5745     7.4157   116.7628
 1771.0000     7.5676     7.4160   115.9597
 1771.5000     7.5607     7.4160   116.8117
 1772.0000     7.5535     7.4160   117.8239
 1772.5000     7.5249     7.3974   117.1957
 1773.0000     7.4974     7.3798   116.5078
 1773.5000     7.4700     7.3622   116.2997
 1774.0000     7.4426     7.3446   117.8824
 1774.5000     7.4153     7.3271   121.3112
 1775.0000     7.3881     7.3097   122.6482
 1775.5000     7.3478     7.2918   121.9430
 1776.0000     7.3797     7.2803   118.8245
 1776.5000     7.4424     7.4149   115.4581
 1777.0000     7.5541     7.5192   114.9619
 1777.5000     7.8039     7.6249   118.3788
 1778.0000     7.9842     7.6948   121.7018
 1778.5000     7.8939     7.6349   118.7296
 1779.0000     7.8274     7.5920   115.0323
 1779.5000     7.7615     7.5497   112.8391
 1780.0000     7.6961     7.5077   114.8120
 1780.5000     7.6313     7.4659   117.0181
 1781.0000     7.5671     7.4244   117.7349
 1781.5000     7.4814     7.3413   116.7520
 1782.0000     7.3911     7.2488   115.8421
 1782.5000     7.3020     7.1782   115.6057
 1783.0000     7.2139     7.1212   118.6072
 1783.5000     7.1405     7.0646   119.4516
 1784.0000     7.1130     7.0085   119.9011
 1784.5000     7.0855     6.9528   120.3359
 1785.0000     7.0581     6.8974   120.8832
 1785.5000     7.0302     6.8250   122.7875
 1786.0000     7.0165     6.8438   128.4359
 1786.5000     7.1132     6.8733   128.4353
 1787.0000     7.1797     6.9480   125.4233
 1787.5000     7.2665     7.0722   122.5060
 1788.0000     7.3717     7.1986   119.6143
 1788.5000     7.4809     7.3273   117.2220
 1789.0000     7.5622     7.4239   119.3108
 1789.5000     7.5874     7.4492   119.6232
 1790.0000     7.6126     7.4738   118.4172
 1790.5000     7.6242     7.4850   118.7318
 1791.0000     7.4707     7.3334   120.2678
 1791.5000     7.3586     7.2228   121.8920
 1792.0000     7.2482     7.1139   124.8889
 1792.5000     7.1395     7.0067   127.9805
 1793.0000     7.0323     6.9011   129.8696
 1793.5000     6.9268     6.7971   129.3948
 1794.0000     6.8229     6.6946   128.9752
 1794.5000     6.7552     6.5937   129.2834
 1795.0000     6.7222     6.4943   132.3989
 1795.5000     6.6894     6.4573   135.4303
 1796.0000     6.6567     6.4572   136.1720
 1796.5000     6.5171     6.4572   133.1431
 1797.0000     6.5171     6.4573   131.1556
 1797.5000     6.5171     6.4573   133.0966
 1798.0000     6.5171     6.4573   135.4162
 1798.5000     6.5171     6.4573   137.5559
 1799.0000     6.5171     6.4573   136.5002
 1799.5000     6.5171     6.4573   135.3056
 1800.0000     6.5171     6.4573   133.2615
 1800.5000     6.5171     6.4572   134.9128
 1801.0000     6.5170     6.4573   137.1887
 1801.5000     6.5171     6.4565   138.2245
 1802.0000     6.5257     6.4846   137.8721
 1802.5000     6.6123     6.5398   136.2358
 1803.0000     6.7001     6.5955   132.8214
 1803.5000     6.7890     6.6517   129.3324
 1804.0000     6.8791     6.7083   128.2295
 1804.5000     6.9704     6.7654   130.8429
 1805.0000     7.0629     6.8230   131.3774
 1805.5000     7.1566     6.8810   128.4891
 1806.0000     7.2789     6.9396   125.5761
 1806.5000     7.2699     7.0157   125.4947
 1807.0000     7.2550     7.0112   126.5999
 1807.5000     7.2401     7.0037   127.6605
 1808.0000     7.2253     6.9962   131.5763
 1808.5000     7.2105     6.9887   135.8148
 1809.0000     7.1957     6.9812   135.4039
 1809.5000     7.1809     6.9737   133.4474
 1810.0000     7.1666     6.9662   132.0888
 1810.5000     7.1529     6.9588   131.9457
 1811.0000     7.0753     6.9507   130.5838
 1811.5000     7.0627     6.9374   128.5953
 1812.0000     7.0502     6.9240   126.8464
 1812.5000     7.0377     6.9107   127.0397
 1813.0000     7.0252     6.8975   130.4839
 1813.5000     7.0142     6.8859   133.8284
 1814.0000     7.0065     6.8783   136.3424
 1814.5000     6.9988     6.8708   134.7959
 1815.0000     6.9911     6.8632   133.2589
 1815.5000     6.9834     6.8557   132.9421
 1816.0000     6.9758     6.8482   132.4633
 1816.5000     6.9681     6.8407   130.9186
 1817.0000     6.9605     6.8331   129.3661
 1817.5000     6.9532     6.8260   130.1625
 1818.0000     6.9616     6.8343   132.4094
 1818.5000     6.9724     6.8448   130.8379
 1819.0000     6.9831     6.8554   128.2938
 1819.5000     6.9939     6.8660   126.2292
 1820.0000     7.0046     6.8765   127.3965
