~VERSION INFORMATION
 VERS.                2.0:   CWLS LOG ASCII STANDARD - VERSION 2.0
 WRAP.                 NO:   ONE LINE PER DEPTH STEP
~WELL INFORMATION
#MNEM.UNIT      DATA TYPE    INFORMATION
#----------   ------------   ------------------------------
 STRT.F            0.0000:   START DEPTH
 STOP.F          717.5000:   STOP DEPTH
 STEP.F            0.5000:   STEP LENGTH
 NULL.          -999.2500:   NO VALUE
 COMP. LAWRENCE/ALLISON INC:   COMPANY
 WELL. NPR 3 #27-64-SX-11-WP:   WELL
 FLD .             TEAPOT:   FIELD
 LOC .      S11 T38N R78W:   LOCATION
 CNTY.            NATRONA:   COUNTY
 STAT.            WYOMING:   STATE
 CTRY. UNITED STATES OF AMERICA:   COUNTRY
 SRVC.      Dresser Atlas:   SERVICE COMPANY
 DATE.        15-SEP-1984:   LOGDATE
 API .       490251097500:   API NUMBER
~CURVE INFORMATION
#MNEM.UNIT       API CODE    CURVE DESCRIPTION
#----------   ------------   ------------------------------
 DEPT.F                  :   
 CALD.IN     45 280 60 00:   CALIPER FROM DENSITY LOG
 CNC .DEC    42 890 03 00:   COMPENSATED NEUTRON POROSITY SANDSTONE
 CORR.G/C3   45 356 01 00:   DENSITY CORRECTION
 DEN .G/C3   45 350 01 00:   BULK DENSTIY
 PORD.DEC    45 890 12 00:   POROSITY DENSITY SANDSTONE
 GRR .GAPI   07 310 01 00:   GAMMA RAY FROM RESISTIVITY
 RFOC.OHMM   07 220 01 00:   RESISTIVITY FOCUSED LOG
 RILD.OHMM   07 120 46 00:   RESISTIVITY INDUCTION LOG DEEP
 RILM.OHMM   07 120 44 00:   RESITIVITY INDUCTION LOG MEDIUM
 SPR .MV     07 010 01 00:   SPONTANEOUS POTENTIAL FROM RES.
~PARAMETER INFORMATION
#MNEM.UNIT          VALUE    DESCRIPTION
#----------   ------------   ------------------------------
 PD  .                 GL:   PERMANENT DATUM
 EPD .F              5198:   ELEVATION PERMANENT DATUM
 LMF .                 GL:   LOG MEASURED FROM
 DMF .                 GL:   DRILLING MEASURED FROM
 EGL .F              5198:   GROUND LEVEL
 DATE.        15-SEP-1984:   RUN DATE
 RUN .                  1:   RUN NUMBER
 DD  .F               736:   DEPTH DRILLER
 DL  .F               722:   DEPTH LOGGER
 BLI .F               704:   BOTTOM LOG INTERVAL
 TLI .F                42:   TOP LOG INTERVAL
 CS  .IN            8.625:   CASING SIZE
 CBD .F                42:   CASING BOTTOM DRILLER
 CBL .F                42:   CASING BOTTOM LOGGER
 BS  .IN            7.875:   BIT SIZE
 BSD .F               736:   BIT SIZE AT DEPTH
 DFT .          KCL WATER:   DRILLING FLUID TYPE
 MSS .           FLOWLINE:   MUD SAMPLE SOURCE
 RMS .OHMM           0.22:   RESISTIVITY MUD SAMPLE
 MST .F                70:   MUD SAMPLE TEMPERATURE
 RMB .OHMM           0.17:   RESISTIVITY MUD AT BHT
 BHT .F                90:   BOTTOM HOLE TEMPERATURE
 TCS .HRS               5:   TIME CURCULATED STOPPED
 MRT .F                90:   MAXIMUM RECORDED TEMPERATURE
 LUN .               6274:   LOGGING UNIT NUMBER
 LUL .               GLTE:   LOGGING UNIT LOCATION
 ENGI.             RAUTIO:   RECORDING ENGINEER
 WITN.            JOHNSON:   WITNESSED BY
 CLNT.            A2DTECH:   CLIENT CODE
 ORIG.         2.5" PRINT:   ORIGIN OF DATA
 UWI .       490251097500:   UNIQUE WELL ID
 DICO. A2D Technologies, Inc.:   DIGITIZING COMPANY
~OTHER INFORMATION
~A    DEPT    CALD        CNC       CORR        DEN       PORD         GRR      RFOC       RILD       RILM        SPR   
# ...
  670.0000     7.7129     0.2418    -0.0008     2.4740     0.1221    85.3846     9.9816     9.3452     9.5666   -18.1099
  670.5000     7.7111     0.2494     0.0113     2.4714     0.1221    82.0087     9.7448     9.2098     9.5582   -18.4264
  671.0000     7.7092     0.2406     0.0204     2.4713     0.1222    80.5158     9.7367     9.0756     9.4190   -18.8245
  671.5000     7.7072     0.2341     0.0317     2.4712     0.1222    86.9707     9.7276     9.0663     9.4089   -19.3654
  672.0000     7.7053     0.2388     0.0375     2.4718     0.1223    90.4669     9.7182     9.0560     9.4010   -19.3860
  672.5000     7.7034     0.2436     0.0313     2.4724     0.1227    88.6243     9.7082     9.0477     9.3920   -19.7041
  673.0000     7.7015     0.2472     0.0163     2.4708     0.1236    85.5981     9.6996     9.0384     9.3815   -19.7278
  673.5000     7.6996     0.2436     0.0013     2.4707     0.1242    91.8135     9.6903     9.0278     9.3737   -20.0497
  674.0000     7.6976     0.2388     0.0011     2.4691     0.1247    97.1953     9.6799     9.0588     9.3650   -20.0908
  674.5000     7.6957     0.2371     0.0128     2.4690     0.1213    99.0185     9.6717     9.0949     9.3560   -20.3905
  675.0000     7.6938     0.2391     0.0121     2.4703     0.1202    94.8225     9.6624     9.1310     9.5414   -20.4176
  675.5000     7.6915     0.2485     0.0001     2.4717     0.1202    87.3046     9.6516     9.1670     9.5976   -20.4382
  676.0000     7.6897     0.2632     0.0029     2.4732     0.1196    85.2200     9.6438     9.2031     9.7350   -20.7574
  676.5000     7.6878     0.2676     0.0197     2.4759     0.1191    86.3494     9.6346     9.0967     9.8471   -20.7855
  677.0000     7.6860     0.2652     0.0308     2.4775     0.1191    88.8934     9.6253     8.9344     9.7009   -21.1020
  677.5000     7.7137     0.2665     0.0277     2.4786     0.1179    91.8491     9.6161     8.5447     9.4285   -21.4694
  678.0000     7.7131     0.2665     0.0014     2.4804     0.1157    93.8526     9.6060     8.2387     9.0421   -22.0355
  678.5000     7.7125     0.2659    -0.0032     2.4824     0.1129    94.3903     9.7307     8.0087     8.7878   -22.3574
  679.0000     7.7119     0.2614     0.0171     2.4842     0.1116    92.4319     9.8569     8.0004     8.5430   -22.6942
  679.5000     7.7113     0.2524     0.0189     2.4856     0.1122    89.5215     9.8446     7.9909     8.3926   -22.9941
  680.0000     7.7107     0.2447    -0.0040     2.4847     0.1146    88.2840     9.8363     7.9838     8.2964   -23.3170
  680.5000     7.7102     0.2402    -0.0102     2.4824     0.1165    88.3994     9.8269     7.9758     8.1750   -23.3376
  681.0000     7.7096     0.2405     0.0045     2.4778     0.1201    90.5158     9.8158     7.9676     8.0565   -23.3609
  681.5000     7.7090     0.2470     0.0073     2.4717     0.1266    91.6452     9.6739     7.8505     8.0488   -23.3846
  682.0000     7.7084     0.2508    -0.0077     2.4672     0.1201    92.2958     9.5333     7.8281     8.0403   -23.4097
  682.5000     7.7078     0.2508    -0.0320     2.4656     0.1172    92.7071     9.3943     7.7283     8.0279   -23.4320
  683.0000     7.7072     0.2515    -0.0304     2.4744     0.1174    92.6396     9.2565     7.6144     7.9164   -23.4556
  683.5000     7.7066     0.2539    -0.0036     2.4802     0.1216    92.5236     9.1223     7.5039     7.8001   -23.4817
  684.0000     7.7060     0.2574     0.0094     2.4711     0.1233    91.6924     9.0639     7.3592     7.7936   -23.5030
  684.5000     7.7054     0.2501     0.0122     2.4681     0.1177    90.6753     8.9796     7.1857     7.6802   -23.8225
  685.0000     7.7048     0.2454     0.0150     2.4746     0.1145    88.8462     8.7291     7.0815     7.5671   -24.1454
  685.5000     7.7042     0.2426     0.0148     2.4845     0.1143    87.6006     8.6851     6.9542     7.4578   -24.1660
  686.0000     7.7036     0.2435     0.0131     2.4828     0.1199    88.1194     8.4750     6.7811     7.3323   -24.2682
  686.5000     7.7030     0.2473     0.0068     2.4735     0.1200    89.2488     8.2386     6.6828     7.0977   -24.8092
  687.0000     7.7024     0.2454     0.0024     2.4770     0.1188    89.7865     7.8775     6.4820     6.9436   -24.8298
  687.5000     7.7019     0.2411     0.0052     2.4806     0.1176    89.1272     7.5738     6.2744     6.7424   -25.1479
  688.0000     7.7013     0.2394     0.0109     2.4821     0.1164    87.2845     7.1610     6.1360     6.5612   -25.4675
  688.5000     7.7007     0.2412     0.0197     2.4820     0.1152    87.3461     6.9421     6.0419     6.3768   -25.4935
  689.0000     7.7001     0.2442     0.0255     2.4848     0.1142    88.8225     6.6927     5.9595     6.3715   -26.1065
  689.5000     7.6995     0.2485     0.0283     2.4832     0.1233    89.4704     6.3103     6.0345     6.3654   -26.4260
  690.0000     7.6989     0.2534     0.0281     2.4712     0.1341    85.8580     6.7530     6.1958     6.5350   -26.4531
  690.5000     7.6983     0.2570     0.0243     2.4548     0.1350    81.0621     7.8786     6.3851     6.7110   -26.4737
  691.0000     7.6977     0.2527     0.0055     2.4517     0.1298    83.3561     8.1667     6.6217     6.9307   -26.1984
  691.5000     7.6971     0.2440    -0.0051     2.4605     0.1251    85.6689     8.3870     6.9873     7.3756   -26.2293
  692.0000     7.6965     0.2379     0.0113     2.4767     0.1198    88.2130     8.6604     7.3915     7.7803   -25.9540
  692.5000     7.6959     0.2320     0.0183     2.4812     0.1157    89.3936     9.0279     7.8841     8.1128   -25.6788
  693.0000     7.6953     0.2261     0.0181     2.4841     0.1145    90.2189     9.3339     8.5553     8.4139   -25.2702
  693.5000     7.6947     0.2225     0.0165     2.4870     0.1127    91.3994     9.1852     9.0588     8.7761   -25.1361
  694.0000     7.6941     0.2219     0.0148     2.4896     0.1116    92.6983     8.8914     9.7616     9.0125   -25.1598
  694.5000     7.6936     0.2213     0.0146     2.4929     0.1117    93.5828     8.8087    10.4753     9.2552   -25.1834
  695.0000     7.6930     0.2209     0.0174     2.4938     0.1128    94.7041     9.0463    11.0557     9.3727   -25.5064
  695.5000     7.6924     0.2213     0.0172     2.4879     0.1150    94.6420     9.2903    10.9594     9.4927   -25.5270
  696.0000     7.6918     0.2216     0.0140     2.4824     0.1172    94.5918     9.5369    10.4426     9.4838   -25.8462
  696.5000     7.6912     0.2217     0.0109     2.4817     0.1160    94.5751     9.7942    10.0129     9.4729   -26.4660
  697.0000     7.6906     0.2217     0.0048     2.4859     0.1155    94.5584     9.9212     9.6002     9.4650   -26.4866
  697.5000     7.6900     0.2211    -0.0043     2.4828     0.1167    94.5418     9.9109     9.3965     9.4565   -26.8047
  698.0000     7.6894     0.2212    -0.0106     2.4782     0.1197    94.5251     9.9005     9.1937     9.4475   -26.8284
  698.5000     7.6888     0.2212    -0.0136     2.4751     0.1210    94.5085     9.7855     9.0601     9.4375   -26.8545
  699.0000     7.6882     0.2212    -0.0102     2.4735     0.1233    94.4919     9.7855     9.0508     9.4217   -26.8757
  699.5000     7.6876     0.2211    -0.0020     2.4719     0.1234    94.4752     9.7855     9.0402     9.1656   -26.8994
  700.0000     7.6864     0.2207     0.0017     2.4763     0.1161    94.4585     9.7409     8.9092     9.0309   -26.9265
  700.5000     7.6549     0.2207     0.0036     2.4851     0.1135    94.4419     9.6519     8.7789     8.9006   -26.9471
  701.0000     7.6827     0.2208    -0.0053     2.4879     0.1116    94.4252     9.5201     8.6490     8.7385   -26.9704
  701.5000     7.6806     0.2208    -0.0084     2.4878     0.1123    94.4086     9.5201     8.5236     8.5242   -27.2944
  702.0000     7.6787     0.2209     0.0149     2.4877     0.1129    94.3919     9.3775     8.3757     8.4012   -27.3150
  702.5000     7.6667     0.2209     0.0295     2.4875     0.1141    94.3753     9.2619     8.1073     8.1666   -27.6824
  703.0000     7.6453     0.2209     0.0353     2.4854     0.1225    94.3587     9.0755     7.8262     7.9944   -28.0908
