~VERSION INFORMATION
 VERS.                2.0:   CWLS LOG ASCII STANDARD - VERSION 2.0
 WRAP.                 NO:   ONE LINE PER DEPTH STEP
~WELL INFORMATION
#MNEM.UNIT      DATA TYPE    INFORMATION
#----------   ------------   ------------------------------
 STRT.F            0.0000:   START DEPTH
 STOP.F          547.0000:   STOP DEPTH
 STEP.F            0.1000:   STEP LENGTH
 NULL.          -999.2500:   NO VALUE
 COMP.       F D SERV INC:   COMPANY
 WELL.    87-5 SX 3 #87-3:   WELL
 FLD .             TEAPOT:   FIELD
 LOC .       S3 T38N R78W:   LOCATION
 CNTY.            NATRONA:   COUNTY
 STAT.            WYOMING:   STATE
 CTRY. UNITED STATES OF AMERICA:   COUNTRY
 SRVC.     Atlas Wireline:   SERVICE COMPANY
 DATE.        31-OCT-1992:   LOGDATE
 API .       490252254800:   API NUMBER
~CURVE INFORMATION
#MNEM.UNIT       API CODE    CURVE DESCRIPTION
#----------   ------------   ------------------------------
 DEPT.F                  :   
 GRR .GAPI   07 310 01 00:   GAMMA RAY
 RILD.OHMM   07 120 46 00:   INDUCTION LOG DEEP RESISTIVITY
 RILM.OHMM   07 120 44 00:   INDUCTION LOG MEDIUM RESISTIVITY
~PARAMETER INFORMATION
#MNEM.UNIT          VALUE    DESCRIPTION
#----------   ------------   ------------------------------
 PD  .                 GL:   PERMANENT DATUM
 EPD .F              5119:   ELEVATION PERMANENT DATUM
 LMF .                 KB:   LOG MEASURED FROM
 DAPD.F                10:   FEET ABOVE PERMANENT DATUM
 DMF .                 KB:   DRILLING MEASURED FROM
 EKB .F              5129:   KELLING BUSHING
 EDF .F              5128:   DRILLING FLOOR
 EGL .F              5119:   GROUND LEVEL
 DATE.        31-OCT-1992:   RUN DATE
 RUN .                  1:   RUN NUMBER
 DD  .F               568:   DEPTH DRILLER
 DL  .F               555:   DEPTH LOGGER
 BLI .F               547:   BOTTOM LOG INTERVAL
 TLI .F                71:   TOP LOG INTERVAL
 CS  .IN            8.625:   CASING SIZE
 CBD .F                70:   CASING BOTTOM DRILLER
 CBL .F                71:   CASING BOTTOM LOGGER
 BS  .IN            7.875:   BIT SIZE
 BSD .F               568:   BIT SIZE AT DEPTH
 DFT .           AIR FOAM:   DRILLING FLUID TYPE
 TCS .HRS               2:   TIME CURCULATED STOPPED
 MRT .F                64:   MAXIMUM RECORDED TEMPERATURE
 LUN .            HL-6274:   LOGGING UNIT NUMBER
 LUL .             CASPER:   LOGGING UNIT LOCATION
 ENGI.        P.RASHUSSEN:   RECORDING ENGINEER
 WITN.     BRUCE ANDERSON:   WITNESSED BY
 CLNT.            A2DTECH:   CLIENT CODE
 ORIG.           5" PRINT:   ORIGIN OF DATA
 UWI .       490252254800:   UNIQUE WELL ID
 DICO. A2D Technologies, Inc.:   DIGITIZING COMPANY
~OTHER INFORMATION
~A    DEPT      GRR      RILD       RILM   
# ...
  491.4000   118.3045    11.0019    11.0860
  491.5000   117.9797    10.9633    11.0860
  491.6000   117.4871    10.9248    11.0860
  491.7000   117.1958    10.9118    11.0860
  491.8000   116.9732    10.8482    11.0860
  491.9000   116.7163    10.8479    11.0860
  492.0000   116.5766    10.8476    11.0860
  492.1000   116.5724    10.8473    11.0860
  492.2000   116.5839    10.8218    11.0860
  492.3000   116.8668    10.7713    11.0296
  492.4000   116.8631    10.7710    11.0089
  492.5000   116.8589    10.7707    10.9782
  492.6000   116.9707    10.7204    10.9144
  492.7000   117.1539    10.6952    10.8562
  492.8000   117.1496    10.6701    10.8562
  492.9000   117.1448    10.6202    10.8562
  493.0000   117.1411    10.6199    10.8129
  493.1000   116.9712    10.6196    10.7806
  493.2000   116.7142    10.5701    10.7624
  493.3000   116.5214    10.5452    10.7056
  493.4000   116.5038    10.5449    10.7056
  493.5000   116.2088    10.5324    10.6500
  493.6000   116.2052    10.4710    10.6311
  493.7000   116.5299    10.4707    10.6004
  493.8000   117.3722    10.4704    10.5572
  493.9000   118.5686    10.4701    10.5572
  494.0000   119.5268    10.4456    10.5572
  494.1000   119.5217    10.3967    10.5017
  494.2000   119.5181    10.3964    10.4837
  494.3000   119.5138    10.3359    10.4528
  494.4000   119.5096    10.2757    10.3920
  494.5000   119.5053    10.2515    10.3316
  494.6000   119.5011    10.2275    10.2664
  494.7000   119.4961    10.1679    10.2664
  494.8000   119.4926    10.1086    10.2664
  494.9000   119.4883     9.9916    10.2355
  495.0000   119.4841     9.9679    10.1949
  495.1000   119.4798     9.9330    10.1877
  495.2000   119.4756     9.8751    10.1240
  495.3000   119.4706     9.8063    10.0697
  495.4000   119.4671     9.6925    10.0112
  495.5000   119.4628     9.6922     9.9836
  495.6000   119.4586     9.6470     9.9645
  495.7000   119.6914     9.6243     9.9066
  495.8000   120.6981     9.6017     9.8451
  495.9000   121.8730     9.5458     9.7918
  496.0000   122.7112     9.4901     9.7766
  496.1000   123.8774     9.4238     9.7461
  496.2000   125.0279     9.4236     9.7086
  496.3000   126.0345     9.3906     9.7007
  496.4000   127.0336     9.3359     9.6410
  496.5000   127.9173     9.2815     9.5883
  496.6000   128.7507     9.2274     9.5325
  496.7000   129.2820     9.1737     9.4771
  496.8000   129.6381     9.1627     9.4412
  496.9000   130.0824     9.1306     9.4412
  497.0000   130.3248     9.0774     9.4412
  497.1000   130.0162     9.0245     9.3890
  497.2000   129.3887     8.9719     9.2936
  497.3000   128.7836     8.9197     9.2156
  497.4000   128.0610     8.7456     9.1056
  497.5000   125.3614     8.6035     8.8874
  497.6000   123.6079     8.4843     8.6219
  497.7000   122.7070     8.3372     8.2917
  497.8000   122.4967     8.1925     8.0664
  497.9000   122.3958     7.9668     7.8551
  498.0000   122.3915     7.8566     7.5977
  498.1000   122.4417     7.6676     7.3070
  498.2000   122.6902     7.4645     7.0907
  498.3000   122.9849     7.2925     6.9324
  498.4000   122.9815     7.1242     6.7728
  498.5000   123.2868     6.8798     6.5950
  498.6000   123.7880     6.4528     6.3781
  498.7000   124.1827     6.0289     6.1349
  498.8000   124.1884     5.7651     5.9549
  498.9000   125.3874     5.6323     5.8206
  499.0000   125.5882     5.5023     5.6867
  499.1000   126.1438     5.3507     5.5932
  499.2000   126.8976     5.2767     5.5161
  499.3000   127.5995     5.2214     5.4204
  499.4000   128.1030     5.1671     5.3254
  499.5000   129.3072     5.0951     5.2041
  499.6000   130.3195     5.0949     5.1077
  499.7000   131.5786     5.0948     5.0192
  499.8000   132.9394     5.0710     4.9548
  499.9000   134.4515     5.0415     4.9260
  500.0000   135.9636     5.0121     4.8973
  500.1000   138.8406     4.9887     4.9662
  500.2000   141.1121     5.0829     5.0366
  500.3000   142.5742     5.1300     5.1073
  500.4000   143.8373     5.1303     5.1795
  500.5000   145.3445     5.1660     5.2643
  500.6000   146.6554     5.2152     5.3260
  500.7000   148.2155     5.2574     5.4003
  500.8000   149.6815     5.2881     5.5039
  500.9000   150.5417     5.3260     5.5932
  501.0000   150.7921     5.3876     5.6727
  501.1000   150.7879     5.4245     5.7801
  501.2000   150.5836     5.4772     5.9155
  501.3000   150.0285     5.5414     6.0386
  501.4000   149.3646     5.5781     6.0676
  501.5000   148.7124     5.5935     6.1479
  501.6000   147.4282     5.6577     6.2251
  501.7000   144.9299     5.6961     6.2783
  501.8000   142.9944     5.7241     6.3888
  501.9000   140.9254     5.8012     6.5208
  502.0000   138.7437     5.8880     6.6488
  502.1000   136.7177     5.9658     6.8057
  502.2000   134.6561     6.0671     6.9483
  502.3000   132.1697     6.1077     7.0708
  502.4000   129.8356     6.2001     7.1953
  502.5000   127.7038     6.2609     7.3426
  502.6000   125.5823     6.3318     7.4151
  502.7000   123.5289     6.4434     7.5590
  502.8000   122.4910     6.5542     7.7577
  502.9000   121.7457     6.6411     7.9633
  503.0000   120.7871     6.7432     8.1013
  503.1000   119.7721     6.8352     8.2106
  503.2000   119.0410     6.9153     8.3755
  503.3000   118.6962     7.0548     8.5077
  503.4000   117.9131     7.3512     8.6075
  503.5000   117.4174     7.7430     8.7215
  503.6000   116.9077     7.9049     8.8782
  503.7000   116.2537     8.0588     9.1172
  503.8000   115.6783     8.1773     9.1631
  503.9000   115.4214     8.2590     9.2884
  504.0000   115.1562     8.3119     9.4009
  504.1000   114.6628     8.4192     9.4412
  504.2000   114.3470     8.4635     9.4412
  504.3000   114.0901     8.5480     9.4412
  504.4000   113.9253     8.6482     9.4412
  504.5000   113.9211     8.7338     9.4412
  504.6000   113.9167     8.7905     9.4412
  504.7000   113.6692     8.9026     9.4563
  504.8000   113.6049     8.9501     9.5116
  504.9000   113.7425     9.0783     9.5739
  505.0000   113.8998     9.1823     9.6231
  505.1000   113.9358     9.2360     9.6794
  505.2000   114.1947     9.2899     9.7086
  505.3000   114.6750     9.3482     9.7086
  505.4000   115.1761     9.3989     9.7135
  505.5000   115.8179     9.4538     9.7766
  505.6000   116.7515     9.4795     9.8274
  505.7000   117.9327     9.4795     9.8849
  505.8000   118.7215     9.4873     9.9426
  505.9000   119.4404     9.5459     9.9836
  506.0000   120.5746     9.5985     9.9892
  506.1000   121.5552     9.6546    10.0535
  506.2000   122.3090     9.6801    10.1063
  506.3000   123.0628     9.6999    10.1654
  506.4000   123.8553     9.7478    10.2248
  506.5000   124.0911     9.7478    10.2664
  506.6000   124.5286     9.7478    10.2664
  506.7000   124.8915     9.7911    10.2664
  506.8000   125.0525     9.8484    10.3208
  506.9000   125.0483     9.9059    10.3383
  507.0000   125.0438     9.9638    10.3383
  507.1000   125.2783    10.0237    10.3572
  507.2000   125.3390    10.0237    10.4107
  507.3000   125.3347    10.0237    10.4107
  507.4000   125.3305    10.0575    10.4666
  507.5000   125.3263    10.1163    10.4837
  507.6000   125.3217    10.1754    10.5156
  507.7000   125.0804    10.2358    10.5572
  507.8000   125.1966    10.2358    10.5649
  507.9000   125.1735    10.2829    10.6311
  508.0000   125.0015    10.3074    10.7468
  508.1000   124.8946    10.3312    10.7806
  508.2000   124.0823    10.3915    10.8141
  508.3000   123.1338    10.4523    10.8562
  508.4000   121.5630    10.4523    10.8647
  508.5000   120.4624    10.5013    10.9323
  508.6000   120.1202    10.5627    10.9323
  508.7000   120.1159    10.5992    10.9795
  508.8000   120.1114    10.5992    11.0436
  508.9000   120.1074    10.6000    11.1082
  509.0000   120.1032    10.6734    11.1637
  509.1000   120.0989    10.7244    11.1637
  509.2000   120.1772    10.7871    11.1637
  509.3000   120.4257    10.8234    11.2125
  509.4000   120.6928    10.8376    11.2780
  509.5000   121.1563    10.8992    11.3440
