~VERSION INFORMATION
 VERS.                2.0:   CWLS LOG ASCII STANDARD - VERSION 2.0
 WRAP.                 NO:   ONE LINE PER DEPTH STEP
~WELL INFORMATION
#MNEM.UNIT      DATA TYPE    INFORMATION
#----------   ------------   ------------------------------
 STRT.F            3.0000:   START DEPTH
 STOP.F          600.0000:   STOP DEPTH
 STEP.F            0.5000:   STEP LENGTH
 NULL.          -999.2500:   NO VALUE
 COMP. FENIX & SCISSON INC:   COMPANY
 WELL.     NPR-3 #83SX4-4:   WELL
 FLD .             TEAPOT:   FIELD
 LOC .       S4 T38N R78W:   LOCATION
 CNTY.            NATRONA:   COUNTY
 STAT.            WYOMING:   STATE
 CTRY. UNITED STATES OF AMERICA:   COUNTRY
 SRVC.           BIRDWELL:   SERVICE COMPANY
 DATE.        02-AUG-1978:   LOGDATE
 API .       490251067700:   API NUMBER
~CURVE INFORMATION
#MNEM.UNIT       API CODE    CURVE DESCRIPTION
#----------   ------------   ------------------------------
 DEPT.F                  :   
 GRD .GAPI   45 310 01 00:   GAMMA RAY FROM DENSITY LOG
 CORR.G/C3   45 356 01 00:   DENSITY CORRECTION
 RHOB.G/C3   45 350 01 00:   BULK DENSITY
 DPHI.DEC    45 890 12 00:   DENSITY POROSITY SANDSTONE
 SPR .MV     05 010 01 00:   SPONTANEOUS POTENTIAL
 ILD .OHMM   05 120 46 00:   INDUCTION LOG DEEP
 SN  .OHMM   05 040 00 00:   SHORT NORMAL
~PARAMETER INFORMATION
#MNEM.UNIT          VALUE    DESCRIPTION
#----------   ------------   ------------------------------
 PD  .                 GL:   PERMANENT DATUM
 EPD .F              5204:   ELEVATION PERMANENT DATUM
 LMF .                 KB:   LOG MEASURED FROM
 DAPD.F                 4:   FEET ABOVE PERMANENT DATUM
 DMF .                 KB:   DRILLING MEASURED FROM
 EKB .F              5204:   KELLING BUSHING
 EGL .F              5200:   GROUND LEVEL
 DATE.        02-AUG-1978:   RUN DATE
 RUN .                  1:   RUN NUMBER
 DD  .F               590:   DEPTH DRILLER
 DL  .F               606:   DEPTH LOGGER
 BLI .F               590:   BOTTOM LOG INTERVAL
 TLI .F                30:   TOP LOG INTERVAL
 CS  .IN            8.625:   CASING SIZE
 CBD .F                40:   CASING BOTTOM DRILLER
 BS  .IN            7.875:   BIT SIZE
 BSD .F               590:   BIT SIZE AT DEPTH
 DFT .                KCL:   DRILLING FLUID TYPE
 DFD .                8.7:   DRILLING FLUID DENSITY
 DFV .                 32:   DRILLING FLUID VISCOSITY
 DFPH.                  9:   DRILLING FLUID PH
 DFL .                 12:   DRILLING FLUID LOSS
 MSS .           FLOWLINE:   MUD SAMPLE SOURCE
 RMS .OHMM             .4:   RESISTIVITY MUD SAMPLE
 MST .F                61:   MUD SAMPLE TEMPERATURE
 RMF .OHMM             .5:   RESISTIVITY MUD FILTRATE SAMPLE
 MFST.F                50:   MUD FILTRATE SAMPLE TEMPERATURE
 RMC .OHMM            .65:   RESISTIVITY MUD CAKE
 MCST.F                66:   MUD CAKE SAMPLE TEMPERATURE
 MFSS.               MEAS:   MUD FILTRATE SAMPLE SOURCE
 BHT .F                78:   BOTTOM HOLE TEMPERATURE
 TCS .HRS            0300:   TIME CURCULATED STOPPED
 MRT .F                78:   MAXIMUM RECORDED TEMPERATURE
 LUN .               3006:   LOGGING UNIT NUMBER
 LUL .               CASP:   LOGGING UNIT LOCATION
 ENGI.             MILLER:   RECORDING ENGINEER
 WITN.              AMEND:   WITNESSED BY
 CLNT.            A2DTECH:   CLIENT CODE
 ORIG.           5" PRINT:   ORIGIN OF DATA
 UWI .       490251067700:   UNIQUE WELL ID
 DICO. A2D Technologies, Inc.:   DIGITIZING COMPANY
~OTHER INFORMATION
~A    DEPT     GRD       CORR       RHOB       DPHI        SPR        ILD         SN   
# ...
   94.0000    63.3581     0.0457     2.4567     0.1341    -9.1124     6.4919     7.3292
   94.5000    59.6027     0.0456     2.4537     0.1371    -9.1030     6.5851     7.4857
   95.0000    58.3658     0.0501     2.4507     0.1395    -9.2392     6.7258     7.5930
   95.5000    55.6882     0.0560     2.4589     0.1293    -9.2532     6.8695     7.7020
   96.0000    56.2807     0.0575     2.4769     0.1254    -9.3620     6.9681     7.8124
   96.5000    58.6722     0.0589     2.4768     0.1242    -9.7932     7.1170     7.8161
   97.0000    59.4164     0.0604     2.4791     0.1227   -10.3769     7.2192     7.8739
   97.5000    56.7086     0.0618     2.4837     0.1179   -10.6622     7.3735     8.0420
   98.0000    51.4540     0.0618     2.4813     0.1218   -11.6937     7.4280     8.1015
   98.5000    47.5487     0.0632     2.4716     0.1278   -12.2775     7.4830     8.1700
   99.0000    46.4918     0.0663     2.4678     0.1311   -12.2642     7.5390     8.2215
   99.5000    46.3347     0.0706     2.4641     0.1311   -12.2510     7.5948     8.1129
  100.0000    48.5755     0.0751     2.4618     0.1311   -12.2618     7.5978     8.0611
  100.5000    55.0194     0.0735     2.4648     0.1314   -12.3759     7.6017     8.0647
  101.0000    59.2234     0.0734     2.4648     0.1315   -12.3594     7.6053     8.1240
  101.5000    68.2063     0.0719     2.4670     0.1315   -12.3461     7.5567     8.0715
  102.0000    71.3519     0.0658     2.4752     0.1261   -12.7839     7.5603     8.0748
  102.5000    71.1991     0.0626     2.4632     0.1333   -13.3644     7.6162     8.0781
  103.0000    68.4975     0.0612     2.4565     0.1345   -13.6497     7.6198     8.0814
  103.5000    57.2503     0.0582     2.4684     0.1267   -13.7890     7.5711     8.0848
  104.0000    52.5717     0.0566     2.4759     0.1273   -13.7724     7.4197     8.0887
  104.5000    49.7475     0.0551     2.4706     0.1294   -13.7592     7.3130     8.0920
  105.0000    50.1944     0.0565     2.4781     0.1222   -13.7459     7.2249     8.0953
  105.5000    57.5379     0.0611     2.4803     0.1223   -13.7327     7.2292     8.0986
  106.0000    63.3821     0.0683     2.4795     0.1193   -13.8687     7.2327     8.1019
  106.5000    66.2278     0.0758     2.4855     0.1169   -13.8552     7.2861     8.1052
  107.0000    66.3748     0.0802     2.4929     0.1151   -13.8418     7.3400     8.1085
  107.5000    63.5227     0.0801     2.4967     0.1148   -13.8284     7.4454     8.1118
  108.0000    58.1225     0.0861     2.4996     0.1145   -14.1109     7.4489     8.2276
  108.5000    55.7208     0.1171     2.5138     0.1025   -14.2502     7.6081     8.3450
  109.0000    55.1182     0.1533     2.5280     0.0915   -14.3862     7.7173     8.4061
  109.5000    55.5651     0.1577     2.5752     0.0768   -14.3697     7.8822     8.6443
  110.0000    57.1015     0.1502     2.5834     0.0729   -14.3564     7.9404     8.8282
  110.5000    59.9065     0.1097     2.5811     0.0802   -14.3432     8.1101     8.8319
  111.0000    62.1525     0.0722     2.5384     0.1071   -14.3300     8.1700     8.8355
  111.5000    61.4000     0.0525     2.4898     0.1245   -14.4693     8.1178     8.8399
  112.0000    60.1977     0.0392     2.4723     0.1254   -14.6053     8.1217     8.7819
  112.5000    59.2953     0.0376     2.4717     0.1263   -14.4395     7.9593     8.6068
  113.0000    59.6052     0.0391     2.4695     0.1314   -14.4262     7.8002     8.5504
  113.5000    60.1891     0.0405     2.4627     0.1341   -14.4130     7.6972     8.3790
  114.0000    58.3864     0.0420     2.4617     0.1320   -14.3997     7.6479     8.2678
  114.5000    57.9337     0.0388     2.4724     0.1272   -14.2372     7.5991     8.1581
  115.0000    57.7809     0.0373     2.4649     0.1257   -14.2239     7.4995     8.0498
  115.5000    57.9280     0.0373     2.4581     0.1341   -14.2104     7.5031     7.9978
  116.0000    59.2044     0.0372     2.4536     0.1407   -14.1970     7.5586     8.0019
  116.5000    64.5182     0.0387     2.4439     0.1473   -14.1809     7.6671     8.0604
  117.0000    68.7132     0.0416     2.4422     0.1446   -14.1677     7.7771     8.1194
  117.5000    72.4585     0.0430     2.4484     0.1401   -14.1545     7.8888     8.1227
  118.0000    74.1048     0.0460     2.4528     0.1395   -14.1412     7.9471     8.1822
  118.5000    77.2503     0.0474     2.4520     0.1434   -14.1280     7.9509     8.2497
  119.0000    66.8456     0.0473     2.4482     0.1441   -14.4165     7.9546     8.4764
  119.5000    65.8496     0.0473     2.4497     0.1401   -14.5525     8.0134     8.6568
  120.0000    66.2965     0.0472     2.4587     0.1339   -14.3867     8.0727     8.7803
  120.5000    65.8438     0.0472     2.4671     0.1261   -14.0750     8.1885     8.7839
  121.0000    56.5456     0.0471     2.4848     0.1159   -13.9125     8.1925     8.7263
  121.5000    52.4947     0.0470     2.5050     0.1097   -14.0518     8.1964     8.7307
  122.0000    49.5992     0.0470     2.5050     0.1124   -14.0352     8.1914     8.7343
  122.5000    48.2904     0.0469     2.4990     0.1127   -14.0220     8.1478     8.7982
  123.0000    47.6878     0.0469     2.4937     0.1160   -14.0088     8.1527     8.8626
  123.5000    48.4345     0.0468     2.4882     0.1187   -13.9955     8.0996     8.9274
  124.0000    56.6775     0.0467     2.4847     0.1193   -13.9821     8.0488     8.9310
  124.5000    59.5232     0.0542     2.4922     0.1148   -13.9690     8.0526     8.9964
  125.0000    64.7670     0.0556     2.5041     0.1097   -14.4035     8.0002     9.0000
  125.5000    71.2109     0.0585     2.5071     0.1091   -14.5395     8.0049     9.0037
  126.0000    73.1571     0.0645     2.5078     0.1075   -14.6756     7.9528     9.0075
  126.5000    73.0043     0.0719     2.5153     0.1029   -14.6590     7.9575     9.0119
  127.0000    71.6521     0.0778     2.5197     0.0993   -14.4965     7.9613     9.0156
  127.5000    63.2084     0.0777     2.5152     0.1038   -14.4833     7.9651     9.0192
  128.0000    57.8525     0.0822     2.5182     0.1008   -14.4700     7.9689     8.9601
  128.5000    54.8511     0.0791     2.5355     0.1008   -14.4568     8.0278     8.9646
  129.0000    48.2515     0.0716     2.5271     0.0995   -14.5928     8.0316     8.9683
  129.5000    43.6010     0.0775     2.5211     0.0954   -14.7321     7.9803     8.9719
  130.0000    42.9984     0.0834     2.5263     0.0901   -14.8681     7.9292     9.2262
  130.5000    53.7666     0.0864     2.5585     0.0847   -15.0008     7.9330     9.6855
  131.0000    62.4822     0.0743     2.5645     0.0817   -14.9876     7.8823     9.8917
  131.5000    62.1795     0.0758     2.5525     0.0949   -14.8251     7.9406    10.0329
  132.0000    60.9772     0.0802     2.5105     0.1050   -13.7670     7.8356     9.8318
  132.5000    61.8739     0.0771     2.5105     0.0985   -13.3060     7.7855     9.5030
  133.0000    62.0380     0.0591     2.5030     0.1111   -13.2925     7.6827     8.9934
  133.5000    59.6107     0.0396     2.4888     0.1186   -13.1299     7.6335     8.7567
  134.0000    60.6651     0.0381     2.4887     0.1183   -12.9672     7.6381     8.7001
  134.5000    64.5603     0.0395     2.4887     0.1177   -12.9512     7.6417     8.7046
  135.0000    66.8070     0.0380     2.4894     0.1168   -12.9380     7.8050     8.7081
  135.5000    65.4541     0.0379     2.4894     0.1183   -12.9247     7.9170     8.7116
  136.0000    63.9520     0.0378     2.4894     0.1213   -12.9115     8.0862     8.7152
  136.5000    63.7991     0.0408     2.4886     0.1165   -12.8982     8.2590     8.7187
  137.0000    64.5452     0.0467     2.4953     0.1129   -12.8850     8.3200     8.7223
  137.5000    66.9411     0.0511     2.5110     0.1049   -12.8718     8.3240     8.7861
  138.0000    72.6354     0.0494     2.5245     0.0975   -12.8585     8.3279     8.7896
  138.5000    78.9294     0.0450     2.5177     0.0938   -12.8453     8.3895     8.7932
  139.0000    79.6762     0.0420     2.5042     0.1112   -12.8320     8.5688     8.8576
