~VERSION INFORMATION
 VERS.                2.0:   CWLS LOG ASCII STANDARD - VERSION 2.0
 WRAP.                 NO:   ONE LINE PER DEPTH STEP
~WELL INFORMATION
#MNEM.UNIT      DATA TYPE    INFORMATION
#----------   ------------   ------------------------------
 STRT.F           38.0000:   START DEPTH
 STOP.F          663.5000:   STOP DEPTH
 STEP.F            0.5000:   STEP LENGTH
 NULL.          -999.2500:   NO VALUE
 COMP. FENIX & SCISSON INC:   COMPANY
 WELL.   NPR SX #3 #35-34:   WELL
 FLD .             TEAPOT:   FIELD
 LOC .      S34 T39N R78W:   LOCATION
 CNTY.            NATRONA:   COUNTY
 STAT.            WYOMING:   STATE
 CTRY. UNITED STATES OF AMERICA:   COUNTRY
 SRVC.       Schlumberger:   SERVICE COMPANY
 DATE.        21-MAR-1977:   LOGDATE
 API .       490251031500:   API NUMBER
~CURVE INFORMATION
#MNEM.UNIT       API CODE    CURVE DESCRIPTION
#----------   ------------   ------------------------------
 DEPT.F                  :   
 SPR .MV     07 010 01 00:   SPONTANEOUS POTENTIAL
 LL8 .OHMM   07 220 08 00:   LATEROLOG-8 RES.
 ILD .OHMM   07 120 46 00:   INDUCTION LOG DEEP
 ILM .OHMM   07 120 44 00:   INDUCTION LOG MEDIUM
 CALD.IN     45 280 60 00:   CALIPER
 RHOB.G/C3   45 350 01 00:   BULK DENSITY
 DPHI.DEC    45 890 12 00:   DENSITY POROSITY SANDSTONE
 CORR.G/C3   45 356 01 00:   DENSITY CORRECTION
 GRD .GAPI   45 310 01 00:   GAMMA RAY FROM DENSITY LOG
~PARAMETER INFORMATION
#MNEM.UNIT          VALUE    DESCRIPTION
#----------   ------------   ------------------------------
 PD  .                 GL:   PERMANENT DATUM
 EPD .F              5081:   ELEVATION PERMANENT DATUM
 LMF .                 GL:   LOG MEASURED FROM
 DMF .                 KB:   DRILLING MEASURED FROM
 EKB .F              5086:   KELLING BUSHING
 EGL .F              5081:   GROUND LEVEL
 DATE.          3-21-1977:   RUN DATE
 RUN .                  1:   RUN NUMBER
 DD  .F               670:   DEPTH DRILLER
 DL  .F               665:   DEPTH LOGGER
 BLI .F               659:   BOTTOM LOG INTERVAL
 TLI .F                40:   TOP LOG INTERVAL
 CS  .IN            8.625:   CASING SIZE
 CBD .F                40:   CASING BOTTOM DRILLER
 CBL .F                40:   CASING BOTTOM LOGGER
 BS  .IN            7.875:   BIT SIZE
 BSD .F               670:   BIT SIZE AT DEPTH
 DFT .           CHEM GEL:   DRILLING FLUID TYPE
 DFV .                 33:   DRILLING FLUID VISCOSITY
 MSS .           MUD TANK:   MUD SAMPLE SOURCE
 RMS .OHMM           4.98:   RESISTIVITY MUD SAMPLE
 MST .F                53:   MUD SAMPLE TEMPERATURE
 RMF .OHMM           4.94:   RESISTIVITY MUD FILTRATE SAMPLE
 MFST.F                53:   MUD FILTRATE SAMPLE TEMPERATURE
 RMC .OHMM            2.5:   RESISTIVITY MUD CAKE
 MCST.F                53:   MUD CAKE SAMPLE TEMPERATURE
 MFSS.                  M:   MUD FILTRATE SAMPLE SOURCE
 MCSS.                  C:   MUD CAKE SAMPLE SOURCE
 RMB .OHMM              4:   RESISTIVITY MUD AT BHT
 BHT .F                65:   BOTTOM HOLE TEMPERATURE
 TCS .HRS            1000:   TIME CURCULATED STOPPED
 TLAB.HRS            1400:   TIME LOGGER AT BOTTOM
 MRT .F                65:   MAXIMUM RECORDED TEMPERATURE
 LUN .               7742:   LOGGING UNIT NUMBER
 LUL .                GLT:   LOGGING UNIT LOCATION
 ENGI.               LANE:   RECORDING ENGINEER
 WITN.              BURKE:   WITNESSED BY
 CLNT.            A2DTECH:   CLIENT CODE
 ORIG.       2", 5" PRINT:   ORIGIN OF DATA
 UWI .       490251031500:   UNIQUE WELL ID
 DICO. A2D Technologies, Inc.:   DIGITIZING COMPANY
~OTHER INFORMATION
~A   DEPT      SPR        LL8        ILD        ILM       CALD       RHOB       DPHI       CORR         GRD  
# ...
  184.0000   -64.7085    12.6597    10.6418     8.7049     8.1333     2.4762     0.1059     0.0161   120.4275
  184.5000   -64.6015    13.6467    10.8012     8.9819     8.1329     2.4751     0.1067     0.0150   123.0263
  185.0000   -64.5282    15.0858    10.9629     9.1656     8.1326     2.4590     0.1114     0.0140   125.8549
  185.5000   -64.4571    14.5472    11.1271     9.0399     8.1322     2.4547     0.1172     0.0130   129.6582
  186.0000   -64.3857    13.5222    11.2286     8.8781     8.1319     2.4582     0.1214     0.0121   133.4947
  186.5000   -64.3143    12.9510    11.1997     8.7191     8.1315     2.4494     0.1246     0.0162   133.1308
  187.0000   -64.2428    12.7549    11.1520     8.5630     8.1311     2.4596     0.1171     0.0206   128.9384
  187.5000   -64.1712    12.5849    11.0679     8.4097     8.1308     2.4622     0.1141     0.0248   126.5344
  188.0000   -64.0990    12.4282    10.8364     8.3410     8.1304     2.4674     0.1085     0.0292   128.4427
  188.5000   -64.0318    12.3491    10.6098     8.3156     8.1300     2.4709     0.1126     0.0251   130.0860
  189.0000   -64.0928    12.2588    10.3879     8.2903     8.1300     2.4441     0.1178     0.0148   129.0634
  189.5000   -64.1597    12.1692    10.1448     8.2651     8.1300     2.4423     0.1205     0.0074   126.0274
  190.0000   -64.2259    12.0801    10.1256     8.2399     8.1300     2.4448     0.1201     0.0103   123.0485
  190.5000   -64.2919    11.9918    10.0992     8.2149     8.1300     2.4482     0.1201     0.0129   121.3379
  191.0000   -64.3580    11.9042    10.0729     8.1899     8.1300     2.4503     0.1224     0.0128   121.0141
  191.5000   -64.4241    11.8678    10.0466     8.1650     8.1300     2.4492     0.1246     0.0125   119.5817
  192.0000   -64.4901    12.0627    10.0204     8.1401     8.1300     2.4483     0.1236     0.0122   118.8271
  192.5000   -64.5562    12.2010     9.9943     8.1153     8.1300     2.4513     0.1164     0.0155   118.6001
  193.0000   -64.6223    12.0411     9.9683     8.0907     8.1300     2.4746     0.1026     0.0227   116.8572
  193.5000   -64.6884    11.8702     9.9423     8.0660     8.1300     2.4974     0.0918     0.0297   118.6807
  194.0000   -64.7546    12.0803     9.9164     8.0415     8.1300     2.5009     0.0874     0.0310   125.3467
  194.5000   -64.8209    12.1990     9.8905     8.0170     8.1300     2.4855     0.0986     0.0228   132.1009
  195.0000   -64.8299    11.9059     9.8648     7.9927     8.1300     2.4884     0.1038     0.0302   138.9827
  195.5000   -64.8298    11.7104     9.8391     7.9683     8.1300     2.4912     0.0954     0.0402   136.1026
  196.0000   -64.8297    11.4386     9.8134     7.9441     8.1300     2.4883     0.0992     0.0308   131.6374
  196.5000   -64.8297    11.5011     9.7879     7.9199     8.1300     2.4763     0.1061     0.0200   129.1858
  197.0000   -64.8297    11.6190     9.7623     7.8958     8.1300     2.4754     0.1067     0.0266   127.9490
  197.5000   -64.8297    11.7374     9.7369     7.8718     8.1300     2.4775     0.1046     0.0293   127.9428
  198.0000   -64.8296    11.7589     9.7115     7.8479     8.1300     2.4713     0.1081     0.0214   128.2344
  198.5000   -64.8298    11.7588     9.6867     7.8240     8.1300     2.4626     0.1119     0.0139   129.2271
  199.0000   -64.8291    11.7588     9.6257     7.8002     8.1300     2.4537     0.1157     0.0080   132.8008
  199.5000   -64.8699    11.6053     9.5670     7.7765     8.1300     2.4562     0.1172     0.0105   136.4353
  200.0000   -64.9290    11.3798     9.5087     7.7528     8.1300     2.4608     0.1147     0.0131   137.2303
  200.5000   -64.9889    11.1587     9.4507     7.7292     8.1300     2.4655     0.1122     0.0156   136.7574
  201.0000   -65.0488    11.0233     9.3931     7.7057     8.1300     2.4683     0.1106     0.0181   137.7520
  201.5000   -65.1086    11.1414     9.3359     7.6823     8.1300     2.4615     0.1156     0.0207   138.0121
  202.0000   -65.1684    11.2280     9.2790     7.6590     8.1300     2.4544     0.1207     0.0180   137.7995
  202.5000   -65.2283    11.3152     9.2224     7.6363     8.1300     2.4472     0.1241     0.0133   137.5770
  203.0000   -65.2881    11.4378     9.1656     7.5530     8.1300     2.4401     0.1255     0.0089   137.3533
  203.5000   -65.3479    11.3899     8.9865     7.3726     8.1300     2.4329     0.1338     0.0090   137.2979
  204.0000   -65.4077    11.2178     8.7669     7.1965     8.1300     2.4260     0.1403     0.0090   137.3779
  204.5000   -65.4676    10.8038     8.5527     7.0246     8.1300     2.4313     0.1357     0.0118   137.4559
  205.0000   -65.5275    10.4050     8.3437     6.8568     8.1300     2.4565     0.1246     0.0263   137.5369
  205.5000   -65.5872    10.0209     8.1398     6.6930     8.1300     2.4643     0.1166     0.0243   141.2499
  206.0000   -65.6357     9.6511     7.9409     6.5332     8.1300     2.4500     0.1199     0.0258   147.0948
  206.5000   -65.6508     9.3281     7.7469     6.3771     8.1300     2.4611     0.1122     0.0416   152.1270
  207.0000   -65.6662     9.2590     7.5576     6.1636     8.1300     2.4752     0.1046     0.0452   150.2376
  207.5000   -65.6817     9.1656     7.4816     6.2345     8.1300     2.4718     0.1077     0.0380   147.9747
  208.0000   -65.6971     9.2128     7.5583     6.3563     8.1300     2.4706     0.1114     0.0341   145.8092
  208.5000   -65.7125     9.3864     7.7328     6.4804     8.1300     2.4785     0.1026     0.0375   139.4577
  209.0000   -65.7280     9.8514     7.9114     6.6070     8.1300     2.4863     0.0926     0.0499   131.5435
  209.5000   -65.7434    10.3395     8.0942     6.7360     8.1300     2.4891     0.0975     0.0534   123.7674
  210.0000   -65.7589    10.6260     8.2812     6.8676     8.1300     2.4789     0.1066     0.0354   118.5725
  210.5000   -65.7743    10.9220     8.4729     7.0017     8.1300     2.4819     0.1010     0.0328   115.4296
  211.0000   -65.7897    10.9030     8.6674     7.1384     8.1300     2.4848     0.1036     0.0267   118.7157
  211.5000   -65.8045    10.8767     8.7540     7.2779     8.1300     2.4876     0.0999     0.0298   124.4084
  212.0000   -65.8206    10.8504     8.7493     7.4129     8.1283     2.4894     0.0942     0.0363   130.0073
  212.5000   -65.8833    10.8217     8.6682     7.3593     8.1163     2.4819     0.1007     0.0207   135.3127
  213.0000   -66.1022    10.5740     8.6759     7.3087     8.1045     2.4739     0.1092     0.0223   135.2423
  213.5000   -66.3123    10.3068     8.7152     7.2583     8.0926     2.4660     0.1170     0.0159   127.2928
  214.0000   -66.5202     9.9593     8.7380     7.2078     8.0807     2.4659     0.1099     0.0292   121.2208
  214.5000   -66.5603    10.0391     8.7609     7.4529     8.0689     2.4857     0.1018     0.0225   117.7350
  215.0000   -66.4033    10.6886     8.7838     7.7469     8.0573     2.4846     0.0998     0.0134   121.0594
  215.5000   -66.2474    11.7588     8.8068     8.0582     8.0571     2.4822     0.1019     0.0107   128.6615
  216.0000   -66.0907    11.4188     8.8298     7.9786     8.0753     2.4763     0.1099     0.0079   136.2262
  216.5000   -65.9342    10.8798     8.8751     7.8491     8.0933     2.4560     0.1179     0.0088   137.3537
  217.0000   -65.7778    10.3338     8.9248     7.7234     8.1114     2.4505     0.1229     0.0115   133.1236
  217.5000   -65.6213    10.6385     8.9747     7.5999     8.1293     2.4585     0.1166     0.0142   127.0857
  218.0000   -65.4649    10.9744     9.0249     7.5474     8.1301     2.4673     0.1114     0.0169   124.4114
  218.5000   -65.3086    11.3003     9.0814     7.5386     8.1300     2.4713     0.1074     0.0192   124.6160
  219.0000   -65.2514    11.4322     9.0637     7.5298     8.1300     2.4653     0.1122     0.0198   123.0407
  219.5000   -65.2934    11.3551     9.0438     7.5210     8.1300     2.4613     0.1143     0.0230   124.2496
  220.0000   -65.3353    11.3327     9.0238     7.5123     8.1300     2.4614     0.1130     0.0355   126.7810
