~VERSION INFORMATION
 VERS.                2.0:   CWLS LOG ASCII STANDARD - VERSION 2.0
 WRAP.                 NO:   ONE LINE PER DEPTH STEP
~WELL INFORMATION
#MNEM.UNIT      DATA TYPE    INFORMATION
#----------   ------------   ------------------------------
 STRT.F           46.0000:   START DEPTH
 STOP.F          670.0000:   STOP DEPTH
 STEP.F            0.5000:   STEP LENGTH
 NULL.          -999.2500:   NO VALUE
 COMP. FENIX & SCISSON INC:   COMPANY
 WELL. TEAPOT #27 62SX 11WI-11:   WELL
 FLD .             TEAPOT:   FIELD
 LOC .      S11 T38N R78W:   LOCATION
 CNTY.            NATRONA:   COUNTY
 STAT.            WYOMING:   STATE
 CTRY. UNITED STATES OF AMERICA:   COUNTRY
 SRVC.      Dresser Atlas:   SERVICE COMPANY
 DATE.        27-JUL-1980:   LOGDATE
 API .       490251084000:   API NUMBER
~CURVE INFORMATION
#MNEM.UNIT       API CODE    CURVE DESCRIPTION
#----------   ------------   ------------------------------
 DEPT.F                  :   
 GRD .GAPI   45 310 01 00:   GAMMA RAY FROM DENSITY LOG
 RHOB.G/C3   45 350 01 00:   BULK DENSITY
 CORR.G/C3   45 356 01 00:   DENSITY CORRECTION
 CALD.IN     45 280 60 00:   CALIPER
 DPOR.DEC    45 890 12 00:   DENSITY POROSITY SANDSTONE
 SPR .MV     07 010 01 00:   SPONTANEOUS POTENTIAL
 SFL .OHMM   07 220 01 00:   SHALLOW FOCUSED LOG RESISTIVITY
 ILD .OHMM   07 120 46 00:   INDUCTION LOG DEEP
 ILM .OHMM   07 120 44 00:   INDUCTION LOG MEDIUM
~PARAMETER INFORMATION
#MNEM.UNIT          VALUE    DESCRIPTION
#----------   ------------   ------------------------------
 PD  .                 GL:   PERMANENT DATUM
 EPD .F              5186:   ELEVATION PERMANENT DATUM
 LMF .                 KB:   LOG MEASURED FROM
 DAPD.F                 5:   FEET ABOVE PERMANENT DATUM
 DMF .                 KB:   DRILLING MEASURED FROM
 EKB .F              5191:   KELLING BUSHING
 EGL .F              5186:   GROUND LEVEL
 DATE.            7-27-80:   RUN DATE
 RUN .                  1:   RUN NUMBER
 DD  .F               660:   DEPTH DRILLER
 DL  .F               663:   DEPTH LOGGER
 BLI .F               661:   BOTTOM LOG INTERVAL
 TLI .F                46:   TOP LOG INTERVAL
 BS  .IN            7.875:   BIT SIZE
 BSD .F               660:   BIT SIZE AT DEPTH
 DFT .           CHEM GEL:   DRILLING FLUID TYPE
 DFD .                9.5:   DRILLING FLUID DENSITY
 DFV .                 50:   DRILLING FLUID VISCOSITY
 DFPH.                 11:   DRILLING FLUID PH
 DFL .                  6:   DRILLING FLUID LOSS
 MSS .           FLOWLINE:   MUD SAMPLE SOURCE
 RMS .OHMM            .08:   RESISTIVITY MUD SAMPLE
 MST .F                70:   MUD SAMPLE TEMPERATURE
 RMC .OHMM            .08:   RESISTIVITY MUD CAKE
 MCST.F                70:   MUD CAKE SAMPLE TEMPERATURE
 MFSS.               MEAS:   MUD FILTRATE SAMPLE SOURCE
 MCSS.               MEAS:   MUD CAKE SAMPLE SOURCE
 RMB .OHMM            .06:   RESISTIVITY MUD AT BHT
 BHT .F                90:   BOTTOM HOLE TEMPERATURE
 TCS .HRS               5:   TIME CURCULATED STOPPED
 MRT .F                90:   MAXIMUM RECORDED TEMPERATURE
 LUN .               6145:   LOGGING UNIT NUMBER
 LUL .              GLTTE:   LOGGING UNIT LOCATION
 ENGI.              HENRY:   RECORDING ENGINEER
 WITN.              AMEND:   WITNESSED BY
 CLNT.            A2DTECH:   CLIENT CODE
 ORIG.       2", 5" PRINT:   ORIGIN OF DATA
 UWI .       490251084000:   UNIQUE WELL ID
 DICO. A2D Technologies, Inc.:   DIGITIZING COMPANY
~OTHER INFORMATION
~A   DEPT      GRD       RHOB       CORR       CALD       DPOR        SPR          SFL        ILD      ILM   
# ...
  119.0000   108.0702     2.4573     0.0016     8.6048     0.1333   -20.1517     8.6238     5.9584     6.3318
  119.5000   108.0803     2.4619     0.0017     8.6048     0.1293   -19.7113     8.4628     5.8765     6.2806
  120.0000   107.5762     2.4618     0.0054     8.6048     0.1282   -19.2566     8.3444     5.7956     6.1989
  120.5000   106.9657     2.4531     0.0019     8.6049     0.1348   -18.8039     8.3454     5.7223     6.1183
  121.0000   106.6118     2.4445    -0.0023     8.6044     0.1413   -18.3513     8.2245     5.6776     6.0471
  121.5000   103.9579     2.4478    -0.0017     8.5866     0.1391   -17.8817     8.1141     5.6182     6.1047
  122.0000   103.2152     2.4609     0.0012     8.5678     0.1323   -17.8606     8.0431     5.6266     6.1594
  122.5000   103.9243     2.4697     0.0039     8.5490     0.1260   -17.9662     8.1408     5.6435     6.1041
  123.0000   104.9959     2.4697     0.0054     8.5302     0.1248   -18.0756     8.1925     5.6604     6.0471
  123.5000   105.0153     2.4637     0.0043     8.5113     0.1282   -18.1736     8.0587     5.6818     6.0953
  124.0000   104.7711     2.4611     0.0043     8.5006     0.1309   -18.0994     7.9673     5.7385     6.1554
  124.5000   105.5389     2.4609     0.0066     8.4938     0.1309   -18.0218     8.0829     5.7949     6.2161
  125.0000   106.3082     2.4595     0.0048     8.4870     0.1313   -18.0584     8.2579     5.8521     6.2775
  125.5000   106.6520     2.4578     0.0002     8.4803     0.1325   -18.2195     8.4313     5.9095     6.3342
  126.0000   106.2968     2.4694     0.0001     8.4735     0.1261   -18.3796     8.5782     5.9872     6.3542
  126.5000   105.9730     2.4819     0.0131     8.4664     0.1179   -18.5404     8.4262     6.0817     6.3741
  127.0000   106.6967     2.4867     0.0116     8.4714     0.1155   -18.7010     8.2683     6.1780     6.3904
  127.5000   107.8293     2.4890     0.0116     8.4798     0.1148   -18.8616     8.2664     6.2758     6.4766
  128.0000   108.6385     2.4816     0.0099     8.4843     0.1183   -19.0222     8.4106     6.3751     6.5644
  128.5000   108.3972     2.4718     0.0074     8.4823     0.1237   -19.1828     8.6476     6.4760     6.6533
  129.0000   107.9459     2.4672     0.0048     8.4804     0.1277   -19.3436     8.8572     6.5692     6.7435
  129.5000   108.1683     2.4626     0.0035     8.4784     0.1297   -19.5044     8.9981     6.6498     6.8396
  130.0000   108.3814     2.4712     0.0050     8.4765     0.1251   -19.6637     9.1489     6.7252     6.9364
  130.5000   107.4658     2.4772     0.0039     8.4745     0.1206   -19.7717     9.0955     6.8014     7.0355
  131.0000   105.4041     2.4790     0.0016     8.4726     0.1208   -19.7603     9.0243     6.8785     7.1364
  131.5000   104.0228     2.4802     0.0055     8.4706     0.1193   -19.4644     8.9821     6.8329     7.1364
  132.0000   102.9815     2.4842     0.0074     8.4687     0.1164   -19.1529     9.1540     6.7871     7.0811
  132.5000   102.7874     2.4857     0.0099     8.4667     0.1161   -18.8430     9.3191     6.7415     7.0422
  133.0000   103.7577     2.4851     0.0131     8.4647     0.1160   -18.5322     9.2665     6.6963     7.0060
  133.5000   102.6575     2.4882     0.0164     8.4627     0.1149   -18.3269     9.1331     6.6321     6.9689
  134.0000   102.2830     2.4899     0.0196     8.4606     0.1136   -18.2239     8.9380     6.5473     6.9343
  134.5000   101.9336     2.4906     0.0221     8.4585     0.1131   -18.3183     8.7375     6.4638     6.9000
  135.0000   103.3507     2.4939     0.0233     8.4565     0.1117   -18.5716     8.7018     6.3807     6.8520
  135.5000   104.2952     2.4902     0.0246     8.4544     0.1149   -18.8242     8.6646     6.3256     6.7030
  136.0000   102.2405     2.4728     0.0256     8.4523     0.1249   -18.9440     8.5755     6.2943     6.5572
  136.5000   100.0796     2.4697     0.0240     8.4503     0.1249   -18.7825     8.4751     6.2632     6.4444
  137.0000    98.9620     2.4911     0.0224     8.4482     0.1084   -18.6219     8.3758     6.2322     6.4242
  137.5000    99.0625     2.4916     0.0214     8.4461     0.1165   -18.6943     8.2683     6.2164     6.4041
  138.0000   100.3978     2.4777     0.0203     8.4451     0.1221   -18.8608     8.3270     6.2446     6.3904
  138.5000   101.4985     2.4749     0.0192     8.4451     0.1203   -19.0309     8.4218     6.2635     6.4404
  139.0000   102.0163     2.4848     0.0181     8.4451     0.1165   -19.2007     8.3878     6.2826     6.4856
  139.5000   102.8061     2.4893     0.0188     8.4451     0.1126   -19.3702     8.3272     6.3018     6.5311
  140.0000   103.5947     2.4941     0.0197     8.4451     0.1103   -19.5397     8.2683     6.3209     6.5768
  140.5000   104.5541     2.5009     0.0176     8.4451     0.1069   -19.7094     8.3760     6.3408     6.6229
  141.0000   105.8983     2.5030     0.0174     8.4451     0.0968   -19.8791     8.5085     6.3614     6.6503
  141.5000   107.2618     2.4915     0.0197     8.4451     0.0963   -20.0466     8.6636     6.3821     6.6745
  142.0000   107.8343     2.4812     0.0221     8.4451     0.1015   -20.1879     8.8440     6.4029     6.7121
  142.5000   107.8844     2.4749     0.0249     8.4451     0.1026   -20.2544     9.0282     6.4237     6.7802
  143.0000   106.1192     2.4908     0.0277     8.4451     0.0992   -20.3208     9.1489     6.4448     6.8490
  143.5000   104.8959     2.5003     0.0304     8.4451     0.0936   -20.2939     8.9095     6.4494     6.8785
  144.0000   104.3355     2.4975     0.0308     8.4451     0.0955   -20.1003     8.6680     6.4494     6.8001
  144.5000   104.0356     2.4854     0.0294     8.4451     0.1006   -19.9108     8.4950     6.4750     6.7438
  145.0000   103.0567     2.4872     0.0219     8.4451     0.1124   -19.7866     8.3860     6.5163     6.6912
  145.5000   104.0495     2.4895     0.0140     8.4425     0.1137   -19.8913     8.3430     6.5580     6.7367
  146.0000   105.7189     2.4877     0.0057     8.4398     0.1154   -19.9900     8.5136     6.5998     6.7898
  146.5000   106.7415     2.4821     0.0033     8.4370     0.1182   -20.0885     8.6564     6.6420     6.8874
  147.0000   107.7555     2.4820     0.0049     8.4343     0.1198   -20.1868     9.0490     6.6844     7.0278
  147.5000   108.7334     2.4805     0.0065     8.4316     0.1201   -20.2852     9.3833     6.7271     7.1712
  148.0000   109.1219     2.4791     0.0079     8.4288     0.1214   -20.4277     9.5627     6.7531     7.2023
  148.5000   108.6908     2.4789     0.0094     8.4261     0.1217   -20.4676     9.6682     6.6275     7.0684
  149.0000   107.2100     2.4874     0.0089     8.4233     0.1157   -20.2383     9.1676     6.5389     6.9739
  149.5000   106.0409     2.5019     0.0081     8.4206     0.1083   -20.2869     8.7775     6.4508     6.8800
  150.0000   105.6872     2.5169     0.0073     8.4178     0.1036   -20.4629     8.4762     6.3522     6.7787
  150.5000   105.3250     2.5099     0.0065     8.4151     0.1034   -20.6397     8.3336     6.2178     6.6491
  151.0000   104.9686     2.4979     0.0057     8.4124     0.1083   -20.7190     8.2957     6.0885     6.5241
  151.5000   105.2545     2.4861     0.0067     8.4096     0.1153   -20.5771     8.2341     6.0037     6.4890
  152.0000   106.2122     2.4740     0.0135     8.4069     0.1223   -20.4389     8.1100     5.9132     6.4595
  152.5000   107.3054     2.4656     0.0063     8.4052     0.1281   -20.2986     8.0419     5.8286     6.4301
  153.0000   107.3303     2.4662     0.0015     8.4052     0.1265   -20.1757     8.1254     5.8140     6.4009
  153.5000   107.8408     2.4734     0.0015     8.4052     0.1235   -20.3807     8.2057     5.8000     6.3826
  154.0000   110.1153     2.4766     0.0029     8.4052     0.1219   -20.5960     8.2787     5.7864     6.3705
  154.5000   109.8795     2.4956     0.0063     8.4052     0.1115   -20.8095     8.3260     5.7750     6.3585
  155.0000   107.9219     2.5057     0.0100     8.4052     0.1024   -20.9953     8.3447     5.7225     6.3465
