~VERSION INFORMATION
 VERS.                2.0:   CWLS LOG ASCII STANDARD - VERSION 2.0
 WRAP.                 NO:   ONE LINE PER DEPTH STEP
~WELL INFORMATION
#MNEM.UNIT      DATA TYPE    INFORMATION
#----------   ------------   ------------------------------
 STRT.F           40.0000:   START DEPTH
 STOP.F          512.0000:   STOP DEPTH
 STEP.F            0.5000:   STEP LENGTH
 NULL.          -999.2500:   NO VALUE
 COMP. LAWRENCE/ALLISON INC:   COMPANY
 WELL.   65-21 SX F1 #3-3:   WELL
 FLD .             TEAPOT:   FIELD
 LOC .       S3 T38N R78W:   LOCATION
 CNTY.            NATRONA:   COUNTY
 STAT.            WYOMING:   STATE
 CTRY. UNITED STATES OF AMERICA:   COUNTRY
 SRVC.       Schlumberger:   SERVICE COMPANY
 DATE.        14-JUL-1982:   LOGDATE
 API .       490251089600:   API NUMBER
~CURVE INFORMATION
#MNEM.UNIT       API CODE    CURVE DESCRIPTION
#----------   ------------   ------------------------------
 DEPT.F                  :   
 CALD.IN     45 280 60 00:   CALIPER FROM DENSITY LOG
 CORR.G/C3   45 356 01 00:   DENSITY CORRECTION
 DPHI.DEC    45 890 12 00:   DENSITY POROSITY SANDSTONE
 GRD .GAPI   45 310 01 00:   GAMMA RAY FROM DENSITY LOG
 RHOB.G/C3   45 350 01 00:   BULK DENSITY
~PARAMETER INFORMATION
#MNEM.UNIT          VALUE    DESCRIPTION
#----------   ------------   ------------------------------
 PD  .                 GL:   PERMANENT DATUM
 EPD .F              5155:   ELEVATION PERMANENT DATUM
 LMF .                 KB:   LOG MEASURED FROM
 DAPD.F                 9:   FEET ABOVE PERMANENT DATUM
 DMF .                 KB:   DRILLING MEASURED FROM
 EKB .F              5164:   KELLING BUSHING
 EDF .F            5162.5:   DRILLING FLOOR
 EGL .F              5155:   GROUND LEVEL
 DATE.        14-JUL-1982:   RUN DATE
 RUN .                  1:   RUN NUMBER
 DD  .F               500:   DEPTH DRILLER
 DL  .F               515:   DEPTH LOGGER
 BLI .F               512:   BOTTOM LOG INTERVAL
 TLI .F                50:   TOP LOG INTERVAL
 CS  .IN           13.375:   CASING SIZE
 CBD .F                50:   CASING BOTTOM DRILLER
 CBL .F                50:   CASING BOTTOM LOGGER
 BS  .IN            12.25:   BIT SIZE
 BSD .F               500:   BIT SIZE AT DEPTH
 DFT .                KCL:   DRILLING FLUID TYPE
 TCS .HRS            0600:   TIME CURCULATED STOPPED
 TLAB.HRS            1000:   TIME LOGGER AT BOTTOM
 LUN .               8035:   LOGGING UNIT NUMBER
 LUL .             CASPER:   LOGGING UNIT LOCATION
 ENGI.            PERARIS:   RECORDING ENGINEER
 WITN.             TAYLOR:   WITNESSED BY
 CLNT.            A2DTECH:   CLIENT CODE
 ORIG.         2.5" PRINT:   ORIGIN OF DATA
 UWI .       490251089600:   UNIQUE WELL ID
 DICO. A2D Technologies, Inc.:   DIGITIZING COMPANY
~OTHER INFORMATION
~A   DEPT     CALD       CORR       DPHI         GRD      RHOB   
# ...
  345.0000    12.4672    -0.0052     0.2074    69.4030     2.3286
  345.5000    12.4894     0.0022     0.2061    70.7612     2.3392
  346.0000    12.4961     0.0127     0.1863    71.2239     2.3559
  346.5000    12.4957     0.0152     0.1787    70.7015     2.3817
  347.0000    12.4951     0.0160     0.1730    68.8358     2.3892
  347.5000    12.4947     0.0160     0.1678    67.0149     2.3938
  348.0000    12.4943     0.0144     0.1645    65.2836     2.4029
  348.5000    12.4938     0.0097     0.1633    65.4776     2.4059
  349.0000    12.4934     0.0038     0.1780    66.8358     2.3906
  349.5000    12.4929     0.0008     0.1914    67.2985     2.3633
  350.0000    12.4925    -0.0008     0.1951    67.7612     2.3511
  350.5000    12.4921     0.0023     0.1930    68.0597     2.3495
  351.0000    12.4916     0.0053     0.1898    67.7015     2.3559
  351.5000    12.4912     0.0083     0.1830    66.5224     2.3655
  352.0000    12.4907     0.0098     0.1714    65.1642     2.3837
  352.5000    12.4903     0.0113     0.1678    65.1493     2.3937
  353.0000    12.4899     0.0143     0.1666    66.7462     2.3983
  353.5000    12.4894     0.0143     0.1690    67.8657     2.4010
  354.0000    12.4856     0.0158     0.1684    68.9552     2.3964
  354.5000    12.4587     0.0128     0.1666    68.0597     2.3984
  355.0000    12.4582     0.0052     0.1666    64.9254     2.3994
  355.5000    12.4578    -0.0010     0.1757    63.1343     2.3869
  356.0000    12.4573    -0.0025     0.1794    64.4776     2.3796
  356.5000    12.4569     0.0022     0.1782    66.2687     2.3840
  357.0000    12.4564     0.0051     0.1739    67.1642     2.3917
  357.5000    12.4560     0.0066     0.1715    68.0597     2.3940
  358.0000    12.4555     0.0063     0.1717    68.0597     2.3889
  358.5000    12.4551     0.0047     0.1813    67.6119     2.3733
  359.0000    12.4546     0.0035     0.1818    67.6119     2.3763
  359.5000    12.4542     0.0020     0.1757    68.0597     2.3870
  360.0000    12.4239     0.0020     0.1672    68.5075     2.3960
  360.5000    12.4234     0.0020     0.1627    68.5075     2.4051
  361.0000    12.4230     0.0041     0.1602    68.5075     2.4127
  361.5000    12.4225     0.0087     0.1585    68.5522     2.4157
  362.0000    12.4220     0.0102     0.1563    69.9702     2.4187
  362.5000    12.4216     0.0133     0.1505    71.7910     2.4278
  363.0000    12.4211     0.0156     0.1438    73.6120     2.4369
  363.5000    12.4207     0.0155     0.1400    74.4328     2.4414
  364.0000    12.4203     0.0170     0.1378    75.2239     2.4460
  364.5000    12.4198     0.0155     0.1372    73.7910     2.4490
  365.0000    12.4194     0.0125     0.1385    70.8955     2.4448
  365.5000    12.3891     0.0064     0.1451    69.6866     2.4266
  366.0000    12.3886     0.0003     0.1588    68.3284     2.4063
  366.5000    12.3882    -0.0043     0.1673    68.0597     2.3917
  367.0000    12.3878    -0.0058     0.1721    68.2686     2.3846
  367.5000    12.3575    -0.0059     0.1764    68.5075     2.3815
  368.0000    12.3570    -0.0043     0.1782    68.5075     2.3804
  368.5000    12.3565    -0.0044     0.1784    68.2537     2.3829
  369.0000    12.3561    -0.0029     0.1746    67.6119     2.3870
  369.5000    12.3557    -0.0014     0.1715    68.9552     2.3916
  370.0000    12.3552     0.0017     0.1691    69.8507     2.3946
  370.5000    12.3548     0.0032     0.1667    70.2985     2.3985
  371.0000    12.3543     0.0078     0.1637    68.9552     2.4038
  371.5000    12.3539     0.0094     0.1612    68.0597     2.4093
  372.0000    12.3534     0.0107     0.1581    68.9552     2.4166
  372.5000    12.3530     0.0092     0.1544    71.1940     2.4226
  373.0000    12.3525     0.0092     0.1507    72.5373     2.4272
  373.5000    12.3521     0.0095     0.1456    74.3284     2.4332
  374.0000    12.3593     0.0141     0.1405    75.2239     2.4408
  374.5000    12.3810     0.0192     0.1392    72.5373     2.4468
  375.0000    12.3806     0.0228     0.1381    71.6418     2.4468
  375.5000    12.3801     0.0233     0.1383    72.0896     2.4468
  376.0000    12.3796     0.0264     0.1421    72.5373     2.4391
  376.5000    12.3793     0.0288     0.1479    72.4925     2.4330
  377.0000    12.3788     0.0274     0.1479    71.6418     2.4330
  377.5000    12.3784     0.0212     0.1514    71.7164     2.4253
  378.0000    12.3779     0.0198     0.1537    72.6269     2.4238
  378.5000    12.3774     0.0244     0.1521    73.5373     2.4238
  379.0000    12.3770     0.0288     0.1534    73.1940     2.4230
  379.5000    12.3765     0.0303     0.1663    69.1790     2.4017
  380.0000    12.3761     0.0257     0.1722    64.4776     2.3872
  380.5000    12.3757     0.0348     0.1473    60.0745     2.4418
  381.0000    12.3752     0.0500     0.1285    57.5821     2.4579
  381.5000    12.3748     0.0621     0.1242    56.6716     2.4651
  382.0000    12.3743     0.0682     0.1321    56.4179     2.4294
  382.5000    12.3739     0.0362     0.2233    56.1940     2.2999
  383.0000    12.3734     0.0195     0.2464    55.9701     2.2727
  383.5000    12.3730     0.0165     0.2440    55.9701     2.2677
  384.0000    12.3725     0.0195     0.2415    55.5224     2.2700
  384.5000    12.3721     0.0179     0.2507    55.0746     2.2605
  385.0000    12.3716     0.0088     0.2604    55.0746     2.2456
  385.5000    12.3712     0.0042     0.2501    56.8657     2.2608
  386.0000    12.3707     0.0058     0.2366    58.6567     2.2835
  386.5000    12.3703     0.0072     0.2274    60.0000     2.3017
  387.0000    12.3699     0.0072     0.2214    60.8955     2.3063
  387.5000    12.3694     0.0090     0.2224    60.4478     2.3047
  388.0000    12.3690     0.0121     0.2294    58.6567     2.2986
  388.5000    12.3685     0.0151     0.2281    57.3134     2.2955
  389.0000    12.3681     0.0182     0.2275    55.9701     2.2985
  389.5000    12.3675     0.0208     0.2281    55.9701     2.2985
  390.0000    12.3671     0.0178     0.2296    55.9701     2.2939
  390.5000    12.3666     0.0081     0.2274    56.4179     2.2938
  391.0000    12.3662     0.0092     0.2224    56.4179     2.3076
  391.5000    12.3658     0.0160     0.2158    56.4179     2.3199
  392.0000    12.3653     0.0222     0.2089    56.5374     2.3322
  392.5000    12.3947     0.0276     0.2045    57.9851     2.3382
  393.0000    12.3943     0.0298     0.2033    60.1791     2.3409
  393.5000    12.3939     0.0242     0.2036    61.4478     2.3360
  394.0000    12.3934     0.0146     0.2083    61.7910     2.3313
  394.5000    12.3930     0.0085     0.2108    61.2089     2.3278
  395.0000    12.4224     0.0115     0.2088    59.8507     2.3255
  395.5000    12.4219     0.0161     0.2076    58.9403     2.3306
  396.0000    12.4215     0.0176     0.2070    58.2090     2.3316
  396.5000    12.4210     0.0179     0.2124    58.2090     2.3248
  397.0000    12.4206     0.0145     0.2088    58.2090     2.3305
  397.5000    12.4201     0.0115     0.2039    58.2090     2.3375
  398.0000    12.4197     0.0115     0.2003    58.2090     2.3413
  398.5000    12.4124     0.0114     0.2033    58.4627     2.3412
  399.0000    12.3890     0.0145     0.2052    59.5522     2.3374
  399.5000    12.3885     0.0160     0.2052    60.0000     2.3374
  400.0000    12.3860     0.0190     0.2052    61.2940     2.3374
  400.5000    12.3731     0.0205     0.2040    62.6866     2.3298
  401.0000    12.3585     0.0125     0.2144    63.1343     2.3176
  401.5000    12.3587     0.0093     0.2159    62.6866     2.3191
  402.0000    12.3588     0.0143     0.2105    57.3134     2.3267
  402.5000    12.3291     0.0204     0.2015    54.1791     2.3358
  403.0000    12.3293     0.0242     0.1944    54.6269     2.3419
  403.5000    12.3294     0.0294     0.1911    56.8657     2.3495
  404.0000    12.3296     0.0339     0.1888    58.2090     2.3586
  404.5000    12.2999     0.0309     0.1882    58.2090     2.3647
  405.0000    12.3015     0.0187     0.1967    57.2985     2.3540
  405.5000    12.3300     0.0035     0.1985    56.4179     2.3464
