~VERSION INFORMATION
 VERS.                2.0:   CWLS LOG ASCII STANDARD - VERSION 2.0
 WRAP.                 NO:   ONE LINE PER DEPTH STEP
~WELL INFORMATION
#MNEM.UNIT      DATA TYPE    INFORMATION
#----------   ------------   ------------------------------
 STRT.F           40.0000:   START DEPTH
 STOP.F          596.0000:   STOP DEPTH
 STEP.F            0.5000:   STEP LENGTH
 NULL.          -999.2500:   NO VALUE
 COMP. FENIX & SCISSON INC:   COMPANY
 WELL. SX-15 N.O.R. #3 #51-15:   WELL
 FLD .             TEAPOT:   FIELD
 LOC .      S15 T38N R78W:   LOCATION
 CNTY.            NATRONA:   COUNTY
 STAT.            WYOMING:   STATE
 CTRY. UNITED STATES OF AMERICA:   COUNTRY
 SRVC.              Welex:   SERVICE COMPANY
 DATE.        12-MAR-1977:   LOGDATE
 API .       490251031100:   API NUMBER
~CURVE INFORMATION
#MNEM.UNIT       API CODE    CURVE DESCRIPTION
#----------   ------------   ------------------------------
 DEPT.F                  :   
 GRD .GAPI   45 310 01 00:   GAMMA RAY FROM DENSITY LOG
 CALD.IN     45 280 60 00:   CALIPER FROM DENSITY LOG
 CORR.G/C3   45 356 01 00:   DENSITY CORRECTION
 RHOB.G/C3   45 350 01 00:   BULK DENSITY
 DPOR.DEC    45 890 12 00:   DENSITY POROSITY SANDSTONE
 SGRD.OHMM   07 220 05 00:   SHALLOW GUARD RESISTIVITY
 ILD .OHMM   07 120 46 00:   INDUCTION LOG DEEP
 ILM .OHMM   07 120 44 00:   INDUCTION LOG MEDIUM
 SPR .MV     07 010 01 00:   SPONTANEOUS POTENTIAL
~PARAMETER INFORMATION
#MNEM.UNIT          VALUE    DESCRIPTION
#----------   ------------   ------------------------------
 PD  .                 GL:   PERMANENT DATUM
 EPD .F              5221:   ELEVATION PERMANENT DATUM
 LMF .                 GL:   LOG MEASURED FROM
 DMF .                 GL:   DRILLING MEASURED FROM
 EGL .F              5221:   GROUND LEVEL
 DATE.            3-12-77:   RUN DATE
 RUN .                  1:   RUN NUMBER
 DD  .F               600:   DEPTH DRILLER
 DL  .F               597:   DEPTH LOGGER
 BLI .F               596:   BOTTOM LOG INTERVAL
 TLI .F                45:   TOP LOG INTERVAL
 CS  .IN            8.625:   CASING SIZE
 CBD .F                46:   CASING BOTTOM DRILLER
 CBL .F                45:   CASING BOTTOM LOGGER
 BS  .IN            7.875:   BIT SIZE
 BSD .F               600:   BIT SIZE AT DEPTH
 DFT .            KCL-MUD:   DRILLING FLUID TYPE
 DFD .                8.9:   DRILLING FLUID DENSITY
 DFV .                 34:   DRILLING FLUID VISCOSITY
 MSS .            MUD PIT:   MUD SAMPLE SOURCE
 RMS .OHMM            .68:   RESISTIVITY MUD SAMPLE
 MST .F                40:   MUD SAMPLE TEMPERATURE
 RMF .OHMM            .57:   RESISTIVITY MUD FILTRATE SAMPLE
 MFST.F                40:   MUD FILTRATE SAMPLE TEMPERATURE
 RMC .OHMM            .78:   RESISTIVITY MUD CAKE
 MCST.F                40:   MUD CAKE SAMPLE TEMPERATURE
 MFSS.           MEASURED:   MUD FILTRATE SAMPLE SOURCE
 MCSS.           MEASURED:   MUD CAKE SAMPLE SOURCE
 RMB .OHMM            .41:   RESISTIVITY MUD AT BHT
 BHT .F                65:   BOTTOM HOLE TEMPERATURE
 TCS .HRS               3:   TIME CURCULATED STOPPED
 MRT .F                65:   MAXIMUM RECORDED TEMPERATURE
 LUN .                716:   LOGGING UNIT NUMBER
 LUL .             VERNAL:   LOGGING UNIT LOCATION
 ENGI.           CALLAHAN:   RECORDING ENGINEER
 WITN.         STUEBINGER:   WITNESSED BY
 CLNT.            A2DTECH:   CLIENT CODE
 ORIG.       2", 5" PRINT:   ORIGIN OF DATA
 UWI .       490251031100:   UNIQUE WELL ID
 DICO. A2D Technologies, Inc.:   DIGITIZING COMPANY
~OTHER INFORMATION
~A   DEPT       GRD        CALD     CORR       RHOB       DPOR       SGRD        ILD        ILM        SPR   
# ...
  332.0000   138.9386     7.9144     0.0516     2.4584     0.1245     6.1449     5.9208     4.7469   -60.7716
  332.5000   138.9219     7.9156     0.0528     2.4624     0.1187     8.8039     5.7609     6.4348   -60.6241
  333.0000   140.1926     7.9168     0.0510     2.4657     0.1187     9.6791     5.9417     5.9486   -60.4797
  333.5000   141.4405     7.9180     0.0433     2.4692     0.1187    10.2545     6.1694     5.4008   -60.3362
  334.0000   142.6827     7.9193     0.0381     2.4750     0.1174    10.5799     6.4059     7.0132   -60.1928
  334.5000   143.4444     7.9205     0.0460     2.4813     0.1130    10.8790     6.6515     7.9921   -60.0493
  335.0000   143.3860     7.9217     0.0465     2.4838     0.1099    10.9842     6.8386     8.0285   -59.9059
  335.5000   144.0447     7.9229     0.0414     2.4817     0.1118    10.7780     6.9944     8.0285   -59.7624
  336.0000   143.6044     7.9241     0.0344     2.4752     0.1136    10.4742     7.1537     8.0285   -59.6150
  336.5000   141.6083     7.9253     0.0282     2.4688     0.1167    10.2032     7.3167     8.0285   -59.5239
  337.0000   140.9175     7.9265     0.0262     2.4625     0.1198    11.1458     7.4834     8.0285   -59.4458
  337.5000   140.2025     7.9277     0.0240     2.4561     0.1229    11.2923     7.6540     8.0285   -59.3682
  338.0000   139.4868     7.9289     0.0222     2.4494     0.1260    11.1887     7.8095     8.0594   -59.2905
  338.5000   138.7733     7.9302     0.0264     2.4532     0.1246    11.3999     7.7940     8.1035   -59.2127
  339.0000   138.0589     7.9314     0.0310     2.4590     0.1187    11.6090     7.7802     8.1480   -59.1350
  339.5000   137.3427     7.9326     0.0358     2.4650     0.1111    11.1887     7.7663     8.1779   -59.0572
  340.0000   136.6200     7.9338     0.0272     2.4592     0.1187    11.3969     7.7525     8.0740   -58.9795
  340.5000   135.9065     7.9324     0.0205     2.4588     0.1264    11.2894     7.7378     7.9968   -58.9017
  341.0000   136.4580     7.9309     0.0282     2.4644     0.1175    10.9842     7.6624     7.9203   -58.8240
  341.5000   138.2936     7.9293     0.0289     2.4611     0.1214    11.0327     7.5837     7.8445   -58.7462
  342.0000   140.5386     7.9278     0.0297     2.4501     0.1272    11.0860     7.5058     7.7696   -58.6684
  342.5000   141.2390     7.9262     0.0298     2.4460     0.1260    11.0040     7.4287     7.7372   -58.5907
  343.0000   141.4823     7.9247     0.0210     2.4411     0.1248    10.9345     7.3524     7.7669   -58.5129
  343.5000   141.7057     7.9232     0.0126     2.4291     0.1355    10.8655     7.3214     7.7882   -58.4352
  344.0000   141.9297     7.9216     0.0042     2.4216     0.1400    10.7836     7.3419     7.8095   -58.3574
  344.5000   142.0744     7.9201     0.0029     2.4327     0.1368    10.8689     7.3568     7.7792   -58.2796
  345.0000   141.9649     7.9186     0.0086     2.4656     0.1160    10.9757     7.3717     7.7378   -58.2019
  345.5000   141.8566     7.9170     0.0100     2.4684     0.1094    11.0845     7.3867     7.7565   -58.1241
  346.0000   141.7625     7.9155     0.0101     2.4696     0.1081    11.1879     7.4016     7.7866   -58.0463
  346.5000   142.0095     7.9139     0.0101     2.4749     0.1040    10.9843     7.4165     7.8168   -57.9686
  347.0000   143.2286     7.9124     0.0101     2.4929     0.0972    10.8871     7.4316     7.8471   -57.8908
  347.5000   144.4457     7.9108     0.0099     2.4999     0.0903    12.0360     7.4465     7.8776   -57.8131
  348.0000   144.9551     7.9093     0.0172     2.5025     0.0871    10.5908     7.4574     7.9081   -57.7353
  348.5000   145.4485     7.9078     0.0258     2.4921     0.0988    10.7059     7.3975     7.9388   -57.6576
  349.0000   145.8210     7.9062     0.0194     2.4708     0.1115    10.8450     7.3503     7.9696   -57.5797
  349.5000   145.2059     7.9047     0.0203     2.4681     0.1175    10.9859     7.3035     8.0005   -57.5020
  350.0000   144.5792     7.9031     0.0284     2.4716     0.1163    11.0860     7.2569     8.0285   -57.4244
  350.5000   143.9031     7.9016     0.0344     2.4755     0.1151    10.2543     7.2106     7.7516   -57.3964
  351.0000   142.0158     7.9001     0.0347     2.4793     0.1134     9.5521     7.0682     7.5081   -57.4192
  351.5000   141.4606     7.8985     0.0350     2.4830     0.1105     9.2192     6.8351     7.3892   -57.4416
  352.0000   141.3917     7.8970     0.0354     2.4855     0.1099     9.4366     6.6098     7.3892   -57.4642
  352.5000   141.3451     7.8954     0.0358     2.4809     0.1127     9.7561     6.3918     7.3892   -57.4868
  353.0000   141.3059     7.8939     0.0360     2.4786     0.1133    10.0863     6.2018     7.3102   -57.5094
  353.5000   140.8981     7.8923     0.0444     2.4790     0.1129    10.3931     6.0364     7.0527   -57.5322
  354.0000   140.3602     7.8908     0.0513     2.4772     0.1131     9.3178     5.8898     6.6153   -57.5546
  354.5000   139.6928     7.8893     0.0469     2.4694     0.1170     7.3214     5.7601     6.0327   -57.5763
  355.0000   138.1288     7.8877     0.0428     2.4618     0.1209     5.7527     5.9082     5.6556   -57.5196
  355.5000   136.5403     7.8862     0.0386     2.4569     0.1235     5.3513     6.0485     6.3758   -57.3769
  356.0000   134.9346     7.8846     0.0344     2.4703     0.1170     9.9249     6.1449     6.8342   -57.2351
  356.5000   135.1326     7.8831     0.0358     2.4840     0.1120     9.9812     6.0216     6.9905   -57.0934
  357.0000   135.4457     7.8815     0.0377     2.4890     0.1086    10.0441     5.9225     7.2113   -56.9778
  357.5000   135.7576     7.8800     0.0395     2.4850     0.1123    10.1075     6.1449     7.4351   -56.9524
  358.0000   136.0518     7.8785     0.0465     2.4880     0.1096    10.1712     6.4020     7.6679   -56.9257
  358.5000   135.4072     7.8769     0.0552     2.4876     0.1102    10.2032     6.6697     7.9035   -56.8988
  359.0000   136.3657     7.8754     0.0463     2.4718     0.1142    10.2033     6.8638     8.0338   -56.8720
  359.5000   137.8275     7.8738     0.0481     2.4684     0.1194    10.2032     6.7380     7.7792   -56.8451
  360.0000   139.3011     7.8751     0.0506     2.4588     0.1245    10.2036     6.4896     7.5928   -56.8185
  360.5000   140.3135     7.8765     0.0386     2.4472     0.1297    10.2047     6.2625     7.4107   -56.7935
  361.0000   140.3457     7.8779     0.0286     2.4353     0.1352    10.2032     6.0512     6.9915   -56.6879
  361.5000   140.3960     7.8794     0.0314     2.4234     0.1379     9.5802     5.8424     6.3758   -56.5672
  362.0000   140.4367     7.8808     0.0343     2.4182     0.1407     8.2428     5.6408     5.8142   -56.4461
  362.5000   140.4244     7.8822     0.0362     2.4132     0.1435     6.4179     5.4476     5.3022   -56.3252
  363.0000   139.1560     7.8836     0.0362     2.4082     0.1463     4.9970     5.3486     5.0633   -56.2043
  363.5000   137.1612     7.8851     0.0363     2.4031     0.1489     4.4093     5.3933     5.5615   -56.0834
  364.0000   135.1697     7.8865     0.0399     2.4351     0.1328     9.9249     5.4258     6.0327   -55.9625
  364.5000   133.8432     7.8879     0.0438     2.4762     0.1113     9.1346     5.4585     5.9745   -55.8416
  365.0000   133.8632     7.8894     0.0477     2.4971     0.1052     9.1346     5.4914     5.8681   -55.7207
  365.5000   133.1029     7.8908     0.0516     2.4995     0.1038     9.8338     5.7469     6.1426   -55.5998
  366.0000   131.7724     7.8922     0.0555     2.4995     0.1047     7.6668     6.1167     6.5571   -55.4789
  366.5000   130.4272     7.8936     0.0554     2.4995     0.1063    10.0574     6.5103     6.8924   -55.3581
  367.0000   128.4810     7.8951     0.0543     2.4996     0.1054    10.1941     6.8281     6.9883   -55.2370
  367.5000   129.0890     7.8965     0.0531     2.5056     0.1011    10.3325     6.9198     7.1276   -55.1155
  368.0000   128.8185     7.8979     0.0520     2.5239     0.0966    10.4729     7.0128     7.3706   -54.9944
