~VERSION INFORMATION
 VERS.                2.0:   CWLS LOG ASCII STANDARD - VERSION 2.0
 WRAP.                 NO:   ONE LINE PER DEPTH STEP
~WELL INFORMATION
#MNEM.UNIT      DATA TYPE    INFORMATION
#----------   ------------   ------------------------------
 STRT.F            8.5000:   START DEPTH
 STOP.F          642.0000:   STOP DEPTH
 STEP.F            0.5000:   STEP LENGTH
 NULL.          -999.2500:   NO VALUE
 COMP. FENIX & SCISSON INC:   COMPANY
 WELL. 26-36 S11 W1 #26-36 SX11:   WELL
 FLD .             TEAPOT:   FIELD
 LOC .      S11 T38N R78W:   LOCATION
 CNTY.            NATRONA:   COUNTY
 STAT.            WYOMING:   STATE
 CTRY. UNITED STATES OF AMERICA:   COUNTRY
 SRVC.      Dresser Atlas:   SERVICE COMPANY
 DATE.        16-JUL-1980:   LOGDATE
 API .       490251083500:   API NUMBER
~CURVE INFORMATION
#MNEM.UNIT       API CODE    CURVE DESCRIPTION
#----------   ------------   ------------------------------
 DEPT.F                  :   
 NPHI.DEC    42 890 03 00:   NEUTRON POROSITY SANDSTONE
 RHOB.G/C3   45 350 01 00:   BULK DENSITY
 CORR.G/C3   45 356 01 00:   DENSITY CORRECTION
 GRD .GAPI   45 310 01 00:   GAMMA RAY FROM DENSITY LOG
 CALD.IN     45 280 60 00:   CALIPER
 SPR .MV     07 010 01 00:   SPONTANEOUS POTENTIAL
 SFL .OHMM   07 220 01 00:   SHALLOW FOCUSED LOG RESISTIVITY
 ILD .OHMM   07 120 46 00:   INDUCTION LOG DEEP
 ILM .OHMM   07 120 44 00:   INDUCTION LOG MEDIUM
 DPHI.DEC    45 890 12 00:   DENSITY POROSITY SANDSTONE
~PARAMETER INFORMATION
#MNEM.UNIT          VALUE    DESCRIPTION
#----------   ------------   ------------------------------
 PD  .                 GL:   PERMANENT DATUM
 EPD .F              5184:   ELEVATION PERMANENT DATUM
 LMF .                 KB:   LOG MEASURED FROM
 DAPD.F                 5:   FEET ABOVE PERMANENT DATUM
 DMF .                 KB:   DRILLING MEASURED FROM
 EKB .F              5189:   KELLING BUSHING
 EGL .F              5184:   GROUND LEVEL
 DATE.            7-16-80:   RUN DATE
 RUN .                  1:   RUN NUMBER
 DD  .F               630:   DEPTH DRILLER
 DL  .F               637:   DEPTH LOGGER
 BLI .F               635:   BOTTOM LOG INTERVAL
 TLI .F                 8:   TOP LOG INTERVAL
 BS  .IN            7.875:   BIT SIZE
 BSD .F               630:   BIT SIZE AT DEPTH
 DFT .           CHEM GEL:   DRILLING FLUID TYPE
 DFD .                9.2:   DRILLING FLUID DENSITY
 DFV .                 65:   DRILLING FLUID VISCOSITY
 DFPH.                 10:   DRILLING FLUID PH
 DFL .                  8:   DRILLING FLUID LOSS
 MSS .           FLOWLINE:   MUD SAMPLE SOURCE
 RMS .OHMM            .61:   RESISTIVITY MUD SAMPLE
 MST .F                60:   MUD SAMPLE TEMPERATURE
 RMC .OHMM            .62:   RESISTIVITY MUD CAKE
 MCST.F                58:   MUD CAKE SAMPLE TEMPERATURE
 MFSS.               MEAS:   MUD FILTRATE SAMPLE SOURCE
 MCSS.               MEAS:   MUD CAKE SAMPLE SOURCE
 RMB .OHMM            .41:   RESISTIVITY MUD AT BHT
 BHT .F                90:   BOTTOM HOLE TEMPERATURE
 TCS .HRS               5:   TIME CURCULATED STOPPED
 MRT .F                90:   MAXIMUM RECORDED TEMPERATURE
 LUN .               6109:   LOGGING UNIT NUMBER
 LUL .              GLTTE:   LOGGING UNIT LOCATION
 ENGI.            GARONER:   RECORDING ENGINEER
 WITN.              AMEND:   WITNESSED BY
 CLNT.            A2DTECH:   CLIENT CODE
 ORIG.           5" PRINT:   ORIGIN OF DATA
 UWI .       490251083500:   UNIQUE WELL ID
 DICO. A2D Technologies, Inc.:   DIGITIZING COMPANY
~OTHER INFORMATION
~A    DEPT    NPHI       RHOB       CORR        GRD       CALD        SPR        SFL          ILD      ILM       DPHI   
# ...
  142.5000     0.2948     2.4826     0.0039    82.8738     7.8300   -37.6552     9.4419     6.4776     6.8339     0.1092
  143.0000     0.2981     2.4829     0.0038    83.5516     7.8300   -37.7213     9.3105     6.3974     6.7583     0.1085
  143.5000     0.2982     2.4920     0.0123    83.8985     7.8300   -37.7863     9.2121     6.3685     6.7311     0.1241
  144.0000     0.3022     2.4995     0.0227    83.6575     7.8300   -37.8518     9.3422     6.3685     6.7311     0.1299
  144.5000     0.2950     2.4799     0.0160    82.8098     7.8300   -37.9207     9.5585     6.4097     6.9064     0.1140
  145.0000     0.2934     2.4600     0.0058    81.9678     7.8300   -37.9551     9.3787     6.5678     7.0767     0.1089
  145.5000     0.2870     2.4738     0.0111    81.1350     7.8300   -37.9518     9.0107     6.7298     7.2512     0.0984
  146.0000     0.2800     2.4908     0.0213    81.0860     7.8300   -37.9522     8.6572     6.8958     7.4301     0.0778
  146.5000     0.2759     2.5078     0.0280    80.5504     7.8300   -37.9526     9.7653     7.0658     7.6133     0.0548
  147.0000     0.2759     2.5293     0.0352    79.0704     7.8300   -37.9520    11.7709     7.2401     7.8011     0.0430
  147.5000     0.2703     2.5590     0.0446    77.6000     7.8300   -37.9531    14.3463     7.4187     7.9935     0.0603
  148.0000     0.2664     2.5885     0.0543    76.1143     7.8300   -37.9511    12.3018     7.6016     8.1907     0.0817
  148.5000     0.2702     2.6105     0.0480    75.8529     7.8300   -37.9487    10.4469     7.7891     8.4000     0.0980
  149.0000     0.2800     2.5591     0.0388    77.5444     7.8300   -37.8805     9.7365     7.9475     8.4000     0.0982
  149.5000     0.2867     2.5228     0.0339    79.4327     7.8292   -37.8071    10.3986     7.8937     8.2580     0.1068
  150.0000     0.2894     2.5146     0.0290    81.0555     7.8277   -37.7339    10.8768     7.7551     8.0793     0.1140
  150.5000     0.2810     2.5049     0.0231    82.0324     7.8261   -37.6611    10.8768     7.6190     7.9044     0.1198
  151.0000     0.2787     2.4952     0.0172    82.8028     7.8245   -37.5793    10.5798     7.4852     7.7333     0.1221
  151.5000     0.2843     2.4854     0.0113    83.5647     7.8229   -37.5950    10.3014     7.3538     7.5660     0.1168
  152.0000     0.2867     2.4759     0.0062    84.1076     7.8213   -37.7076    10.0304     7.2247     7.4022     0.0986
  152.5000     0.2911     2.4739     0.0037    83.7010     7.8197   -37.8107     9.9179     7.0979     7.2420     0.0818
  153.0000     0.2958     2.5127     0.0093    83.3058     7.8181   -37.9161     9.9179     6.9733     7.0852     0.0705
  153.5000     0.2957     2.5406     0.0168    83.2954     7.8165   -37.9547     9.8541     6.8509     6.9303     0.0879
  154.0000     0.2903     2.5526     0.0237    82.7609     7.8149   -37.9519     9.6204     6.7306     6.8549     0.1071
  154.5000     0.2891     2.5592     0.0205    82.1594     7.8133   -37.9516     9.3923     6.6080     6.8551     0.1147
  155.0000     0.2925     2.5141     0.0133    81.5763     7.8117   -37.9525     9.1697     6.6080     6.8554     0.1116
  155.5000     0.2965     2.4878     0.0081    81.2945     7.8102   -37.9520     9.0436     6.6907     6.9247     0.1084
  156.0000     0.3085     2.4894     0.0131    81.2617     7.8100   -37.9521     9.1149     6.7608     7.0113     0.1231
  156.5000     0.3160     2.4957     0.0182    81.1122     7.8100   -37.9521     9.3978     6.8317     7.0988     0.1197
  157.0000     0.3116     2.4861     0.0147    80.5615     7.8100   -37.9524     9.6893     6.9034     7.1875     0.1128
  157.5000     0.2988     2.4765     0.0068    79.9609     7.8100   -37.9520     9.9899     6.9758     7.2771     0.1211
  158.0000     0.2988     2.4882     0.0040    79.3596     7.8100   -37.9518    10.2933     7.0490     7.3678     0.1144
  158.5000     0.2966     2.4804     0.0086    78.7571     7.8100   -37.9537    10.2899     7.1229     7.4596     0.1221
  159.0000     0.2966     2.4819     0.0157    78.1621     7.8100   -37.9499    10.1191     7.1976     7.5525     0.1231
  159.5000     0.2982     2.4862     0.0170    78.0874     7.8100   -37.9462     9.9298     7.2495     7.6467     0.1229
  160.0000     0.2990     2.4791     0.0101    78.6456     7.8205   -37.8068     9.7433     7.2439     7.7420     0.1205
  160.5000     0.2987     2.4735     0.0032    79.4213     7.8416   -37.6581     9.5656     7.3888     7.8384     0.1050
  161.0000     0.2989     2.4798     0.0019    80.2039     7.8626   -37.5494    10.0538     7.5074     7.9475     0.1096
  161.5000     0.3078     2.4897     0.0080    80.9981     7.8840   -37.5501    10.2949     7.6279     8.1467     0.1036
  162.0000     0.2966     2.4985     0.0110    81.0690     7.8852   -37.5490    10.2908     7.7503     8.3780     0.0917
  162.5000     0.2973     2.4987     0.0066    80.7336     7.8757   -37.5502    10.2883     7.8748     8.6159     0.0785
  163.0000     0.2980     2.5122     0.0042    80.1141     7.8662   -37.5459    10.4360     8.0014     8.8605     0.0749
  163.5000     0.2987     2.5330     0.0132    78.7672     7.8568   -37.5530    11.7585     8.0955     9.0436     0.0646
  164.0000     0.2850     2.5538     0.0225    77.4304     7.8512   -37.5673    15.7427     8.0955     9.0436     0.0597
  164.5000     0.2693     2.5662     0.0320    76.0939     7.8296   -37.8508    14.6216     8.0955     8.8708     0.0802
  165.0000     0.2591     2.5754     0.0339    74.8759     7.8302   -38.0959    11.8334     7.9441     8.6397     0.0953
  165.5000     0.2673     2.5614     0.0286    76.4777     7.8306   -38.3457    10.4138     7.7897     8.4147     0.1084
  166.0000     0.2820     2.5365     0.0219    78.7174     7.8365   -38.3501    10.2755     7.6382     8.1955     0.1124
  166.5000     0.2882     2.5113     0.0151    80.6191     7.8424   -38.3489    10.1410     7.4898     7.9820     0.1239
  167.0000     0.2919     2.4999     0.0084    81.6007     7.8485   -38.2350    10.0105     7.3442     7.7741     0.1124
  167.5000     0.2961     2.4875     0.0016    82.2276     7.8406   -38.1345     9.9074     7.2004     7.5716     0.1047
  168.0000     0.3014     2.4729    -0.0040    81.3998     7.8274   -38.0270     9.7365     7.0601     7.3818     0.1136
  168.5000     0.3027     2.4960     0.0023    80.5898     7.8138   -37.9517     9.7365     6.9227     7.2468     0.1089
  169.0000     0.2990     2.5014     0.0081    80.6906     7.8100   -37.9529     9.7365     6.8552     7.2468     0.1007
  169.5000     0.3010     2.4876     0.0081    81.2995     7.8100   -37.9510     9.7365     6.8555     7.2468     0.0977
  170.0000     0.2926     2.4976     0.0141    81.0682     7.8100   -37.9514     9.7365     6.8559     7.2468     0.1027
  170.5000     0.2835     2.5137     0.0208    80.7341     7.8100   -37.9516     9.6802     6.8563     7.2468     0.1069
  171.0000     0.2862     2.5104     0.0226    80.3953     7.8100   -37.9515     9.5484     6.9118     7.2572     0.1116
  171.5000     0.2923     2.5065     0.0188    80.3004     7.8100   -37.9517     9.3837     6.9655     7.2960     0.1036
  172.0000     0.2988     2.4991     0.0148    80.3172     7.8100   -37.9518     9.6364     7.0196     7.3351     0.1092
  172.5000     0.3104     2.4940     0.0139    80.4825     7.8100   -37.9518    10.4055     7.0742     7.3742     0.1108
  173.0000     0.2998     2.5056     0.0139    80.6519     7.8120   -37.9518    10.8768     7.1291     7.4137     0.1151
  173.5000     0.2985     2.4995     0.0127    80.4762     7.8191   -37.9518    10.6332     7.1845     7.4533     0.1096
  174.0000     0.2890     2.4932     0.0105    80.0306     7.8260   -37.9519    10.4037     7.2404     7.4932     0.1195
  174.5000     0.2883     2.4885     0.0082    80.0945     7.8330   -37.9519    10.1793     7.2966     7.5332     0.1186
  175.0000     0.2980     2.4912     0.0059    80.6943     7.8400   -37.9523     9.9179     7.3533     7.5736     0.1141
  175.5000     0.2978     2.4860     0.0036    80.6999     7.8470   -37.9521     9.9300     7.4104     7.6142     0.1077
