~VERSION INFORMATION
 VERS.                2.0:   CWLS LOG ASCII STANDARD - VERSION 2.0
 WRAP.                 NO:   ONE LINE PER DEPTH STEP
~WELL INFORMATION
#MNEM.UNIT      DATA TYPE    INFORMATION
#----------   ------------   ------------------------------
 STRT.F           80.0000:   START DEPTH
 STOP.F         1011.0000:   STOP DEPTH
 STEP.F            0.5000:   STEP LENGTH
 NULL.          -999.2500:   NO VALUE
 COMP.          U.S. NAVY:   COMPANY
 WELL. RES 3 TEAPOT DOM #61S-11:   WELL
 FLD .             TEAPOT:   FIELD
 LOC .      S11 T38N R78W:   LOCATION
 CNTY.            NATRONA:   COUNTY
 STAT.            WYOMING:   STATE
 CTRY. UNITED STATES OF AMERICA:   COUNTRY
 SRVC.       Schlumberger:   SERVICE COMPANY
 DATE.        23-JUL-1964:   LOGDATE
 API .       490250637500:   API NUMBER
~CURVE INFORMATION
#MNEM.UNIT       API CODE    CURVE DESCRIPTION
#----------   ------------   ------------------------------
 DEPT.F                  :   
 CALS.IN     60 280 50 00:   CALIPER FROM SONIC LOG
 DT  .US/F   60 520 33 00:   INTERVAL TRANSIT TIME
 GR  .GAPI   30 310 01 00:   GAMMA RAY
 CILD.MMHO   05 110 46 00:   CONDUCTIVITY INDUCTION LOG DEEP
 ILD .OHMM   05 120 46 00:   INDUCTION LOG DEEP
 ASN .OHMM   05 041 16 00:   AMPLIFIED SHORT NORMAL 16"
 SPR .MV     05 010 01 00:   SPONTANEOUS POTENTIAL FROM RES.
~PARAMETER INFORMATION
#MNEM.UNIT          VALUE    DESCRIPTION
#----------   ------------   ------------------------------
 PD  .                 GL:   PERMANENT DATUM
 EPD .F              5199:   ELEVATION PERMANENT DATUM
 LMF .                 KB:   LOG MEASURED FROM
 DAPD.F                 5:   FEET ABOVE PERMANENT DATUM
 DMF .                 KB:   DRILLING MEASURED FROM
 EKB .F              5204:   KELLING BUSHING
 EGL .F              5199:   GROUND LEVEL
 DATE.          7-23-1964:   RUN DATE
 RUN .                  1:   RUN NUMBER
 DD  .F              1010:   DEPTH DRILLER
 DL  .F              1012:   DEPTH LOGGER
 BLI .F              1011:   BOTTOM LOG INTERVAL
 TLI .F                88:   TOP LOG INTERVAL
 CS  .IN            8.625:   CASING SIZE
 CBD .F                10:   CASING BOTTOM DRILLER
 BS  .IN             6.75:   BIT SIZE
 BSD .F              1010:   BIT SIZE AT DEPTH
 DFT .            GEL-OIL:   DRILLING FLUID TYPE
 DFD .                9.8:   DRILLING FLUID DENSITY
 DFV .                 54:   DRILLING FLUID VISCOSITY
 MSS .           FLOWLINE:   MUD SAMPLE SOURCE
 RMS .OHMM           1.47:   RESISTIVITY MUD SAMPLE
 MST .F                86:   MUD SAMPLE TEMPERATURE
 RMF .OHMM            .96:   RESISTIVITY MUD FILTRATE SAMPLE
 MFST.F                86:   MUD FILTRATE SAMPLE TEMPERATURE
 RMC .OHMM           2.10:   RESISTIVITY MUD CAKE
 MCST.F                86:   MUD CAKE SAMPLE TEMPERATURE
 MFSS.                 FP:   MUD FILTRATE SAMPLE SOURCE
 MCSS.                 FP:   MUD CAKE SAMPLE SOURCE
 TCS .HRS               2:   TIME CURCULATED STOPPED
 LUN .               4507:   LOGGING UNIT NUMBER
 LUL .              CSPR.:   LOGGING UNIT LOCATION
 ENGI.             DANNER:   RECORDING ENGINEER
 WITN.          JORGENSEN:   WITNESSED BY
 CLNT.            A2DTECH:   CLIENT CODE
 ORIG.      2" & 5" PRINT:   ORIGIN OF DATA
 UWI .       490250637500:   UNIQUE WELL ID
 DICO. A2D Technologies, Inc.:   DIGITIZING COMPANY
~OTHER INFORMATION
~A   DEPT     CALS         DT         GR        CILD         ILD        ASN      SPR   
# ...
  353.0000  -999.2500  -999.2500  -999.2500   197.0816     5.1081     6.2875   -35.3703
  353.5000  -999.2500  -999.2500  -999.2500   201.0326     4.8241     6.0168   -35.3372
  354.0000  -999.2500  -999.2500  -999.2500   208.2077     4.6476     5.8229   -35.2247
  354.5000  -999.2500  -999.2500  -999.2500   212.0972     4.5319     5.6539   -35.0800
  355.0000  -999.2500  -999.2500  -999.2500   216.5550     4.5332     5.4882   -34.9352
  355.5000  -999.2500  -999.2500  -999.2500   219.6432     4.5342     5.4591   -34.9344
  356.0000  -999.2500  -999.2500  -999.2500   220.2388     4.6176     5.4792   -34.8473
  356.5000  -999.2500  -999.2500  -999.2500   217.9942     4.7571     5.4895   -34.7493
  357.0000  -999.2500  -999.2500  -999.2500   216.0578     4.9012     5.5189   -34.6441
  357.5000  -999.2500  -999.2500  -999.2500   214.1214     5.0643     5.5396   -34.6433
  358.0000  -999.2500  -999.2500  -999.2500   212.1850     5.2016     5.5646   -34.6427
  358.5000  -999.2500  -999.2500  -999.2500   210.2487     5.2761     5.6080   -34.4978
  359.0000  -999.2500  -999.2500  -999.2500   208.5778     5.2640     5.6505   -34.4971
  359.5000  -999.2500  -999.2500  -999.2500   206.5853     5.1313     5.6855   -34.4964
  360.0000  -999.2500  -999.2500  -999.2500   205.3333     5.0588     5.7412   -34.4957
  360.5000  -999.2500  -999.2500  -999.2500   204.5793     4.9710     5.7415   -34.4948
  361.0000  -999.2500  -999.2500  -999.2500   203.5703     4.8405     5.7393   -34.4943
  361.5000  -999.2500  -999.2500  -999.2500   202.3370     4.7680     5.7274   -34.6376
  362.0000  -999.2500  -999.2500  -999.2500   202.3239     4.6954     5.7277   -34.6368
  362.5000  -999.2500  -999.2500  -999.2500   202.3148     4.7703     5.7279   -34.6362
  363.0000  -999.2500  -999.2500  -999.2500   202.2667     4.8149     5.7430   -34.6427
  363.5000  -999.2500  -999.2500  -999.2500   201.5500     4.9393     5.7747   -34.7788
  364.0000  -999.2500  -999.2500  -999.2500   200.2075     4.9942     5.8245   -34.8357
  364.5000  -999.2500  -999.2500  -999.2500   197.7147     5.1146     5.8762   -34.9215
  365.0000  -999.2500  -999.2500  -999.2500   195.5909     5.2390     5.9240   -34.9206
  365.5000  -999.2500  -999.2500  -999.2500   194.2110     5.4386     5.9781   -34.9813
  366.0000  -999.2500  -999.2500  -999.2500   191.7188     5.5613     6.0535   -35.0634
  366.5000  -999.2500  -999.2500  -999.2500   188.1504     5.6857     6.1174   -35.0626
  367.0000  -999.2500  -999.2500  -999.2500   185.9927     5.8101     6.1966   -35.0620
  367.5000  -999.2500  -999.2500  -999.2500   183.4075     5.8844     6.2313   -35.0432
  368.0000  -999.2500  -999.2500  -999.2500   179.9690     5.8853     6.3342   -34.9163
  368.5000  -999.2500  -999.2500  -999.2500   177.7740     5.8864     6.5157   -34.9157
  369.0000  -999.2500  -999.2500  -999.2500   175.2814     5.8142     6.6466   -34.9367
  369.5000  -999.2500  -999.2500  -999.2500   172.5285     5.7129     6.7615   -35.0584
  370.0000  -999.2500  -999.2500  -999.2500   171.0370     5.5906     6.8480   -35.1297
  370.5000  -999.2500  -999.2500  -999.2500   172.5440     5.4498     6.8650   -35.3703
  371.0000  -999.2500  -999.2500  -999.2500   179.9027     5.3037     6.8212   -35.4885
  371.5000  -999.2500  -999.2500  -999.2500   189.6331     5.1507     6.7927   -35.4121
  372.0000  -999.2500  -999.2500  -999.2500   199.1407     5.0119     6.7388   -35.1988
  372.5000  -999.2500  -999.2500  -999.2500   207.2769     4.9062     6.6309   -35.0540
  373.0000  -999.2500  -999.2500  -999.2500   215.5632     4.7106     6.1299   -34.9092
  373.5000  -999.2500  -999.2500  -999.2500   224.3856     4.5740     5.6443   -34.8761
  374.0000  -999.2500  -999.2500  -999.2500   229.4660     4.5015     5.1759   -34.6196
  374.5000  -999.2500  -999.2500  -999.2500   230.6221     4.5991     5.0608   -34.4748
  375.0000  -999.2500  -999.2500  -999.2500   230.9276     4.8714     5.0111   -34.3300
  375.5000  -999.2500  -999.2500  -999.2500   225.7291     5.0569     5.0150   -34.3292
  376.0000  -999.2500  -999.2500  -999.2500   219.4962     5.2549     5.0808   -34.3286
  376.5000  -999.2500  -999.2500  -999.2500   211.6887     5.4630     5.3116   -34.4720
  377.0000  -999.2500  -999.2500  -999.2500   201.9923     5.5772     5.7365   -34.6152
  377.5000  -999.2500  -999.2500  -999.2500   191.1473     5.7910     6.1614   -34.7046
  378.0000  -999.2500  -999.2500  -999.2500   182.1183     5.9810     6.3600   -34.7581
  378.5000  -999.2500  -999.2500  -999.2500   176.7739     6.1710     6.4592   -34.7572
  379.0000  -999.2500  -999.2500  -999.2500   174.8000     6.3689     6.5465   -34.6124
  379.5000  -999.2500  -999.2500  -999.2500   172.5668     6.4989     6.6135   -34.3235
  380.0000  -999.2500  -999.2500  -999.2500   169.3333     6.6176     6.7118   -34.0346
  380.5000  -999.2500  -999.2500  -999.2500   164.8756     6.7420     6.8121   -33.8896
  381.0000  -999.2500  -999.2500  -999.2500   161.8665     6.7964     6.9049   -33.7450
  381.5000  -999.2500  -999.2500  -999.2500   158.8746     6.9173     6.9940   -33.7442
  382.0000  -999.2500  -999.2500  -999.2500   155.2128     7.0191     7.0777   -33.8875
  382.5000  -999.2500  -999.2500  -999.2500   152.7038     7.0938     7.1430   -33.8869
  383.0000  -999.2500  -999.2500  -999.2500   150.7112     7.0949     7.1857   -33.8862
  383.5000  -999.2500  -999.2500  -999.2500   149.2537     7.1207     7.2256   -33.8853
  384.0000  -999.2500  -999.2500  -999.2500   149.8370     7.1706     7.2706   -33.8271
  384.5000  -999.2500  -999.2500  -999.2500   153.0482     7.1719     7.2850   -33.7399
  385.0000  -999.2500  -999.2500  -999.2500   156.6280     7.0723     7.2559   -33.7391
  385.5000  -999.2500  -999.2500  -999.2500   162.2116     6.9501     7.1494   -33.7385
  386.0000  -999.2500  -999.2500  -999.2500   167.1996     6.8075     7.0215   -33.7378
  386.5000  -999.2500  -999.2500  -999.2500   172.1504     6.7058     6.8303   -33.5928
  387.0000  -999.2500  -999.2500  -999.2500   176.4368     6.5836     6.6469   -33.5922
  387.5000  -999.2500  -999.2500  -999.2500   181.3887     6.2226     6.3805   -33.5915
  388.0000  -999.2500  -999.2500  -999.2500   186.9320     5.7725     6.1253   -33.4466
  388.5000  -999.2500  -999.2500  -999.2500   191.2928     5.1269     5.9065   -33.5144
  389.0000  -999.2500  -999.2500  -999.2500   196.4668     4.1671     5.6990   -33.5894
  389.5000  -999.2500  -999.2500  -999.2500   202.4544     3.7732     5.4456   -33.5885
  390.0000  -999.2500  -999.2500  -999.2500   215.7778     3.5073     5.0089   -33.4438
  390.5000  -999.2500  -999.2500  -999.2500   259.3927     3.4351     4.7645   -33.4431
  391.0000  -999.2500  -999.2500  -999.2500   290.5694     3.5095     4.4285   -33.2982
  391.5000  -999.2500  -999.2500  -999.2500   290.1704     3.5227     4.2303   -33.1535
  392.0000  -999.2500  -999.2500  -999.2500   288.0296     3.5854     4.1194   -32.8357
  392.5000  -999.2500  -999.2500  -999.2500   285.3510     3.8094     4.0512   -32.7197
  393.0000  -999.2500  -999.2500  -999.2500   281.8961     4.0571     4.0253   -32.7190
  393.5000  -999.2500  -999.2500  -999.2500   275.3965     4.4710     4.0958   -32.8948
  394.0000  -999.2500  -999.2500  -999.2500   251.0474     4.8132     4.3889   -33.1498
  394.5000  -999.2500  -999.2500  -999.2500   226.6984     5.0778     4.7321   -33.2320
  395.0000  -999.2500  -999.2500  -999.2500   207.5180     5.2096     4.9762   -33.5086
  395.5000  -999.2500  -999.2500  -999.2500   194.6432     5.3577     5.0796   -33.7240
  396.0000  -999.2500  -999.2500  -999.2500   192.6833     5.4324     5.1594   -33.8675
  396.5000  -999.2500  -999.2500  -999.2500   194.8922     5.4335     5.1827   -34.0504
  397.0000  -999.2500  -999.2500  -999.2500   197.2767     5.4346     5.2077   -34.1542
  397.5000  -999.2500  -999.2500  -999.2500   199.0062     5.3619     5.2191   -34.1535
  398.0000  -999.2500  -999.2500  -999.2500   200.7850     5.3633     5.2105   -34.1095
