~VERSION INFORMATION
 VERS.                2.0:   CWLS LOG ASCII STANDARD - VERSION 2.0
 WRAP.                 NO:   ONE LINE PER DEPTH STEP
~WELL INFORMATION
#MNEM.UNIT      DATA TYPE    INFORMATION
#----------   ------------   ------------------------------
 STRT.F            7.0000:   START DEPTH
 STOP.F          690.0000:   STOP DEPTH
 STEP.F            0.5000:   STEP LENGTH
 NULL.          -999.2500:   NO VALUE
 COMP. FENIX & SCISSON INC:   COMPANY
 WELL.  NPR#3 #26-46 SX11:   WELL
 FLD .             TEAPOT:   FIELD
 LOC .      S11 T38N R78W:   LOCATION
 CNTY.            NATRONA:   COUNTY
 STAT.            WYOMING:   STATE
 CTRY. UNITED STATES OF AMERICA:   COUNTRY
 SRVC.      Dresser Atlas:   SERVICE COMPANY
 DATE.        13-AUG-1985:   LOGDATE
 API .       490251083600:   API NUMBER
~CURVE INFORMATION
#MNEM.UNIT       API CODE    CURVE DESCRIPTION
#----------   ------------   ------------------------------
 DEPT.F                  :   
 DPHI.DEC    45 890 12 00:   DENSITY POROSITY SANDSTONE
 NPHI.DEC    42 890 03 00:   NEUTRON POROSITY SANDSTONE
 RHOB.G/C3   45 350 01 00:   BULK DENSITY
 CORR.G/C3   45 356 01 00:   DENSITY CORRECTION
 CALD.IN     45 280 60 00:   CALIPER
 SPR .MV     07 010 01 00:   SPONTANEOUS POTENTIAL
 ILD .OHMM   07 120 46 00:   INDUCTION LOG DEEP
 ILM .OHMM   07 120 44 00:   INDUCTION LOG MEDIUM
 SFL .OHMM   07 220 01 00:   SHALLOW FOCUSED LOG RESISTIVITY
 GRR .GAPI   07 310 01 00:   GAMMA RAY FROM RES. LOG.
~PARAMETER INFORMATION
#MNEM.UNIT          VALUE    DESCRIPTION
#----------   ------------   ------------------------------
 PD  .                 GL:   PERMANENT DATUM
 EPD .F              5193:   ELEVATION PERMANENT DATUM
 LMF .                 KB:   LOG MEASURED FROM
 DAPD.F                 5:   FEET ABOVE PERMANENT DATUM
 DMF .                 KB:   DRILLING MEASURED FROM
 EKB .F              5198:   KELLING BUSHING
 EGL .F              5193:   GROUND LEVEL
 DATE.          8-13-1985:   RUN DATE
 RUN .                  8:   RUN NUMBER
 DD  .F               664:   DEPTH DRILLER
 BLI .F               635:   BOTTOM LOG INTERVAL
 TLI .F               340:   TOP LOG INTERVAL
 CBL .F               340:   CASING BOTTOM LOGGER
 BS  .IN             8.75:   BIT SIZE
 BSD .F               664:   BIT SIZE AT DEPTH
 DFT .          KPC WATER:   DRILLING FLUID TYPE
 LUN .           HL- 6274:   LOGGING UNIT NUMBER
 LUL .           GILLETTE:   LOGGING UNIT LOCATION
 ENGI.             RAUTIO:   RECORDING ENGINEER
 WITN.            SCHULTE:   WITNESSED BY
 CLNT.            A2DTECH:   CLIENT CODE
 ORIG.        2" 5" PRINT:   ORIGIN OF DATA
 UWI .       490251083600:   UNIQUE WELL ID
 DICO. A2D Technologies, Inc.:   DIGITIZING COMPANY
~OTHER INFORMATION
~A    DEPT    DPHI       NPHI       RHOB       CORR       CALD         SPR       ILD        ILM        SFL        GRR   
# ...
  576.5000     0.2467     0.2385     2.2671     0.1722     6.0404   -11.7549    12.3223    12.7415    14.5786    73.7688
  577.0000     0.2437     0.2408     2.2710     0.1636     6.0400   -11.8047    12.5093    12.7418    14.3058    74.4281
  577.5000     0.2356     0.2495     2.2820     0.1648     6.0396   -11.8554    12.4556    12.7417    14.2178    75.3090
  578.0000     0.2244     0.2582     2.3046     0.1829     6.0393   -11.9040    12.4041    12.7416    14.0990    76.1936
  578.5000     0.2136     0.2656     2.3231     0.2013     6.0389   -12.0685    12.3120    12.8291    14.1190    77.5720
  579.0000     0.2079     0.2673     2.3333     0.2083     6.0385   -12.2909    12.2145    12.9343    14.1525    79.3286
  579.5000     0.2068     0.2589     2.3341     0.2088     6.0381   -12.5159    12.1173    13.0403    14.1851    80.7100
  580.0000     0.2073     0.2437     2.3348     0.2092     6.0377   -12.7237    12.0210    13.0983    14.2291    80.5615
  580.5000     0.2078     0.2246     2.3333     0.2081     6.0373   -12.6772    11.9255    12.8483    14.0254    84.0338
  581.0000     0.2112     0.2156     2.3313     0.2021     6.0369   -12.6187    11.8374    12.6797    13.7233    86.7089
  581.5000     0.2180     0.2154     2.3199     0.1952     6.0365   -12.5607    11.7844    12.5121    13.4276    85.0713
  582.0000     0.2248     0.2283     2.3087     0.1876     6.0361   -12.5031    11.7290    12.3554    13.1958    83.3503
  582.5000     0.2258     0.2403     2.3034     0.1848     6.0357   -12.4455    11.4705    12.2122    13.1124    84.7786
  583.0000     0.2242     0.2526     2.3044     0.1896     6.0353   -12.3880    11.2370    12.0717    13.0302    85.5299
  583.5000     0.2247     0.2649     2.3047     0.1935     6.0349   -12.3270    11.0082    11.9328    12.9481    80.4606
  584.0000     0.2317     0.2732     2.3029     0.1986     6.0346   -12.1847    10.8825    11.7670    12.8603    74.4535
  584.5000     0.2396     0.2772     2.2824     0.2030     6.0342   -12.0298    10.8606    11.5399    12.7395    72.5391
  585.0000     0.2477     0.2706     2.2696     0.2085     6.0338   -11.8745    10.8368    11.3172    12.6096    77.5460
  585.5000     0.2556     0.2636     2.2564     0.2050     6.0334   -11.7194    10.8127    11.0988    12.4804    81.8897
  586.0000     0.2621     0.2611     2.2453     0.2007     6.0330   -11.5643    10.7750    10.9208    12.3821    80.8480
  586.5000     0.2629     0.2613     2.2420     0.1959     6.0326   -11.4088    10.6101    10.7773    12.3440    80.3979
  587.0000     0.2595     0.2626     2.2477     0.1910     6.0322   -11.2539    10.4476    10.6357    12.3060    81.1997
  587.5000     0.2552     0.2693     2.2535     0.1907     6.0318   -11.1185    10.2877    10.4960    12.2812    82.0170
  588.0000     0.2504     0.2805     2.2585     0.1961     6.0314   -11.1217    10.2100    10.3993    12.0519    82.3774
  588.5000     0.2500     0.2908     2.2615     0.2058     6.0310   -11.1222    10.1903    10.3784    11.9469    79.6545
  589.0000     0.2527     0.2817     2.2590     0.2098     6.0306   -11.1222    10.1707    10.3574    11.9469    76.6226
  589.5000     0.2560     0.2652     2.2540     0.2146     6.0302   -11.1217    10.1512    10.3367    11.9469    73.8595
  590.0000     0.2591     0.2578     2.2490     0.2106     6.0298   -11.1179    10.1315    10.3159    11.9468    73.7844
  590.5000     0.2620     0.2650     2.2441     0.2070     6.0294   -11.2974    10.0948    10.2965    11.9469    74.0758
  591.0000     0.2649     0.2715     2.2391     0.2058     6.0290   -11.5214    10.0456    10.2774    11.9467    77.7994
  591.5000     0.2654     0.2692     2.2369     0.2045     6.0287   -11.7456     9.9968    10.2584    11.9653    79.7818
  592.0000     0.2623     0.2533     2.2418     0.2032     6.0283   -11.9269     9.9388    10.2395    11.9959    77.5672
  592.5000     0.2602     0.2449     2.2461     0.2019     6.0279   -11.8741     9.9800    10.2170    12.0268    75.5128
  593.0000     0.2669     0.2450     2.2398     0.1962     6.0275   -11.8230    10.0315    10.2962    12.0578    78.7761
  593.5000     0.2724     0.2502     2.2265     0.1865     6.0271   -11.7724    10.0832    10.4270    12.1010    84.5871
  594.0000     0.2755     0.2529     2.2204     0.1765     6.0267   -11.7220    10.1234    10.5144    12.1441    85.5037
  594.5000     0.2713     0.2575     2.2264     0.1724     6.0263   -11.6716    10.0775    10.5415    12.1769    82.1821
  595.0000     0.2702     0.2641     2.2290     0.1766     6.0259   -11.6215    10.0403    10.5686    12.2122    78.6749
  595.5000     0.2891     0.2665     2.2010     0.1827     6.0255   -11.5721    10.0032    10.5994    12.2476    76.9658
  596.0000     0.2992     0.2456     2.1499     0.1854     6.0251   -11.5152     9.9665    10.5012    12.2812    77.0944
  596.5000     0.2994     0.2183     2.0875     0.1878     6.0247   -11.3121     9.9388    10.3864    12.0534    79.8341
  597.0000     0.2996     0.2093     2.1062     0.1878     6.0243   -11.1212     9.8695    10.2726    11.8408    82.6173
  597.5000     0.2998     0.2134     2.1572     0.1877     6.0239   -11.0301     9.8045    10.1600    11.7290    83.0803
  598.0000     0.2738     0.2191     2.2022     0.1915     6.0236   -10.9439     9.7454    10.1108    11.7290    83.1540
  598.5000     0.2514     0.2333     2.2655     0.2015     6.0232   -10.8577     9.7001    10.0921    11.7725    83.0372
  599.0000     0.2345     0.2575     2.2843     0.2140     6.0228   -10.7713     9.6554    10.0734    11.8636    82.2987
  599.5000     0.2295     0.2708     2.2987     0.2173     6.0224   -10.6846     9.6109    10.0548    11.9463    81.8791
  600.0000     0.2291     0.2743     2.3016     0.2117     6.0220   -10.5981     9.5666    10.0362    11.8385    81.5186
  600.5000     0.2230     0.2712     2.3066     0.2169     6.0216   -10.5249     9.5224    10.0144    11.7388    80.6077
  601.0000     0.2163     0.2650     2.3195     0.2218     6.0212   -10.5854     9.4770     9.9913    11.6403    79.6043
  601.5000     0.2127     0.2517     2.3258     0.2186     6.0208   -10.6449     9.4285     9.9683    11.5429    81.4400
  602.0000     0.2122     0.2333     2.3264     0.2015     6.0204   -10.7032     9.4050     9.9453    11.3990    85.1280
  602.5000     0.2113     0.2162     2.3309     0.1864     6.0200   -10.8999     9.4249     9.9223    11.2382    87.9463
  603.0000     0.2073     0.2096     2.3368     0.1867     6.0196   -11.1494     9.4466     9.8995    11.0990    86.4513
  603.5000     0.2113     0.2123     2.3312     0.1862     6.0192   -11.4015     9.4685     9.8766    11.2983    84.7987
  604.0000     0.2158     0.2315     2.3233     0.1821     6.0188   -11.5434     9.4913     9.8478    11.5178    84.8049
  604.5000     0.2149     0.2504     2.3288     0.1786     6.0184   -11.5892     9.5842     9.8829    11.6626    86.9342
  605.0000     0.2046     0.2582     2.3420     0.1793     6.0181   -11.6330     9.6682     9.9311    11.7290    85.3852
  605.5000     0.1936     0.2597     2.3603     0.1801     6.0177   -11.6766     9.5832     9.9800    12.2069    82.8271
  606.0000     0.1810     0.2629     2.3810     0.1830     6.0173   -11.7220     9.5202    10.0307    12.5093    80.8673
  606.5000     0.1680     0.2652     2.4060     0.1958     6.0169   -11.7776     9.4575     9.9615    12.0174    80.7789
  607.0000     0.1590     0.2613     2.4191     0.2033     6.0165   -11.8368     9.3953     9.8891    11.6319    81.8777
  607.5000     0.1547     0.2607     2.4233     0.2094     6.0161   -11.9159     9.3336     9.8173    11.2588    83.4143
  608.0000     0.1551     0.2684     2.4234     0.2039     6.0157   -11.9128     9.2769     9.7576    11.0990    85.2616
  608.5000     0.1549     0.2722     2.4234     0.1983     6.0153   -11.8308     9.2027     9.8160    11.1324    89.3753
  609.0000     0.1508     0.2654     2.4248     0.1927     6.0149   -11.7377     9.1290     9.8665    11.1569    89.3427
  609.5000     0.1483     0.2617     2.4328     0.1872     6.0145   -11.6505     9.0558     9.9388    11.1814    86.4506
