~VERSION INFORMATION
 VERS.                2.0:   CWLS LOG ASCII STANDARD - VERSION 2.0
 WRAP.                 NO:   ONE LINE PER DEPTH STEP
~WELL INFORMATION
#MNEM.UNIT      DATA TYPE    INFORMATION
#----------   ------------   ------------------------------
 STRT.F           32.0000:   START DEPTH
 STOP.F          557.0000:   STOP DEPTH
 STEP.F            0.5000:   STEP LENGTH
 NULL.          -999.2500:   NO VALUE
 COMP. FENIX & SCISSON U.S. NAVY:   COMPANY
 WELL.   S-3 NPR #3 #31-3:   WELL
 FLD .              NPR-3:   FIELD
 LOC .       S3 T38N R78W:   LOCATION
 CNTY.            NATRONA:   COUNTY
 STAT.            WYOMING:   STATE
 CTRY. UNITED STATES OF AMERICA:   COUNTRY
 SRVC.              Welex:   SERVICE COMPANY
 DATE.        05-MAR-1977:   LOGDATE
 API .       490251039500:   API NUMBER
~CURVE INFORMATION
#MNEM.UNIT       API CODE    CURVE DESCRIPTION
#----------   ------------   ------------------------------
 DEPT.F                  :   
 CALD.IN     45 280 60 00:   CALIPER FROM DENSITY LOG
 DPHI.DEC    45 890 12 00:   DENSITY POROSITY SANDSTONE
 DRHO.G/C3   45 356 01 00:   DENSITY CORRECTION
 GRD .GAPI   45 310 01 00:   GAMMA RAY FROM DENSITY LOG
 RHOB.G/C3   45 350 01 00:   BULK DENSITY
 ILD .OHMM   07 120 46 00:   INDUCTION LOG DEEP
 ILM .OHMM   07 120 44 00:   INDUCTION LOG MEDIUM
 SGRD.OHMM   07 220 05 00:   SHALLOW GUARD RESISTIVITY
 SPR .MV     07 010 01 00:   SPONTANEOUS POTENTIAL FROM RES.
~PARAMETER INFORMATION
#MNEM.UNIT          VALUE    DESCRIPTION
#----------   ------------   ------------------------------
 PD  .                 GL:   PERMANENT DATUM
 EPD .F              5178:   ELEVATION PERMANENT DATUM
 LMF .                 GL:   LOG MEASURED FROM
 DMF .                 GL:   DRILLING MEASURED FROM
 EGL .F              5178:   GROUND LEVEL
 DATE.        05-MAR-1977:   RUN DATE
 RUN .                  1:   RUN NUMBER
 DD  .F               560:   DEPTH DRILLER
 DL  .F               560:   DEPTH LOGGER
 BLI .F               558:   BOTTOM LOG INTERVAL
 TLI .F                40:   TOP LOG INTERVAL
 CS  .IN            8.625:   CASING SIZE
 CBD .F                43:   CASING BOTTOM DRILLER
 CBL .F                43:   CASING BOTTOM LOGGER
 BS  .IN            7.875:   BIT SIZE
 BSD .F               560:   BIT SIZE AT DEPTH
 DFT .                KCL:   DRILLING FLUID TYPE
 DFD .                8.8:   DRILLING FLUID DENSITY
 DFV .                 32:   DRILLING FLUID VISCOSITY
 MSS .           FLOWLINE:   MUD SAMPLE SOURCE
 RMS .OHMM           1.46:   RESISTIVITY MUD SAMPLE
 MST .F                48:   MUD SAMPLE TEMPERATURE
 RMF .OHMM          0.972:   RESISTIVITY MUD FILTRATE SAMPLE
 MFST.F                48:   MUD FILTRATE SAMPLE TEMPERATURE
 RMC .OHMM           2.32:   RESISTIVITY MUD CAKE
 MCST.F                48:   MUD CAKE SAMPLE TEMPERATURE
 MFSS.               MEAS:   MUD FILTRATE SAMPLE SOURCE
 MCSS.               MEAS:   MUD CAKE SAMPLE SOURCE
 RMB .OHMM           1.03:   RESISTIVITY MUD AT BHT
 BHT .F                68:   BOTTOM HOLE TEMPERATURE
 TCS .HRS               2:   TIME CURCULATED STOPPED
 MRT .F                68:   MAXIMUM RECORDED TEMPERATURE
 LUN .               8611:   LOGGING UNIT NUMBER
 LUL .           GILLETTE:   LOGGING UNIT LOCATION
 ENGI.          D. LAWSON:   RECORDING ENGINEER
 WITN.     MR. STUEBINGER:   WITNESSED BY
 CLNT.            A2DTECH:   CLIENT CODE
 ORIG.           5" PRINT:   ORIGIN OF DATA
 UWI .       490251039500:   UNIQUE WELL ID
 DICO. A2D Technologies, Inc.:   DIGITIZING COMPANY
~OTHER INFORMATION
~A   DEPT       CALD     DPHI        DRHO        GRD        RHOB      ILD        ILM       SGRD        SPR   
# ...
  470.0000     8.0387     0.1668     0.0308    83.3803     2.3729    15.7881    19.0815    20.5778   -19.4643
  470.5000     8.0401     0.1689     0.0279    85.1869     2.3647    15.8000    19.0919    19.7529   -19.4524
  471.0000     8.0267     0.1679     0.0281    86.9899     2.3670    15.9130    19.1021    20.0404   -19.4382
  471.5000     7.9984     0.1664     0.0283    88.7988     2.3694    15.9221    18.5910    20.9026   -19.4265
  472.0000     7.9853     0.1655     0.0314    87.5201     2.3679    15.9296    18.3481    21.2068   -19.4149
  472.5000     7.9715     0.1714     0.0316    84.6527     2.3590    15.9371    18.2314    20.6372   -19.4033
  473.0000     7.9432     0.1717     0.0257    83.1769     2.3591    15.8329    18.1131    19.5406   -19.3917
  473.5000     7.9450     0.1690     0.0228    82.4427     2.3670    15.7312    17.9980    19.0187   -19.3801
  474.0000     7.9465     0.1599     0.0230    83.8022     2.3825    15.7404    17.8836    19.1787   -19.3685
  474.5000     7.9330     0.1483     0.0277    84.4129     2.4044    15.5314    17.6496    19.9899   -19.3569
  475.0000     7.9196     0.1369     0.0323    84.7255     2.4149    15.3255    17.4169    20.4216   -19.3452
  475.5000     7.9509     0.1413     0.0325    86.2304     2.4060    15.1221    17.1869    20.1531   -19.3333
  476.0000     7.9824     0.1496     0.0296    89.2256     2.3956    14.9232    17.0800    19.4796   -19.3191
  476.5000     8.0136     0.1538     0.0253    88.4950     2.3927    14.9303    16.9691    18.3145   -19.3075
  477.0000     8.0151     0.1541     0.0239    88.3605     2.3920    14.7304    16.7474    17.3387   -19.2959
  477.5000     8.0314     0.1534     0.0211    89.2693     2.3929    14.6375    16.5263    17.5910   -19.2843
  478.0000     8.0176     0.1525     0.0212    86.0088     2.3944    14.4433    16.3081    18.3479   -19.2726
  478.5000     8.0195     0.1506     0.0183    85.1255     2.3975    14.3489    16.0928    18.0577   -19.2610
  479.0000     7.9908     0.1464     0.0185    85.2927     2.4036    14.1599    16.4389    16.2188   -19.4011
  479.5000     7.9628     0.1341     0.0217    84.2641     2.4172    14.0692    17.2635    21.4071   -19.2378
  480.0000     7.9345     0.1236     0.0278    82.9374     2.4427    13.9788    17.7574    24.0941   -19.2262
  480.5000     7.9360     0.1200     0.0313    85.1874     2.4503    13.7771    17.1429    23.2889   -19.2143
  481.0000     7.9378     0.1224     0.0326    87.5865     2.4427    13.4250    16.1383    18.1644   -19.4977
  481.5000     7.9690     0.1301     0.0283    89.6875     2.4269    13.0649    15.2781    15.3943   -19.4861
  482.0000     8.0002     0.1522     0.0239    91.0433     2.3936    12.5399    14.7669    15.0871   -19.4744
  482.5000     8.0017     0.1537     0.0135    92.4193     2.3937    12.2035    14.6710    14.9920   -19.4628
  483.0000     8.0031     0.1503     0.0047    91.0724     2.3968    11.7944    14.4773    14.7951   -19.4512
  483.5000     8.0046     0.1485     0.0049    92.5810     2.3998    11.3990    14.2881    14.4856   -19.4396
  484.0000     8.0060     0.1419     0.0097    94.5329     2.4089    11.2476    14.0995    14.2128   -19.4280
  484.5000     8.0075     0.1346     0.0202    95.1400     2.4270    11.0985    14.1071    14.2214   -19.4164
  485.0000     8.0387     0.1256     0.0233    93.9659     2.4406    10.9512    14.0048    14.0345   -19.4048
  485.5000     8.0699     0.1208     0.0235    93.8278     2.4496    10.9577    13.8323    13.9461   -19.0952
  486.0000     8.1015     0.1190     0.0251    95.1873     2.4557    10.8110    13.9358    13.8563   -19.0810
  486.5000     8.1029     0.1195     0.0237    94.9038     2.4528    10.8174    13.7518    13.6741   -19.0694
  487.0000     8.1044     0.1207     0.0239    93.5771     2.4499    10.8225    13.5721    13.5899   -19.0578
  487.5000     8.1058     0.1213     0.0241    93.1446     2.4483    10.8276    13.5794    13.5046   -19.0462
  488.0000     8.1073     0.1250     0.0242    94.6637     2.4366    10.6839    13.5867    13.4196   -18.8857
  488.5000     8.1087     0.1278     0.0229    93.4754     2.4321    10.6889    13.5941    13.3352   -18.8741
  489.0000     8.0949     0.1241     0.0215    91.7016     2.4412    10.6203    13.6014    13.3453   -18.7137
  489.5000     8.0818     0.1217     0.0217    91.1164     2.4481    10.6323    13.4218    13.3534   -18.7021
  490.0000     8.0536     0.1211     0.0188    91.4326     2.4519    10.7053    13.4309    13.3615   -18.5417
  490.5000     8.0387     0.1240     0.0204    90.8511     2.4445    10.7104    13.2518    13.3696   -18.3810
  491.0000     7.9970     0.1258     0.0191    90.8656     2.4385    10.8646    13.1693    13.4706   -18.3667
  491.5000     7.9988     0.1222     0.0162    91.1783     2.4461    10.8698    13.1764    13.5723   -18.3551
  492.0000     8.0002     0.1155     0.0164    95.9618     2.4552    11.0250    13.0909    13.5806   -18.3435
  492.5000     8.0314     0.1161     0.0166    98.3609     2.4553    10.8787    13.0997    13.5890   -18.3319
  493.0000     8.0329     0.1209     0.0152    99.5677     2.4509    10.7354    13.1068    13.5974   -18.3203
  493.5000     8.0191     0.1202     0.0138    98.6527     2.4525    10.5931    13.1138    13.4204   -18.3087
  494.0000     8.0209     0.1202     0.0140    97.3650     2.4525    10.5252    13.1210    13.2419   -18.2970
  494.5000     8.0074     0.1212     0.0081    96.0383     2.4481    10.5420    13.1283    13.0678   -18.2854
  495.0000     8.0089     0.1243     0.0053    94.5625     2.4392    10.6094    12.9564    12.8961   -18.2738
  495.5000     8.0104     0.1279     0.0054    94.2754     2.4243    10.6144    12.9634    12.9058   -18.2619
  496.0000     8.0122     0.1278     0.0056    96.0820     2.4221    10.6194    12.7905    13.0936   -18.2477
  496.5000     8.0136     0.1254     0.0133    97.5869     2.4320    10.4773    12.7991    13.2842   -18.2361
  497.0000     8.0151     0.1227     0.0179    98.4920     2.4410    10.4835    12.8060    13.5736   -18.2244
  497.5000     8.0166     0.1220     0.0196    96.1257     2.4486    10.4884    12.8129    13.9604   -18.2128
  498.0000     8.0180     0.1217     0.0212    94.6499     2.4427    10.4209    12.8198    13.3104   -18.2012
  498.5000     8.0195     0.1196     0.0214    95.2846     2.4475    10.3541    12.6494    12.9529   -18.1896
  499.0000     8.0209     0.1123     0.0245    97.1734     2.4667    10.3592    12.4836    13.1434   -18.1780
  499.5000     8.0224     0.1066     0.0247   100.0624     2.4879    10.3651    12.4920    13.5205   -18.1664
  500.0000     8.0089     0.1081     0.0248   100.9675     2.4805    10.2268    12.4987    13.3427   -18.1548
  500.5000     7.9955     0.1139     0.0249    99.1973     2.4626    10.2324    12.6791    13.1653   -18.2914
  501.0000     7.9973     0.1185     0.0220    99.5099     2.4552    10.1674    12.6860    13.0842   -18.2731
  501.5000     7.9988     0.1184     0.0191    99.9716     2.4538    10.1743    12.6929    13.1833   -18.2585
  502.0000     8.0002     0.1178     0.0163    96.2604     2.4554    10.1798    12.6998    13.1915   -18.0950
  502.5000     8.0025     0.1184     0.0164    95.0790     2.4554    10.1853    12.7067    13.0199   -18.0804
  503.0000     8.0190     0.1207     0.0149    98.0779     2.4510    10.1909    12.7137    13.0278   -18.3634
  503.5000     8.0206     0.1237     0.0105    99.8808     2.4421    10.1964    12.6329    13.0357   -18.5203
  504.0000     8.0222     0.1285     0.0047   100.6527     2.4316    10.2020    12.6553    13.1341   -18.6318
  504.5000     8.0238     0.1357     0.0018   100.8041     2.4122    10.2783    12.7362    13.2334   -18.6135
  505.0000     7.9956     0.1350     0.0004    97.8417     2.4107    10.2839    12.6536    13.2414   -18.5989
  505.5000     7.9972     0.1320    -0.0009    98.4233     2.4138    10.2172    12.5749    13.0673   -18.5842
  506.0000     7.9988     0.1296     0.0009   101.1130     2.4199    10.2242    12.5818    12.7952   -18.4208
