~VERSION INFORMATION
 VERS.                2.0:   CWLS LOG ASCII STANDARD - VERSION 2.0
 WRAP.                 NO:   ONE LINE PER DEPTH STEP
~WELL INFORMATION
#MNEM.UNIT      DATA TYPE    INFORMATION
#----------   ------------   ------------------------------
 STRT.F            0.0000:   START DEPTH
 STOP.F          580.0000:   STOP DEPTH
 STEP.F            0.5000:   STEP LENGTH
 NULL.          -999.2500:   NO VALUE
 COMP. Fluor Daniel (NPOSR) Inc:   COMPANY
 WELL.    NPR 3 #53-3-X-3:   WELL
 FLD .             TEAPOT:   FIELD
 LOC .       S3 T38N R78W:   LOCATION
 CNTY.            NATRONA:   COUNTY
 STAT.            WYOMING:   STATE
 CTRY. UNITED STATES OF AMERICA:   COUNTRY
 SRVC.      Western Atlas:   SERVICE COMPANY
 DATE.        15-APR-1996:   LOGDATE
 API .       490252277800:   API NUMBER
~CURVE INFORMATION
#MNEM.UNIT       API CODE    CURVE DESCRIPTION
#----------   ------------   ------------------------------
 DEPT.F                  :   
 GRR .GAPI   07 310 01 00:   GAMMA RAY FROM RES. LOG.
 RILD.OHMM   07 120 46 00:   INDUCTION LOG DEEP RESISTIVITY
 RILM.OHMM   07 120 44 00:   INDUCTION LOG MEDIUM RESISTIVITY
~PARAMETER INFORMATION
#MNEM.UNIT          VALUE    DESCRIPTION
#----------   ------------   ------------------------------
 PD  .                 GL:   PERMANENT DATUM
 EPD .F              5105:   ELEVATION PERMANENT DATUM
 LMF .                 KB:   LOG MEASURED FROM
 DAPD.F                10:   FEET ABOVE PERMANENT DATUM
 DMF .                 KB:   DRILLING MEASURED FROM
 EKB .F              5115:   KELLING BUSHING
 EDF .F              5114:   DRILLING FLOOR
 EGL .F              5105:   GROUND LEVEL
 DATE.        15-APR-1996:   RUN DATE
 RUN .                  1:   RUN NUMBER
 DD  .F               594:   DEPTH DRILLER
 DL  .F               588:   DEPTH LOGGER
 BLI .F               580:   BOTTOM LOG INTERVAL
 CS  .IN            9.625:   CASING SIZE
 CBD .F                54:   CASING BOTTOM DRILLER
 CBL .F                56:   CASING BOTTOM LOGGER
 BS  .IN             8.75:   BIT SIZE
 BSD .F               594:   BIT SIZE AT DEPTH
 DFT .                AIR:   DRILLING FLUID TYPE
 MRT .F                85:   MAXIMUM RECORDED TEMPERATURE
 LUN .            HL-6530:   LOGGING UNIT NUMBER
 LUL .             CASPER:   LOGGING UNIT LOCATION
 ENGI.             RAUTIO:   RECORDING ENGINEER
 WITN.              HARDY:   WITNESSED BY
 CLNT.            A2DTECH:   CLIENT CODE
 ORIG.       2", 5" PRINT:   ORIGIN OF DATA
 UWI .       490252277800:   UNIQUE WELL ID
 DICO. A2D Technologies, Inc.:   DIGITIZING COMPANY
~OTHER INFORMATION
~A    DEPT      GRR      RILD       RILM   
# ...
  273.0000   145.1283     5.3122     5.4569
  273.5000   143.8539     5.4545     5.7920
  274.0000   140.0669     5.6759     6.1487
  274.5000   136.8427     5.9123     6.5265
  275.0000   135.5215     6.1708     6.8882
  275.5000   136.4204     6.5276     7.0706
  276.0000   140.5674     6.9049     7.2779
  276.5000   143.7898     7.2492     7.4847
  277.0000   144.9936     7.4122     7.6030
  277.5000   142.2869     7.6242     7.7196
  278.0000   137.8465     7.5934     7.8379
  278.5000   133.6364     7.5548     7.9842
  279.0000   131.9898     7.6358     7.9728
  279.5000   133.0079     7.7004     7.9634
  280.0000   135.9292     7.7199     7.9539
  280.5000   140.5511     7.7395     7.9444
  281.0000   140.4219     7.7592     7.9350
  281.5000   139.6101     7.7662     7.9256
  282.0000   142.0152     7.6957     7.9161
  282.5000   144.3526     7.6474     7.9067
  283.0000   141.8153     7.5995     7.8973
  283.5000   140.4738     7.5541     7.8879
  284.0000   142.7438     7.5543     7.8786
  284.5000   145.1298     7.5542     7.8692
  285.0000   144.7073     7.5541     7.8598
  285.5000   144.7973     7.5541     7.8505
  286.0000   145.9666     7.5102     7.8412
  286.5000   144.8629     7.4678     7.7031
  287.0000   141.8088     7.3054     7.5091
  287.5000   141.9528     7.1472     7.3200
  288.0000   144.3025     6.7566     7.0957
  288.5000   144.1766     6.3873     6.6133
  289.0000   144.2220     6.0382     6.1637
  289.5000   146.4005     5.8880     6.0533
  290.0000   149.4999     5.8880     6.0533
  290.5000   149.6085     5.8880     6.0533
  291.0000   150.6939     5.8572     6.1295
  291.5000   152.3152     5.8302     6.1980
  292.0000   149.5580     5.8047     6.2673
  292.5000   144.0883     5.7803     6.2809
  293.0000   139.2136     5.6301     6.0548
  293.5000   138.6431     5.4891     5.8426
  294.0000   142.2339     5.3501     5.6373
  294.5000   147.1157     5.2717     5.5196
  295.0000   146.7865     5.4974     5.5820
  295.5000   142.8857     5.5848     5.6540
  296.0000   139.4552     5.6055     5.9977
  296.5000   140.8495     5.6622     6.1885
  297.0000   143.6326     5.8931     6.3959
  297.5000   145.2738     6.0591     6.6102
  298.0000   142.3019     6.3835     6.8275
  298.5000   138.9957     6.7707     7.0423
  299.0000   136.0584     7.0376     7.2638
  299.5000   134.8921     7.0816     7.3478
  300.0000   134.8742     7.0816     7.2300
  300.5000   135.0317     6.7001     7.0589
  301.0000   134.8588     6.3275     6.6354
  301.5000   134.0823     5.9570     6.1618
  302.0000   133.5080     5.6082     5.7244
  302.5000   134.0484     5.2799     5.4304
  303.0000   138.3284     5.0331     5.2828
  303.5000   142.7465     5.0814     5.2223
  304.0000   145.5163     5.1268     5.2223
  304.5000   143.3298     5.1471     5.4258
  305.0000   136.9287     5.3368     5.7949
  305.5000   131.1463     5.6365     6.1891
  306.0000   129.9277     6.0332     6.6102
  306.5000   132.1171     6.4578     7.0165
  307.0000   134.4458     6.9123     7.5120
  307.5000   136.8005     7.3049     7.9351
  308.0000   139.1582     7.5559     8.0473
  308.5000   140.2478     7.8679     8.1648
  309.0000   139.5523     8.1345     8.2838
  309.5000   136.6668     8.0563     8.3631
  310.0000   134.2203     8.1463     8.3740
  310.5000   130.4367     8.1882     8.3849
  311.0000   129.3850     8.2084     8.3959
  311.5000   128.7885     8.1974     8.4068
  312.0000   128.1970     8.1875     8.4179
  312.5000   127.5736     8.1776     8.4290
  313.0000   128.8310     8.1678     8.4388
  313.5000   130.7704     8.1580     8.4022
  314.0000   132.7667     8.1482     8.3617
  314.5000   133.4986     8.1383     8.3211
  315.0000   133.9498     8.1336     8.2847
  315.5000   134.2720     8.1634     8.3415
  316.0000   132.5386     8.1839     8.3960
  316.5000   131.1926     8.2034     8.4719
  317.0000   132.2920     8.3461     8.6379
  317.5000   133.4749     8.5172     8.8296
  318.0000   131.1393     8.7043     9.0826
  318.5000   127.3276     8.7561     9.3454
  319.0000   124.9337     8.4586     9.1954
  319.5000   124.6778     7.7680     9.0020
  320.0000   122.7678     7.0567     7.4305
  320.5000   120.8173     6.3891     6.2311
  321.0000   126.7129     5.9268     5.2254
  321.5000   135.5676     5.8339     5.0797
  322.0000   145.7834     5.8339     5.4977
  322.5000   147.8151     5.8339     6.0779
  323.0000   139.1683     5.9307     6.6920
  323.5000   128.7755     6.1661     7.4789
  324.0000   121.8084     7.1394     8.3644
  324.5000   118.3644     8.1971     9.3535
  325.0000   116.8698     9.2845    10.2435
  325.5000   116.6367     9.8633    10.3238
  326.0000   118.4434    10.5245    10.5246
  326.5000   120.6210    10.4279    10.6310
  327.0000   121.6544    10.4315    10.6292
  327.5000   124.0724    10.4313    10.6244
  328.0000   126.8110    10.5311    10.6230
  328.5000   126.2443    11.5399    12.1185
  329.0000   121.6425    12.6686    13.3482
  329.5000   113.0007    13.8904    14.8815
  330.0000    98.5884    15.4204    17.4543
  330.5000    83.4273    17.0953    20.4266
  331.0000    68.6334    18.9522    23.1252
  331.5000    62.2989    21.0108    25.0146
  332.0000    60.5158    23.2826    25.5989
  332.5000    64.3790    25.2666    25.8472
  333.0000    72.8601    26.0171    26.0171
  333.5000    77.8673    25.3835    25.0673
  334.0000    77.3116    24.3338    24.2558
  334.5000    75.4806    23.3275    23.4706
  335.0000    76.4213    22.4091    22.6537
  335.5000    78.9429    22.1249    22.4651
  336.0000    80.8186    21.8430    22.2627
  336.5000    80.9245    21.6333    22.0621
  337.0000    80.9288    22.1106    22.0351
  337.5000    80.9483    22.6014    23.1991
  338.0000    80.0990    23.7191    24.2722
  338.5000    78.1616    24.8920    25.3866
  339.0000    76.1789    25.8305    26.8886
  339.5000    74.2048    26.4614    29.6119
  340.0000    69.7739    27.1078    29.5347
  340.5000    65.4092    27.7533    29.3311
  341.0000    66.5471    28.1682    29.1269
  341.5000    69.6147    28.5324    28.9267
  342.0000    72.7856    27.8784    28.5138
  342.5000    74.8928    27.0500    27.7157
  343.0000    75.7014    26.2454    26.9398
  343.5000    75.7136    25.5248    26.2583
  344.0000    77.4638    25.3719    25.9887
  344.5000    81.7083    25.2224    25.6973
  345.0000    85.4637    25.0714    25.4026
  345.5000    87.8624    24.4150    24.8600
  346.0000    88.1088    23.7925    24.1942
  346.5000    87.6331    23.2896    23.5461
  347.0000    86.9326    23.0789    23.1867
  347.5000    86.3001    22.8657    23.0151
  348.0000    86.3537    22.6545    22.8449
  348.5000    86.6479    22.4452    22.6759
  349.0000    86.9571    22.2399    22.4456
  349.5000    87.2447    22.2941    22.5185
  350.0000    87.6582    22.3504    22.6357
  350.5000    85.6448    22.4062    22.7536
  351.0000    85.3549    22.4620    22.8720
  351.5000    85.5183    22.5179    22.9911
  352.0000    85.6669    22.5739    23.0805
  352.5000    86.1209    22.6301    23.1272
  353.0000    87.1267    22.6937    23.1740
  353.5000    89.9124    22.7624    23.2212
  354.0000    92.0645    22.8637    23.2683
  354.5000    91.0032    22.7782    23.2901
  355.0000    87.5045    22.6208    23.1072
  355.5000    85.7299    22.4645    22.9730
  356.0000    85.8423    22.3092    22.8396
  356.5000    88.0108    22.2393    22.7069
  357.0000    92.5548    22.2393    22.5780
  357.5000    94.6188    22.2393    22.4519
  358.0000    94.5647    22.1486    22.3262
  358.5000    95.8495    21.9701    22.2006
  359.0000    96.1304    21.8326    22.0365
  359.5000    94.2619    22.1084    22.2358
  360.0000    92.2875    22.3783    22.5464
  360.5000    93.6985    22.6516    22.8613
  361.0000    93.7291    22.9281    23.1803
  361.5000    91.8457    23.1976    23.5062
  362.0000    89.8848    23.4531    23.8171
  362.5000    88.7437    23.7139    24.1106
  363.0000    88.5791    23.9766    24.4048
  363.5000    89.4685    24.1654    24.6168
