~VERSION INFORMATION
 VERS.                2.0:   CWLS LOG ASCII STANDARD - VERSION 2.0
 WRAP.                 NO:   ONE LINE PER DEPTH STEP
~WELL INFORMATION
#MNEM.UNIT      DATA TYPE    INFORMATION
#----------   ------------   ------------------------------
 STRT.F           28.0000:   START DEPTH
 STOP.F          551.0000:   STOP DEPTH
 STEP.F            0.5000:   STEP LENGTH
 NULL.          -999.2500:   NO VALUE
 COMP. FENIX & SCISSON, INC.:   COMPANY
 WELL.        NPR #85-S-3:   WELL
 FLD .             TEAPOT:   FIELD
 LOC .       S3 T38N R78W:   LOCATION
 CNTY.            NATRONA:   COUNTY
 STAT.            WYOMING:   STATE
 CTRY. UNITED STATES OF AMERICA:   COUNTRY
 SRVC.            Unknown:   SERVICE COMPANY
 DATE.        22-JAN-1977:   LOGDATE
 API .       490251055800:   API NUMBER
~CURVE INFORMATION
#MNEM.UNIT       API CODE    CURVE DESCRIPTION
#----------   ------------   ------------------------------
 DEPT.F                  :   
 ILD .OHMM   05 120 46 00:   INDUCTION LOG DEEP
 SN  .OHMM   05 040 16 00:   SHORT NORMAL 16"
 SPR .MV     05 010 01 00:   SPONTANEOUS POTENTIAL FROM RES.
 CALD.IN     45 280 60 00:   CALIPER FROM DENSITY LOG
 CORR.G/C3   45 356 01 00:   DENSITY CORRECTION
 DPHI.DEC    45 890 12 00:   DENSITY POROSITY SANDSTONE
 GRD .GAPI   45 310 01 00:   GAMMA RAY FROM DENSITY LOG
 RHOB.G/C3   45 350 01 00:   BULK DENSITY
~PARAMETER INFORMATION
#MNEM.UNIT          VALUE    DESCRIPTION
#----------   ------------   ------------------------------
 PD  .                 GL:   PERMANENT DATUM
 EPD .F              5132:   ELEVATION PERMANENT DATUM
 LMF .                 KB:   LOG MEASURED FROM
 DAPD.F                 4:   FEET ABOVE PERMANENT DATUM
 DMF .                 KB:   DRILLING MEASURED FROM
 EKB .F              5136:   KELLING BUSHING
 EGL .F              5132:   GROUND LEVEL
 DATE.          1-22-1977:   RUN DATE
 RUN .                  1:   RUN NUMBER
 DD  .F               550:   DEPTH DRILLER
 DL  .F               550:   DEPTH LOGGER
 BLI .F               545:   BOTTOM LOG INTERVAL
 TLI .F                50:   TOP LOG INTERVAL
 CS  .IN            8.625:   CASING SIZE
 CBD .F                40:   CASING BOTTOM DRILLER
 CBL .F                40:   CASING BOTTOM LOGGER
 BS  .IN            7.875:   BIT SIZE
 BSD .F               550:   BIT SIZE AT DEPTH
 DFT .                KCL:   DRILLING FLUID TYPE
 DFD .                8.6:   DRILLING FLUID DENSITY
 DFV .                 36:   DRILLING FLUID VISCOSITY
 DFPH.                 10:   DRILLING FLUID PH
 DFL .                7.2:   DRILLING FLUID LOSS
 MSS .           FLOWLINE:   MUD SAMPLE SOURCE
 RMS .OHMM             .3:   RESISTIVITY MUD SAMPLE
 MST .F                56:   MUD SAMPLE TEMPERATURE
 RMF .OHMM             .3:   RESISTIVITY MUD FILTRATE SAMPLE
 MFST.F                58:   MUD FILTRATE SAMPLE TEMPERATURE
 RMC .OHMM             .3:   RESISTIVITY MUD CAKE
 MCST.F                58:   MUD CAKE SAMPLE TEMPERATURE
 MFSS.           MEASURED:   MUD FILTRATE SAMPLE SOURCE
 MCSS.           MEASURED:   MUD CAKE SAMPLE SOURCE
 RMB .OHMM            .25:   RESISTIVITY MUD AT BHT
 BHT .F                68:   BOTTOM HOLE TEMPERATURE
 TCS .HRS               3:   TIME CURCULATED STOPPED
 MRT .F                68:   MAXIMUM RECORDED TEMPERATURE
 LUN .               2958:   LOGGING UNIT NUMBER
 LUL .             CASPER:   LOGGING UNIT LOCATION
 ENGI.           REYNOLDS:   RECORDING ENGINEER
 WITN.             GINLEY:   WITNESSED BY
 CLNT.            A2DTECH:   CLIENT CODE
 ORIG.           5" PRINT:   ORIGIN OF DATA
 UWI .       490251055800:   UNIQUE WELL ID
 DICO. A2D Technologies, Inc.:   DIGITIZING COMPANY
~OTHER INFORMATION
~A   DEPT      ILD         SN        SPR       CALD       CORR       DPHI         GRD      RHOB   
# ...
  311.5000     8.0241     8.1749   -43.6592     7.7543     0.1973     0.1527   116.3426     2.4044
  312.0000     8.0263     8.1362   -43.6532     7.7566     0.1973     0.1497   115.0069     2.4052
  312.5000     8.0285     8.0975   -43.6472     7.7590     0.1974     0.1485   118.7419     2.4105
  313.0000     8.0307     8.0589   -43.6413     7.7613     0.1974     0.1512   120.0906     2.4164
  313.5000     8.0329     8.0202   -43.6353     7.7636     0.1975     0.1527   126.0593     2.4139
  314.0000     8.0352     7.9815   -43.6292     7.7660     0.1975     0.1518   126.2139     2.4088
  314.5000     8.0374     7.9428   -43.6232     7.7683     0.1975     0.1488   124.8819     2.4112
  315.0000     8.0396     7.8967   -43.7667     7.7709     0.1976     0.1464   124.2932     2.4189
  315.5000     8.0418     7.8444   -43.7607     7.7715     0.1976     0.1449   123.7045     2.4217
  316.0000     8.0442     7.7925   -43.7765     7.7720     0.1977     0.1446   123.5611     2.4231
  316.5000     7.9359     7.7947   -43.8004     7.7726     0.1977     0.1440   123.2704     2.4246
  317.0000     7.8828     7.7431   -43.8243     7.7732     0.1978     0.1422   123.1307     2.4261
  317.5000     7.8307     7.6918   -43.8482     7.7738     0.1978     0.1431   116.4317     2.4284
  318.0000     7.5672     7.5882   -43.8720     7.7744     0.1964     0.1434   117.1843     2.4291
  318.5000     7.1619     7.4854   -43.8744     7.7750     0.1949     0.1434   119.1291     2.4291
  319.0000     6.7784     7.3342   -43.8683     7.7756     0.1919     0.1437   117.4972     2.4284
  319.5000     6.5047     7.1850   -43.8623     7.7762     0.1905     0.1470   119.4420     2.4269
  320.0000     6.3286     7.0297   -43.7068     7.7768     0.1890     0.1506   122.5791     2.4231
  320.5000     6.3308     6.7927   -43.7008     7.7774     0.1891     0.1602   121.0962     2.4134
  321.0000     6.5101     6.5636   -43.6949     7.7780     0.1876     0.1641   121.9978     2.3946
  321.5000     6.5119     6.4391   -43.3899     7.7786     0.1877     0.1604   122.8976     2.3961
  322.0000     6.4688     6.5392   -42.9355     7.7941     0.1892     0.1553   120.6714     2.4059
  322.5000     6.3378     6.7244   -42.9295     7.8096     0.1908     0.1517   121.4240     2.4089
  323.0000     6.2094     6.8198   -42.9334     7.8399     0.1938     0.1506   124.2630     2.4104
  323.5000     6.0836     6.9561   -42.9483     7.8703     0.1969     0.1516   122.4802     2.4111
  324.0000     5.9603     6.8069   -42.9631     7.8709     0.1984     0.1566   125.1721     2.3916
  324.5000     5.8395     6.3390   -42.9780     7.8120     0.2000     0.1666   125.6266     2.3871
  325.0000     5.6818     5.9239   -42.9928     7.7529     0.2015     0.1842   125.7830     2.3743
  325.5000     5.5667     5.7371   -43.0077     7.7536     0.2092     0.2050   123.7040     2.3361
  326.0000     5.4918     5.6992   -43.0226     7.7542     0.2381     0.2076   120.5818     2.3113
  326.5000     5.6474     5.7865   -43.0374     7.7548     0.2819     0.1956   120.1421     2.3121
  327.0000     6.0953     6.0046   -43.0523     7.7703     0.3118     0.1674   115.2315     2.3233
  327.5000     6.3994     6.3851   -43.0671     7.7755     0.3222     0.1395   114.7900     2.3773
  328.0000     6.7119     6.7970   -43.0820     7.7811     0.3236     0.1266   115.5444     2.4621
  328.5000     7.0052     7.2282   -43.0969     7.7869     0.2968     0.1215   115.5519     2.4771
  329.0000     7.2536     7.4845   -43.1117     7.7726     0.2861     0.1188   114.8141     2.4584
  329.5000     7.4591     7.6362   -43.1266     7.7583     0.2848     0.1299   117.5041     2.4749
  330.0000     7.6175     7.6085   -43.1397     7.7589     0.2335     0.1347   120.6412     2.4824
  330.5000     7.6196     7.4318   -43.1330     7.7446     0.2336     0.1329   119.7544     2.4411
  331.0000     7.3120     7.3826   -43.1271     7.7304     0.2231     0.1302   117.0793     2.4464
  331.5000     6.5029     7.3275   -43.1211     7.7310     0.2111     0.1314   115.5964     2.4554
  332.0000     6.1973     7.2349   -43.1151     7.7267     0.2006     0.1407   115.9019     2.4494
  332.5000     6.0717     7.0826   -43.1091     7.7224     0.2001     0.1440   115.6113     2.4261
  333.0000     6.0316     6.6518   -43.1031     7.7181     0.1997     0.1542   116.5129     2.4216
  333.5000     5.9917     6.3003   -43.0963     7.7138     0.1992     0.1596   119.0538     2.4164
  334.0000     5.9934     6.1772   -42.9409     7.7094     0.1988     0.1599   115.5777     2.4021
  334.5000     6.0366     6.1879   -42.7854     7.7048     0.1983     0.1587   118.0255     2.3976
  335.0000     6.2076     6.4472   -42.6299     7.7044     0.1994     0.1542   116.0955     2.4021
  335.5000     6.6080     6.8205   -42.3250     7.7039     0.2025     0.1455   115.1688     2.4111
  336.0000     7.0831     7.2057   -42.1695     7.7034     0.2070     0.1374   115.8301     2.4239
  336.5000     7.4880     7.5700   -42.1636     7.7029     0.2086     0.1359   111.1997     2.4359
  337.0000     7.8615     7.9181   -42.1576     7.7024     0.2086     0.1371   109.7068     2.4404
  337.5000     8.0842     8.1725   -42.1476     7.7020     0.2087     0.1395   111.2146     2.4359
  338.0000     8.3133     8.3991   -42.1280     7.7015     0.2089     0.1389   108.5395     2.4344
  338.5000     8.4314     8.5729   -42.1083     7.7010     0.2091     0.1365   109.7392     2.4351
  339.0000     8.6105     8.6947   -42.0886     7.7005     0.2092     0.1374   108.1072     2.4381
  339.5000     8.6726     8.7575   -42.0690     7.7000     0.2094     0.1431   109.1819     2.4411
  340.0000     8.7352     8.8208   -42.0493     7.6996     0.2095     0.1461   110.5066     2.4284
  340.5000     8.7376     8.8845   -42.0297     7.6991     0.2097     0.1470   105.7214     2.4231
  341.0000     8.8007     8.8870   -42.0100     7.6986     0.2099     0.1458   106.8097     2.4239
  341.5000     8.8031     8.8894   -41.9903     7.6982     0.2100     0.1443   106.0264     2.4239
  342.0000     8.8055     8.8919   -41.9707     7.7138     0.2102     0.1416   104.8376     2.4231
  342.5000     8.8080     8.8524   -41.9510     7.7144     0.2103     0.1389   105.7451     2.4224
  343.0000     8.8104     8.8355   -41.9524     7.7150     0.2105     0.1362   109.1486     2.4248
  343.5000     8.8128     8.8379   -41.9818     7.7156     0.2106     0.1347   110.4098     2.4348
  344.0000     8.8764     8.8404   -42.0112     7.7310     0.2092     0.1377   109.4197     2.4434
  344.5000     8.8789     8.8428   -42.0406     7.7465     0.2018     0.1395   104.8926     2.4379
  345.0000     8.9430     8.8452   -42.0700     7.7620     0.1928     0.1398   108.3472     2.4351
  345.5000     8.9454     8.8477   -42.0993     7.7775     0.1868     0.1398   110.8882     2.4351
  346.0000     9.1988     8.8501   -42.1287     7.7929     0.1869     0.1392   112.3841     2.4344
  346.5000     9.3943     8.8526   -42.1581     7.8083     0.1854     0.1391   109.1147     2.4336
  347.0000     9.5938     8.8550   -42.1875     7.8239     0.1824     0.1410   107.7808     2.4321
  347.5000     9.7976     8.9200   -42.2169     7.8245     0.1795     0.1398   106.4451     2.4321
  348.0000    10.0057     8.9843   -42.2463     7.8399     0.1795     0.1380   109.4350     2.4351
  348.5000     9.9395     9.1111   -42.2757     7.8405     0.1796     0.1362   111.9760     2.4389
  349.0000     9.2141     9.0508   -42.3051     7.8411     0.1796     0.1353   109.3008     2.4419
  349.5000     8.1380     8.9905   -42.1584     7.8566     0.1781     0.1362   108.7103     2.4404
  350.0000     7.0889     8.5681   -42.1525     7.8720     0.1767     0.1428   113.6376     2.4374
  350.5000     6.6629     7.9423   -42.2189     7.8726     0.1752     0.1545   116.6257     2.4314
  351.0000     6.5733     7.2110   -42.2854     7.8733     0.1738     0.1690   116.9293     2.4074
  351.5000     6.5756     6.8719   -42.3519     7.8715     0.1723     0.1852   124.8372     2.3743
