~VERSION INFORMATION
 VERS.                2.0:   CWLS LOG ASCII STANDARD - VERSION 2.0
 WRAP.                 NO:   ONE LINE PER DEPTH STEP
~WELL INFORMATION
#MNEM.UNIT      DATA TYPE    INFORMATION
#----------   ------------   ------------------------------
 STRT.F           22.5000:   START DEPTH
 STOP.F          644.0000:   STOP DEPTH
 STEP.F            0.5000:   STEP LENGTH
 NULL.          -999.2500:   NO VALUE
 COMP.    FELIX & SCISION:   COMPANY
 WELL.     NPR #3 #14-S-2:   WELL
 FLD .             TEAPOT:   FIELD
 LOC .       S2 T38N R78W:   LOCATION
 CNTY.            NATRONA:   COUNTY
 STAT.            WYOMING:   STATE
 CTRY. UNITED STATES OF AMERICA:   COUNTRY
 SRVC.           BIRDWELL:   SERVICE COMPANY
 DATE.        18-JAN-1978:   LOGDATE
 API .       490251055600:   API NUMBER
~CURVE INFORMATION
#MNEM.UNIT       API CODE    CURVE DESCRIPTION
#----------   ------------   ------------------------------
 DEPT.F                  :   
 CALD.IN     45 280 60 00:   CALIPER FROM DENSITY LOG
 CORR.G/C3   45 356 01 00:   DENSITY CORRECTION
 DPHI.DEC    45 890 12 00:   DENSITY POROSITY SANDSTONE
 GRD .GAPI   45 310 01 00:   GAMMA RAY FROM DENSITY LOG
 RHOB.G/C3   45 350 01 00:   BULK DENSITY
 ILD .OHMM   05 120 46 00:   INDUCTION LOG DEEP
 SPR .MV     05 010 01 00:   SPONTANEOUS POTENTIAL FROM RES.
 SN  .OHMM   05 040 16 00:   SHORT NORMAL 16"
~PARAMETER INFORMATION
#MNEM.UNIT          VALUE    DESCRIPTION
#----------   ------------   ------------------------------
 PD  .                 GL:   PERMANENT DATUM
 EPD .F              5121:   ELEVATION PERMANENT DATUM
 LMF .                 KB:   LOG MEASURED FROM
 DAPD.F                 4:   FEET ABOVE PERMANENT DATUM
 DMF .                 KB:   DRILLING MEASURED FROM
 EKB .F              5126:   KELLING BUSHING
 EGL .F              5121:   GROUND LEVEL
 DATE.          1-18-1978:   RUN DATE
 RUN .                  1:   RUN NUMBER
 DD  .F               645:   DEPTH DRILLER
 DL  .F               648:   DEPTH LOGGER
 BLI .F               642:   BOTTOM LOG INTERVAL
 TLI .F                39:   TOP LOG INTERVAL
 CS  .IN            8.625:   CASING SIZE
 CBD .F                39:   CASING BOTTOM DRILLER
 BS  .IN            7.875:   BIT SIZE
 BSD .F               645:   BIT SIZE AT DEPTH
 DFT .                KCL:   DRILLING FLUID TYPE
 DFD .                8.8:   DRILLING FLUID DENSITY
 DFV .                 34:   DRILLING FLUID VISCOSITY
 DFPH.                9.5:   DRILLING FLUID PH
 DFL .                6.4:   DRILLING FLUID LOSS
 MSS .                PIT:   MUD SAMPLE SOURCE
 RMS .OHMM            .38:   RESISTIVITY MUD SAMPLE
 MST .F                43:   MUD SAMPLE TEMPERATURE
 RMF .OHMM            .26:   RESISTIVITY MUD FILTRATE SAMPLE
 MFST.F                70:   MUD FILTRATE SAMPLE TEMPERATURE
 RMC .OHMM            .42:   RESISTIVITY MUD CAKE
 MCST.F                70:   MUD CAKE SAMPLE TEMPERATURE
 MFSS.           MEASURED:   MUD FILTRATE SAMPLE SOURCE
 MCSS.           MEASURED:   MUD CAKE SAMPLE SOURCE
 RMB .OHMM            .24:   RESISTIVITY MUD AT BHT
 BHT .F                69:   BOTTOM HOLE TEMPERATURE
 TCS .HRS               2:   TIME CURCULATED STOPPED
 MRT .F                69:   MAXIMUM RECORDED TEMPERATURE
 LUN .               2958:   LOGGING UNIT NUMBER
 LUL .             CASPER:   LOGGING UNIT LOCATION
 ENGI.           REYNOLDS:   RECORDING ENGINEER
 WITN.         HARRINGTON:   WITNESSED BY
 CLNT.            A2DTECH:   CLIENT CODE
 ORIG.      2" , 5" PRINT:   ORIGIN OF DATA
 UWI .       490251055600:   UNIQUE WELL ID
 DICO. A2D Technologies, Inc.:   DIGITIZING COMPANY
~OTHER INFORMATION
~A   DEPT     CALD       CORR       DPHI         GRD      RHOB        ILD        SPR         SN   
# ...
  387.0000     7.9238     0.1263     0.1462    96.6895     2.4146     7.1853   -19.8113     7.0977
  387.5000     7.9092     0.1331     0.1384    98.6256     2.4206     6.9932   -19.7980     6.9067
  388.0000     7.9095     0.1309     0.1201    99.5215     2.4447     6.8055   -19.7623     6.7670
  388.5000     7.9098     0.1188     0.1164    98.7038     2.4613     6.5316   -19.7623     6.4495
  389.0000     7.8804     0.1128     0.1173    96.6597     2.4605     6.3124   -19.7623     5.8166
  389.5000     7.8509     0.1159     0.1203    96.2657     2.4552     6.2278   -20.0594     5.3187
  390.0000     7.8363     0.1189     0.1209    98.5001     2.4508     6.1886   -20.6538     4.9996
  390.5000     7.8366     0.1205     0.1176    98.0587     2.4546     6.1916   -21.0996     4.9321
  391.0000     7.7923     0.1228     0.1122    95.8343     2.4697     6.1946   -21.0996     4.9680
  391.5000     7.7777     0.1228     0.1088    93.7584     2.4788     6.2406   -21.0996     5.0733
  392.0000     7.7609     0.1190     0.1079    94.9515     2.4811     6.2870   -21.5453     5.3260
  392.5000     7.7188     0.1092     0.1082    96.7390     2.4796     6.4221   -22.7340     5.6690
  393.0000     7.7042     0.1032     0.1103    96.0005     2.4721     6.6516   -23.4770     6.0341
  393.5000     7.7045     0.1001     0.1127    95.5580     2.4699     6.8892   -23.6256     6.4228
  394.0000     7.6899     0.0898     0.1163    97.0494     2.4631     7.1354   -23.4770     6.6044
  394.5000     7.6753     0.0800     0.1214    99.7284     2.4504     7.2384   -23.3284     6.7445
  395.0000     7.6756     0.0785     0.1283   100.0299     2.4346     6.9472   -23.3284     6.7464
  395.5000     7.6610     0.0785     0.1382   102.8575     2.4203     6.7140   -23.4770     6.7482
  396.0000     7.6613     0.0778     0.1442   105.6989     2.4144     6.4886   -23.6256     6.7036
  396.5000     7.6616     0.0756     0.1427   104.2036     2.4174     6.2275   -23.9227     6.6135
  397.0000     7.6619     0.0726     0.1367   102.2724     2.4295     6.0185   -23.7553     6.4797
  397.5000     7.6622     0.0719     0.1246   100.9040     2.4445     5.8569   -23.0151     6.1757
  398.0000     7.6774     0.0719     0.1210    95.8247     2.4500     5.7784   -22.4368     5.0915
  398.5000     7.6777     0.0719     0.1174    94.5374     2.4551     5.7413   -21.9911     4.9201
  399.0000     7.6780     0.0720     0.1128    93.3797     2.4702     5.7448   -21.8425     4.8540
  399.5000     7.6932     0.0720     0.1113    92.9373     2.4748     5.7875   -21.6939     4.8219
  400.0000     7.7084     0.0728     0.1104    93.6857     2.4748     5.9119   -21.5453     4.9930
  400.5000     7.7091     0.0728     0.1101    93.2477     2.4763     6.2085   -21.5453     5.7347
  401.0000     7.7098     0.0728     0.1101    90.7289     2.4763     6.5653   -21.5453     6.2757
  401.5000     7.7254     0.0706     0.1091    90.4372     2.4794     7.2371   -21.6939     6.8679
  402.0000     7.7262     0.0638     0.1076    89.8519     2.4841     7.9226   -21.6939     7.4128
  402.5000     7.7271     0.0623     0.1079    88.8190     2.4863     8.2057   -21.6939     7.7830
  403.0000     7.7427     0.0624     0.1073    89.2720     2.4856     8.4402   -21.8425     8.0042
  403.5000     7.7583     0.0646     0.1064    90.5101     2.4848     8.5030   -21.8425     8.1751
  404.0000     7.7739     0.0692     0.1057    92.4309     2.4871     8.5071   -21.8425     8.2351
  404.5000     7.7746     0.0707     0.1045    92.1187     2.4917     8.5112   -21.8425     8.2385
  405.0000     7.7753     0.0685     0.1048    91.8270     2.4925     8.4564   -21.8425     8.2989
  405.5000     7.7761     0.0662     0.1045    92.5790     2.4910     8.4614   -21.8425     8.3023
  406.0000     7.7917     0.0648     0.1039    93.1806     2.4903     8.4655   -21.8425     8.2485
  406.5000     7.8074     0.0640     0.1042    92.7420     2.4888     8.4695   -21.8425     8.3099
  407.0000     7.8082     0.0618     0.1048    91.7092     2.4881     8.4736   -21.8425     8.2553
  407.5000     7.8238     0.0610     0.1050    90.5277     2.4882     8.4776   -21.8910     8.2595
  408.0000     7.8245     0.0618     0.1044    90.2357     2.4927     8.4221   -21.8800     8.3201
  408.5000     7.8252     0.0611     0.1026    90.6909     2.5025     8.4272   -21.7224     8.3811
  409.0000     7.8259     0.0543     0.1002    89.9569     2.5093     8.3720   -21.7136     8.4426
  409.5000     7.8118     0.0468     0.0993    88.9240     2.4928     8.4938   -21.7048     8.4461
  410.0000     7.8125     0.0438     0.1065    89.9714     2.4718     8.5569   -21.5472     8.5670
  410.5000     7.8132     0.0401     0.1128    90.2740     2.4628     8.5610   -21.5384     8.8105
  411.0000     7.8141     0.0371     0.1194    88.9457     2.4506     8.6246   -21.3808     8.8751
  411.5000     7.8446     0.0363     0.1257    87.3167     2.4313     8.6305   -21.5208     8.8175
  412.0000     7.8602     0.0371     0.1299    90.2975     2.4072     8.6329   -21.8096     8.8213
  412.5000     7.9056     0.0447     0.1347    99.2201     2.3892     8.3915   -21.8006     8.6439
  413.0000     7.9212     0.0583     0.1521   109.6523     2.3870     7.6066   -21.7708     8.5250
  413.5000     7.9368     0.0636     0.1590   111.5674     2.3968     6.8324   -21.6322     8.2924
  414.0000     7.9524     0.0561     0.1590   100.2837     2.4713     6.6482   -21.0281     7.9124
  414.5000     7.9382     0.0568     0.1084    88.1067     2.5120     6.5598   -20.2753     7.0877
  415.0000     7.9390     0.0546     0.0931    85.7365     2.5188     6.5638   -19.8200     6.2620
  415.5000     7.9547     0.0524     0.0855    85.5934     2.5157     6.5669   -17.1349     5.4944
  416.0000     7.9555     0.0531     0.0859    86.3454     2.5053     6.5700   -18.1677     5.4582
  416.5000     7.9711     0.0524     0.0927    86.7984     2.5046     6.6649   -18.1567     5.6139
  417.0000     7.9718     0.0517     0.0924    86.5084     2.5039     6.7144   -17.9991     5.8538
  417.5000     7.9725     0.0502     0.0956    85.0298     2.5024     7.1003   -17.8415     6.7699
  418.0000     7.9583     0.0525     0.1002    82.1981     2.4987     8.6237   -17.8327     8.2740
  418.5000     7.9591     0.0540     0.1019    82.0725     2.4942    10.1175   -17.8239     9.9049
  419.0000     7.9449     0.0555     0.1040    83.8646     2.4890    10.4789   -17.9643    10.4717
  419.5000     7.9458     0.0593     0.1076    90.5584     2.4815    10.5568   -17.9551    10.6952
  420.0000     7.9614     0.0714     0.1109    93.9813     2.4731    10.4890   -17.6487    10.9235
  420.5000     7.9622     0.0714     0.1121    87.3039     2.4687    10.5669   -17.1934    11.0851
  421.0000     7.9629     0.0745     0.1136    80.6247     2.4628    10.7974   -16.2777    11.3949
  421.5000     7.9636     0.0821     0.1157    75.2827     2.4561    11.2736   -15.3745    11.6392
  422.0000     7.9792     0.0837     0.1193    64.2944     2.4494    11.8486   -14.7619    12.0529
  422.5000     7.9799     0.0949     0.1234    54.6434     2.4381    12.7654   -14.3286    12.5678
  423.0000     7.9509     0.1032     0.1313    47.9386     2.4193    13.5928   -13.8734    13.3790
  423.5000     7.8899     0.1236     0.1401    47.2303     2.4111    14.3739   -12.9717    14.1445
  424.0000     7.8333     0.1304     0.1446    47.0871     2.4089    15.4114   -11.1772    15.0575
  424.5000     7.8042     0.1191     0.1316    47.0962     2.4353    16.7090    -9.2339    16.4782
  425.0000     7.7752     0.1048     0.1256    47.1034     2.4335    18.3879    -7.4394    18.7957
  425.5000     7.7610     0.0800     0.1340    47.5564     2.4180    23.7118    -6.3889    21.5876
  426.0000     7.7469     0.0687     0.1521    51.7242     2.3804    25.6009    -6.0825    22.9810
  426.5000     7.7478     0.0710     0.2083    52.3258     2.2985    26.5155    -6.2225    24.4643
  427.0000     7.7485     0.0870     0.2114    53.2245     2.2977    26.3451    -6.2137    25.1596
