~VERSION INFORMATION
 VERS.                2.0:   CWLS LOG ASCII STANDARD - VERSION 2.0
 WRAP.                 NO:   ONE LINE PER DEPTH STEP
~WELL INFORMATION
#MNEM.UNIT      DATA TYPE    INFORMATION
#----------   ------------   ------------------------------
 STRT.F            8.0000:   START DEPTH
 STOP.F         3200.0000:   STOP DEPTH
 STEP.F            0.5000:   STEP LENGTH
 NULL.          -999.2500:   NO VALUE
 COMP. BROWN JOHN E&C INC:   COMPANY
 WELL.  62 x 15-17 #62-15:   WELL
 FLD .        N.P.R NO. 3:   FIELD
 LOC .      S15 T38N R78W:   LOCATION
 CNTY.            NATRONA:   COUNTY
 STAT.            WYOMING:   STATE
 CTRY. UNITED STATES OF AMERICA:   COUNTRY
 SRVC.      Western Atlas:   SERVICE COMPANY
 DATE.        17-JUN-1986:   LOGDATE
 API .       490251104300:   API NUMBER
~CURVE INFORMATION
#MNEM.UNIT       API CODE    CURVE DESCRIPTION
#----------   ------------   ------------------------------
 DEPT.F                  :   
 GRR .GAPI   07 310 01 00:   GAMMA RAY
 CALR.IN     07 280 01 00:   CALIPER FROM RESISTIVITY
 SPR .MV     07 010 01 00:   SPONTANEOUS POTENTIAL
 RILD.OHMM   07 120 46 00:   INDUCTION LOG DEEP RESISTIVITY
 RILM.OHMM   07 120 44 00:   INDUCTION LOG MEDIUM RESISTIVITY
 RFOC.OHMM   07 220 04 00:   RESISTIVITY FOCUSED LOG
 PORD.DEC    45 890 12 00:   POROSITY DENSITY SANDSTONE
 CNC .DEC    42 890 03 00:   NEUTRON POROSITY SANDSTONE
 CORR.G/C3   45 356 01 00:   DENSITY CORRECTION
 DEN .G/C3   45 350 01 00:   COMPENSATED BULK DENSTIY
~PARAMETER INFORMATION
#MNEM.UNIT          VALUE    DESCRIPTION
#----------   ------------   ------------------------------
 PD  .                 GL:   PERMANENT DATUM
 EPD .F              5242:   ELEVATION PERMANENT DATUM
 LMF .                 KB:   LOG MEASURED FROM
 DAPD.F                11:   FEET ABOVE PERMANENT DATUM
 DMF .                 KB:   DRILLING MEASURED FROM
 EKB .F              5253:   KELLING BUSHING
 EGL .F              5242:   GROUND LEVEL
 DATE.            6-17-86:   RUN DATE
 RUN .                  1:   RUN NUMBER
 DD  .F              3200:   DEPTH DRILLER
 DL  .F              3202:   DEPTH LOGGER
 BLI .F              3200:   BOTTOM LOG INTERVAL
 CS  .IN            8.625:   CASING SIZE
 CBD .F               573:   CASING BOTTOM DRILLER
 CBL .F               573:   CASING BOTTOM LOGGER
 BS  .IN            7.875:   BIT SIZE
 BSD .F              3200:   BIT SIZE AT DEPTH
 DFT .            KCL/GEL:   DRILLING FLUID TYPE
 DFD .                8.9:   DRILLING FLUID DENSITY
 DFV .                 37:   DRILLING FLUID VISCOSITY
 DFPH.                8.5:   DRILLING FLUID PH
 DFL .               10.2:   DRILLING FLUID LOSS
 MSS .           MUD TANK:   MUD SAMPLE SOURCE
 RMS .OHMM            .39:   RESISTIVITY MUD SAMPLE
 MST .F                80:   MUD SAMPLE TEMPERATURE
 RMF .OHMM            .29:   RESISTIVITY MUD FILTRATE SAMPLE
 MFST.F                80:   MUD FILTRATE SAMPLE TEMPERATURE
 RMC .OHMM            .49:   RESISTIVITY MUD CAKE
 MCST.F                80:   MUD CAKE SAMPLE TEMPERATURE
 MFSS.               CALC:   MUD FILTRATE SAMPLE SOURCE
 MCSS.               CALC:   MUD CAKE SAMPLE SOURCE
 RMB .OHMM            .24:   RESISTIVITY MUD AT BHT
 BHT .F               130:   BOTTOM HOLE TEMPERATURE
 TCS .HRS               5:   TIME CURCULATED STOPPED
 MRT .F               130:   MAXIMUM RECORDED TEMPERATURE
 LUN .            HL 6264:   LOGGING UNIT NUMBER
 LUL .           GILLETTE:   LOGGING UNIT LOCATION
 ENGI.      P.H. FAHLSING:   RECORDING ENGINEER
 WITN.             STRONG:   WITNESSED BY
 CLNT.            A2DTECH:   CLIENT CODE
 UWI .       490251104300:   UNIQUE WELL ID
 DICO. A2D Technologies, Inc.:   DIGITIZING COMPANY
~OTHER INFORMATION
~A    DEPT     GRR       CALR        SPR       RILD       RILM       RFOC       PORD        CNC       CORR        DEN   
# ...
 2453.5000   107.6146     9.5179   -46.6549     5.9195     5.9059     6.0562  -999.2500  -999.2500  -999.2500  -999.2500
 2454.0000   105.8274     9.5171   -46.8012     5.9191     5.9049     6.0974  -999.2500  -999.2500  -999.2500  -999.2500
 2454.5000   104.9374     9.5026   -46.7967     5.9187     5.8634     6.2245  -999.2500  -999.2500  -999.2500  -999.2500
 2455.0000   104.3514     9.5030   -46.7922     5.9183     5.8626     6.2669  -999.2500  -999.2500  -999.2500  -999.2500
 2455.5000   103.1685     9.5185   -46.7877     5.9179     5.8618     6.3095  -999.2500  -999.2500  -999.2500  -999.2500
 2456.0000   101.6733     9.5189   -46.7831     5.9175     5.8610     6.3966  -999.2500  -999.2500  -999.2500  -999.2500
 2456.5000   101.7389     9.5194   -46.7785     5.9171     5.8602     6.4401  -999.2500  -999.2500  -999.2500  -999.2500
 2457.0000   104.4171     9.5198   -46.7741     5.9167     5.8594     6.4391  -999.2500  -999.2500  -999.2500  -999.2500
 2457.5000   106.8341     9.5203   -47.0709     5.9162     5.8586     6.4382  -999.2500  -999.2500  -999.2500  -999.2500
 2458.0000   107.4493     9.5208   -47.3677     5.8751     5.8174     6.4373  -999.2500  -999.2500  -999.2500  -999.2500
 2458.5000   106.8597     9.5212   -47.8140     5.8342     5.7763     6.3921  -999.2500  -999.2500  -999.2500  -999.2500
 2459.0000   107.1782     9.5217   -47.9613     5.7936     5.7755     6.3021  -999.2500  -999.2500  -999.2500  -999.2500
 2459.5000   108.0938     9.5221   -48.1075     5.7932     5.7748     6.1239  -999.2500  -999.2500  -999.2500  -999.2500
 2460.0000   108.7090     9.5225   -48.2537     5.7928     5.7740     6.0452  -999.2500  -999.2500  -999.2500  -999.2500
 2460.5000   108.7237     9.5230   -48.3988     5.7924     5.7732     6.0863  -999.2500  -999.2500  -999.2500  -999.2500
 2461.0000   108.4379     9.5235   -48.3945     5.8322     5.8529     6.2563  -999.2500  -999.2500  -999.2500  -999.2500
 2461.5000   107.8555     9.5239   -48.2395     5.8723     5.8928     6.5207  -999.2500  -999.2500  -999.2500  -999.2500
 2462.0000   108.1704     9.5244   -48.2349     5.9537     5.9742     6.7493  -999.2500  -999.2500  -999.2500  -999.2500
 2462.5000   107.2841     9.5248   -48.0790     6.0361     6.0218     6.9378  -999.2500  -999.2500  -999.2500  -999.2500
 2463.0000   104.8963     9.5253   -47.9240     6.1198     6.1401     7.1316  -999.2500  -999.2500  -999.2500  -999.2500
 2463.5000   103.7097     9.5257   -47.7690     6.2045     6.2249     7.0298  -999.2500  -999.2500  -999.2500  -999.2500
 2464.0000   104.0246     9.5261   -47.6140     6.2473     6.2675     6.7296  -999.2500  -999.2500  -999.2500  -999.2500
 2464.5000   104.6398     9.5266   -47.3084     6.2467     6.2232     6.4256  -999.2500  -999.2500  -999.2500  -999.2500
 2465.0000   106.4963     9.5421   -47.0028     6.2033     6.1795     6.1635  -999.2500  -999.2500  -999.2500  -999.2500
 2465.5000   108.8769     9.5426   -46.6972     6.1601     6.1786     6.0780  -999.2500  -999.2500  -999.2500  -999.2500
 2466.0000   108.2909     9.5580   -46.5422     6.1172     6.1778     6.1193  -999.2500  -999.2500  -999.2500  -999.2500
 2466.5000   105.9031     9.5735   -46.5368     6.1167     6.1801     6.3779  -999.2500  -999.2500  -999.2500  -999.2500
 2467.0000   102.9147     9.5739   -46.6830     6.1163     6.3058     6.7868  -999.2500  -999.2500  -999.2500  -999.2500
 2467.5000   100.8272     9.5743   -46.8292     6.1584     6.3488     7.0736  -999.2500  -999.2500  -999.2500  -999.2500
 2468.0000    99.9372     9.5598   -46.9765     6.2007     6.3477     7.3766  -999.2500  -999.2500  -999.2500  -999.2500
 2468.5000   100.8564     9.5602   -47.1227     6.2002     6.3030     7.4742  -999.2500  -999.2500  -999.2500  -999.2500
 2469.0000   104.1743     9.5456   -47.2678     6.2429     6.1726     7.2689  -999.2500  -999.2500  -999.2500  -999.2500
 2469.5000   106.3172     9.5462   -47.2634     6.2424     6.0869     6.9243  -999.2500  -999.2500  -999.2500  -999.2500
 2470.0000   106.3056     9.5466   -47.2590     6.1563     6.0441     6.6418  -999.2500  -999.2500  -999.2500  -999.2500
 2470.5000   107.2247     9.5470   -47.2545     6.0696     6.1275     6.2833  -999.2500  -999.2500  -999.2500  -999.2500
 2471.0000   109.3414     9.5323   -47.2492     5.9403     6.1227     5.9854  -999.2500  -999.2500  -999.2500  -999.2500
 2471.5000   110.8575     9.5329   -47.2448     5.7437     5.9583     5.9793  -999.2500  -999.2500  -999.2500  -999.2500
 2472.0000   111.7730     9.5183   -47.3910     5.5866     5.7948     6.1944  -999.2500  -999.2500  -999.2500  -999.2500
 2472.5000   112.9888     9.5339   -47.5383     5.3593     5.6357     6.3279  -999.2500  -999.2500  -999.2500  -999.2500
 2473.0000   113.3037     9.5343   -47.5328     5.3220     5.4810     6.3665  -999.2500  -999.2500  -999.2500  -999.2500
 2473.5000   112.1171     9.5347   -47.5284     5.3586     5.4426     6.0645  -999.2500  -999.2500  -999.2500  -999.2500
 2474.0000   109.0332     9.5352   -47.5240     5.4328     5.5176     5.8981  -999.2500  -999.2500  -999.2500  -999.2500
 2474.5000   105.8437     9.5356   -47.5196     5.5081     5.5552     5.9795  -999.2500  -999.2500  -999.2500  -999.2500
 2475.0000   104.9574     9.5361   -47.5151     5.5459     5.5930     6.1892  -999.2500  -999.2500  -999.2500  -999.2500
 2475.5000   104.9720     9.5365   -47.2086     5.5840     5.5967     6.3182  -999.2500  -999.2500  -999.2500  -999.2500
 2476.0000   103.7854     9.5219   -47.0536     5.5069     5.6304     6.4498  -999.2500  -999.2500  -999.2500  -999.2500
 2476.5000   102.2985     9.5225   -46.8986     5.4309     5.5906     6.4041  -999.2500  -999.2500  -999.2500  -999.2500
 2477.0000   102.6134     9.5229   -46.8942     5.2460     5.4749     6.3103  -999.2500  -999.2500  -999.2500  -999.2500
 2477.5000   105.0304     9.5233   -46.8898     5.1379     5.3246     6.1848  -999.2500  -999.2500  -999.2500  -999.2500
 2478.0000   108.9574     9.5238   -47.0361     5.0670     5.1784     5.9737  -999.2500  -999.2500  -999.2500  -999.2500
 2478.5000   109.8649     9.5242   -47.4834     5.0667     5.1777     5.7698  -999.2500  -999.2500  -999.2500  -999.2500
 2479.0000   108.9818     9.5096   -47.7950     5.0663     5.2130     5.5728  -999.2500  -999.2500  -999.2500  -999.2500
 2479.5000   105.3927     9.5101   -47.9264     5.0660     5.2850     5.4199  -999.2500  -999.2500  -999.2500  -999.2500
 2480.0000    93.9959     9.5255   -47.9209     5.0284     5.3259     5.6882  -999.2500  -999.2500  -999.2500  -999.2500
 2480.5000    92.5054     9.5261   -47.9166     4.8169     5.3945     6.0529  -999.2500  -999.2500  -999.2500  -999.2500
 2481.0000    93.1242     9.5265   -47.7616     4.6039     5.2100     6.3549  -999.2500  -999.2500  -999.2500  -999.2500
 2481.5000    99.1449     9.5269   -47.7572     4.3909     4.8608     6.6208  -999.2500  -999.2500  -999.2500  -999.2500
 2482.0000   106.6670     9.5274   -47.6022     4.1636     4.4111     5.7641  -999.2500  -999.2500  -999.2500  -999.2500
 2482.5000   113.3076     9.5278   -47.5978     3.8402     3.9479     4.9838  -999.2500  -999.2500  -999.2500  -999.2500
 2483.0000   115.7497     9.5282   -47.5934     3.6839     3.7867     4.6179  -999.2500  -999.2500  -999.2500  -999.2500
 2483.5000   117.8255     9.5287   -47.5664     3.5340     3.6827     4.2494  -999.2500  -999.2500  -999.2500  -999.2500
 2484.0000   118.7410     9.5291   -47.4329     3.4137     3.6065     4.0760  -999.2500  -999.2500  -999.2500  -999.2500
 2484.5000   116.3532     9.5145   -47.4285     3.3433     3.6099     4.0195  -999.2500  -999.2500  -999.2500  -999.2500
 2485.0000   113.6651     9.5151   -47.2735     3.3431     3.6813     4.1604  -999.2500  -999.2500  -999.2500  -999.2500
 2485.5000   112.7788     9.5004   -47.2692     3.4130     3.7579     4.3376  -999.2500  -999.2500  -999.2500  -999.2500
 2486.0000   113.3940     9.4858   -47.4165     3.5088     3.8099     4.4932  -999.2500  -999.2500  -999.2500  -999.2500
 2486.5000   115.2104     9.5014   -47.4110     3.6096     3.8893     4.6777  -999.2500  -999.2500  -999.2500  -999.2500
