~VERSION INFORMATION
 VERS.                2.0:   CWLS LOG ASCII STANDARD - VERSION 2.0
 WRAP.                 NO:   ONE LINE PER DEPTH STEP
~WELL INFORMATION
#MNEM.UNIT      DATA TYPE    INFORMATION
#----------   ------------   ------------------------------
 STRT.F           84.0000:   START DEPTH
 STOP.F         1141.0000:   STOP DEPTH
 STEP.F            0.5000:   STEP LENGTH
 NULL.          -999.2500:   NO VALUE
 COMP.           U S NAVY:   COMPANY
 WELL.     NPR#3 #78-S-11:   WELL
 FLD .             TEAPOT:   FIELD
 LOC .      S11 T38N R78W:   LOCATION
 CNTY.            NATRONA:   COUNTY
 STAT.            WYOMING:   STATE
 CTRY. UNITED STATES OF AMERICA:   COUNTRY
 SRVC.       Schlumberger:   SERVICE COMPANY
 DATE.        28-AUG-1966:   LOGDATE
 API .       490250970700:   API NUMBER
~CURVE INFORMATION
#MNEM.UNIT       API CODE    CURVE DESCRIPTION
#----------   ------------   ------------------------------
 DEPT.F                  :   
 SPR .MV     05 010 01 00:   SPONTANEOUS POTENTIAL FROM RES.
 ASN .OHMM   05 041 16 00:   AMPLIFIED SHORT NORMAL 16"
 ILD .OHMM   05 120 46 00:   INDUCTION LOG DEEP
 CILD.MMHO   05 110 46 00:   CONDUCTIVITY INDUCTION LOG DEEP
 GRD .GAPI   45 310 01 00:   GAMMA RAY FROM DENSITY LOG
 CALD.IN     45 280 60 00:   CALIPER FROM DENSITY LOG
 DPHI.DEC    45 890 12 00:   DENSITY POROSITY SANDSTONE
 RHOB.G/C3   45 350 01 00:   BULK DENSITY
~PARAMETER INFORMATION
#MNEM.UNIT          VALUE    DESCRIPTION
#----------   ------------   ------------------------------
 PD  .                 GL:   PERMANENT DATUM
 EPD .F              5245:   ELEVATION PERMANENT DATUM
 LMF .                 KB:   LOG MEASURED FROM
 DAPD.F                 5:   FEET ABOVE PERMANENT DATUM
 DMF .                 KB:   DRILLING MEASURED FROM
 EKB .F              5250:   KELLING BUSHING
 EGL .F              5245:   GROUND LEVEL
 DATE.            8-28-66:   RUN DATE
 RUN .                  1:   RUN NUMBER
 DD  .F              1142:   DEPTH DRILLER
 DL  .F              1142:   DEPTH LOGGER
 BLI .F              1141:   BOTTOM LOG INTERVAL
 TLI .F                85:   TOP LOG INTERVAL
 CS  .IN            8.625:   CASING SIZE
 CBD .F                10:   CASING BOTTOM DRILLER
 BS  .IN             6.75:   BIT SIZE
 BSD .F              1142:   BIT SIZE AT DEPTH
 DFT .           CHEM GEL:   DRILLING FLUID TYPE
 DFD .               10.7:   DRILLING FLUID DENSITY
 DFV .                 40:   DRILLING FLUID VISCOSITY
 MSS .          FLOW LINE:   MUD SAMPLE SOURCE
 RMS .OHMM           1.58:   RESISTIVITY MUD SAMPLE
 MST .F                70:   MUD SAMPLE TEMPERATURE
 RMF .OHMM            .93:   RESISTIVITY MUD FILTRATE SAMPLE
 MFST.F                70:   MUD FILTRATE SAMPLE TEMPERATURE
 MFSS.                  M:   MUD FILTRATE SAMPLE SOURCE
 RMB .OHMM           1.19:   RESISTIVITY MUD AT BHT
 BHT .F                94:   BOTTOM HOLE TEMPERATURE
 TCS .HRS               1:   TIME CURCULATED STOPPED
 MRT .F                94:   MAXIMUM RECORDED TEMPERATURE
 LUN .               4507:   LOGGING UNIT NUMBER
 LUL .               CSPR:   LOGGING UNIT LOCATION
 ENGI.             KNOBEL:   RECORDING ENGINEER
 WITN.         MAY/TUTTLE:   WITNESSED BY
 CLNT.            A2DTECH:   CLIENT CODE
 ORIG.           5" PRINT:   ORIGIN OF DATA
 UWI .       490250970700:   UNIQUE WELL ID
 DICO. A2D Technologies, Inc.:   DIGITIZING COMPANY
~OTHER INFORMATION
~A   DEPT      SPR          ASN        ILD      CILD       GRD       CALD       DPHI       RHOB   
   84.0000   -58.0694     3.6943     4.7569    82.6684  -999.2500  -999.2500  -999.2500  -999.2500
   84.5000   -57.9186     3.5446     4.9085   170.6271  -999.2500  -999.2500  -999.2500  -999.2500
   85.0000   -57.9186     3.7177     4.9851   169.8530  -999.2500  -999.2500  -999.2500  -999.2500
   85.5000   -57.9186     3.9469     5.1367   172.8326  -999.2500  -999.2500  -999.2500  -999.2500
   86.0000   -57.7677     5.3178     5.2133   176.5697  -999.2500  -999.2500  -999.2500  -999.2500
   86.5000   -57.9186     5.4234     5.2899   180.3068  -999.2500  -999.2500  -999.2500  -999.2500
   87.0000   -57.9186     5.4839     5.5166   183.2976  -999.2500  -999.2500  -999.2500  -999.2500
   87.5000   -57.7677     5.5143     5.5932   181.0141  -999.2500  -999.2500  -999.2500  -999.2500
   88.0000   -57.7677     5.4998     5.7448   175.7287  -999.2500  -999.2500  -999.2500  -999.2500
   88.5000   -57.6169     5.4552     5.8964   169.6913  -999.2500  -999.2500  -999.2500  -999.2500
   89.0000   -57.6169     5.4706     6.1982   165.9096  -999.2500  -999.2500  -999.2500  -999.2500
   89.5000   -57.6169     5.6212     6.5000   160.6089  -999.2500  -999.2500  -999.2500  -999.2500
   90.0000   -57.6169     6.0872     6.9520   156.7922  -999.2500  -999.2500  -999.2500  -999.2500
   90.5000   -57.6169     6.4029     7.5590   152.2231  -999.2500  -999.2500  -999.2500  -999.2500
   91.0000   -57.6169     6.9439     8.0861   146.6613  -999.2500  -999.2500  -999.2500  -999.2500
   91.5000   -57.6169     6.8092     8.2327   133.4617  -999.2500  -999.2500  -999.2500  -999.2500
   92.0000   -57.6411     6.5544     8.1391   132.6876  -999.2500  -999.2500  -999.2500  -999.2500
   92.5000   -57.6169     6.4648     7.8353   134.1690  -999.2500  -999.2500  -999.2500  -999.2500
   93.0000   -57.6169     6.4652     7.4868   137.1543  -999.2500  -999.2500  -999.2500  -999.2500
   93.5000   -57.6169     6.5257     7.1880   140.8914  -999.2500  -999.2500  -999.2500  -999.2500
   94.0000   -57.4661     6.5712     6.8892   145.3803  -999.2500  -999.2500  -999.2500  -999.2500
   94.5000   -57.4661     6.4666     6.5153   152.8768  -999.2500  -999.2500  -999.2500  -999.2500
   95.0000   -57.3152     6.3469     6.1410   158.8696  -999.2500  -999.2500  -999.2500  -999.2500
   95.5000   -57.3152     6.2873     5.8426   162.6067  -999.2500  -999.2500  -999.2500  -999.2500
   96.0000   -57.1644     6.1676     5.5438   166.3438  -999.2500  -999.2500  -999.2500  -999.2500
   96.5000   -56.8627     5.9879     5.3197   170.8328  -999.2500  -999.2500  -999.2500  -999.2500
   97.0000   -56.8627     5.8682     5.0212   174.5699  -999.2500  -999.2500  -999.2500  -999.2500
   97.5000   -56.7119     5.7936     4.8726   179.0589  -999.2500  -999.2500  -999.2500  -999.2500
   98.0000   -56.7119     5.7039     4.8740   180.5414  -999.2500  -999.2500  -999.2500  -999.2500
   98.5000   -56.5611     5.6443     4.7250   180.5180  -999.2500  -999.2500  -999.2500  -999.2500
   99.0000   -56.5611     5.6447     4.7269   180.4957  -999.2500  -999.2500  -999.2500  -999.2500
   99.5000   -56.2594     5.7053     4.7284   180.4734  -999.2500  -999.2500  -999.2500  -999.2500
  100.0000   -56.2594     5.6306     4.8049   182.7068  -999.2500  -999.2500  -999.2500  -999.2500
  100.5000   -56.1086     5.5107     4.8815   183.4364  -999.2500  -999.2500  -999.2500  -999.2500
  101.0000   -56.1086     5.5114     4.9581   183.3436  -999.2500  -999.2500  -999.2500  -999.2500
  101.5000   -56.1086     5.5119     5.0346   179.4211  -999.2500  -999.2500  -999.2500  -999.2500
  102.0000   -56.1086     5.5583     5.2613   174.2053  -999.2500  -999.2500  -999.2500  -999.2500
  102.5000   -56.1086     5.5728     5.4130   165.2965  -999.2500  -999.2500  -999.2500  -999.2500
  103.0000   -56.0995     5.5567     5.7148   161.5148  -999.2500  -999.2500  -999.2500  -999.2500
  103.5000   -55.9578     5.5807     5.9415   155.4774  -999.2500  -999.2500  -999.2500  -999.2500
  104.0000   -55.9578     5.9715     6.1682   150.9439  -999.2500  -999.2500  -999.2500  -999.2500
  104.5000   -55.8069     6.3667     6.4700   150.9216  -999.2500  -999.2500  -999.2500  -999.2500
  105.0000   -55.6561     6.4910     6.7718   149.3955  -999.2500  -999.2500  -999.2500  -999.2500
  105.5000   -55.6561     6.0408     7.2287   147.1176  -999.2500  -999.2500  -999.2500  -999.2500
  106.0000   -55.6561     6.0716     7.6006   146.3434  -999.2500  -999.2500  -999.2500  -999.2500
  106.5000   -55.6561     6.5675     7.6771   144.8174  -999.2500  -999.2500  -999.2500  -999.2500
  107.0000   -55.6773     6.4628     7.3684   146.2988  -999.2500  -999.2500  -999.2500  -999.2500
  107.5000   -55.8295     6.2981     6.7667   154.5472  -999.2500  -999.2500  -999.2500  -999.2500
  108.0000   -55.9578     6.0583     5.6550   165.8031  -999.2500  -999.2500  -999.2500  -999.2500
  108.5000   -55.9578     5.9235     5.0558   172.5477  -999.2500  -999.2500  -999.2500  -999.2500
  109.0000   -55.8069     5.9391     4.7567   180.0442  -999.2500  -999.2500  -999.2500  -999.2500
  109.5000   -55.7782     5.7744     4.7585   184.5332  -999.2500  -999.2500  -999.2500  -999.2500
  110.0000   -55.6561     5.4595     4.6846   183.7590  -999.2500  -999.2500  -999.2500  -999.2500
  110.5000   -55.8069     5.3548     4.7615   179.9773  -999.2500  -999.2500  -999.2500  -999.2500
  111.0000   -55.9578     5.4604     4.8381   168.6566  -999.2500  -999.2500  -999.2500  -999.2500
  111.5000   -54.6003     5.5810     5.1399   164.8947  -999.2500  -999.2500  -999.2500  -999.2500
  112.0000   -53.8462     5.7016     5.5918   161.7745  -999.2500  -999.2500  -999.2500  -999.2500
  112.5000   -53.6953     5.7921     5.9687   158.7093  -999.2500  -999.2500  -999.2500  -999.2500
  113.0000   -57.7677     5.9577     7.2464   149.0332  -999.2500  -999.2500  -999.2500  -999.2500
  113.5000   -56.1086     6.0182     7.8485   143.7478  -999.2500  -999.2500  -999.2500  -999.2500
  114.0000   -55.5053     6.0637     7.9251   141.4698  -999.2500  -999.2500  -999.2500  -999.2500
  114.5000   -55.3545     6.1543     7.4010   139.9438  -999.2500  -999.2500  -999.2500  -999.2500
  115.0000   -55.2036     6.2448     6.8019   140.6789  -999.2500  -999.2500  -999.2500  -999.2500
  115.5000   -55.0528     6.3804     6.5027   145.9142  -999.2500  -999.2500  -999.2500  -999.2500
  116.0000   -55.0528     6.5010     6.2790   151.1551  -999.2500  -999.2500  -999.2500  -999.2500
  116.5000   -54.9020     6.5615     6.5061   152.6421  -999.2500  -999.2500  -999.2500  -999.2500
  117.0000   -54.4495     6.5019     6.6577   150.3586  -999.2500  -999.2500  -999.2500  -999.2500
  117.5000   -54.1478     6.4421     6.8094   145.8250  -999.2500  -999.2500  -999.2500  -999.2500
  118.0000   -53.8462     6.5027     7.0361   142.7952  -999.2500  -999.2500  -999.2500  -999.2500
  118.5000   -53.9970     6.6383     7.1126   139.7654  -999.2500  -999.2500  -999.2500  -999.2500
  119.0000   -54.1478     6.8490     7.2643   137.4875  -999.2500  -999.2500  -999.2500  -999.2500
  119.5000   -54.2986     7.0747     7.4159   134.4576  -999.2500  -999.2500  -999.2500  -999.2500
  120.0000   -54.4495     7.3154     7.6426   131.4278  -999.2500  -999.2500  -999.2500  -999.2500
  120.5000   -54.4495     7.5260     7.8719   125.3905  -999.2500  -999.2500  -999.2500  -999.2500
  121.0000   -54.2986     7.8268     8.3263   120.1050  -999.2500  -999.2500  -999.2500  -999.2500
  121.5000   -54.2986     8.0224     8.7132   117.0703  -999.2500  -999.2500  -999.2500  -999.2500
  122.0000   -54.2986     8.1730     8.9349   115.5489  -999.2500  -999.2500  -999.2500  -999.2500
  122.5000   -54.2986     8.1735     8.9264   116.2788  -999.2500  -999.2500  -999.2500  -999.2500
  123.0000   -54.2986     8.1289     8.8528   118.6215  -999.2500  -999.2500  -999.2500  -999.2500
  123.5000   -54.2986     8.0542     8.6290   123.7474  -999.2500  -999.2500  -999.2500  -999.2500
  124.0000   -54.2986     7.9346     8.3302   131.2439  -999.2500  -999.2500  -999.2500  -999.2500
