~VERSION INFORMATION
 VERS.                2.0:   CWLS LOG ASCII STANDARD - VERSION 2.0
 WRAP.                 NO:   ONE LINE PER DEPTH STEP
~WELL INFORMATION
#MNEM.UNIT      DATA TYPE    INFORMATION
#----------   ------------   ------------------------------
 STRT.F           28.0000:   START DEPTH
 STOP.F          693.0000:   STOP DEPTH
 STEP.F            0.5000:   STEP LENGTH
 NULL.          -999.2500:   NO VALUE
 COMP. FENIX & SCISSON INC:   COMPANY
 WELL.       NPR-3 #63-15:   WELL
 FLD .             TEAPOT:   FIELD
 LOC .      S15 T38N R78W:   LOCATION
 CNTY.            NATRONA:   COUNTY
 STAT.            WYOMING:   STATE
 CTRY. UNITED STATES OF AMERICA:   COUNTRY
 SRVC.            Unknown:   SERVICE COMPANY
 DATE.        10-JUN-1978:   LOGDATE
 API .       490251063800:   API NUMBER
~CURVE INFORMATION
#MNEM.UNIT       API CODE    CURVE DESCRIPTION
#----------   ------------   ------------------------------
 DEPT.F                  :   
 SPR .MV     05 010 01 00:   SPONTANEOUS POTENTIAL FROM RES.
 SN  .OHMM   05 040 16 00:   SHORT NORMAL 16"
 ILD .OHMM   05 120 46 00:   INDUCTION LOG DEEP
 CALD.IN     45 280 60 00:   CALIPER FROM DENSITY LOG
 GRD .GAPI   45 310 01 00:   GAMMA RAY FROM DENSITY LOG
 CORR.G/C3   45 356 01 00:   DENSITY CORRECTION
 DPHI.DEC    45 890 12 00:   DENSITY POROSITY SANDSTONE
 DEN .G/C3   45 350 01 00:   DENSITY
~PARAMETER INFORMATION
#MNEM.UNIT          VALUE    DESCRIPTION
#----------   ------------   ------------------------------
 PD  .                 GL:   PERMANENT DATUM
 EPD .F              5265:   ELEVATION PERMANENT DATUM
 LMF .                 KB:   LOG MEASURED FROM
 DAPD.F                 4:   FEET ABOVE PERMANENT DATUM
 DMF .                 KB:   DRILLING MEASURED FROM
 EKB .F              5269:   KELLING BUSHING
 EGL .F              5265:   GROUND LEVEL
 DATE.        10-JUN-1978:   RUN DATE
 RUN .                  1:   RUN NUMBER
 DD  .F               690:   DEPTH DRILLER
 DL  .F               697:   DEPTH LOGGER
 BLI .F               690:   BOTTOM LOG INTERVAL
 TLI .F                35:   TOP LOG INTERVAL
 CS  .IN            8.625:   CASING SIZE
 CBD .F                40:   CASING BOTTOM DRILLER
 CBL .F                35:   CASING BOTTOM LOGGER
 BS  .IN            7.875:   BIT SIZE
 BSD .F               690:   BIT SIZE AT DEPTH
 DFT .                KCL:   DRILLING FLUID TYPE
 DFD .                8.7:   DRILLING FLUID DENSITY
 DFV .                 34:   DRILLING FLUID VISCOSITY
 DFPH.                 10:   DRILLING FLUID PH
 DFL .               11.6:   DRILLING FLUID LOSS
 MSS .            MUD PIT:   MUD SAMPLE SOURCE
 RMS .OHMM            .32:   RESISTIVITY MUD SAMPLE
 MST .F                74:   MUD SAMPLE TEMPERATURE
 RMF .OHMM            .28:   RESISTIVITY MUD FILTRATE SAMPLE
 MFST.F                78:   MUD FILTRATE SAMPLE TEMPERATURE
 RMC .OHMM            .36:   RESISTIVITY MUD CAKE
 MCST.F                78:   MUD CAKE SAMPLE TEMPERATURE
 MFSS.               MEAS:   MUD FILTRATE SAMPLE SOURCE
 MCSS.               MEAS:   MUD CAKE SAMPLE SOURCE
 BHT .F                80:   BOTTOM HOLE TEMPERATURE
 TCS .HRS            0100:   TIME CURCULATED STOPPED
 MRT .F                80:   MAXIMUM RECORDED TEMPERATURE
 LUN .               2958:   LOGGING UNIT NUMBER
 LUL .               CASP:   LOGGING UNIT LOCATION
 ENGI.             MILLER:   RECORDING ENGINEER
 WITN.           MCGINLEY:   WITNESSED BY
 CLNT.            A2DTECH:   CLIENT CODE
 ORIG.           5" PRINT:   ORIGIN OF DATA
 UWI .       490251063800:   UNIQUE WELL ID
 DICO. A2D Technologies, Inc.:   DIGITIZING COMPANY
~OTHER INFORMATION
~A   DEPT      SPR         SN        ILD       CALD        GRD       CORR       DPHI        DEN   
# ...
  230.5000    -7.3204     9.4871     9.2142     7.7769    92.1199     0.0136     0.1180     2.4818
  231.0000    -7.3054     9.2350     9.1568     7.7932    93.2567     0.0018     0.1219     2.4729
  231.5000    -7.2877     9.0503     9.0385     7.7945    92.6792     0.0005     0.1212     2.4684
  232.0000    -7.2730     8.8726     8.9806     7.7958    91.7958     0.0036     0.1197     2.4700
  232.5000    -7.2583     8.8792     8.9259     7.7672    94.9504     0.0068     0.1224     2.4738
  233.0000    -7.3970     8.8858     8.8705     7.7227    93.3248     0.0038     0.1232     2.4687
  233.5000    -7.3787     8.8925     8.7545     7.7250    90.3559     0.0010     0.1217     2.4642
  234.0000    -7.3640     8.8306     8.6999     7.7116    90.5213     0.0102     0.1127     2.4696
  234.5000    -7.3494     8.6028     8.6457     7.6827    93.0749     0.0194     0.1084     2.4892
  235.0000    -7.3347     8.5499     8.5340     7.6844    95.0313     0.0210     0.1045     2.4938
  235.5000    -7.9189     8.5578     8.5398     7.7156    92.2117     0.0197     0.1024     2.4976
  236.0000    -8.0539     8.5642     8.6050     7.7319    88.1980     0.0093     0.1014     2.4999
  236.5000    -8.0389     8.5706     8.6108     7.7332    92.8411     0.0079     0.1023     2.5008
  237.0000    -8.0240     8.5770     8.6166     7.7346    94.0513     0.0096     0.1041     2.4909
  237.5000    -8.0062     8.5226     8.6224     7.7509    92.8735     0.0098     0.1065     2.4858
  238.0000    -8.1449     8.2976     8.5686     7.7522    93.1882     0.0099     0.1092     2.4853
  238.5000    -8.1266     8.2464     8.3402     7.7385    93.9552     0.0101     0.1112     2.4861
  239.0000    -8.2653     8.1958     8.3461     7.7249    95.2259     0.0102     0.1118     2.4862
  239.5000    -8.2470     8.2021     8.3529     7.7262    99.8901     0.0104     0.1117     2.4863
  240.0000    -8.2323     8.2095     8.3586     7.7126   100.4171     0.0105     0.1111     2.4863
  240.5000    -8.2176     8.2156     8.3051     7.6989    96.7060     0.0091     0.1108     2.4864
  241.0000    -8.0533     8.2218     8.2547     7.7003    91.7968     0.0061     0.1144     2.4873
  241.5000    -8.0386     8.2279     8.2603     7.7319    90.4657     0.0049     0.1212     2.4821
  242.0000    -8.0240     8.2912     8.2075     7.7481    92.1277     0.0006     0.1203     2.4701
  242.5000    -8.0090     8.2974     8.2144     7.7644    93.3379    -0.0008     0.1175     2.4710
  243.0000    -7.9940     8.2447     8.2200     7.7505    98.4287     0.0024     0.1166     2.4793
  243.5000    -7.9763     8.2524     8.2256     7.7521   101.7285     0.0056     0.1167     2.4796
  244.0000    -7.9616     8.2016     8.2313     7.7534    98.4611     0.0057     0.1190     2.4780
  244.5000    -7.9470     8.2077     8.2380     7.7395    98.4773     0.0014     0.1202     2.4766
  245.0000    -8.0857     8.1572     8.2436     7.7262   100.1353     0.0000     0.1201     2.4783
  245.5000    -8.0673     8.1070     8.1357     7.7122   102.2410     0.0032     0.1108     2.4860
  246.0000    -8.0527     8.0571     8.0836     7.7138   102.1079     0.0093     0.1041     2.4983
  246.5000    -8.1914     8.0075     8.0333     7.7750   100.0346     0.0170     0.1002     2.5009
  247.0000    -8.1730     7.9033     7.9832     7.7764    99.7522     0.0186     0.0999     2.4965
  247.5000    -8.1584     7.8019     7.8801     7.7627   100.8284     0.0173     0.1044     2.4973
  248.0000    -8.1437     7.6473     7.7769     7.7491   101.5761     0.0098     0.1121     2.4952
  248.5000    -8.1287     7.5478     7.5662     7.7504    99.9264     0.0069     0.1145     2.4862
  249.0000    -8.1138     7.3982     7.3037     7.7368    99.5226     0.0027     0.1124     2.4863
  249.5000    -8.0961     7.2516     7.1713     7.7231   100.4343     0.0044     0.1117     2.4872
  250.0000    -8.0838     7.2070     7.1774     7.7697    99.8796     0.0075     0.1114     2.4887
  250.5000    -8.0689     7.1710     7.2114     7.8006    95.2429     0.0016     0.1141     2.4849
  251.0000    -8.0539     7.1351     7.2520     7.7421    92.1262     0.0063     0.1113     2.4861
  251.5000    -8.0389     7.1715     7.2925     7.6838    91.5463     0.0112     0.1143     2.4912
  252.0000    -8.0215     7.3264     7.3331     7.6403    91.8628     0.0021     0.1193     2.4808
  252.5000    -8.0068     7.4331     7.5048     7.5518    91.8804    -0.0008     0.1223     2.4689
  253.0000    -8.1455     7.5413     7.7203     7.6130    90.6288     0.0009     0.1212     2.4682
  253.5000    -8.2768     7.7042     7.8328     7.6143    84.7557     0.0011     0.1141     2.4735
  254.0000    -8.2622     8.0357     8.0021     7.6156    84.4704     0.0042     0.1035     2.4954
  254.5000    -8.2475     8.2093     8.1751     7.5720    84.9401     0.0074     0.0999     2.5014
  255.0000    -8.2328     8.2143     8.1801     7.5434    86.0025     0.0120     0.1020     2.4865
  255.5000    -8.2181     8.1626     8.1852     7.6055    87.6618     0.0152     0.1050     2.4956
  256.0000    -8.0537     8.1676     8.1336     7.6808    89.4705     0.0138     0.1070     2.5009
  256.5000    -8.0389     8.1162     8.0837     7.5451    89.6329     0.0109     0.1067     2.4949
  257.0000    -8.0240     8.0652     8.0886     7.4143    89.5012     0.0096     0.1034     2.4928
  257.5000    -8.0060     8.0145     8.0365     7.3405    91.9113     0.0098     0.0994     2.4996
  258.0000    -7.9914     7.9641     7.9321     7.3421    93.2876     0.0114     0.0967     2.5080
  258.5000    -7.9767     7.8606     7.8266     7.3135    89.7076     0.0131     0.0955     2.5141
  259.0000    -7.9620     7.8654     7.7773     7.2995    87.9134     0.0117     0.0961     2.5134
  259.5000    -7.9473     7.8702     7.7833     7.3461    86.7214     0.0104     0.0984     2.5082
  260.0000    -8.0824     7.8750     7.8422     7.4073    86.4767     0.0105     0.0984     2.5052
  260.5000    -8.0677     8.0451     8.0674     7.4685    87.5391     0.0123     0.0972     2.5061
  261.0000    -8.2064     8.3913     8.6511     7.5144    86.3670     0.0168     0.0938     2.5144
  261.5000    -8.1880     8.6321     8.7772     7.4113    82.8025     0.0170     0.0923     2.5273
  262.0000    -8.1734     8.8186     8.8436     7.4276    73.7156     0.0081     0.0932     2.5243
  262.5000    -8.1587     8.9469     8.8490     7.5187    73.2810     0.0023     0.0959     2.5124
  263.0000    -8.1437     8.9524     8.9161     7.5350    82.1090    -0.0006     0.0982     2.5041
  263.5000    -8.1287     8.9580     8.9216     7.5364    86.7534     0.0041     0.1000     2.5012
  264.0000    -8.1110     8.9633     8.9283     7.5377    87.5172     0.0102     0.1003     2.4999
  264.5000    -8.0963     8.8456     8.8707     7.5391    87.0866    -0.0001     0.1015     2.4947
  265.0000    -8.0816     8.7306     8.8149     7.5407    87.1046    -0.0045     0.1132     2.4857
  265.5000    -8.0670     8.6744     8.6403     7.5420    87.8880    -0.0028     0.1143     2.4881
  266.0000    -8.0523     8.4441     8.2937     7.5433    89.7850    -0.0012     0.1113     2.4866
  266.5000    -8.1910     8.1056     7.9611     7.5147    92.3856     0.0005     0.1089     2.4875
  267.0000    -8.1726     7.9991     7.8564     7.4711    92.5524     0.0066     0.1088     2.4913
  267.5000    -8.1579     7.9476     7.8069     7.4272    90.1820     0.0083     0.1037     2.4929
  268.0000    -8.1433     7.9536     7.8117     7.4438    87.6622     0.0069     0.1022     2.4921
  268.5000    -8.1286     7.8491     7.8708     7.4901    91.1126     0.0071     0.1076     2.5005
  269.0000    -8.1138     7.8539     7.8757     7.5363    92.3242     0.0042     0.1069     2.4998
  269.5000    -8.0988     7.8587     7.9353     7.5376    90.7000     0.0059     0.1021     2.4962
  270.0000    -8.2343     7.8636     7.9401     7.5390    88.4788     0.0105     0.0991     2.5015
  270.5000    -8.2159     7.8685     7.9451     7.5103    88.9441     0.0137     0.1023     2.5031
