~VERSION INFORMATION
 VERS.                2.0:   CWLS LOG ASCII STANDARD - VERSION 2.0
 WRAP.                 NO:   ONE LINE PER DEPTH STEP
~WELL INFORMATION
#MNEM.UNIT      DATA TYPE    INFORMATION
#----------   ------------   ------------------------------
 STRT.F           26.0000:   START DEPTH
 STOP.F          484.0000:   STOP DEPTH
 STEP.F            0.5000:   STEP LENGTH
 NULL.          -999.2500:   NO VALUE
 COMP.    FENIX & SCISSON:   COMPANY
 WELL.        NPR #44-S-3:   WELL
 FLD .              NPR-3:   FIELD
 LOC .       S3 T38N R78W:   LOCATION
 CNTY.            NATRONA:   COUNTY
 STAT.            WYOMING:   STATE
 CTRY. UNITED STATES OF AMERICA:   COUNTRY
 SRVC.              Welex:   SERVICE COMPANY
 DATE.        22-APR-1977:   LOGDATE
 API .       490251034000:   API NUMBER
~CURVE INFORMATION
#MNEM.UNIT       API CODE    CURVE DESCRIPTION
#----------   ------------   ------------------------------
 DEPT.F                  :   
 SPR .MV     07 010 01 00:   SPONTANEOUS POTENTIAL
 ILD .OHMM   07 120 46 00:   INDUCTION LOG DEEP
 ILM .OHMM   07 120 44 00:   INDUCTION LOG MEDIUM
 SGRD.OHMM   07 221 05 00:   SHALLOW SHORT GUARD RESISTIVITY
 GRD .GAPI   45 310 01 00:   GAMMA RAY FROM DENSITY LOG
 CALD.IN     45 280 60 00:   CALIPER FROM DENSITY LOG
 CORR.G/C3   45 356 01 00:   DENSITY CORRECTION
 RHOB.G/C3   45 350 01 00:   BULK DENSITY
 DPHI.DEC    45 890 12 00:   DENSITY POROSITY SANDSTONE
~PARAMETER INFORMATION
#MNEM.UNIT          VALUE    DESCRIPTION
#----------   ------------   ------------------------------
 PD  .                 GL:   PERMANENT DATUM
 EPD .F              5160:   ELEVATION PERMANENT DATUM
 LMF .                 GL:   LOG MEASURED FROM
 DMF .                 GL:   DRILLING MEASURED FROM
 EGL .F              5160:   GROUND LEVEL
 DATE.        22-APR-1977:   RUN DATE
 RUN .                  1:   RUN NUMBER
 DD  .F               490:   DEPTH DRILLER
 DL  .F               486:   DEPTH LOGGER
 BLI .F               484:   BOTTOM LOG INTERVAL
 TLI .F                30:   TOP LOG INTERVAL
 CS  .IN            8.625:   CASING SIZE
 CBD .F                40:   CASING BOTTOM DRILLER
 CBL .F                38:   CASING BOTTOM LOGGER
 BS  .IN            7.875:   BIT SIZE
 BSD .F               490:   BIT SIZE AT DEPTH
 DFT .            KCL GEL:   DRILLING FLUID TYPE
 DFD .                8.8:   DRILLING FLUID DENSITY
 DFV .                 36:   DRILLING FLUID VISCOSITY
 DFPH.                8.0:   DRILLING FLUID PH
 DFL .                6.4:   DRILLING FLUID LOSS
 MSS .            MUD PIT:   MUD SAMPLE SOURCE
 RMS .OHMM            .36:   RESISTIVITY MUD SAMPLE
 MST .F                60:   MUD SAMPLE TEMPERATURE
 RMF .OHMM            .30:   RESISTIVITY MUD FILTRATE SAMPLE
 MFST.F                60:   MUD FILTRATE SAMPLE TEMPERATURE
 RMC .OHMM            .42:   RESISTIVITY MUD CAKE
 MCST.F                60:   MUD CAKE SAMPLE TEMPERATURE
 MFSS.               MEAS:   MUD FILTRATE SAMPLE SOURCE
 MCSS.               MEAS:   MUD CAKE SAMPLE SOURCE
 RMB .OHMM            .30:   RESISTIVITY MUD AT BHT
 BHT .F                70:   BOTTOM HOLE TEMPERATURE
 TCS .HRS            0200:   TIME CURCULATED STOPPED
 MRT .F                70:   MAXIMUM RECORDED TEMPERATURE
 LUN .               8611:   LOGGING UNIT NUMBER
 LUL .             CASPER:   LOGGING UNIT LOCATION
 ENGI.          T. JOYNER:   RECORDING ENGINEER
 WITN.           ROB LYON:   WITNESSED BY
 CLNT.            A2DTECH:   CLIENT CODE
 ORIG.           5" PRINT:   ORIGIN OF DATA
 UWI .       490251034000:   UNIQUE WELL ID
 DICO. A2D Technologies, Inc.:   DIGITIZING COMPANY
~OTHER INFORMATION
~A   DEPT      SPR        ILD        ILM       SGRD        GRD       CALD       CORR       RHOB       DPHI   
# ...
  135.5000   -50.4496     8.2363     8.8259    12.3670   112.5925     7.7496     0.0002     2.4675     0.1149
  136.0000   -50.5879     8.2408     8.7083    12.2896   112.0173     7.7513    -0.0012     2.4720     0.1113
  136.5000   -50.7258     8.4183     8.7144    12.7312   109.5105     7.7530     0.0005     2.4833     0.1068
  137.0000   -50.7151     8.4804     8.7787    12.5645   109.0791     7.7399    -0.0009     2.4856     0.1047
  137.5000   -50.7048     8.4851     8.8548    11.8967   111.6290     7.7264    -0.0007     2.4737     0.1112
  138.0000   -50.8429     8.5487     8.9727    11.8204   112.5350     7.7133    -0.0036     2.4617     0.1159
  138.5000   -50.9881     8.4944     8.9776    11.9941   108.6956     7.7302    -0.0065     2.4566     0.1183
  139.0000   -51.2672     8.3763     8.9826    12.3377   109.1606     7.7319    -0.0093     2.4521     0.1195
  139.5000   -51.4051     8.2670     8.9255    12.8675   110.5170     7.7484    -0.0122     2.4469     0.1200
  140.0000   -51.8398     8.2194     8.8078    12.4387   111.4277     7.7501    -0.0180     2.4382     0.1212
  140.5000   -51.9777     8.2810     8.7493    11.9414   111.5955     7.7366    -0.0179     2.4308     0.1241
  141.0000   -52.2640     8.1704     8.5165    11.6233   110.4260     7.7235    -0.0177     2.4286     0.1271
  141.5000   -52.4021     8.0637     8.2899    11.0056   111.0395     7.7104    -0.0176     2.4325     0.1283
  142.0000   -52.5401     7.9029     8.1246    10.2762   117.1508     7.6384    -0.0156     2.4362     0.1267
  142.5000   -52.8264     7.8528     8.0730    10.5722   115.6841     7.3290    -0.0112     2.4341     0.1264
  143.0000   -52.8158     7.8572     8.1336    10.0797   114.9471     7.7603    -0.0096     2.4319     0.1246
  143.5000   -52.8053     7.9161     8.2514     9.7422   115.2766     7.7028    -0.0079     2.4357     0.1276
  144.0000   -52.9436     7.9205     8.3133    11.6670   112.1755     7.6896    -0.0078     2.4388     0.1248
  144.5000   -52.9328     7.9249     8.3179    11.9167   114.2749     7.7062    -0.0076     2.4388     0.1239
  145.0000   -52.9224     7.8740     8.3803    11.6797   112.1844     7.7079    -0.0090     2.4359     0.1251
  145.5000   -52.9120     7.9337     8.3850    11.6874   110.0042     7.7096    -0.0104     2.4330     0.1274
  146.0000   -52.9016     7.9381     8.3896    11.6946   112.2943     7.7261    -0.0102     2.4330     0.1277
  146.5000   -52.8911     7.9426     8.5112    11.3722   114.8712     7.7278    -0.0100     2.4346     0.1262
  147.0000   -52.8807     8.0021     8.5159    11.0798   116.6686     7.7295    -0.0099     2.4362     0.1265
  147.5000   -52.8703     8.0621     8.6393    11.3267   115.3217     7.7466    -0.0097     2.4407     0.1267
  148.0000   -52.8598     8.1226     8.8253    11.7237   117.2371     7.7626    -0.0096     2.4475     0.1233
  148.5000   -52.8494     8.1835     8.9532    11.8122   115.0274     7.7643    -0.0079     2.4573     0.1192
  149.0000   -52.8390     8.3021     9.0829    11.6543   115.1952     7.7512    -0.0063     2.4640     0.1168
  149.5000   -52.8286     8.3643     9.0880    11.5845   115.9573     7.7380    -0.0046     2.4678     0.1132
  150.0000   -52.8190     8.4983     9.1654    12.0820   116.4189     7.7249    -0.0050     2.4694     0.1109
  150.5000   -52.8086     8.5816     9.2283    12.4263   115.2457     7.7267    -0.0074     2.4657     0.1096
  151.0000   -52.7974     8.6119     9.2909    12.5176   114.6715     7.7284    -0.0057     2.4681     0.1089
  151.5000   -52.7871     8.6758     9.1646    12.6095   114.6968     7.7305    -0.0040     2.4674     0.1101
  152.0000   -52.7768     8.6800     9.1076    12.5266   115.6285     7.7470    -0.0024     2.4675     0.1109
  152.5000   -52.7664     8.6233     9.3025    12.5331   117.4245     7.7487    -0.0007     2.4690     0.1088
  153.0000   -52.7561     8.4514     9.4411    12.4507   118.7544     7.7504    -0.0006     2.4691     0.1076
  153.5000   -52.7457     8.3393     9.5713    12.1178   117.4974     7.7369    -0.0004     2.4677     0.1076
  154.0000   -52.7354     8.1719     9.5092    12.0381   114.6795     7.7242     0.0012     2.4663     0.1099
  154.5000   -52.8739     8.0637     9.3748    12.1278   115.6510     7.7259     0.0014     2.4664     0.1111
  155.0000   -53.0119     8.0118     9.2490    12.0493   118.5537     7.7128     0.0000     2.4694     0.1092
  155.5000   -53.0011     8.0158     9.1340    11.8060   117.7620     7.7145     0.0002     2.4740     0.1074
  156.0000   -53.1395     8.0753     9.1279    11.5699   116.6321     7.7162     0.0003     2.4755     0.1059
  156.5000   -53.1288     8.1353     9.0786    11.4939   120.8148     7.7179     0.0005     2.4734     0.1053
  157.0000   -53.1184     8.1957     9.0198    11.3421   119.9410     7.7196    -0.0024     2.4705     0.1083
  157.5000   -53.1081     8.2565     8.9613    11.7453   116.2440     7.7213    -0.0038     2.4690     0.1076
  158.0000   -53.0978     8.3178     8.9033    12.5035   112.3941     7.7378    -0.0051     2.4728     0.1049
  158.5000   -53.0874     8.3796     8.9079    12.4213   114.3479     7.7243    -0.0049     2.4736     0.1043
  159.0000   -53.0771     8.3836     8.9115    12.1729   113.9199     7.7264    -0.0078     2.4700     0.1076
  159.5000   -53.0667     8.3877     8.9152    11.8462   110.5201     7.7129    -0.0092     2.4678     0.1105
  160.0000   -53.0564     8.3918     8.9189    11.7683   109.4933     7.7150    -0.0075     2.4687     0.1101
  160.5000   -53.1944     8.3380     8.8602    11.7744   114.1218     7.7167    -0.0058     2.4725     0.1083
  161.0000   -53.1840     8.3419     8.8648    11.8609   115.3282     7.7184    -0.0042     2.4793     0.1049
  161.5000   -53.3221     8.2813     8.8685    11.9480   119.2093     7.7201    -0.0025     2.4861     0.0983
  162.0000   -53.3116     8.2353     8.8721    12.1191   119.9655     7.7218    -0.0024     2.4899     0.0963
  162.5000   -53.4498     8.2394     8.8758    12.1241   113.0041     7.7083    -0.0022     2.4855     0.0976
  163.0000   -53.5878     8.1864     8.8795    12.0457   114.8049     7.7104    -0.0021     2.4818     0.1010
  163.5000   -53.7258     8.1339     8.8831    11.7224   117.2001     7.7121    -0.0019     2.4811     0.1001
  164.0000   -53.7151     8.0270     8.8247    11.4078   114.8404     7.7138    -0.0018     2.4827     0.0989
  164.5000   -53.7270     7.9755     8.7080    11.2558   113.0751     7.7155    -0.0016     2.4858     0.0985
  165.0000   -53.8674     7.8146     8.6506    11.2606   112.0527     7.7172    -0.0030     2.4858     0.0985
  165.5000   -54.1291     7.5536     8.4774    11.2653   110.7332     7.7189    -0.0027     2.4829     0.1009
  166.0000   -54.2676     7.3004     8.3644    11.2699   109.5578     7.7354    -0.0027     2.4763     0.1036
  166.5000   -54.4056     7.1047     8.1961    11.0434   109.7242     7.7371    -0.0025     2.4726     0.1053
  167.0000   -54.6920     7.0097     8.0312    10.8215   109.1476     7.7388    -0.0024     2.4704     0.1074
  167.5000   -54.8300     6.8699     7.9241    10.7452   110.8042     7.7405    -0.0022     2.4705     0.1095
  168.0000   -55.1138     6.7788     7.6052    10.9810   115.1311     7.7423    -0.0021     2.4706     0.1103
  168.5000   -55.4002     6.6420     7.2992    11.2155   117.3776     7.7440    -0.0019     2.4684     0.1090
  169.0000   -55.3899     6.4647     6.8616    10.5441   117.6881     7.7308    -0.0048     2.4640     0.1091
  169.5000   -55.5305     6.3350     6.6772     9.6429   114.5900     7.7325    -0.0062     2.4596     0.1118
  170.0000   -55.5176     6.3381     6.5875     8.6978   110.8930     7.7343    -0.0075     2.4582     0.1147
  170.5000   -55.5072     6.4295     6.4998     8.0068   109.5690     7.7360    -0.0089     2.4605     0.1161
  171.0000   -55.3485     6.5674     6.5031     7.7410   113.1573     7.7377    -0.0117     2.4614     0.1161
  171.5000   -55.0414     6.7548     6.6422     9.4123   116.1469     7.7245    -0.0131     2.4599     0.1163
