~VERSION INFORMATION
 VERS.                2.0:   CWLS LOG ASCII STANDARD - VERSION 2.0
 WRAP.                 NO:   ONE LINE PER DEPTH STEP
~WELL INFORMATION
#MNEM.UNIT      DATA TYPE    INFORMATION
#----------   ------------   ------------------------------
 STRT.F           21.0000:   START DEPTH
 STOP.F          495.0000:   STOP DEPTH
 STEP.F            0.5000:   STEP LENGTH
 NULL.          -999.2500:   NO VALUE
 COMP. FENIX & SCISSON U.S. NAVY:   COMPANY
 WELL.        NPR #42-S-3:   WELL
 FLD .             TEAPOT:   FIELD
 LOC .       S3 T38N R78W:   LOCATION
 CNTY.            NATRONA:   COUNTY
 STAT.            WYOMING:   STATE
 CTRY. UNITED STATES OF AMERICA:   COUNTRY
 SRVC.              Welex:   SERVICE COMPANY
 DATE.        05-MAY-1977:   LOGDATE
 API .       490251034800:   API NUMBER
~CURVE INFORMATION
#MNEM.UNIT       API CODE    CURVE DESCRIPTION
#----------   ------------   ------------------------------
 DEPT.F                  :   
 SPR .MV     07 010 01 00:   SPONTANEOUS POTENTIAL
 SGRD.OHMM   07 221 05 00:   SHALLOW SHORT GUARD RESISTIVITY
 ILD .OHMM   07 120 46 00:   INDUCTION LOG DEEP
 ILM .OHMM   07 120 44 00:   INDUCTION LOG MEDIUM
 GRD .GAPI   45 310 01 00:   GAMMA RAY FROM DENSITY LOG
 CALD.IN     45 280 60 00:   CALIPER FROM DENSITY LOG
 CORR.G/C3   45 356 01 00:   DENSITY CORRECTION
 RHOB.G/C3   45 350 01 00:   BULK DENSITY
 DPHI.DEC    45 890 12 00:   DENSITY POROSITY SANDSTONE
~PARAMETER INFORMATION
#MNEM.UNIT          VALUE    DESCRIPTION
#----------   ------------   ------------------------------
 PD  .                 GL:   PERMANENT DATUM
 EPD .F              5120:   ELEVATION PERMANENT DATUM
 LMF .                 GL:   LOG MEASURED FROM
 DMF .                 GL:   DRILLING MEASURED FROM
 EGL .F              5120:   GROUND LEVEL
 DATE.        05-MAY-1977:   RUN DATE
 RUN .                  1:   RUN NUMBER
 DD  .F               490:   DEPTH DRILLER
 DL  .F               495:   DEPTH LOGGER
 BLI .F               493:   BOTTOM LOG INTERVAL
 TLI .F                20:   TOP LOG INTERVAL
 CS  .IN            8.625:   CASING SIZE
 CBD .F                25:   CASING BOTTOM DRILLER
 CBL .F                25:   CASING BOTTOM LOGGER
 BS  .IN            7.875:   BIT SIZE
 BSD .F               490:   BIT SIZE AT DEPTH
 DFT .            KCL MUD:   DRILLING FLUID TYPE
 DFD .                8.8:   DRILLING FLUID DENSITY
 DFV .                 34:   DRILLING FLUID VISCOSITY
 DFPH.                8.0:   DRILLING FLUID PH
 DFL .                8.4:   DRILLING FLUID LOSS
 MSS .           FLOWLINE:   MUD SAMPLE SOURCE
 RMS .OHMM           0.26:   RESISTIVITY MUD SAMPLE
 MST .F                60:   MUD SAMPLE TEMPERATURE
 RMF .OHMM           0.14:   RESISTIVITY MUD FILTRATE SAMPLE
 MFST.F                60:   MUD FILTRATE SAMPLE TEMPERATURE
 RMC .OHMM           0.41:   RESISTIVITY MUD CAKE
 MCST.F                60:   MUD CAKE SAMPLE TEMPERATURE
 MFSS.           FANN KIT:   MUD FILTRATE SAMPLE SOURCE
 MCSS.            FANNKIT:   MUD CAKE SAMPLE SOURCE
 RMB .OHMM           0.21:   RESISTIVITY MUD AT BHT
 BHT .F                71:   BOTTOM HOLE TEMPERATURE
 TCS .HRS            0130:   TIME CURCULATED STOPPED
 MRT .F                71:   MAXIMUM RECORDED TEMPERATURE
 LUN .               8611:   LOGGING UNIT NUMBER
 LUL .             CASPER:   LOGGING UNIT LOCATION
 ENGI.            C. DOAK:   RECORDING ENGINEER
 WITN.            R. LYON:   WITNESSED BY
 CLNT.            A2DTECH:   CLIENT CODE
 ORIG.           5" PRINT:   ORIGIN OF DATA
 UWI .       490251034800:   UNIQUE WELL ID
 DICO. A2D Technologies, Inc.:   DIGITIZING COMPANY
~OTHER INFORMATION
~A   DEPT      SPR       SGRD        ILD        ILM         GRD        CALD       CORR       RHOB       DPHI 
# ...
   57.5000   -52.0247    12.3644     7.8108     8.1844   127.4664     7.8758     0.0150     2.5025     0.0987
   58.0000   -52.1792    12.4469     7.9688     8.5868   126.8664     7.8761     0.0151     2.5032     0.0981
   58.5000   -52.3337    12.6155     7.9668     8.7645   123.4092     7.8763     0.0157     2.5040     0.0980
   59.0000   -52.3395    12.6986     8.0208     8.4066   121.4558     7.8617     0.0165     2.5048     0.0998
   59.5000   -52.3452    12.2632     8.0188     8.1196   121.1561     7.8470     0.0165     2.5024     0.1019
   60.0000   -52.5011    11.4425     8.0172     7.8961   123.1128     7.8474     0.0165     2.4996     0.1037
   60.5000   -52.6557    12.0032     8.0156     7.8398   125.5203     7.8476     0.0165     2.4996     0.1043
   61.0000   -52.6614    12.1658     8.0136     7.8377   127.2120     7.8330     0.0172     2.5011     0.1040
   61.5000   -52.6671    12.2469     8.0120     7.8356   127.7789     7.8333     0.0172     2.5026     0.1028
   62.0000   -52.6728    12.2419     8.0104     7.9423   124.4724     7.8335     0.0165     2.5004     0.1052
   62.5000   -52.8274    12.0702     7.9538     8.1061   122.3686     7.8338     0.0142     2.4951     0.1076
   63.0000   -52.8333    11.9833     7.8976     8.3306   120.8663     7.8341     0.0142     2.4929     0.1088
   63.5000   -52.8403    11.9784     7.8417     8.3278   120.2659     7.8494     0.0142     2.4914     0.1096
   64.0000   -52.8460    11.9744     7.8401     8.2684   120.4181     7.8498     0.0142     2.4914     0.1099
   64.5000   -53.0005    11.9704     7.7844     8.3240   121.3228     7.8500     0.0135     2.4915     0.1096
   65.0000   -53.0062    11.9664     7.7828     8.4367   122.7169     7.8503     0.0127     2.4930     0.1087
   65.5000   -53.0120    11.9745     7.7813     8.7303   123.8811     7.8506     0.0112     2.4945     0.1069
   66.0000   -53.1667    11.7937     7.7797     9.2943   122.3792     7.8509     0.0120     2.4967     0.1048
   66.5000   -53.1736    11.7098     7.7248     9.7426   121.3280     7.8512     0.0127     2.4997     0.1024
   67.0000   -53.3282    11.7869     7.7232     9.8759   120.7280     7.8515     0.0127     2.5028     0.1009
   67.5000   -53.3339    11.9456     7.7213     9.8726   121.4813     7.8518     0.0127     2.4982     0.1015
   68.0000   -53.4884    12.0243     7.7198     9.8022   124.9414     7.8522     0.0127     2.4953     0.1015
   68.5000   -53.6430    12.0203     7.7720     9.7323   125.5444     7.8524     0.0127     2.4998     0.1009
   69.0000   -53.6488    11.6895     7.7701     9.6628   124.8781     7.8527     0.0127     2.5051     0.0991
   69.5000   -53.6558    11.6052     7.7685     9.6596   124.3443     7.8530     0.0135     2.5081     0.0979
   70.0000   -53.6616    11.6005     7.7670     9.7239   125.3987     7.8383     0.0135     2.5103     0.0966
   70.5000   -53.6673    11.6778     7.7117     9.7213   124.0468     7.8237     0.0130     2.5096     0.0978
   71.0000   -53.8218    11.8360     7.7102     9.7866   122.2437     7.8240     0.0121     2.5006     0.1026
   71.5000   -53.9764    12.0784     7.7086     9.7834   119.2377     7.8243     0.0112     2.4884     0.1101
   72.0000   -54.1310    12.2421     7.7071     9.8484   117.7354     7.8245     0.0103     2.4745     0.1222
   72.5000   -54.2869    12.3226     7.6001     9.8452   118.5036     7.8249     0.0094     2.4647     0.1289
   73.0000   -54.2926    11.6566     7.5985     9.7749   121.0407     7.8252     0.0075     2.4558     0.1301
   73.5000   -54.2983    11.5726     7.5445     9.5065   124.6574     7.8255     0.0067     2.4558     0.1295
   74.0000   -54.3040    11.4893     7.5430     9.1189   125.2604     7.8258     0.0060     2.4588     0.1277
   74.5000   -54.3098    11.4855     7.5415     8.9917   125.2618     7.8261     0.0052     2.4648     0.1259
   75.0000   -54.1667    11.4028     7.5925     9.2406   126.0152     7.8264     0.0045     2.4663     0.1238
   75.5000   -54.1726    11.5573     7.7493     9.5833   128.8738     7.8267     0.0030     2.4708     0.1217
   76.0000   -54.3284    11.7139     7.8013     9.8949   130.0782     7.8269     0.0038     2.4731     0.1205
   76.5000   -54.3341    11.8716     7.8537     9.4908   127.4880     7.8273     0.0052     2.4709     0.1220
   77.0000   -54.3398    11.7861     7.8518     9.3583   124.8903     7.8276     0.0045     2.4686     0.1232
   77.5000   -54.4943    11.7822     7.9049     9.2916   123.9172     7.8279     0.0015     2.4686     0.1232
   78.0000   -54.7977    12.1913     7.9029     9.4181   125.7235     7.8282     0.0022     2.4694     0.1223
   78.5000   -54.9524    12.7020     7.9014     9.4807   128.1310     7.8285     0.0037     2.4724     0.1196
   79.0000   -55.1082    12.9631     7.8998     9.4776   130.5385     7.8288     0.0052     2.4805     0.1144
   79.5000   -55.1139    12.7803     7.8982     9.3453   130.6899     7.8141     0.0067     2.4888     0.1099
   80.0000   -55.1196    12.1742     7.8963     9.2149   126.4812     7.8144     0.0076     2.4993     0.1034
   80.5000   -55.1253    12.3391     7.9493     8.9619   126.9519     7.8147     0.0097     2.5062     0.0980
   81.0000   -54.9821    12.4214     7.9477     8.4788   130.0935     7.8150     0.0105     2.5135     0.0964
   81.5000   -54.9881    12.5022     7.9461     8.2414   132.3506     7.8153     0.0105     2.5075     0.0994
   82.0000   -54.8463    12.4979     7.8900     8.0190   131.9010     7.8156     0.0082     2.5000     0.1030
   82.5000   -54.8521    12.4928     7.8306     8.0169   130.8498     7.8309     0.0075     2.4955     0.1063
   83.0000   -54.8578    12.4886     7.7250     8.0148   129.7986     7.8312     0.0067     2.4925     0.1087
   83.5000   -55.0123    12.4845     7.7235     8.0127   127.5444     7.8165     0.0060     2.4903     0.1105
   84.0000   -55.0180    12.3946     7.7219     8.0105   126.4932     7.8168     0.0052     2.4895     0.1111
   84.5000   -55.0238    11.4856     7.7204     8.2938   126.8066     7.8171     0.0045     2.4895     0.1111
   85.0000   -55.0309    11.3978     7.7189     8.6962   127.3988     7.8174     0.0037     2.4888     0.1110
   85.5000   -55.0366    12.4679     7.7173     8.9376   127.8514     7.8177     0.0030     2.4880     0.1110
   86.0000   -55.0424    12.1238     7.6624     9.1213   128.3040     7.8180     0.0022     2.4865     0.1119
   86.5000   -54.8978    11.7901     7.6083     9.1826   129.0573     7.8183     0.0015     2.4835     0.1146
   87.0000   -55.0538    11.7862     7.5026     9.2432   129.9610     7.8186     0.0007     2.4790     0.1167
   87.5000   -55.0595    11.7014     7.3984     9.2406   130.5640     7.8339     0.0016     2.4775     0.1170
   88.0000   -55.0655    11.4580     7.3461     9.2381   131.1669     7.8341     0.0045     2.4836     0.1140
   88.5000   -55.0724    10.9098     7.3446     9.2996   131.9464     7.8195     0.0067     2.4910     0.1074
   89.0000   -55.0781    10.8351     7.2927     9.2965   131.4710     7.8198     0.0075     2.4955     0.1053
   89.5000   -55.0838    10.7571     7.2408     9.2302   128.9160     7.8201     0.0082     2.4978     0.1050
   90.0000   -55.0896    10.8288     7.2394     9.1644   126.5115     7.8204     0.0090     2.4963     0.1059
   90.5000   -55.0953    11.0506     7.2884     8.9744   126.9641     7.8357     0.0082     2.4925     0.1083
   91.0000   -55.1012    11.5505     7.4388     8.9103   128.9204     7.8209     0.0075     2.4865     0.1106
   91.5000   -55.1082    11.1196     7.4888     9.0311   129.4653     7.8213     0.0067     2.4865     0.1130
   92.0000   -54.9637    11.4520     7.6494     9.1546   127.5699     7.8216     0.0052     2.4790     0.1172
   92.5000   -54.8220    12.0706     7.8016     9.3435   127.1203     7.8219     0.0037     2.4731     0.1229
   93.0000   -54.8277    11.5767     7.9087     9.4707   129.2274     7.8222     0.0022     2.4648     0.1271
   93.5000   -54.6845    11.6529     7.9614     9.6654   131.0333     7.8224     0.0015     2.4573     0.1301
