~VERSION INFORMATION
 VERS.                2.0:   CWLS LOG ASCII STANDARD - VERSION 2.0
 WRAP.                 NO:   ONE LINE PER DEPTH STEP
~WELL INFORMATION
#MNEM.UNIT      DATA TYPE    INFORMATION
#----------   ------------   ------------------------------
 STRT.F           90.0000:   START DEPTH
 STOP.F          799.0000:   STOP DEPTH
 STEP.F            0.5000:   STEP LENGTH
 NULL.          -999.2500:   NO VALUE
 COMP. U S NAVY-INTEX OIL:   COMPANY
 WELL. RES 3 TEAPOT DOM #83S-34:   WELL
 FLD .             TEAPOT:   FIELD
 LOC .      S34 T39N R78W:   LOCATION
 CNTY.            NATRONA:   COUNTY
 STAT.            WYOMING:   STATE
 CTRY. UNITED STATES OF AMERICA:   COUNTRY
 SRVC.       Schlumberger:   SERVICE COMPANY
 DATE.        15-FEB-1961:   LOGDATE
 API .       490250655100:   API NUMBER
~CURVE INFORMATION
#MNEM.UNIT       API CODE    CURVE DESCRIPTION
#----------   ------------   ------------------------------
 DEPT.F                  :   
 ASN .OHMM   05 041 16 00:   AMPLIFIED SHORT NORMAL 16"
 ILD .OHMM   05 120 46 00:   INDUCTION LOG DEEP RESISTIVITY.
 CILD.MMHO   05 110 46 00:   CONDUCTIVITY INDUCTION LOG DEEP
 SPR .MV     05 010 01 00:   SPONTANEOUS POTENTIAL FROM RES.
 GR  .GAPI   30 310 01 00:   GAMMA RAY
~PARAMETER INFORMATION
#MNEM.UNIT          VALUE    DESCRIPTION
#----------   ------------   ------------------------------
 PD  .                 GL:   PERMANENT DATUM
 EPD .F              5090:   ELEVATION PERMANENT DATUM
 LMF .                 KB:   LOG MEASURED FROM
 DAPD.F                 4:   FEET ABOVE PERMANENT DATUM
 DMF .                 KB:   DRILLING MEASURED FROM
 EKB .F              5094:   KELLING BUSHING
 EGL .F              5090:   GROUND LEVEL
 DATE.        15-FEB-1961:   RUN DATE
 RUN .                  1:   RUN NUMBER
 DD  .F               800:   DEPTH DRILLER
 DL  .F               800:   DEPTH LOGGER
 BLI .F               799:   BOTTOM LOG INTERVAL
 TLI .F               100:   TOP LOG INTERVAL
 CBD .F                12:   CASING BOTTOM DRILLER
 BS  .IN            7.875:   BIT SIZE
 BSD .F               800:   BIT SIZE AT DEPTH
 DFT .       OIL EMULSION:   DRILLING FLUID TYPE
 DFD .                9.5:   DRILLING FLUID DENSITY
 DFV .                 50:   DRILLING FLUID VISCOSITY
 RMS .OHMM           1.25:   RESISTIVITY MUD SAMPLE
 MST .F                57:   MUD SAMPLE TEMPERATURE
 RMB .OHMM           0.98:   RESISTIVITY MUD AT BHT
 BHT .F                73:   BOTTOM HOLE TEMPERATURE
 TCS .HRS               1:   TIME CURCULATED STOPPED
 LUN .               2572:   LOGGING UNIT NUMBER
 LUL .                 NC:   LOGGING UNIT LOCATION
 ENGI.            EARNEST:   RECORDING ENGINEER
 WITN.          JORGENSEN:   WITNESSED BY
 CLNT.            A2DTECH:   CLIENT CODE
 ORIG.       2" ,5" PRINT:   ORIGIN OF DATA
 UWI .       490250655100:   UNIQUE WELL ID
 DICO. A2D Technologies, Inc.:   DIGITIZING COMPANY
~OTHER INFORMATION
~A   DEPT        ASN        ILD      CILD       SPR         GR   
# ...
  212.0000     8.0233     5.8444   166.2162   -55.8373  -999.2500
  212.5000     8.2026     5.9676   163.3807   -55.6852  -999.2500
  213.0000     8.2805     5.9685   162.2723   -55.6837  -999.2500
  213.5000     8.2728     6.0729   161.8581   -55.4312  -999.2500
  214.0000     8.2598     6.1205   161.8455   -55.3795  -999.2500
  214.5000     8.2202     6.1214   161.8356   -55.3780  -999.2500
  215.0000     8.1971     6.1220   161.8243   -55.2259  -999.2500
  215.5000     8.1900     6.1227   161.0611   -55.0738  -999.2500
  216.0000     8.2051     6.1236   161.0510   -55.0723  -999.2500
  216.5000     8.2051     6.0197   161.0398   -55.0708  -999.2500
  217.0000     8.2085     5.9744   161.0274   -55.0191  -999.2500
  217.5000     8.2353     5.9753   160.2665   -54.9172  -999.2500
  218.0000     8.2439     5.9759   160.2552   -54.7651  -999.2500
  218.5000     8.2655     5.9767   160.2430   -54.7636  -999.2500
  219.0000     8.2655     6.1281   160.2327   -54.7621  -999.2500
  219.5000     8.2414     6.1288   159.4707   -54.7605  -999.2500
  220.0000     8.2353     6.2098   159.4586   -54.7590  -999.2500
  220.5000     8.2353     6.2810   158.6974   -54.9081  -999.2500
  221.0000     8.2747     6.4322   157.1847   -54.9066  -999.2500
  221.5000     8.3086     6.5137   155.6711   -54.9051  -999.2500
  222.0000     8.4163     6.6598   154.4945   -54.9036  -999.2500
  222.5000     8.5832     6.7357   153.2282   -54.8017  -999.2500
  223.0000     8.8048     6.8175   151.1329   -54.7500  -999.2500
  223.5000     9.0498     6.8879   148.7675   -54.7485  -999.2500
  224.0000     9.2545     6.9508   146.8169   -54.7470  -999.2500
  224.5000     9.4512     7.0461   144.3425   -54.6953  -999.2500
  225.0000     9.6531     7.1161   142.7052   -54.5934  -999.2500
  225.5000     9.7888     7.1920   141.8769   -54.4413  -999.2500
  226.0000     9.8445     7.2680   140.5556   -54.4398  -999.2500
  226.5000     9.8962     7.1935   140.5438   -54.4383  -999.2500
  227.0000     9.8614     7.0437   141.7368   -54.3363  -999.2500
  227.5000     9.6569     6.8938   143.9377   -54.2846  -999.2500
  228.0000     9.4135     6.8194   146.5161   -54.2831  -999.2500
  228.5000     9.1701     6.8200   149.8636   -54.1310  -999.2500
  229.0000     8.9162     6.8135   155.3079   -54.1295  -999.2500
  229.5000     8.3313     6.3698   172.8919   -54.2786  -999.2500
  230.0000     7.5104     5.5823   197.9067   -54.2771  -999.2500
  230.5000     6.6894     4.7516   222.9215   -54.4262  -999.2500
  231.0000     5.8685     4.0378   247.7175   -54.4247  -999.2500
  231.5000     5.1158     3.6052   277.0682   -54.3228  -999.2500
  232.0000     4.6154     3.2028   301.3914   -54.0703  -999.2500
  232.5000     4.4424     2.9858   321.2652   -53.8178  -999.2500
  233.0000     4.2739     2.7691   332.5901   -53.6155  -999.2500
  233.5000     4.1327     2.6106   334.8273   -53.3127  -999.2500
  234.0000     4.2558     2.5362   314.4597   -52.9096  -999.2500
  234.5000     4.7301     2.5707   284.2627   -52.6571  -999.2500
  235.0000     5.8469     2.7146   248.4588   -52.2540  -999.2500
  235.5000     6.9637     3.1409   232.1732   -52.0015  -999.2500
  236.0000     8.0805     3.6476   210.6410   -51.5984  -999.2500
  236.5000     9.1973     4.8519   189.8666   -51.2957  -999.2500
  237.0000    10.0543     6.7576   172.6504   -51.0934  -999.2500
  237.5000    10.4072     7.7529   150.4316   -50.9413  -999.2500
  238.0000    10.7109     8.6235   132.7758   -50.7892  -999.2500
  238.5000    10.9487     9.2448   125.6043   -50.6371  -999.2500
  239.0000    11.1614     8.8800   120.6582   -50.4849  -999.2500
  239.5000    11.0422     8.3684   120.3241   -50.4332  -999.2500
  240.0000    10.2639     7.7411   123.4234   -50.1807  -999.2500
  240.5000     9.7998     7.3347   130.8459   -50.1792  -999.2500
  241.0000     9.3583     6.8936   140.2160   -49.8765  -999.2500
  241.5000     8.5068     6.4632   146.5804   -49.7244  -999.2500
  242.0000     7.8383     6.0557   154.0989   -49.5723  -999.2500
  242.5000     7.5762     5.6903   162.7048   -49.3700  -999.2500
  243.0000     7.5415     5.5617   167.8454   -49.2681  -999.2500
  243.5000     7.7632     5.7066   166.8831   -49.0156  -999.2500
  244.0000     8.3319     6.2098   160.4189   -48.8635  -999.2500
  244.5000     8.9644     6.8442   154.9850   -48.6611  -999.2500
  245.0000     9.5968     7.3670   146.6720   -48.4086  -999.2500
  245.5000    10.1482     7.8588   132.6074   -48.3067  -999.2500
  246.0000    10.4997     8.2772   126.7117   -48.0542  -999.2500
  246.5000    10.7521     8.6141   121.6804   -47.9523  -999.2500
  247.0000    10.9351     8.9046   116.8080   -47.8504  -999.2500
  247.5000    11.1061     9.1831   113.8326   -47.7485  -999.2500
  248.0000    11.2831     9.3715   112.8128   -47.4458  -999.2500
  248.5000    11.4630     9.5100   110.7683   -47.3941  -999.2500
  249.0000    11.6631     9.7877   110.0075   -47.2922  -999.2500
  249.5000    11.7893     9.9012   108.4947   -47.1401  -999.2500
  250.0000    11.9155    10.0904   107.7316   -47.0382  -999.2500
  250.5000    11.9155    10.1665   106.2125   -46.8358  -999.2500
  251.0000    12.0664    10.2425   103.6912   -46.8343  -999.2500
  251.5000    12.0664    10.3938   101.6919   -46.7826  -999.2500
  252.0000    12.0664    10.4700   100.1502   -46.6807  -999.2500
  252.5000    12.1418    10.5459    99.2743   -46.5286  -999.2500
  253.0000    12.2172    10.6973    97.9045   -46.5271  -999.2500
  253.5000    12.2926    10.7734    96.7417   -46.5256  -999.2500
  254.0000    12.3680    10.8881    96.3814   -46.5241  -999.2500
  254.5000    12.4434    11.0008    96.3693   -46.3720  -999.2500
  255.0000    12.5189    11.0769    95.6081   -46.3705  -999.2500
  255.5000    12.5802    11.1529    94.8461   -46.2184  -999.2500
  256.0000    12.6697    11.1536    94.8341   -46.2169  -999.2500
  256.5000    12.7451    11.3050    93.9752   -46.2154  -999.2500
  257.0000    12.8205    11.3057    93.3108   -46.2139  -999.2500
  257.5000    12.9713    11.3065    92.5482   -46.0617  -999.2500
  258.0000    12.9713    11.3073    92.1021   -46.0602  -999.2500
  258.5000    13.0804    11.3080    91.7755   -45.9081  -999.2500
  259.0000    13.1403    11.3087    91.7637   -45.9066  -999.2500
  259.5000    13.2730    11.3095    90.5555   -45.7545  -999.2500
  260.0000    13.3082    11.3504    90.2402   -45.6024  -999.2500
  260.5000    13.4238    11.4015    90.2286   -45.4001  -999.2500
  261.0000    13.5747    11.4624    90.2177   -45.2982  -999.2500
  261.5000    13.6114    11.5442    89.9950   -45.2967  -999.2500
  262.0000    13.7255    11.6300    89.4441   -45.4458  -999.2500
  262.5000    13.8763    11.7659    88.9640   -45.5949  -999.2500
  263.0000    13.9899    11.9581    88.6712   -45.5934  -999.2500
  263.5000    14.1916    12.2510    87.1582   -45.5919  -999.2500
  264.0000    14.3288    12.5211    86.6667   -45.5904  -999.2500
  264.5000    14.5194    12.7550    86.1511   -45.5889  -999.2500
  265.0000    14.6606    13.0070    84.1215   -45.5873  -999.2500
  265.5000    14.8567    13.2011    83.1268   -45.5858  -999.2500
  266.0000    15.0146    13.3604    81.6016   -45.5843  -999.2500
  266.5000    15.1750    13.4452    80.3341   -45.3820  -999.2500
  267.0000    15.3846    13.5799    78.8191   -45.2801  -999.2500
  267.5000    15.5028    13.4632    78.1498   -45.2786  -999.2500
  268.0000    15.6863    13.3966    78.5815   -45.0763  -999.2500
  268.5000    15.6863    13.2809    79.0132   -44.9744  -999.2500
  269.0000    15.5224    13.0886    79.5249   -44.9729  -999.2500
  269.5000    15.2700    12.9463    80.5380   -44.8208  -999.2500
  270.0000    15.0075    12.6808    81.8069   -44.6687  -999.2500
  270.5000    14.7195    12.4778    83.9958   -44.6672  -999.2500
  271.0000    14.4163    12.2523    86.0536   -44.6657  -999.2500
  271.5000    13.9517    12.0053    88.5160   -44.6642  -999.2500
  272.0000    13.5837    11.7369    89.9681   -44.6627  -999.2500
  272.5000    13.2277    11.5186    91.7542   -44.6611  -999.2500
