~VERSION INFORMATION
 VERS.                2.0:   CWLS LOG ASCII STANDARD - VERSION 2.0
 WRAP.                 NO:   ONE LINE PER DEPTH STEP
~WELL INFORMATION
#MNEM.UNIT      DATA TYPE    INFORMATION
#----------   ------------   ------------------------------
 STRT.F           16.0000:   START DEPTH
 STOP.F          661.0000:   STOP DEPTH
 STEP.F            0.5000:   STEP LENGTH
 NULL.          -999.2500:   NO VALUE
 COMP. FENIX & SCISSON INC:   COMPANY
 WELL.  26-66 SX 11 #I-11:   WELL
 FLD .             TEAPOT:   FIELD
 LOC .      S11 T38N R78W:   LOCATION
 CNTY.            NATRONA:   COUNTY
 STAT.            WYOMING:   STATE
 CTRY. UNITED STATES OF AMERICA:   COUNTRY
 SRVC.      Dresser Atlas:   SERVICE COMPANY
 DATE.        22-JUL-1980:   LOGDATE
 API .       490251083200:   API NUMBER
~CURVE INFORMATION
#MNEM.UNIT       API CODE    CURVE DESCRIPTION
#----------   ------------   ------------------------------
 DEPT.F                  :   
 SFL .OHMM   07 220 01 00:   SHALLOW FOCUSED LOG RESISTIVITY
 ILD .OHMM   07 120 46 00:   INDUCTION LOG DEEP
 ILM .OHMM   07 120 44 00:   INDUCTION LOG MEDIUM
 SPR .MV     07 010 01 00:   SPONTANEOUS POTENTIAL
 CALD.IN     45 280 60 00:   CALIPER
 GRD .GAPI   45 310 01 00:   GAMMA RAY FROM DENSITY LOG
 RHOB.G/C3   45 350 01 00:   BULK DENSITY
 CORR.G/C3   45 356 01 00:   DENSITY CORRECTION
 DPHI.DEC    45 890 12 00:   DENSITY POROSITY SANDSTONE
 NPHI.DEC    42 890 03 00:   NEUTRON POROSITY SANDSTONE
~PARAMETER INFORMATION
#MNEM.UNIT          VALUE    DESCRIPTION
#----------   ------------   ------------------------------
 PD  .                 GL:   PERMANENT DATUM
 EPD .F              5193:   ELEVATION PERMANENT DATUM
 LMF .                 KB:   LOG MEASURED FROM
 DAPD.F                 5:   FEET ABOVE PERMANENT DATUM
 DMF .                 KB:   DRILLING MEASURED FROM
 EKB .F              5198:   KELLING BUSHING
 EDF .F              5196:   DRILLING FLOOR
 EGL .F              5193:   GROUND LEVEL
 DATE.            7-22-80:   RUN DATE
 RUN .                  1:   RUN NUMBER
 DD  .F               655:   DEPTH DRILLER
 DL  .F               655:   DEPTH LOGGER
 BLI .F               653:   BOTTOM LOG INTERVAL
 TLI .F                20:   TOP LOG INTERVAL
 BS  .IN            7.875:   BIT SIZE
 BSD .F               655:   BIT SIZE AT DEPTH
 DFT .                KCL:   DRILLING FLUID TYPE
 DFD .                9.1:   DRILLING FLUID DENSITY
 DFV .                 46:   DRILLING FLUID VISCOSITY
 DFPH.                 11:   DRILLING FLUID PH
 DFL .                  6:   DRILLING FLUID LOSS
 MSS .           FLOWLINE:   MUD SAMPLE SOURCE
 RMS .OHMM            .17:   RESISTIVITY MUD SAMPLE
 MST .F                75:   MUD SAMPLE TEMPERATURE
 RMF .OHMM            .13:   RESISTIVITY MUD FILTRATE SAMPLE
 MFST.F                75:   MUD FILTRATE SAMPLE TEMPERATURE
 RMC .OHMM            .26:   RESISTIVITY MUD CAKE
 MCST.F                75:   MUD CAKE SAMPLE TEMPERATURE
 MFSS.                  C:   MUD FILTRATE SAMPLE SOURCE
 MCSS.                  C:   MUD CAKE SAMPLE SOURCE
 TCS .HRS               1:   TIME CURCULATED STOPPED
 LUN .               6240:   LOGGING UNIT NUMBER
 LUL .               RVTN:   LOGGING UNIT LOCATION
 ENGI.   K. RALL/J. GETTY:   RECORDING ENGINEER
 WITN.            RHOADES:   WITNESSED BY
 CLNT.            A2DTECH:   CLIENT CODE
 ORIG.        2" 5" PRINT:   ORIGIN OF DATA
 UWI .       490251083200:   UNIQUE WELL ID
 DICO. A2D Technologies, Inc.:   DIGITIZING COMPANY
~OTHER INFORMATION
~A   DEPT      SFL        ILD        ILM        SPR       CALD        GRD       RHOB       CORR         DPHI     NPHI   
# ...
  284.0000     8.3387     8.0729     7.6295   -59.7331     7.9974   107.7399     2.4818     0.0211     0.1227     0.3160
  284.5000     8.3759     8.0729     7.5920   -60.2573     7.9940   112.2204     2.4534     0.0035     0.1349     0.3366
  285.0000     8.1786     7.9205     7.5689   -60.4675     7.9906   115.9013     2.4322    -0.0126     0.1471     0.3338
  285.5000     8.1476     7.8529     7.6180   -60.5893     7.9872   114.4451     2.4145    -0.0143     0.1593     0.3218
  286.0000     8.3021     7.9256     7.6685   -60.7065     7.9839   111.8415     2.4121    -0.0077     0.1621     0.3190
  286.5000     8.2243     7.9256     7.7193   -60.7880     7.9830   107.4592     2.4304     0.0103     0.1523     0.3193
  287.0000     8.1458     7.9256     7.7705   -60.7599     7.9858   103.0562     2.4631     0.0291     0.1345     0.3009
  287.5000     8.1476     7.9256     7.8220   -60.5677     7.9885   102.4089     2.4960     0.0480     0.1167     0.3080
  288.0000     8.2991     8.1806     7.8516   -60.3752     7.9912   108.9131     2.5119     0.0529     0.1009     0.3146
  288.5000     8.6934     8.4455     8.1822   -60.1833     7.9939   112.4079     2.4908     0.0437     0.1116     0.2956
  289.0000     9.0151     8.7718     8.5000   -59.9914     7.9966   107.3731     2.4818     0.0344     0.1195     0.3042
  289.5000     9.0184     8.7702     8.6902   -59.7995     7.9993   103.4161     2.4944     0.0345     0.1147     0.3165
  290.0000     9.0135     8.8241     8.8518   -59.6072     8.0020   102.7496     2.5140     0.0404     0.1055     0.3245
  290.5000     9.3148     9.0723     9.0066   -59.4114     8.0047   105.1191     2.5168     0.0399     0.0977     0.3115
  291.0000     9.5836     9.3275     9.0963   -59.3761     8.0074   106.0058     2.5224     0.0432     0.0952     0.3019
  291.5000     9.7956     9.5302     9.1840   -59.3743     8.0101   105.5395     2.5215     0.0549     0.0933     0.2979
  292.0000     9.8216     9.5298     9.2942   -59.2926     8.0128   103.7242     2.5053     0.0519     0.1034     0.2952
  292.5000     9.8468     9.5274     9.4022   -58.8374     8.0156   102.1247     2.4952     0.0469     0.1108     0.2942
  293.0000     9.8722     9.5286     9.5286   -58.6267     8.0183   102.4662     2.5069     0.0410     0.1073     0.2923
  293.5000    10.0369     9.7654     9.7623   -58.7717     8.0210   103.3603     2.5213     0.0421     0.0970     0.2893
  294.0000    10.3831    10.0534     9.9376   -58.7447     8.0220   103.6099     2.5267     0.0397     0.0909     0.2832
  294.5000    10.7412    10.3497    10.1159   -58.0809     8.0172   101.3263     2.5057     0.0321     0.1015     0.2651
  295.0000    10.9403    10.6551    10.2973   -57.5654     8.0121   100.3677     2.4908     0.0240     0.1121     0.2546
  295.5000    11.0415    10.9695    10.4820   -57.6557     8.0070   100.7519     2.4988     0.0293     0.1128     0.2434
  296.0000    11.1782    11.2927    10.6701   -57.7349     8.0021   101.2936     2.5101     0.0382     0.1005     0.2448
  296.5000    11.3081    11.6257    10.8615   -57.8128     8.0020   100.1665     2.4911     0.0342     0.1101     0.2478
  297.0000    11.4586    11.6689    11.0415   -57.8892     8.0020    99.1167     2.4725     0.0268     0.1239     0.2456
  297.5000    11.2950    11.7986    10.7803   -57.9767     8.0020    99.8099     2.4866     0.0386     0.1176     0.2386
  298.0000    11.0560    11.8441    10.5483   -58.2725     8.0020   100.7995     2.5027     0.0514     0.1048     0.2431
  298.5000    10.8241    11.8858    10.3212   -58.5157     8.0020   100.1382     2.4876     0.0368     0.1145     0.2499
  299.0000    10.5971    11.7413    10.1632   -58.7322     8.0020    98.5734     2.4568     0.0229     0.1288     0.2550
  299.5000    10.3749    11.5911    10.1477   -58.9513     8.0020    99.5182     2.4494     0.0254     0.1391     0.2639
  300.0000    10.3525    11.4511    10.1165   -58.8062     8.0020   102.3509     2.4776     0.0406     0.1229     0.2704
  300.5000    10.4964    11.3120    10.0854   -58.5752     8.0020   103.5769     2.4992     0.0488     0.1068     0.2710
  301.0000    10.5937    11.1744    10.0700   -58.3527     8.0020    99.2162     2.4853     0.0321     0.1076     0.2682
  301.5000    10.6436    11.0384     9.9579   -58.2857     8.0020    93.8078     2.4561     0.0148     0.1259     0.2625
  302.0000    10.4293    10.9042     9.8352   -58.2148     8.0020    88.5477     2.4371     0.0115     0.1398     0.2705
  302.5000    10.2698    10.7279     9.7044   -58.1641     8.0020    88.8468     2.4358     0.0164     0.1478     0.2860
  303.0000    10.1128    10.6222     9.7064   -58.1663     8.0020    94.1480     2.4474     0.0216     0.1416     0.3115
  303.5000     9.9777    10.5174     9.7058   -58.1641     8.0020    97.1817     2.4591     0.0241     0.1315     0.3105
  304.0000    10.0700    10.4479     9.7058   -58.5284     8.0020    99.0370     2.4689     0.0293     0.1252     0.3032
  304.5000    10.1572    10.4923     9.7058   -58.9251     8.0020   101.2004     2.4742     0.0316     0.1220     0.2951
  305.0000    10.2516    10.5259     9.7956   -58.7598     8.0020   103.1475     2.4787     0.0284     0.1199     0.2908
  305.5000    10.3468    10.5595     9.8525   -58.6072     8.0020   101.1890     2.4773     0.0253     0.1211     0.2821
  306.0000    10.4489    10.5932     9.9135   -58.2990     8.0020    97.0960     2.4685     0.0213     0.1271     0.2808
  306.5000    10.4484    10.6270     9.9777   -57.9485     8.0020    93.3991     2.4578     0.0068     0.1331     0.2855
  307.0000    10.3466    10.6422     9.9777   -57.5968     8.0020    93.3217     2.4505     0.0085     0.1375     0.2924
  307.5000    10.2406    10.4386     9.8652   -57.2466     8.0020    96.2641     2.4543     0.0069     0.1343     0.2890
  308.0000    10.1359    10.3476     9.7490   -56.8908     8.0020    99.4173     2.4613     0.0045     0.1294     0.2832
  308.5000    10.0324    10.2575     9.6341   -56.9093     8.0020   100.0514     2.4659     0.0197     0.1271     0.2802
  309.0000     9.9295    10.1682     9.5205   -57.1587     8.0020   100.1925     2.4500     0.0193     0.1397     0.2828
  309.5000     9.7560    10.0796     9.4083   -57.4125     8.0020   100.3508     2.4296     0.0079     0.1554     0.2863
  310.0000     9.5330     9.9919     9.2974   -57.6671     8.0020   100.0409     2.4234     0.0021     0.1526     0.3043
  310.5000     9.4413     9.9048     9.1879   -57.9234     8.0020    97.7573     2.4295     0.0082     0.1494     0.3054
  311.0000     9.5286     9.8788     9.0998   -57.9640     8.0020    96.5019     2.4354     0.0134     0.1465     0.2922
  311.5000     9.5286     9.8391     9.1348   -57.9643     8.0020    95.2812     2.4420     0.0236     0.1439     0.2672
  312.0000     9.5286     9.7997     9.1793   -57.9638     8.0020    95.7979     2.4640     0.0366     0.1315     0.2680
  312.5000     9.5294     9.7603     9.2241   -57.9637     8.0020    97.8092     2.4844     0.0494     0.1183     0.2893
  313.0000     9.4652     9.7212     9.2689   -57.9639     8.0020    98.4027     2.4964     0.0559     0.1106     0.2970
  313.5000     9.3592     9.6168     9.0986   -57.9650     8.0020    98.8217     2.4813     0.0459     0.1164     0.2879
  314.0000     9.2548     9.5070     8.9595   -57.9627     8.0009    99.5782     2.4617     0.0359     0.1391     0.2726
  314.5000     9.1516     9.3296     8.8225   -57.8610     7.9995   100.0200     2.4512     0.0366     0.1361     0.2689
  315.0000     9.0495     9.1555     8.7706   -57.4165     7.9981    99.7998     2.4580     0.0376     0.1333     0.2797
  315.5000     8.9487     8.9846     8.6690   -57.1361     7.9967    99.5744     2.4431     0.0172     0.1421     0.2904
  316.0000     8.8518     8.8170     8.6191   -57.0058     7.9953    98.8104     2.4031    -0.0028     0.1612     0.2915
  316.5000     8.8518     8.6902     8.5694   -57.2350     7.9939    95.4768     2.4012    -0.0154     0.1698     0.2876
  317.0000     8.9499     8.7523     8.5200   -57.4536     7.9925    93.1080     2.4151    -0.0031     0.1590     0.2830
