~VERSION INFORMATION
 VERS.                2.0:   CWLS LOG ASCII STANDARD - VERSION 2.0
 WRAP.                 NO:   ONE LINE PER DEPTH STEP
~WELL INFORMATION
#MNEM.UNIT      DATA TYPE    INFORMATION
#----------   ------------   ------------------------------
 STRT.F            0.0000:   START DEPTH
 STOP.F          416.0000:   STOP DEPTH
 STEP.F            0.5000:   STEP LENGTH
 NULL.          -999.2500:   NO VALUE
 COMP. DEPARTMENT OF ENERGY:   COMPANY
 WELL. NPR 3 #55-61 SX 3 C1:   WELL
 FLD . TEAPOT NAVAL RESERVE:   FIELD
 LOC .       S3 T38N R78W:   LOCATION
 CNTY.            NATRONA:   COUNTY
 STAT.            WYOMING:   STATE
 CTRY. UNITED STATES OF AMERICA:   COUNTRY
 SRVC.      Dresser Atlas:   SERVICE COMPANY
 DATE.        26-JUN-1985:   LOGDATE
 API .       490251134400:   API NUMBER
~CURVE INFORMATION
#MNEM.UNIT       API CODE    CURVE DESCRIPTION
#----------   ------------   ------------------------------
 DEPT.F                  :   
 RILD.OHMM   07 120 46 00:   INDUCTION LOG DEEP RESISTIVITY
 RILM.OHMM   07 120 44 00:   INDUCTION LOG MEDIUM RESISTIVITY
 GRD .GAPI   45 310 01 00:   GAMMA RAY FROM DENSITY LOG
 NPHI.DEC    42 890 03 00:   NEUTRON POROSITY SANDSTONE
~PARAMETER INFORMATION
#MNEM.UNIT          VALUE    DESCRIPTION
#----------   ------------   ------------------------------
 PD  .                 GL:   PERMANENT DATUM
 EPD .F            5160.8:   ELEVATION PERMANENT DATUM
 LMF .                 GL:   LOG MEASURED FROM
 DMF .                 GL:   DRILLING MEASURED FROM
 EGL .F            5160.8:   GROUND LEVEL
 DATE.        26-JUN-1985:   RUN DATE
 RUN .                  1:   RUN NUMBER
 DD  .F               420:   DEPTH DRILLER
 DL  .F               420:   DEPTH LOGGER
 BLI .F               416:   BOTTOM LOG INTERVAL
 CS  .IN            8.625:   CASING SIZE
 CBD .F                79:   CASING BOTTOM DRILLER
 CBL .F                79:   CASING BOTTOM LOGGER
 BS  .IN            4.875:   BIT SIZE
 BSD .F               420:   BIT SIZE AT DEPTH
 DFT .           FOAM AIR:   DRILLING FLUID TYPE
 TCS .HRS               2:   TIME CURCULATED STOPPED
 MRT .F                60:   MAXIMUM RECORDED TEMPERATURE
 LUN .            HL 6274:   LOGGING UNIT NUMBER
 LUL .           GILLETTE:   LOGGING UNIT LOCATION
 ENGI.             RAUTIO:   RECORDING ENGINEER
 WITN.             TAYLOR:   WITNESSED BY
 CLNT.            A2DTECH:   CLIENT CODE
 ORIG.           5" PRINT:   ORIGIN OF DATA
 UWI .       490251134400:   UNIQUE WELL ID
 DICO. A2D Technologies, Inc.:   DIGITIZING COMPANY
~OTHER INFORMATION
~A    DEPT    RILD       RILM         GRD      NPHI   
# ...
  292.0000    14.1312    14.5991    69.1505     0.0349
  292.5000    14.8399    14.7062    62.8267     0.0284
  293.0000    15.5916    15.6629    66.1705     0.0290
  293.5000    16.1734    16.9160    74.9524     0.0356
  294.0000    16.8317    17.9148    80.1089     0.0389
  294.5000    17.1898    18.7924    82.2443     0.0459
  295.0000    17.5555    18.6670    77.7383     0.0431
  295.5000    17.9290    18.8027    74.7377     0.0392
  296.0000    18.4386    18.9394    72.3413     0.0355
  296.5000    18.9626    19.4803    70.8513     0.0307
  297.0000    19.3661    20.0367    72.9867     0.0240
  297.5000    19.9165    20.4658    76.9347     0.0255
  298.0000    20.1995    20.7588    78.4659     0.0276
  298.5000    20.2023    20.9097    79.0907     0.0303
  299.0000    20.3464    20.6258    79.1112     0.0257
  299.5000    20.3491    20.6328    77.9233     0.0227
  300.0000    20.2098    20.6384    77.3397     0.0223
  300.5000    19.7948    20.2167    80.3865     0.0201
  301.0000    19.1192    19.8036    83.7304     0.0141
  301.5000    18.5959    19.2642    88.2826     0.0038
  302.0000    18.1966    19.0013    91.6265    -0.0011
  302.5000    17.9637    18.7443    95.5745     0.0005
  303.0000    18.0924    18.4899    98.0121     0.0020
  303.5000    18.3490    18.4951    97.5770     0.0041
  304.0000    18.6091    18.7810    95.5642     0.0074
  304.5000    18.8730    19.5679    94.0683     0.0159
  305.0000    19.1406    19.7101    92.8716     0.0231
  305.5000    18.8781    19.4425    91.9770     0.0262
  306.0000    18.6106    19.0452    91.6836     0.0274
  306.5000    18.3639    18.7866    92.6047     0.0271
  307.0000    18.1120    18.5302    91.7101     0.0261
  307.5000    17.9886    18.1528    91.4197     0.0246
  308.0000    17.8661    17.7819    94.4555     0.0216
  308.5000    17.6216    17.4078    98.0926     0.0182
  309.0000    17.2592    16.9452   100.2192     0.0170
  309.5000    16.7868    16.5979    98.4182     0.0182
  310.0000    16.4416    16.3725    97.2215     0.0237
  310.5000    16.2161    16.3780    96.9282     0.0264
  311.0000    16.2188    16.3825    97.5471     0.0230
  311.5000    16.2210    16.3869   100.3030     0.0239
  312.0000    16.3367    16.5061   106.3726     0.0267
  312.5000    16.3389    16.6261   105.7424     0.0282
  313.0000    16.3412    16.6829   103.6393     0.0285
  313.5000    16.3434    16.8979   104.2553     0.0284
  314.0000    16.5751    17.1129   104.8713     0.0284
  314.5000    16.9337    17.4576   101.8619     0.0269
  315.0000    17.4497    18.4590    99.1546     0.0247
  315.5000    18.2827    19.5178   100.6769     0.0208
  316.0000    19.1997    21.2211   101.9175     0.0151
  316.5000    20.5889    23.3970   102.5160     0.0081
  317.0000    22.0787    25.7960   101.9235    -0.0143
  317.5000    24.5161    28.2434    96.7993    -0.0752
  318.0000    26.2240    31.1393    89.8624    -0.1167
  318.5000    28.1472    32.2680    83.8318    -0.1815
  319.0000    28.1215    32.0199    77.4992    -0.1997
  319.5000    26.2298    30.7081    73.5834    -0.1988
  320.0000    23.9585    27.8523    71.4804    -0.1942
  320.5000    22.3465    23.7255    73.1439    -0.1890
  321.0000    20.6981    21.6697    79.0597    -0.1694
  321.5000    19.1713    20.0698    85.1137    -0.1198
  322.0000    18.0065    18.7182    90.5635    -0.0632
  322.5000    17.3908    17.8183    96.6175     0.0010
  323.0000    16.9066    17.2158    98.7441     0.0156
  323.5000    16.4301    16.7423   100.2664     0.0225
  324.0000    16.1104    16.5105   101.4866     0.0276
  324.5000    16.1115    16.2818   101.1813     0.0313
  325.0000    15.8892    16.0564   100.3016     0.0344
  325.5000    15.7799    15.9448    99.7091     0.0361
  326.0000    15.6713    15.8340   101.2344     0.0361
  326.5000    15.6726    15.8340   103.0588     0.0361
  327.0000    15.6737    15.9612   104.8832     0.0355
  327.5000    15.7900    16.0564   103.9887     0.0352
  328.0000    15.9138    16.1687   100.9792     0.0351
  328.5000    16.2333    16.2818    98.5741     0.0351
  329.0000    16.3480    16.5105    97.3773     0.0361
  329.5000    16.4635    16.5105   102.2259     0.0375
  330.0000    16.4646    16.5105   102.8389     0.0369
  330.5000    16.4657    16.5105   100.4367     0.0318
  331.0000    16.4668    16.3958   102.2611     0.0281
  331.5000    16.3535    16.2818   104.9919     0.0293
  332.0000    16.0117    16.2818   105.6049     0.0314
  332.5000    15.6693    16.2818   102.9006     0.0323
  333.0000    15.3623    16.1687   100.4854     0.0332
  333.5000    15.4708    16.0564    99.9029     0.0329
  334.0000    15.3641    15.9448   102.0324     0.0335
  334.5000    15.4729    15.8340   101.7420     0.0353
  335.0000    15.4740    15.8340   101.7537     0.0335
  335.5000    15.2605    15.9448   102.3697     0.0305
  336.0000    15.4761    15.8340   104.1912     0.0280
  336.5000    15.5854    15.6148   100.2784     0.0292
  337.0000    15.4782    15.2625    98.1753     0.0329
  337.5000    15.1591    14.9750    97.2807     0.0359
  338.0000    14.8463    14.6651    98.2017     0.0344
  338.5000    14.6417    14.3615   104.2558     0.0328
  339.0000    14.4397    14.1600   107.2887     0.0371
  339.5000    14.1420    13.8553   109.7173     0.0395
  340.0000    13.8502    13.5824   107.3122     0.0401
  340.5000    13.4702    13.3943   104.9070     0.0395
  341.0000    13.2845    13.4880   103.7100     0.0379
  341.5000    13.1931    13.5824   103.7221     0.0358
  342.0000    13.2866    13.5824   104.1167     0.0339
  342.5000    13.2875    13.3012   108.2801     0.0300
  343.0000    13.1958    13.2088   110.4067     0.0291
  343.5000    13.1050    13.1073   110.7176     0.0291
  344.0000    12.9244    12.9354   107.1069     0.0312
  344.5000    12.6580    12.7563   103.4933     0.0327
  345.0000    12.4835    12.5796   103.2024     0.0327
  345.5000    12.3968    12.4054   105.9337     0.0321
  346.0000    12.2268    12.2336   108.3625     0.0327
  346.5000    11.9747    12.0642   106.8664     0.0342
  347.0000    11.8921    11.9804   105.3676     0.0357
  347.5000    11.8931    11.8145   105.9836     0.0372
  348.0000    11.7292    11.8145   108.4093     0.0387
  348.5000    11.5674    11.6509   102.9859     0.0393
  349.0000    11.4080    11.6509    98.4659     0.0393
  349.5000    11.2509    11.4896    97.5358     0.0390
  350.0000    11.1736    11.4097   101.2085     0.0387
  350.5000    11.0967    11.3305   104.0807     0.0400
  351.0000    11.0976    11.3305   107.2772     0.0411
  351.5000    11.0984    11.3305   108.7995     0.0405
  352.0000    11.0218    11.3305   108.8112     0.0383
  352.5000    10.9460    11.4896   107.0103     0.0408
  353.0000    11.0235    11.5699   106.4149     0.0480
  353.5000    11.1014    11.6509   109.4507     0.0492
  354.0000    11.2580    11.8145   110.6689     0.0416
  354.5000    11.3376    11.8145   106.1520     0.0318
  355.0000    11.5056    11.8972   100.1215     0.0245
  355.5000    11.6600    11.9804    98.0186     0.0210
  356.0000    11.9073    11.9851    98.6347     0.0219
  356.5000    12.0751    12.0752   100.1571     0.0231
  357.0000    11.5813    11.9921   102.3282     0.0234
  357.5000    11.2636    11.9013   105.1511     0.0228
  358.0000    11.1082    11.5025   108.0506     0.0222
  358.5000    10.8035    11.0320   109.8752     0.0210
  359.0000    10.5071    10.7293   110.1891     0.0185
  359.5000    10.3623    10.4349   108.3883     0.0164
  360.0000    10.2195    10.2196   104.7748     0.0221
  360.5000    10.1492    10.0087   100.8592     0.0376
  361.0000    10.0794    10.0094    98.7533     0.1075
  361.5000    10.0802    10.0103   107.8315     0.1178
  362.0000    10.0809    10.0109   121.7407     0.1220
  362.5000    10.1521     9.8728   123.2880     0.1229
  363.0000    10.2239     9.8736   121.4622     0.1226
  363.5000    10.3681    10.0130   119.9426     0.1226
  364.0000    10.5263    10.2253   118.6787     0.1227
  364.5000    10.9646    10.7420   111.5310     0.1243
