~VERSION INFORMATION
 VERS.                2.0:   CWLS LOG ASCII STANDARD - VERSION 2.0
 WRAP.                 NO:   ONE LINE PER DEPTH STEP
~WELL INFORMATION
#MNEM.UNIT      DATA TYPE    INFORMATION
#----------   ------------   ------------------------------
 STRT.F           30.0000:   START DEPTH
 STOP.F          691.0000:   STOP DEPTH
 STEP.F            0.5000:   STEP LENGTH
 NULL.          -999.2500:   NO VALUE
 COMP. U.S. DEPARTMENT OF ENERGY:   COMPANY
 WELL. NAVAL PETROLEUM RESERVE #3 #77-S-34:   WELL
 FLD .        TEAPOT DOME:   FIELD
 LOC .      S34 T39N R78W:   LOCATION
 CNTY.            NATRONA:   COUNTY
 STAT.            WYOMING:   STATE
 CTRY. UNITED STATES OF AMERICA:   COUNTRY
 SRVC.              Welex:   SERVICE COMPANY
 DATE.        26-APR-1977:   LOGDATE
 API .       490251034700:   API NUMBER
~CURVE INFORMATION
#MNEM.UNIT       API CODE    CURVE DESCRIPTION
#----------   ------------   ------------------------------
 DEPT.F                  :   
 CALD.IN     45 280 60 00:   CALIPER FROM DENSITY LOG
 CORR.G/C3   45 356 01 00:   DENSITY CORRECTION
 DPHI.DEC    45 890 12 00:   DENSITY POROSITY SANDSTONE
 RHOB.G/C3   45 350 01 00:   BULK DENSITY
 GRD .GAPI   45 310 01 00:   GAMMA RAY FROM DENSITY LOG
 ILD .OHMM   07 120 46 00:   INDUCTION LOG DEEP
 ILM .OHMM   07 120 44 00:   INDUCTION LOG MEDIUM
 SGRD.OHMM   07 220 05 00:   SHALLOW GUARD RESISTIVITY
 SPR .MV     07 010 01 00:   SPONTANEOUS POTENTIAL FROM RES.
~PARAMETER INFORMATION
#MNEM.UNIT          VALUE    DESCRIPTION
#----------   ------------   ------------------------------
 PD  .                 GL:   PERMANENT DATUM
 EPD .F              5075:   ELEVATION PERMANENT DATUM
 LMF .                 GL:   LOG MEASURED FROM
 DMF .                 GL:   DRILLING MEASURED FROM
 EGL .F              5075:   GROUND LEVEL
 DATE.          4-26-1977:   RUN DATE
 RUN .                  1:   RUN NUMBER
 DD  .F               700:   DEPTH DRILLER
 DL  .F               693:   DEPTH LOGGER
 BLI .F               691:   BOTTOM LOG INTERVAL
 TLI .F                35:   TOP LOG INTERVAL
 CS  .IN            8.625:   CASING SIZE
 CBD .F                40:   CASING BOTTOM DRILLER
 CBL .F                39:   CASING BOTTOM LOGGER
 BS  .IN            7.875:   BIT SIZE
 BSD .F               700:   BIT SIZE AT DEPTH
 DFT .            KCL MUD:   DRILLING FLUID TYPE
 DFD .                9.5:   DRILLING FLUID DENSITY
 DFV .                 35:   DRILLING FLUID VISCOSITY
 DFPH.               10.5:   DRILLING FLUID PH
 DFL .                 12:   DRILLING FLUID LOSS
 MSS .           FLOWLINE:   MUD SAMPLE SOURCE
 RMS .OHMM            .32:   RESISTIVITY MUD SAMPLE
 MST .F                66:   MUD SAMPLE TEMPERATURE
 RMF .OHMM            .28:   RESISTIVITY MUD FILTRATE SAMPLE
 MFST.F                66:   MUD FILTRATE SAMPLE TEMPERATURE
 RMC .OHMM            .49:   RESISTIVITY MUD CAKE
 MCST.F                66:   MUD CAKE SAMPLE TEMPERATURE
 RMB .OHMM            .28:   RESISTIVITY MUD AT BHT
 BHT .F                74:   BOTTOM HOLE TEMPERATURE
 TCS .HRS             1.5:   TIME CURCULATED STOPPED
 MRT .F                74:   MAXIMUM RECORDED TEMPERATURE
 LUN .               8611:   LOGGING UNIT NUMBER
 LUL .           GILLETTE:   LOGGING UNIT LOCATION
 ENGI.            C. DOAK:   RECORDING ENGINEER
 WITN.       MR. ROB LYON:   WITNESSED BY
 CLNT.            A2DTECH:   CLIENT CODE
 ORIG.           5" PRINT:   ORIGIN OF DATA
 UWI .       490251034700:   UNIQUE WELL ID
 DICO. A2D Technologies, Inc.:   DIGITIZING COMPANY
~OTHER INFORMATION
~A   DEPT       CALD      CORR      DPHI         RHOB       GRD       ILD        ILM       SGRD        SPR   
# ...
  249.0000     7.9731     0.0211     0.1253     2.4670   129.5156     6.8700     8.2504     9.7838   -40.6607
  249.5000     7.9731     0.0180     0.1250     2.4693   128.6222     6.9175     8.2515     9.7201   -40.6590
  250.0000     7.9731     0.0150     0.1266     2.4667   127.1936     7.0136     8.3672     9.6580   -40.8072
  250.5000     7.9433     0.0152     0.1299     2.4555   131.9133     7.0136     8.4844     9.7954   -40.8072
  251.0000     7.9435     0.0089     0.1329     2.4503   136.2481     7.0621     8.5441     9.7295   -40.6577
  251.5000     7.9586     0.0089     0.1350     2.4563   137.2945     7.1602     8.6043    10.0042   -40.8072
  252.0000     7.9438     0.0149     0.1325     2.4623   129.9701     7.2596     8.6652    10.2870   -40.8072
  252.5000     7.9439     0.0194     0.1275     2.4668   129.5217     7.3603     8.7865    10.4316   -40.9567
  253.0000     7.9291     0.0238     0.1239     2.4698   131.0164     7.4625     8.8484    10.5058   -40.9567
  253.5000     7.9143     0.0238     0.1209     2.4705   131.6143     7.5661     9.0346    10.5806   -40.9567
  254.0000     7.9145     0.0223     0.1232     2.4705   127.2795     7.6712     9.1612    10.8060   -40.9567
  254.5000     7.8997     0.0207     0.1250     2.4705   124.7384     7.7777     9.2895    11.0326   -40.8072
  255.0000     7.8890     0.0207     0.1262     2.4675   123.8416     7.8857     9.4195    11.1106   -40.8072
  255.5000     7.8850     0.0192     0.1280     2.4616   123.9910     7.9951     9.5518    10.9605   -40.8072
  256.0000     7.8852     0.0177     0.1310     2.4563   124.2900     8.1061     9.6190    11.1155   -40.6577
  256.5000     7.8854     0.0131     0.1342     2.4511   123.6921     8.2187     9.6868    11.3507   -40.6647
  257.0000     7.8855     0.0086     0.1374     2.4451   121.7489     8.3328     9.7564    11.1198   -40.8072
  257.5000     7.8857     0.0056     0.1423     2.4399   119.5067     8.4485     9.9603    10.6715   -40.8072
  258.0000     7.9007     0.0025     0.1453     2.4362   118.5022     8.5658    10.0998    10.4549   -40.8072
  258.5000     7.9159     0.0025     0.1426     2.4392   118.7593     8.6847    10.2412    11.9222   -40.8072
  259.0000     7.9310     0.0040     0.1414     2.4407   120.8520     8.8053    10.3134    12.3424   -40.8072
  259.5000     7.9311     0.0054     0.1407     2.4414   123.6921     8.8053    10.3150    12.0094   -40.8072
  260.0000     7.9312     0.0054     0.1401     2.4414   126.2332     8.7448    10.2452    11.8471   -40.8072
  260.5000     7.9314     0.0069     0.1398     2.4459   128.3842     8.6217    10.1765    11.7685   -40.8072
  261.0000     7.9166     0.0083     0.1392     2.4512   129.3722     8.4485    10.0386    11.7708   -40.8072
  261.5000     7.9168     0.0098     0.1383     2.4572   129.2227     8.3328     9.9709    11.4527   -40.9567
  262.0000     7.9169     0.0113     0.1354     2.4624   128.0269     8.2755     9.9038    11.2979   -40.9567
  262.5000     7.9170     0.0128     0.1296     2.4669   128.9238     8.2187     9.8374    11.3789   -40.9567
  263.0000     7.9172     0.0112     0.1263     2.4609   129.2227     8.1622     9.7711    11.4599   -40.9567
  263.5000     7.9173     0.0111     0.1295     2.4579   129.2227     8.1622     9.7727    11.4621   -40.9567
  264.0000     7.9175     0.0082     0.1319     2.4550   128.7743     8.1061     9.7739    11.4644   -40.9567
  264.5000     7.9214     0.0081     0.1346     2.4527   127.7280     8.0505     9.7752    11.3878   -40.9567
  265.0000     7.9477     0.0111     0.1355     2.4505   127.1300     8.0505     9.7768    11.2344   -40.9567
  265.5000     7.9478     0.0156     0.1349     2.4550   128.8032     8.0505     9.7780    11.2366   -40.9567
  266.0000     7.9779     0.0202     0.1330     2.4640   129.5217     8.0505     9.7793    11.2389   -40.9567
  266.5000     7.9781     0.0260     0.1297     2.4729   128.6248     8.0505     9.7119    11.1637   -40.9567
  267.0000     8.0081     0.0260     0.1248     2.4804   126.6816     7.9951     9.5817    11.0129   -40.9567
  267.5000     8.0082     0.0260     0.1180     2.4864   125.3363     7.9951     9.5172    11.0054   -40.9567
  268.0000     8.0084     0.0244     0.1159     2.4760   124.8879     7.9951     9.5187    11.1033   -40.9567
  268.5000     8.0235     0.0229     0.1201     2.4700   125.0374     7.8857     9.4546    11.1735   -40.9567
  269.0000     8.0386     0.0199     0.1231     2.4685   126.0837     7.8315     9.3909    11.0983   -40.9567
  269.5000     8.0387     0.0198     0.1249     2.4685   128.1764     7.7777     9.4574    10.3609   -40.9567
  270.0000     8.0389     0.0183     0.1263     2.4693   130.5680     7.7777     9.5240     9.6056   -40.9666
  270.5000     8.0390     0.0168     0.1269     2.4670   133.1470     7.7777     9.5252    10.4372   -41.2556
  271.0000     8.0392     0.0183     0.1281     2.4625   135.9492     7.7777     9.5267    10.8805   -41.4051
  271.5000     8.0393     0.0197     0.1296     2.4633   137.8924     7.7777     9.5280    11.1102   -41.4051
  272.0000     8.0245     0.0212     0.1321     2.4573   139.0882     7.7777     9.5292    10.9601   -41.5546
  272.5000     8.0097     0.0197     0.1356     2.4484   139.5366     7.7243     9.4000    10.9627   -41.5546
  273.0000     7.9949     0.0181     0.1382     2.4409   139.2028     7.7777     9.2092    10.9649   -41.7040
  273.5000     7.9801     0.0158     0.1409     2.4357   135.3513     7.7777     8.8986    10.8167   -41.8535
  274.0000     7.9653     0.0121     0.1433     2.4364   134.6039     7.6712     8.6579    10.3806   -41.8535
  274.5000     7.9655     0.0105     0.1448     2.4402   136.0986     7.5142     8.7191    10.4545   -41.8535
  275.0000     7.9656     0.0090     0.1437     2.4439   136.5471     7.3603     8.7202    10.3847   -41.8535
  275.5000     7.9658     0.0060     0.1420     2.4469   135.6368     7.2596     8.7214    10.1040   -41.8535
  276.0000     7.9510     0.0044     0.1405     2.4462   134.4544     7.1602     8.6626    10.3892   -42.0030
  276.5000     7.9362     0.0014     0.1402     2.4364   135.5007     7.0621     8.4285    10.6086   -42.1525
  277.0000     7.9363     0.0014     0.1418     2.4320   136.2481     6.9654     8.0883    10.6841   -42.1525
  277.5000     7.9514    -0.0002     0.1438     2.4320   135.9492     6.8228     7.8155    10.4673   -42.1525
  278.0000     7.9516    -0.0017     0.1453     2.4312   134.9028     6.6813     7.7586     9.7046   -42.1525
  278.5000     7.9623    -0.0002     0.1470     2.4282   134.9028     6.5014     7.6053     9.3129   -42.1525
  279.0000     7.9668     0.0013     0.1491     2.4253   134.9028     6.4124     7.5538     9.3148   -42.1525
  279.5000     7.9670     0.0042     0.1503     2.4208   134.4544     6.3246     7.4516     9.0007   -42.1525
  280.0000     7.9651     0.0072     0.1475     2.4328   134.3049     6.3246     7.3439     8.4608   -42.1525
  280.5000     7.9523     0.0072     0.1449     2.4395   133.7070     6.2811     7.2510     7.5260   -42.1525
  281.0000     7.9525     0.0056     0.1425     2.4417   130.7175     6.3246     7.4548     7.1725   -42.3019
  281.5000     7.9526     0.0041     0.1410     2.4380   127.4290     6.4124     7.6640     7.4771   -42.1525
  282.0000     7.9378     0.0011     0.1419     2.4433   124.7384     6.5056     7.8794     8.9484   -42.1525
  282.5000     7.9354    -0.0005     0.1391     2.4493   122.6457     6.6832     8.1006     9.5894   -42.1525
  283.0000     7.9231     0.0010     0.1370     2.4358   121.0015     6.7759     8.3856     9.8596   -42.1525
  283.5000     7.9233     0.0042     0.1400     2.4253   119.2078     6.8700     8.5618     9.8615   -42.1525
  284.0000     7.9235     0.0100     0.1454     2.4298   118.3109     6.9924     8.7420     9.7956   -42.1525
  284.5000     7.9236     0.0129     0.1499     2.4366   119.5067     7.1110     8.7431     9.9342   -42.1525
  285.0000     7.9387     0.0174     0.1454     2.4448   122.0478     7.2097     8.7442    10.1439   -42.1525
