~VERSION INFORMATION
 VERS.                2.0:   CWLS LOG ASCII STANDARD - VERSION 2.0
 WRAP.                 NO:   ONE LINE PER DEPTH STEP
~WELL INFORMATION
#MNEM.UNIT      DATA TYPE    INFORMATION
#----------   ------------   ------------------------------
 STRT.F            9.5000:   START DEPTH
 STOP.F          640.5000:   STOP DEPTH
 STEP.F            0.5000:   STEP LENGTH
 NULL.          -999.2500:   NO VALUE
 COMP. FENIX & SCISSON INC:   COMPANY
 WELL. 27-32 SX 11 WI #27-32 SX:   WELL
 FLD .            WILDCAT:   FIELD
 LOC .      S11 T38N R78W:   LOCATION
 CNTY.            NATRONA:   COUNTY
 STAT.            WYOMING:   STATE
 CTRY. UNITED STATES OF AMERICA:   COUNTRY
 SRVC.      Dresser Atlas:   SERVICE COMPANY
 DATE.        01-AUG-1980:   LOGDATE
 API .       490251083700:   API NUMBER
~CURVE INFORMATION
#MNEM.UNIT       API CODE    CURVE DESCRIPTION
#----------   ------------   ------------------------------
 DEPT.F                  :   
 SPR .MV     07 010 01 00:   SPONTANEOUS POTENTIAL
 SFL .OHMM   07 220 01 00:   SHALLOW FOCUSED LOG RESISTIVITY
 ILD .OHMM   07 120 46 00:   INDUCTION LOG DEEP
 ILM .OHMM   07 120 44 00:   INDUCTION LOG MEDIUM
 GRD .GAPI   45 310 01 00:   GAMMA RAY FROM DENSITY LOG
 CALD.IN     45 280 60 00:   CALIPER
 RHOB.G/C3   45 350 01 00:   BULK DENSITY
 CORR.G/C3   45 356 01 00:   DENSITY CORRECTION
 DPHI.DEC    45 890 12 00:   DENSITY POROSITY SANDSTONE
 NPHI.DEC    42 890 03 00:   NEUTRON POROSITY SANDSTONE
~PARAMETER INFORMATION
#MNEM.UNIT          VALUE    DESCRIPTION
#----------   ------------   ------------------------------
 PD  .                 GL:   PERMANENT DATUM
 EPD .F              5189:   ELEVATION PERMANENT DATUM
 LMF .                 KB:   LOG MEASURED FROM
 DAPD.F                 5:   FEET ABOVE PERMANENT DATUM
 DMF .                 KB:   DRILLING MEASURED FROM
 EKB .F              5194:   KELLING BUSHING
 EGL .F              5189:   GROUND LEVEL
 DATE.             8-1-80:   RUN DATE
 RUN .                  1:   RUN NUMBER
 DD  .F               625:   DEPTH DRILLER
 DL  .F               634:   DEPTH LOGGER
 BLI .F               632:   BOTTOM LOG INTERVAL
 TLI .F                12:   TOP LOG INTERVAL
 BS  .IN            7.875:   BIT SIZE
 BSD .F               625:   BIT SIZE AT DEPTH
 DFT .           CHEM GEL:   DRILLING FLUID TYPE
 DFD .                9.1:   DRILLING FLUID DENSITY
 DFV .                 44:   DRILLING FLUID VISCOSITY
 DFPH.                9.5:   DRILLING FLUID PH
 DFL .                7.6:   DRILLING FLUID LOSS
 MSS .           FLOWLINE:   MUD SAMPLE SOURCE
 RMS .OHMM            .27:   RESISTIVITY MUD SAMPLE
 MST .F                70:   MUD SAMPLE TEMPERATURE
 RMF .OHMM            .16:   RESISTIVITY MUD FILTRATE SAMPLE
 MFST.F                65:   MUD FILTRATE SAMPLE TEMPERATURE
 MFSS.               MEAS:   MUD FILTRATE SAMPLE SOURCE
 MCSS.               MEAS:   MUD CAKE SAMPLE SOURCE
 RMB .OHMM            .21:   RESISTIVITY MUD AT BHT
 BHT .F                94:   BOTTOM HOLE TEMPERATURE
 TCS .HRS            0040:   TIME CURCULATED STOPPED
 MRT .F                94:   MAXIMUM RECORDED TEMPERATURE
 LUN .               6145:   LOGGING UNIT NUMBER
 LUL .              GLTTE:   LOGGING UNIT LOCATION
 ENGI.              HENRY:   RECORDING ENGINEER
 WITN.              AMEND:   WITNESSED BY
 CLNT.            A2DTECH:   CLIENT CODE
 ORIG.     1", 2.5" PRINT:   ORIGIN OF DATA
 UWI .       490251083700:   UNIQUE WELL ID
 DICO. A2D Technologies, Inc.:   DIGITIZING COMPANY
~OTHER INFORMATION
~A    DEPT     SPR         SFL         ILD        ILM      GRD       CALD       RHOB       CORR       DPHI       NPHI   
# ...
  445.0000   -52.6500    10.5839     7.9423     9.2830    91.7032     8.0763     2.5321     0.0313     0.0891     0.2669
  445.5000   -52.6445    10.7523     7.9408     9.2548    89.8678     8.0703     2.5234     0.0225     0.0920     0.2736
  446.0000   -52.6420    10.9234     7.9563     9.2234    87.8810     8.0632     2.5146     0.0139     0.1006     0.2804
  446.5000   -52.6451    11.1165     7.2076     9.2311    88.8575     8.0559     2.4961     0.0054     0.1087     0.2892
  447.0000   -52.6438    11.0000     6.5855     9.2204    90.7963     8.0488     2.4674    -0.0040     0.1168     0.3000
  447.5000   -52.6443    10.8706     6.0207     9.2257    93.0979     8.0415     2.4248    -0.0119     0.1580     0.3084
  448.0000   -52.6457    10.7426     5.5002     9.2257    96.5159     8.0343     2.3840    -0.0174     0.1842     0.3135
  448.5000   -52.6410    10.6162     5.3286     8.4296    99.8236     8.0272     2.3620     0.0155     0.1882     0.3180
  449.0000   -52.6418    10.5118     5.2733     6.4967   102.5672     8.0197     2.4000     0.0457     0.1625     0.3120
  449.5000   -52.4397    10.5118     5.2733     6.1215    95.6966     8.0128     2.4682     0.0883     0.1255     0.3008
  450.0000   -52.1656    11.1204     5.3725     6.2449    88.3740     8.0058     2.5373     0.0730     0.0651     0.2815
  450.5000   -51.8924    12.2323     5.7737     6.9112    91.6823     7.9969     2.5702     0.0292     0.0707     0.2627
  451.0000   -51.6221    13.6470     6.3142     7.6508    94.8261     8.0091     2.5562     0.0149     0.0792     0.2526
  451.5000   -51.3502    13.4895     6.9054     8.4078    94.8705     8.0342     2.5461     0.0188     0.0830     0.2474
  452.0000   -51.0785    13.2916     7.5519     9.0450    94.6988     8.0575     2.5429     0.0209     0.0815     0.2519
  452.5000   -50.8064    13.1180     8.2589     9.6839    92.3863     8.0804     2.5418     0.0234     0.0824     0.2561
  453.0000   -50.5366    12.9449     9.0321    10.3231    89.8701     8.1039     2.5394     0.0220     0.0852     0.2603
  453.5000   -50.2651    12.7719     9.5762    10.3157    89.8546     8.1271     2.5341     0.0191     0.0882     0.2598
  454.0000   -50.0862    12.5988     9.5412    10.3187    90.7802     8.1504     2.5288     0.0163     0.0911     0.2592
  454.5000   -49.9390    12.4271     9.4506    10.3154    90.7640     8.1737     2.5237     0.0131     0.0941     0.2597
  455.0000   -49.7915    12.2024     9.3608    10.3120    92.3293     8.1969     2.5194     0.0152     0.0968     0.2639
  455.5000   -49.6416    12.2523     9.2719    10.3092    93.8742     8.2203     2.5214     0.0225     0.0960     0.2655
  456.0000   -49.4958    12.3406     9.2257    10.3070    95.7329     8.2386     2.5247     0.0279     0.0932     0.2659
  456.5000   -49.3449    12.4323     9.6117    10.7245    92.1178     8.2296     2.5290     0.0218     0.0904     0.2643
  457.0000   -49.1946    12.7065    10.1955    11.3559    87.5742     8.2092     2.5186     0.0139     0.0967     0.2643
  457.5000   -49.0638    13.4662    10.8147    12.0247    82.9535     8.1893     2.5002     0.0058     0.1093     0.2542
  458.0000   -48.7732    15.2007    11.4715    12.7326    76.4324     8.1694     2.4758    -0.0021     0.1242     0.2456
  458.5000   -48.3538    17.1587    12.1682    13.4825    69.3293     8.1495     2.4472    -0.0102     0.1390     0.2371
  459.0000   -47.9545    19.3688    12.9072    14.4321    62.6959     8.1295     2.4197    -0.0120     0.1553     0.2285
  459.5000   -47.5576    21.8636    13.6470    14.8469    62.1699     8.1096     2.3933    -0.0119     0.1702     0.2210
  460.0000   -47.1492    23.6344    13.8780    15.8225    63.0641     8.0897     2.3656     0.0004     0.1867     0.2194
  460.5000   -46.7978    22.7731    14.1005    16.7535    64.3714     8.0698     2.3534     0.0163     0.1946     0.2194
  461.0000   -46.5011    21.9432    14.4941    17.1588    64.0914     8.0499     2.3609     0.0315     0.1873     0.2248
  461.5000   -46.1981    21.1435    15.5699    17.5351    63.8738     8.0300     2.3752     0.0472     0.1790     0.2293
  462.0000   -45.8953    22.1226    16.7535    17.9197    62.5884     8.0100     2.3881     0.0485     0.1713     0.2339
  462.5000   -45.5940    23.7645    16.8247    18.3127    60.5707     7.9900     2.3807     0.0405     0.1815     0.2395
  463.0000   -45.2910    24.9793    16.8979    18.7146    60.7042     7.9703     2.3625     0.0122     0.1898     0.2367
  463.5000   -44.9888    25.6980    16.9713    19.1246    61.8298     7.9502     2.3669     0.0036     0.1872     0.2351
  464.0000   -44.6874    25.5599    17.0451    19.5431    61.9423     7.9300     2.3773     0.0036     0.1810     0.2363
  464.5000   -44.3816    25.1531    17.6317    19.9706    61.7001     7.9176     2.3704    -0.0032     0.1857     0.2366
  465.0000   -44.0839    24.7676    18.1859    20.3687    62.6822     7.9269     2.3508    -0.0078     0.1977     0.2353
  465.5000   -43.7812    24.7967    18.4549    20.7358    64.9126     7.9357     2.3367     0.0079     0.2038     0.2347
  466.0000   -43.4549    25.8498    18.7280    21.1094    63.6337     7.9451     2.3418     0.0240     0.2030     0.2347
  466.5000   -43.3181    27.0142    19.0050    22.0088    61.5050     7.9545     2.3387     0.0268     0.2044     0.2361
  467.0000   -43.4610    28.2330    19.4484    23.8311    59.2671     7.9637     2.3340     0.0199     0.2082     0.2379
  467.5000   -43.5776    29.4875    19.2895    25.8043    57.2847     7.9730     2.3120     0.0136     0.2197     0.2379
  468.0000   -43.6959    31.5799    18.9247    28.2376    57.6639     7.9823     2.2755     0.0091     0.2378     0.2371
  468.5000   -43.8196    30.6365    18.5669    29.3104    60.2966     7.9915     2.2938     0.0204     0.2332     0.2350
  469.0000   -43.9394    28.7475    18.2157    27.7339    62.8056     8.0008     2.3523     0.0299     0.1990     0.2329
  469.5000   -44.0616    26.9751    17.8713    26.3573    65.8945     8.0100     2.4100     0.0411     0.1677     0.2311
  470.0000   -44.1796    25.3119    17.5333    25.0490    65.8118     8.0193     2.4292     0.0299     0.1465     0.2299
  470.5000   -44.3040    23.7512    17.2017    23.8056    65.2060     8.0286     2.4193     0.0103     0.1546     0.2291
  471.0000   -44.4287    23.4345    16.8764    22.6239    64.8307     8.0378     2.4153    -0.0011     0.1589     0.2291
  471.5000   -44.4067    24.7826    16.5573    21.7504    63.9762     8.0471     2.4110     0.0016     0.1609     0.2309
  472.0000   -43.9494    24.6658    16.1403    21.3486    62.9711     8.0563     2.4062     0.0026     0.1668     0.2334
  472.5000   -43.5030    24.4056    16.3982    20.9543    64.6570     8.0656     2.3922     0.0038     0.1750     0.2343
  473.0000   -43.0454    24.1481    16.7942    20.9543    63.2574     8.0748     2.3778     0.0054     0.1833     0.2327
  473.5000   -42.5821    23.8755    17.1998    20.9543    60.4492     8.0841     2.3629     0.0066     0.1915     0.2309
  474.0000   -42.1384    24.9588    17.6152    21.9051    61.2673     8.0933     2.3551     0.0080     0.1948     0.2291
  474.5000   -41.6871    26.1790    18.0407    22.9759    64.1637     8.1026     2.3556     0.0094     0.1940     0.2273
  475.0000   -41.6130    27.4588    18.7366    24.7826    63.0482     8.1118     2.3447     0.0108     0.1973     0.2255
  475.5000   -41.5445    28.8012    18.6719    24.0804    61.5795     8.1211     2.3356     0.0121     0.2038     0.2235
  476.0000   -41.4944    29.5643    18.5166    22.4653    62.7789     8.1304     2.3289     0.0150     0.2082     0.2259
  476.5000   -41.4329    28.3663    18.3625    20.9585    65.5827     8.1396     2.3502     0.0178     0.1962     0.2315
  477.0000   -41.3758    27.2169    18.2098    19.5529    68.3544     8.1489     2.3752     0.0206     0.1780     0.2371
  477.5000   -41.3227    26.1140    18.0583    18.3905    70.8818     8.1581     2.3961     0.0234     0.1694     0.2379
  478.0000   -41.2473    25.0558    17.9081    18.6450    73.5626     8.1674     2.3980     0.0241     0.1644     0.2356
