~VERSION INFORMATION
 VERS.                2.0:   CWLS LOG ASCII STANDARD - VERSION 2.0
 WRAP.                 NO:   ONE LINE PER DEPTH STEP
~WELL INFORMATION
#MNEM.UNIT      DATA TYPE    INFORMATION
#----------   ------------   ------------------------------
 STRT.F            0.0000:   START DEPTH
 STOP.F          400.0000:   STOP DEPTH
 STEP.F            0.5000:   STEP LENGTH
 NULL.          -999.2500:   NO VALUE
 COMP. DEPARTMENT OF ENERGY:   COMPANY
 WELL. NPR 3 #55-56 SX 3 C5:   WELL
 FLD .        TEAPOT EAST:   FIELD
 LOC .       S3 T38N R78W:   LOCATION
 CNTY.            NATRONA:   COUNTY
 STAT.            WYOMING:   STATE
 CTRY. UNITED STATES OF AMERICA:   COUNTRY
 SRVC.      Dresser Atlas:   SERVICE COMPANY
 DATE.        03-JUL-1985:   LOGDATE
 API .       490251134300:   API NUMBER
~CURVE INFORMATION
#MNEM.UNIT       API CODE    CURVE DESCRIPTION
#----------   ------------   ------------------------------
 DEPT.F                  :   
 GRR .GAPI   07 310 01 00:   GAMMA RAY
 RILD.OHMM   07 120 46 00:   INDUCTION LOG DEEP RESISTIVITY
 RILM.OHMM   07 120 44 00:   INDUCTION LOG DEEP RESISTIVITY
 CALD.IN     45 280 60 00:   CALIPER FROM DENSITY LOG
 CORR.G/C3   45 356 01 00:   DENSITY CORRECTION
 DEN .G/C3   45 350 01 00:   COMPENSATED BULK DENSTIY
 NPOR.DEC    42 890 03 00:   NEUTRON POROSITY SANDSTONE
 PORD.DEC    45 890 12 00:   POROSITY DENSITY SANDSTONE
~PARAMETER INFORMATION
#MNEM.UNIT          VALUE    DESCRIPTION
#----------   ------------   ------------------------------
 PD  .                 GL:   PERMANENT DATUM
 EPD .F              5168:   ELEVATION PERMANENT DATUM
 LMF .                 GL:   LOG MEASURED FROM
 DMF .                 GL:   DRILLING MEASURED FROM
 EGL .F              5168:   GROUND LEVEL
 DATE.        03-JUL-1985:   RUN DATE
 RUN .                  1:   RUN NUMBER
 DD  .F               402:   DEPTH DRILLER
 DL  .F               402:   DEPTH LOGGER
 BLI .F               394:   BOTTOM LOG INTERVAL
 CS  .IN                7:   CASING SIZE
 CBD .F                80:   CASING BOTTOM DRILLER
 CBL .F                84:   CASING BOTTOM LOGGER
 BS  .IN            4.875:   BIT SIZE
 BSD .F               402:   BIT SIZE AT DEPTH
 DFT .                OIL:   DRILLING FLUID TYPE
 TCS .HRS               3:   TIME CURCULATED STOPPED
 MRT .F               148:   MAXIMUM RECORDED TEMPERATURE
 LUN .               6274:   LOGGING UNIT NUMBER
 LUL .               GLTE:   LOGGING UNIT LOCATION
 ENGI.             RAUTIO:   RECORDING ENGINEER
 WITN.             GROOMS:   WITNESSED BY
 CLNT.            A2DTECH:   CLIENT CODE
 ORIG.           5" PRINT:   ORIGIN OF DATA
 UWI .       490251134300:   UNIQUE WELL ID
 DICO. A2D Technologies, Inc.:   DIGITIZING COMPANY
~OTHER INFORMATION
~A    DEPT      GRR      RILD       RILM       CALD       CORR        DEN       NPOR       PORD   
# ...
  121.5000   115.0167     7.7482     7.8816     6.5441     0.0359     2.3976     0.2639     0.1541
  122.0000   116.8205     7.8005     7.9909     6.5526     0.0569     2.4013     0.2638     0.1520
  122.5000   119.8328     7.9073     8.0459     6.5526     0.0509     2.4103     0.2638     0.1487
  123.0000   120.4304     8.0150     8.1572     6.5526     0.0449     2.4276     0.2623     0.1411
  123.5000   117.7003     8.0686     8.2130     6.5526     0.0494     2.4344     0.2599     0.1302
  124.0000   116.1809     8.1231     8.2119     6.5526     0.0629     2.4366     0.2584     0.1296
  124.5000   117.3805     8.1204     8.2108     6.5676     0.0674     2.4366     0.2571     0.1290
  125.0000   119.7885     8.0621     8.1527     6.5676     0.0569     2.4366     0.2562     0.1290
  125.5000   117.3061     8.0042     7.9830     6.5826     0.0509     2.4388     0.2550     0.1284
  126.0000   115.5390     8.0020     7.8716     6.5826     0.0629     2.4441     0.2541     0.1271
  126.5000   114.9259     7.9998     7.7618     6.6126     0.0793     2.4576     0.2534     0.1230
  127.0000   116.4276     7.9419     7.6535     6.6126     0.0868     2.4688     0.2529     0.1144
  127.5000   117.3273     7.9397     7.5995     6.6276     0.0599     2.4748     0.2541     0.1096
  128.0000   117.9227     7.8827     7.5457     6.6276     0.0449     2.4778     0.2610     0.1065
  128.5000   117.3074     7.8805     7.5974     6.6426     0.0359     2.4639     0.2655     0.1050
  129.0000   116.6943     7.7699     7.6494     6.6426     0.0269     2.4455     0.2673     0.1126
  129.5000   116.0812     7.7678     7.6483     6.6426     0.0208     2.4327     0.2685     0.1222
  130.0000   116.3745     7.7657     7.7007     6.6426     0.0180     2.4192     0.2679     0.1300
  130.5000   118.4964     7.7636     7.7534     6.6426     0.0329     2.4072     0.2654     0.1394
  131.0000   120.3203     7.7615     7.7521     6.6426     0.0434     2.4012     0.2636     0.1443
  131.5000   120.5775     7.8677     7.7510     6.6426     0.0539     2.3982     0.2621     0.1500
  132.0000   120.8708     7.9203     7.6962     6.6426     0.0584     2.4057     0.2612     0.1526
  132.5000   121.4661     7.9177     7.6418     6.6426     0.0509     2.4214     0.2606     0.1414
  133.0000   119.9445     7.9155     7.6408     6.6426     0.0359     2.4297     0.2606     0.1351
  133.5000   116.9145     7.9134     7.5342     6.6426     0.0299     2.4250     0.2605     0.1323
  134.0000   115.9993     7.9112     7.4291     6.6426     0.0480     2.4192     0.2605     0.1360
  134.5000   116.8968     7.8544     7.3255     6.6426     0.0584     2.4297     0.2593     0.1396
  135.0000   117.1903     7.7980     7.2233     6.6426     0.0344     2.4432     0.2575     0.1362
  135.5000   116.5770     7.6885     7.1225     6.6426     0.0150     2.4514     0.2566     0.1250
  136.0000   114.7231     7.5805     7.0231     6.6426     0.0329     2.4537     0.2623     0.1183
  136.5000   113.5378     7.4741     6.9733     6.6426     0.0554     2.4431     0.2665     0.1214
  137.0000   114.1312     7.4204     6.9240     6.6426     0.0749     2.4401     0.2671     0.1268
  137.5000   117.1435     7.3119     6.9230     6.6426     0.0838     2.4461     0.2677     0.1250
  138.0000   119.5516     7.0564     6.8264     6.6426     0.0644     2.4515     0.2686     0.1207
  138.5000   119.2406     6.6813     6.6382     6.6426     0.0599     2.4439     0.2683     0.1216
  139.0000   117.4191     6.4519     6.3660     6.6577     0.0567     2.4371     0.2674     0.1255
  139.5000   115.8997     6.1872     6.0206     6.6577     0.0439     2.4446     0.2670     0.1285
  140.0000   115.2888     6.1003     5.8954     6.6577     0.0284     2.4423     0.2687     0.1261
  140.5000   118.6010     5.9731     5.7329     6.6577     0.0240     2.4303     0.2743     0.1266
  141.0000   121.0090     5.8892     5.6137     6.6577     0.0314     2.4191     0.2809     0.1371
  141.5000   121.9305     5.8469     5.6575     6.6577     0.0883     2.4581     0.2869     0.1406
  142.0000   119.0212     5.9682     5.8514     6.6727     0.2006     2.4859     0.2893     0.1049
  142.5000   115.8443     6.1345     6.0156     6.6727     0.3413     2.4736     0.2914     0.0983
  143.0000   117.3460     6.3085     6.0989     6.7177     0.3548     2.4293     0.2857     0.1251
  143.5000   119.1498     6.4882     6.2701     6.7327     0.3054     2.4280     0.2796     0.1333
  144.0000   120.0473     6.7073     6.4462     6.6727     0.2286     2.4303     0.2769     0.1335
  144.5000   120.3428     6.8941     6.6274     6.6276     0.1048     2.4295     0.2747     0.1335
  145.0000   120.6361     7.0372     6.8608     6.6126     0.0344     2.4002     0.2723     0.1386
  145.5000   120.6250     7.1335     7.0045     6.6126     0.0000     2.3799     0.2705     0.1575
  146.0000   119.7098     7.2312     7.0525     6.6276    -0.0180     2.3874     0.2693     0.1625
  146.5000   118.7946     7.2801     7.1007     6.6276     0.0075     2.3919     0.2699     0.1561
  147.0000   118.1490     7.2776     7.0997     6.6426     0.0225     2.3950     0.2711     0.1552
  147.5000   118.1726     7.2253     7.0493     6.6426     0.0299     2.3988     0.2729     0.1534
  148.0000   118.1616     7.1734     6.9995     6.6426     0.0284     2.4032     0.2738     0.1506
  148.5000   118.1527     7.1715     6.9019     6.6426     0.0194     2.4002     0.2735     0.1488
  149.0000   117.2375     7.0707     6.8056     6.6426     0.0022     2.3949     0.2726     0.1539
  149.5000   116.9288     6.9710     6.7106     6.6426    -0.0180     2.3911     0.2734     0.1572
  150.0000   121.1473     6.9210     6.5711     6.6426    -0.0299     2.3896     0.2774     0.1572
  150.5000   124.1596     6.7766     6.4346     6.6426    -0.0419     2.3829     0.2807     0.1646
  151.0000   126.2655     6.5439     6.2571     6.6426    -0.0210     2.3709     0.2828     0.1717
  151.5000   123.5376     6.2754     6.0846     6.6426    -0.0090     2.3626     0.2834     0.1756
  152.0000   121.6919     5.9351     5.9146     6.6426    -0.0045     2.3572     0.2806     0.1795
  152.5000   121.1027     5.4597     5.5867     6.6426    -0.0030     2.3551     0.2797     0.1801
  153.0000   121.0919     5.0573     5.0055     6.6426     0.0120     2.3693     0.2800     0.1704
  153.5000   121.0831     4.9176     4.6040     6.6426     0.0665     2.3955     0.2819     0.1547
  154.0000   120.1679     4.8467     4.4770     6.6426     0.1362     2.4217     0.2881     0.1329
  154.5000   112.6062     4.7757     4.6998     6.6364     0.2485     2.4355     0.2935     0.1281
  155.0000   103.1521     4.7458     4.8655     6.6172     0.3114     2.4315     0.2966     0.1297
  155.5000    99.8157     4.8108     5.0021     6.6110     0.3503     2.4134     0.2984     0.1422
  156.0000   106.4995     5.0487     5.1425     6.5958     0.3623     2.4397     0.2884     0.1289
  156.5000   116.7597     5.3353     5.3984     6.5946     0.2186     2.4517     0.2775     0.1196
  157.0000   120.3734     5.7169     5.7865     6.5805     0.1221     2.4524     0.2772     0.1211
  157.5000   121.8723     6.0414     6.1610     6.5803     0.0787     2.4464     0.2787     0.1238
  158.0000   121.5585     6.2964     6.4308     6.5802     0.0622     2.4448     0.2796     0.1256
  158.5000   120.3383     6.4719     6.6938     6.5951     0.0651     2.4433     0.2775     0.1237
  159.0000   119.4199     6.6521     6.8340     6.5949     0.0426     2.4527     0.2756     0.1162
  159.5000   120.3150     6.8394     6.9772     6.6098     0.0156     2.4665     0.2744     0.1062
  160.0000   120.9075     6.9856     7.0740     6.6096     0.0079     2.4778     0.2747     0.1007
  160.5000   120.2887     7.1240     7.1226     6.6051     0.0504     2.4823     0.2756     0.1029
  161.0000   119.6728     7.2215     7.1714     6.6093     0.0873     2.4672     0.2768     0.1080
  161.5000   119.6611     7.3204     7.1701     6.6091     0.1217     2.4642     0.2777     0.1107
