~VERSION INFORMATION
 VERS.                2.0:   CWLS LOG ASCII STANDARD - VERSION 2.0
 WRAP.                 NO:   ONE LINE PER DEPTH STEP
~WELL INFORMATION
#MNEM.UNIT      DATA TYPE    INFORMATION
#----------   ------------   ------------------------------
 STRT.F           36.0000:   START DEPTH
 STOP.F          503.0000:   STOP DEPTH
 STEP.F            0.5000:   STEP LENGTH
 NULL.          -999.2500:   NO VALUE
 COMP.    FENIX & SCISSON:   COMPANY
 WELL.     NPR ##3 77-S-3:   WELL
 FLD .             TEAPOT:   FIELD
 LOC .       S3 T38N R78W:   LOCATION
 CNTY.            NATRONA:   COUNTY
 STAT.            WYOMING:   STATE
 CTRY. UNITED STATES OF AMERICA:   COUNTRY
 SRVC.       Schlumberger:   SERVICE COMPANY
 DATE.        04-MAR-1977:   LOGDATE
 API .       490251029500:   API NUMBER
~CURVE INFORMATION
#MNEM.UNIT       API CODE    CURVE DESCRIPTION
#----------   ------------   ------------------------------
 DEPT.F                  :   
 SPR .MV     07 010 01 00:   SPONTANEOUS POTENTIAL
 ILD .OHMM   07 120 46 00:   INDUCTION LOG DEEP
 ILM .OHMM   07 120 44 00:   INDUCTION LOG MEDIUM
 LL8 .OHMM   07 220 08 00:   LATEROLOG-8 RES.
 GRD .GAPI   45 310 01 00:   GAMMA RAY FROM DENSITY LOG
 CALD.IN     45 280 60 00:   CALIPER FROM DENSITY LOG
 CORR.G/C3   45 356 01 00:   DENSITY CORRECTION
 RHOB.G/C3   45 350 01 00:   BULK DENSITY
 DPHI.DEC    45 890 12 00:   DENSITY POROSITY SANDSTONE
~PARAMETER INFORMATION
#MNEM.UNIT          VALUE    DESCRIPTION
#----------   ------------   ------------------------------
 PD  .                 GL:   PERMANENT DATUM
 EPD .F              5165:   ELEVATION PERMANENT DATUM
 LMF .                 KB:   LOG MEASURED FROM
 DAPD.F                 4:   FEET ABOVE PERMANENT DATUM
 DMF .                 GL:   DRILLING MEASURED FROM
 EKB .F              5169:   KELLING BUSHING
 EGL .F              5165:   GROUND LEVEL
 DATE.        04-MAR-1977:   RUN DATE
 RUN .                  1:   RUN NUMBER
 DD  .F               500:   DEPTH DRILLER
 DL  .F               504:   DEPTH LOGGER
 BLI .F               503:   BOTTOM LOG INTERVAL
 TLI .F                46:   TOP LOG INTERVAL
 CS  .IN            8.625:   CASING SIZE
 CBD .F                42:   CASING BOTTOM DRILLER
 CBL .F                46:   CASING BOTTOM LOGGER
 BS  .IN            7.875:   BIT SIZE
 BSD .F               500:   BIT SIZE AT DEPTH
 DFT .                KCL:   DRILLING FLUID TYPE
 DFD .                8.6:   DRILLING FLUID DENSITY
 DFV .                 32:   DRILLING FLUID VISCOSITY
 DFPH.                8.0:   DRILLING FLUID PH
 DFL .                7.6:   DRILLING FLUID LOSS
 MSS .            MUD PIT:   MUD SAMPLE SOURCE
 RMS .OHMM            .66:   RESISTIVITY MUD SAMPLE
 MST .F                56:   MUD SAMPLE TEMPERATURE
 RMF .OHMM            .49:   RESISTIVITY MUD FILTRATE SAMPLE
 MFST.F                56:   MUD FILTRATE SAMPLE TEMPERATURE
 RMC .OHMM             .4:   RESISTIVITY MUD CAKE
 MCST.F                56:   MUD CAKE SAMPLE TEMPERATURE
 MFSS.               MEAS:   MUD FILTRATE SAMPLE SOURCE
 MCSS.               CALC:   MUD CAKE SAMPLE SOURCE
 TCS .HRS            0100:   TIME CURCULATED STOPPED
 LUN .               7680:   LOGGING UNIT NUMBER
 LUL .               CSPR:   LOGGING UNIT LOCATION
 ENGI.    LOHBECK/ TAYLOR:   RECORDING ENGINEER
 WITN.              BURKE:   WITNESSED BY
 CLNT.            A2DTECH:   CLIENT CODE
 ORIG.           5" PRINT:   ORIGIN OF DATA
 UWI .       490251029500:   UNIQUE WELL ID
 DICO. A2D Technologies, Inc.:   DIGITIZING COMPANY
~OTHER INFORMATION
~A   DEPT      SPR        ILD        ILM        LL8         GRD      CALD       CORR       RHOB       DPHI   
# ...
   72.5000  -155.2144     9.7824     9.9585   392.3112    85.3293     8.0803     0.0281     2.4487     0.1213
   73.0000  -145.6360     9.7195     9.8946   409.1673    86.6766     8.0802     0.0154     2.4434     0.1228
   73.5000  -143.3819     9.7242     9.8994   392.7426    87.5749     8.0650     0.0274     2.4359     0.1255
   74.0000  -155.7766     9.7289     9.7681   382.1783    87.5749     8.0799     0.0109     2.4501     0.1183
   74.5000  -163.6870     9.6665     9.7728   390.4631    83.5329     8.0797     0.0079     2.4508     0.1201
   75.0000  -164.7245     9.6711     9.7775   396.1222    80.3892     8.0795     0.0244     2.4418     0.1225
   75.5000  -163.6633     9.6758     9.7148   404.6538    80.1647     8.0794     0.0168     2.4343     0.1253
   76.0000  -162.4556     9.6806     9.7195   413.3691    80.4102     8.0793     0.0116     2.4448     0.1216
   76.5000  -161.2479     9.6852     9.6570   394.0395    81.2874     8.0791     0.0206     2.4515     0.1166
   77.0000  -160.1897     9.6899     9.5956   383.4403    81.9611     8.0790     0.0236     2.4575     0.1220
   77.5000  -158.8325     9.6946     9.5998   394.4728    82.6347     8.0788     0.0124     2.4342     0.1325
   78.0000  -157.7743     9.6993     9.6044   400.1900    84.8802     8.0787     0.0049     2.4409     0.1238
   78.5000  -158.6593     9.7040     9.5428   394.9065    86.9012     8.0785     0.0116     2.4244     0.1304
   79.0000  -158.9493     9.7096     9.5475   381.6864    88.0239     8.0634     0.0176     2.4323     0.1256
   79.5000  -153.8522     9.7135     9.5521   373.9985    88.4731     8.0632     0.0221     2.4439     0.1211
   80.0000  -150.5519     9.6519     9.5567   387.4311    86.9012     8.0630     0.0079     2.4258     0.1292
   80.5000  -150.2440     9.6566     9.5619   393.0462    85.0987     8.0629     0.0199     2.4468     0.1206
   81.0000  -149.4818     9.5935     9.5660   387.8571    83.3084     8.0628     0.0274     2.4611     0.1148
   81.5000  -146.0319     9.5992     9.5715   377.4760    83.0838     8.0626     0.0266     2.4753     0.1121
   82.0000  -145.2727     9.5376     9.5761   377.6834    84.8802     8.0624     0.0161     2.4445     0.1197
   82.5000  -145.1113     9.5422     9.5807   383.1573    86.0030     8.0773     0.0178     2.4512     0.1236
   83.0000  -142.7078     9.4810     9.5853   394.1275    86.2275     8.0772     0.0274     2.4445     0.1218
   83.5000  -139.7064     9.4190     9.5899   402.6447    86.0030     8.0770     0.0244     2.4506     0.1203
   84.0000  -136.7050     9.2951     9.5284   394.3459    86.2275     8.0769     0.0266     2.4534     0.1197
   84.5000  -135.6468     9.2996     9.5330   375.9327    86.0273     8.0767     0.0311     2.4489     0.1197
   85.0000  -138.1760     9.2388     9.4707   370.8944    85.8603     8.0766     0.0229     2.4421     0.1219
   85.5000  -144.2926     9.1795     9.4100   374.2721    87.2245     8.0614     0.0214     2.4413     0.1345
   86.0000  -142.0386     9.1217     9.3496   387.3132    89.3713     8.0613     0.0154     2.4241     0.1357
   86.5000  -138.7383     9.1261     9.2897   398.9298    89.5958     8.0611     0.0259     2.4300     0.1321
   87.0000  -139.7727     9.1305     9.2301   393.1879    88.6976     8.0609     0.0169     2.4353     0.1318
   87.5000  -137.0703     9.1349     9.1709   380.0253    87.5749     8.0608     0.0289     2.4210     0.1387
   88.0000  -137.8097     9.1393     9.1121   374.9566    88.0239     8.0456     0.0484     2.4029     0.1474
   88.5000  -135.3862     9.2071     9.1175   388.4236    88.6976     8.0305     0.0656     2.3969     0.1558
   89.0000  -134.9419     9.2116     9.1219   375.4204    89.3713     8.0303     0.0708     2.3841     0.1637
   89.5000  -135.6774     9.2800     9.0623   360.3504    89.5958     8.0302     0.0712     2.3698     0.1727
   90.0000  -126.3876     9.3489     9.1307   350.7055    88.2037     8.0300     0.0903     2.3818     0.1619
   90.5000  -125.4893     9.3534     9.1985   355.7884    84.2066     8.0299     0.1046     2.4045     0.1475
   91.0000  -132.0544     9.4229     9.3310   371.0752    83.3084     8.0447     0.1098     2.4561     0.1180
   91.5000  -123.8183     9.6252     9.4655   392.4123    84.8802     8.0596     0.0698     2.4523     0.1210
   92.0000  -114.6883     9.7640     9.6686   368.9214    85.7784     8.0745     0.0259     2.4335     0.1231
   92.5000  -118.5628     9.8366     9.8760   349.1972    85.7485     8.1044     0.0101     2.4350     0.1229
   93.0000  -120.7961     9.9097     9.9493   369.3271    84.8802     8.1192     0.0184     2.4373     0.1226
   93.5000  -113.6063    10.0526    10.0927   390.5637    86.0030     8.1190     0.0116     2.4485     0.1278
   94.0000   -97.6901    10.1273    10.0975   380.1102    84.6557     8.1039     0.0079     2.4387     0.1292
   94.5000   -92.3587    10.2025    10.1024   369.8856    83.9820     8.0887     0.0169     2.4409     0.1247
   95.0000   -92.3169    10.2075    10.1072   370.1397    85.1048     8.0886     0.0146     2.4501     0.1187
   95.5000   -89.2057    10.2124    10.1122   386.0432    85.7784     8.0884     0.0109     2.4424     0.1217
   96.0000   -83.3961    10.1468    10.1170   402.6299    86.0030     8.0883     0.0229     2.4664     0.1127
   96.5000   -80.4584    10.1519     9.9828   400.0732    84.8802     8.0881     0.0124     2.4566     0.1193
   97.0000   -79.5675    10.0865     9.9772   376.1237    85.5658     8.0880     0.0169     2.4566     0.1157
   97.5000   -78.3833    10.0218     9.8551   371.1504    85.7784     8.0728     0.0094     2.4603     0.1172
   98.0000   -71.9439     9.9574     9.7245   371.3620    83.9820     8.0727     0.0131     2.4460     0.1221
   98.5000   -64.0097     9.8265     9.5305   349.1313    82.8593     8.0725     0.0176     2.4535     0.1173
   99.0000   -61.1578     9.6292     9.3394   306.2863    83.0838     8.0724     0.0379     2.4715     0.1082
   99.5000   -59.2027     9.4348     9.0890   232.3570    83.1107     8.0722     0.0499     2.4858     0.1055
  100.0000   -57.9264     9.1634     8.9550   149.4325    82.9157     8.0721     0.0416     2.4702     0.1110
  100.5000   -55.2559     8.9428     8.8058    51.4544    81.0604     8.0716     0.0483     2.4639     0.1140
  101.0000   -53.4837     8.6963     8.6110    47.7119    81.2833     8.0712     0.0521     2.4812     0.1044
  101.5000   -54.0682     8.6405     8.4962    25.2553    81.2806     8.0707     0.0408     2.4684     0.1152
  102.0000   -56.2969     8.5248     8.4998    19.1581    78.4490     8.0703     0.0288     2.4576     0.1179
  102.5000   -57.0342     8.4701     8.5033    40.7507    72.9674     8.0698     0.0198     2.4516     0.1194
  103.0000   -54.3269     8.4158     8.5068    65.2683    71.1689     8.0694     0.0265     2.4488     0.1206
  103.5000   -53.4200     8.4208     8.5103    69.9785    69.8195     8.0689     0.0153     2.4293     0.1354
  104.0000   -56.9907     8.4249     8.5138    65.3313    67.5718     8.0685     0.0205     2.4353     0.1201
  104.5000   -56.2299     8.4290     8.5765    24.4672    65.5255     8.0680     0.0137     2.4562     0.1165
  105.0000   -55.4724     8.4916     8.6995    14.2670    64.6478     8.0676     0.0206     2.4652     0.1141
  105.5000   -56.6515     8.6739     8.8855    17.6912    64.1966     8.0671     0.0249     2.4750     0.1069
  106.0000   -56.9404     8.7990     9.1385    19.3658    66.6645     8.0666     0.0212     2.4787     0.1033
  106.5000   -53.6351     8.9879     9.2696    19.9189    67.7852     8.0662     0.0159     2.4794     0.1093
  107.0000   -52.1269     9.0547     9.4026    15.4270    67.7829     8.0657     0.0227     2.4719     0.1060
  107.5000   -52.5653     9.2491     9.4717    11.3830    66.8826     8.0653     0.0195     2.4771     0.1030
  108.0000   -53.1465     9.3826     9.5414     9.7129    68.0027     8.0648     0.0346     2.4966     0.0961
  108.5000   -53.7310     9.4523     9.5453    10.0597    68.0006     8.0644     0.0361     2.4989     0.0904
