~VERSION INFORMATION
 VERS.                2.0:   CWLS LOG ASCII STANDARD - VERSION 2.0
 WRAP.                 NO:   ONE LINE PER DEPTH STEP
~WELL INFORMATION
#MNEM.UNIT      DATA TYPE    INFORMATION
#----------   ------------   ------------------------------
 STRT.F           35.0000:   START DEPTH
 STOP.F          601.0000:   STOP DEPTH
 STEP.F            0.5000:   STEP LENGTH
 NULL.          -999.2500:   NO VALUE
 COMP. FENIX & SCISSON INC:   COMPANY
 WELL. NPR #3 71SX #71-15:   WELL
 FLD .             TEAPOT:   FIELD
 LOC .      S15 T38N R78W:   LOCATION
 CNTY.            NATRONA:   COUNTY
 STAT.            WYOMING:   STATE
 CTRY. UNITED STATES OF AMERICA:   COUNTRY
 SRVC.              Welex:   SERVICE COMPANY
 DATE.        10-MAR-1977:   LOGDATE
 API .       490251031200:   API NUMBER
~CURVE INFORMATION
#MNEM.UNIT       API CODE    CURVE DESCRIPTION
#----------   ------------   ------------------------------
 DEPT.F                  :   
 SPR .MV     07 010 01 00:   SPONTANEOUS POTENTIAL
 SGRD.OHMM   07 220 05 00:   SHALLOW RESISTIVITY
 DRES.OHMM   07 120 46 00:   INDUCTION LOG DEEP
 MRES.OHMM   07 120 44 00:   INDUCTION LOG MEDIUM
 GRD .GAPI   45 310 01 00:   GAMMA RAY FROM DENSITY LOG
 CALD.IN     45 280 60 00:   CALIPER
 RHOB.G/C3   45 350 01 00:   BULK DENSITY
 DPHI.DEC    45 890 12 00:   DENSITY POROSITY
 CORR.G/C3   45 356 01 00:   DENSITY CORRECTION
~PARAMETER INFORMATION
#MNEM.UNIT          VALUE    DESCRIPTION
#----------   ------------   ------------------------------
 PD  .                 GL:   PERMANENT DATUM
 EPD .F              5241:   ELEVATION PERMANENT DATUM
 LMF .                 GL:   LOG MEASURED FROM
 DMF .                 GL:   DRILLING MEASURED FROM
 EGL .F              5241:   GROUND LEVEL
 DATE.            3-10-77:   RUN DATE
 RUN .                  1:   RUN NUMBER
 DD  .F               600:   DEPTH DRILLER
 DL  .F               603:   DEPTH LOGGER
 BLI .F               601:   BOTTOM LOG INTERVAL
 TLI .F                35:   TOP LOG INTERVAL
 CS  .IN            8.625:   CASING SIZE
 CBD .F                40:   CASING BOTTOM DRILLER
 CBL .F                40:   CASING BOTTOM LOGGER
 BS  .IN            7.875:   BIT SIZE
 BSD .F               600:   BIT SIZE AT DEPTH
 DFT .            KCL MUD:   DRILLING FLUID TYPE
 DFD .                8.6:   DRILLING FLUID DENSITY
 DFV .                 10:   DRILLING FLUID VISCOSITY
 DFPH.                7.2:   DRILLING FLUID PH
 DFL .                  8:   DRILLING FLUID LOSS
 MSS .            MUD PIT:   MUD SAMPLE SOURCE
 RMS .OHMM            .36:   RESISTIVITY MUD SAMPLE
 MST .F                47:   MUD SAMPLE TEMPERATURE
 RMF .OHMM            .35:   RESISTIVITY MUD FILTRATE SAMPLE
 MFST.F                47:   MUD FILTRATE SAMPLE TEMPERATURE
 RMC .OHMM            .40:   RESISTIVITY MUD CAKE
 MCST.F                47:   MUD CAKE SAMPLE TEMPERATURE
 MFSS.           FANN KIT:   MUD FILTRATE SAMPLE SOURCE
 MCSS.           FANN KIT:   MUD CAKE SAMPLE SOURCE
 RMB .OHMM            .31:   RESISTIVITY MUD AT BHT
 BHT .F                53:   BOTTOM HOLE TEMPERATURE
 TCS .HRS             1.5:   TIME CURCULATED STOPPED
 MRT .F                53:   MAXIMUM RECORDED TEMPERATURE
 LUN .               8611:   LOGGING UNIT NUMBER
 LUL .           GILLETTE:   LOGGING UNIT LOCATION
 ENGI.               DOAK:   RECORDING ENGINEER
 WITN.         STUEBINGER:   WITNESSED BY
 CLNT.            A2DTECH:   CLIENT CODE
 ORIG.       2", 5" PRINT:   ORIGIN OF DATA
 UWI .       490251031200:   UNIQUE WELL ID
 DICO. A2D Technologies, Inc.:   DIGITIZING COMPANY
~OTHER INFORMATION
~A   DEPT      SPR       SGRD       DRES       MRES         GRD      CALD       RHOB       DPHI       CORR   
# ...
  181.0000   -37.1566    12.3090     8.0086    10.0309   115.2614     7.8685     2.4574     0.1146     0.0380
  181.5000   -37.2002    12.1383     7.9889     9.9965   115.2980     7.8690     2.4667     0.1085     0.0410
  182.0000   -37.2438    11.9222     7.9693     9.9625   115.5212     7.8695     2.4759     0.1025     0.0439
  182.5000   -37.2874    12.0697     7.9497     9.9288   115.5622     7.8700     2.4851     0.0962     0.0457
  183.0000   -37.3310    12.2793     7.8987     9.8705   114.7775     7.8705     2.4875     0.0995     0.0426
  183.5000   -37.3746    12.6003     7.8176     9.7350   116.3039     7.8710     2.4703     0.1062     0.0396
  184.0000   -37.4182    12.5104     7.7376     9.6013   118.0272     7.8716     2.4563     0.1129     0.0366
  184.5000   -37.4618    12.3308     7.6582     9.4698   117.3518     7.8721     2.4465     0.1180     0.0336
  185.0000   -37.5055    12.1533     7.5797     9.3402   115.9482     7.8726     2.4418     0.1212     0.0306
  185.5000   -37.5494    11.9790     7.5020     9.2125   114.1952     7.8731     2.4380     0.1222     0.0322
  186.0000   -37.5922    11.8458     7.4250     9.0864   112.6950     7.8736     2.4330     0.1217     0.0345
  186.5000   -37.6098    11.7330     7.3489     8.9621   112.1975     7.8741     2.4457     0.1177     0.0368
  187.0000   -37.5412    11.6208     7.2736     8.8710   112.5581     7.8747     2.4608     0.1105     0.0392
  187.5000   -37.4750    11.5092     7.1804     8.9381   112.8858     7.8752     2.4738     0.1041     0.0415
  188.0000   -37.4090    11.3856     7.2173     9.0022   112.9704     7.8757     2.4813     0.0987     0.0438
  188.5000   -37.3428    11.5664     7.2864     9.0667   112.3362     7.8762     2.4889     0.0937     0.0461
  189.0000   -37.2766    11.7926     7.3561     9.1317   110.9887     7.8767     2.4965     0.0890     0.0484
  189.5000   -37.2105    12.0232     7.4266     9.1972   109.4878     7.8773     2.5040     0.0862     0.0507
  190.0000   -37.1444    12.2621     7.4977     9.2631   109.4898     7.8778     2.5105     0.0833     0.0523
  190.5000   -37.0782    12.5868     7.5695     9.3295   109.9354     7.8783     2.5011     0.0882     0.0522
  191.0000   -37.0121    12.5203     7.6420     9.3964   110.8747     7.8788     2.4840     0.1013     0.0475
  191.5000   -36.9460    12.3883     7.7151     9.4636   112.1830     7.8793     2.4671     0.1067     0.0424
  192.0000   -36.8798    12.2577     7.7890     9.4786   113.4881     7.8798     2.4712     0.1051     0.0425
  192.5000   -36.8137    12.1286     7.8636     9.4936   114.2646     7.8804     2.4730     0.1034     0.0429
  193.0000   -36.7476    11.9368     7.9401     9.5086   114.0868     7.8809     2.4717     0.1046     0.0432
  193.5000   -36.6814    12.0528     7.9801     9.5237   113.9050     7.8814     2.4707     0.1059     0.0436
  194.0000   -36.6153    12.4049     8.0209     9.5388   113.2551     7.8819     2.4768     0.1043     0.0439
  194.5000   -36.5492    12.7676     8.0619     9.5539   112.5781     7.8824     2.4833     0.0997     0.0443
  195.0000   -36.4830    13.0760     8.1031     9.5691   112.3290     7.8829     2.4897     0.0951     0.0478
  195.5000   -36.4169    12.7976     8.1446     9.5842   112.3155     7.8835     2.4962     0.0905     0.0513
  196.0000   -36.3508    12.5482     8.1632     9.5994   113.0235     7.8840     2.5025     0.0869     0.0548
  196.5000   -36.2846    12.3037     8.0627     9.6146   114.1236     7.8845     2.5018     0.0883     0.0583
  197.0000   -36.2185    12.1445     7.9891     9.6303   115.0381     7.8850     2.4937     0.0920     0.0597
  197.5000   -36.1525    12.2023     7.9159     9.6397   115.3109     7.8855     2.4858     0.0957     0.0584
  198.0000   -36.0863    12.3710     7.8432     9.5670   115.2784     7.8860     2.4817     0.0979     0.0571
  198.5000   -36.0143    12.2012     7.7711     9.5119   114.9264     7.8866     2.4825     0.0981     0.0558
  199.0000   -35.9005    11.9700     7.7231     9.4574   113.5929     7.8871     2.4834     0.0984     0.0545
  199.5000   -35.7863    11.8126     7.8292     9.4033   110.7569     7.8876     2.4804     0.0986     0.0532
  200.0000   -35.6722    12.6017     7.9110     9.3765   107.9103     7.8881     2.4757     0.1003     0.0519
  200.5000   -35.5581    12.5392     7.9936     9.5018   107.5502     7.8886     2.4760     0.1019     0.0507
  201.0000   -35.4440    12.4126     8.0771     9.5992   108.9699     7.8891     2.4757     0.1039     0.0478
  201.5000   -35.3299    12.2590     8.1615     9.6976   110.4089     7.8897     2.4686     0.1087     0.0442
  202.0000   -35.2158    12.5256     8.2467     9.7970   109.6930     7.8902     2.4618     0.1130     0.0407
  202.5000   -35.1017    12.9199     8.3328     9.8974   107.3926     7.8907     2.4601     0.1116     0.0382
  203.0000   -34.9877    13.2185     8.4440     9.9988   108.8684     7.8912     2.4618     0.1099     0.0382
  203.5000   -34.8736    13.2867     8.6112    10.1012   111.6079     7.8917     2.4636     0.1083     0.0382
  204.0000   -34.7595    13.3552     8.7816    10.2048   114.6792     7.8922     2.4657     0.1067     0.0382
  204.5000   -34.6453    13.4241     8.9555    10.3094   113.5244     7.8928     2.4704     0.1051     0.0385
  205.0000   -34.5321    13.6942     9.1327    10.4150   111.0656     7.8933     2.4736     0.1034     0.0403
  205.5000   -34.4294    14.0790     9.3135    10.5217   108.6051     7.8938     2.4735     0.1034     0.0421
  206.0000   -34.2565    14.1144     9.4979    10.6564   106.1466     7.8943     2.4750     0.1016     0.0439
  206.5000   -34.0669    14.1529     9.6859    10.8175   103.6946     7.8948     2.4803     0.0994     0.0458
  207.0000   -33.8770    14.1915     9.8777    10.9811   101.8501     7.8953     2.4806     0.0996     0.0476
  207.5000   -33.6873    14.4798    10.0732    11.1472   100.6935     7.8959     2.4805     0.1001     0.0494
  208.0000   -33.4976    15.0046    10.2726    11.3158    99.5368     7.8964     2.4788     0.1010     0.0512
  208.5000   -33.3080    15.5849    10.4759    11.4869    98.3848     7.8969     2.4756     0.1020     0.0531
  209.0000   -33.1183    15.5009    10.6833    11.6607    97.2058     7.8974     2.4744     0.1030     0.0549
  209.5000   -32.9286    15.4416    10.8948    11.8370    96.7657     7.8979     2.4809     0.0989     0.0567
  210.0000   -32.7388    17.0190    11.1105    12.0160   100.6500     7.8984     2.4865     0.0946     0.0578
  210.5000   -32.5492    18.9216    11.3304    12.1978   103.9480     7.8990     2.4835     0.0926     0.0547
  211.0000   -32.3603    17.2519    11.5547    12.3822   105.4310     7.8995     2.4730     0.1018     0.0516
  211.5000   -32.2293    16.8456    11.7039    12.5697   104.6992     7.9000     2.4664     0.1081     0.0483
  212.0000   -32.2183    16.4256    11.5668    12.7605   103.4776     7.9005     2.4625     0.1099     0.0471
  212.5000   -32.2054    16.3217    11.4485    12.9526   100.4294     7.9010     2.4587     0.1117     0.0460
  213.0000   -32.1926    17.7389    11.3313    13.1974    98.3086     7.9015     2.4548     0.1135     0.0448
  213.5000   -32.1798    18.2352    11.2154    12.8480    96.9820     7.9021     2.4509     0.1154     0.0436
  214.0000   -32.1670    17.0578    11.1006    12.4456    97.3630     7.9026     2.4449     0.1199     0.0424
  214.5000   -32.1542    16.0989    10.9870    12.0559    98.1525     7.9031     2.4348     0.1274     0.0412
  215.0000   -32.1414    15.7125    10.8746    11.8126    98.9344     7.9036     2.4248     0.1349     0.0402
  215.5000   -32.1285    15.5000    10.7633    11.9721    99.7198     7.9041     2.4200     0.1355     0.0399
  216.0000   -32.1157    15.2905    10.6532    12.1115   100.5045     7.9047     2.4253     0.1333     0.0396
  216.5000   -32.1029    15.0319    10.5442    12.2572   101.2899     7.9052     2.4303     0.1312     0.0393
  217.0000   -32.0901    14.6892    10.4362    12.0400   102.0719     7.9057     2.4323     0.1298     0.0390
