~VERSION INFORMATION
 VERS.                2.0:   CWLS LOG ASCII STANDARD - VERSION 2.0
 WRAP.                 NO:   ONE LINE PER DEPTH STEP
~WELL INFORMATION
#MNEM.UNIT      DATA TYPE    INFORMATION
#----------   ------------   ------------------------------
 STRT.F           50.0000:   START DEPTH
 STOP.F          854.0000:   STOP DEPTH
 STEP.F            0.5000:   STEP LENGTH
 NULL.          -999.2500:   NO VALUE
 COMP. FENIX & SCISSON INC:   COMPANY
 WELL.    45 SX 11 #45-11:   WELL
 FLD .             TEAPOT:   FIELD
 LOC .      S11 T38N R78W:   LOCATION
 CNTY.            NATRONA:   COUNTY
 STAT.            WYOMING:   STATE
 CTRY. UNITED STATES OF AMERICA:   COUNTRY
 SRVC.           BIRDWELL:   SERVICE COMPANY
 DATE.        01-MAR-1978:   LOGDATE
 API .       490251058600:   API NUMBER
~CURVE INFORMATION
#MNEM.UNIT       API CODE    CURVE DESCRIPTION
#----------   ------------   ------------------------------
 DEPT.F                  :   
 CALD.IN     45 280 60 00:   CALIPER
 CORR.G/C3   45 356 01 00:   DENSITY CORRECTION
 RHOB.G/C3   45 350 01 00:   BULK DENSITY
 DPOR.DEC    45 890 12 00:   DENSITY POROSITY SANDSTONE
 GRD .GAPI   45 310 01 00:   GAMMA RAY FROM DENSITY LOG
 SPR .MV     05 010 01 00:   SPONTANEOUS POTENTIAL FROM RES.
 SN  .OHMM   05 040 16 00:   SHORT NORMAL 16"
 ILD .OHMM   05 120 46 00:   INDUCTION LOG DEEP
~PARAMETER INFORMATION
#MNEM.UNIT          VALUE    DESCRIPTION
#----------   ------------   ------------------------------
 PD  .                 GL:   PERMANENT DATUM
 EPD .F              5186:   ELEVATION PERMANENT DATUM
 LMF .                 KB:   LOG MEASURED FROM
 DAPD.F                 4:   FEET ABOVE PERMANENT DATUM
 DMF .                 KB:   DRILLING MEASURED FROM
 EKB .F              5190:   KELLING BUSHING
 EGL .F              5186:   GROUND LEVEL
 DATE.           3-1-1978:   RUN DATE
 RUN .                  1:   RUN NUMBER
 DD  .F               848:   DEPTH DRILLER
 DL  .F               856:   DEPTH LOGGER
 BLI .F               851:   BOTTOM LOG INTERVAL
 TLI .F                50:   TOP LOG INTERVAL
 CS  .IN            8.625:   CASING SIZE
 CBD .F                40:   CASING BOTTOM DRILLER
 CBL .F                40:   CASING BOTTOM LOGGER
 BS  .IN            7.875:   BIT SIZE
 BSD .F               848:   BIT SIZE AT DEPTH
 DFT .          LIGNOSULF:   DRILLING FLUID TYPE
 DFD .                8.5:   DRILLING FLUID DENSITY
 DFV .                 30:   DRILLING FLUID VISCOSITY
 DFPH.               11.5:   DRILLING FLUID PH
 MSS .                PIT:   MUD SAMPLE SOURCE
 RMS .OHMM              2:   RESISTIVITY MUD SAMPLE
 MST .F                59:   MUD SAMPLE TEMPERATURE
 RMF .OHMM            1.8:   RESISTIVITY MUD FILTRATE SAMPLE
 MFST.F                60:   MUD FILTRATE SAMPLE TEMPERATURE
 RMC .OHMM            2.2:   RESISTIVITY MUD CAKE
 MCST.F                60:   MUD CAKE SAMPLE TEMPERATURE
 MFSS.               MEAS:   MUD FILTRATE SAMPLE SOURCE
 MCSS.               MEAS:   MUD CAKE SAMPLE SOURCE
 RMB .OHMM           1.69:   RESISTIVITY MUD AT BHT
 BHT .F                70:   BOTTOM HOLE TEMPERATURE
 TCS .HRS               3:   TIME CURCULATED STOPPED
 MRT .F                70:   MAXIMUM RECORDED TEMPERATURE
 LUN .               2959:   LOGGING UNIT NUMBER
 LUL .               CASP:   LOGGING UNIT LOCATION
 ENGI.            POINTER:   RECORDING ENGINEER
 WITN.         HARRINGTON:   WITNESSED BY
 CLNT.            A2DTECH:   CLIENT CODE
 ORIG.       2", 5" PRINT:   ORIGIN OF DATA
 UWI .       490251058600:   UNIQUE WELL ID
 DICO. A2D Technologies, Inc.:   DIGITIZING COMPANY
~OTHER INFORMATION
~A   DEPT       CALD      CORR      RHOB       DPOR        GRD        SPR         SN        ILD   
# ...
   90.5000     7.7021     0.0689     2.2756     0.2450    96.8364   -45.7230     3.2090     3.0655
   91.0000     7.7023     0.0685     2.2361     0.2576   111.6777   -45.3107     3.3966     3.1275
   91.5000     7.7024     0.0742     2.2318     0.2377   111.7894   -44.9326     3.6914     3.3517
   92.0000     7.7024     0.0801     2.2744     0.2181   106.9569   -44.8801     4.0118     3.5943
   92.5000     7.7024     0.0850     2.3213     0.2076    98.5830   -44.8374     4.2093     3.9069
   93.0000     7.7023     0.0836     2.3212     0.1970    95.1758   -44.7940     4.3931     4.1677
   93.5000     7.7017     0.0814     2.3259     0.1904    96.5969   -44.7485     4.5848     4.4006
   94.0000     7.7295     0.0854     2.3403     0.1921    98.4531   -44.6777     4.7850     4.6196
   94.5000     7.7636     0.0976     2.3372     0.1888    98.6160   -44.5249     4.9773     4.7760
   95.0000     7.7981     0.1088     2.3417     0.1839    98.1868   -44.6218     5.0719     4.9377
   95.5000     7.8037     0.1111     2.3496     0.1790    97.7554   -44.7157     5.1613     5.0585
   96.0000     7.8037     0.1047     2.3472     0.1742    97.3316   -44.8078     5.2523     5.1316
   96.5000     7.8037     0.0989     2.3628     0.1726    97.7295   -44.8949     5.3450     5.2057
   97.0000     7.8034     0.1036     2.3687     0.1731    99.0135   -44.6434     5.4392     5.2811
   97.5000     7.8193     0.0925     2.3709     0.1739   100.2953   -44.1266     5.5651     5.3572
   98.0000     7.8427     0.0743     2.3632     0.1704   101.1096   -44.2472     5.5205     5.4118
   98.5000     7.8641     0.0657     2.3785     0.1670    98.3957   -44.3720     5.4566     5.3530
   99.0000     7.8628     0.0703     2.3979     0.1646    95.6962   -44.4957     5.3934     5.3079
   99.5000     7.8593     0.0644     2.3808     0.1709    94.0372   -44.6185     5.3309     5.2631
  100.0000     7.8558     0.0567     2.3687     0.1607    94.0751   -44.6712     5.2691     5.2187
  100.5000     7.8524     0.0584     2.3839     0.1513    94.6705   -44.1651     5.1451     5.1485
  101.0000     7.8489     0.0604     2.3944     0.1579    95.2428   -43.6700     4.9820     5.0764
  101.5000     7.8455     0.0510     2.3866     0.1645    95.8318   -43.4359     4.8241     5.0054
  102.0000     7.8421     0.0373     2.3812     0.1642    95.9517   -43.1911     4.6711     4.9312
  102.5000     7.8386     0.0363     2.3817     0.1685    95.5029   -42.9445     4.5230     4.8524
  103.0000     7.8352     0.0363     2.3724     0.1784    95.0104   -42.6990     4.3798     4.7483
  103.5000     7.8317     0.0364     2.3567     0.1872    94.5188   -42.4893     4.2410     4.6206
  104.0000     7.8283     0.0356     2.3425     0.1876    94.0256   -42.4942     4.0380     4.3742
  104.5000     7.8248     0.0343     2.3410     0.1904    93.5541   -42.4949     3.8253     4.1409
  105.0000     7.8214     0.0328     2.3376     0.1932    93.7020   -42.4949     3.6240     3.9200
  105.5000     7.8179     0.0391     2.3324     0.2002    93.8544   -42.4949     3.3979     3.7109
  106.0000     7.8145     0.0506     2.3187     0.2091    95.4928   -42.4949     3.4317     3.5940
  106.5000     7.8111     0.0620     2.3052     0.2180    97.9795   -42.4949     3.4951     3.5940
  107.0000     7.8079     0.0711     2.2916     0.2304   100.4903   -42.4949     3.4442     3.5940
  107.5000     7.8061     0.0623     2.2780     0.2255   102.9909   -42.4949     3.3998     3.5940
  108.0000     7.7342     0.0702     2.2736     0.2176   104.7950   -42.4949     3.6297     3.7955
  108.5000     7.6524     0.0826     2.2957     0.2097   103.9187   -42.4946     3.8255     4.0466
  109.0000     7.5700     0.0972     2.2996     0.2021   101.6111   -42.4928     4.0322     4.1548
  109.5000     7.4886     0.1034     2.3257     0.2017   100.2205   -42.5669     4.2501     4.1886
  110.0000     7.4899     0.0833     2.3249     0.1955   101.3502   -42.6488     4.4103     4.2227
  110.5000     7.5562     0.0851     2.3211     0.1860   101.0622   -42.7313     4.3380     4.2570
  111.0000     7.6196     0.0771     2.3446     0.1840    99.1598   -42.8150     4.2733     4.2916
  111.5000     7.6825     0.0657     2.3599     0.1784    97.2607   -42.8938     4.2095     4.3290
  112.0000     7.7455     0.0543     2.3510     0.1726    97.2472   -42.6641     4.1467     4.3395
  112.5000     7.8103     0.0483     2.3650     0.1744    97.3557   -42.4071     4.0939     4.3508
  113.0000     7.8240     0.0525     2.3603     0.1803    97.4540   -42.1498     3.9679     4.3622
  113.5000     7.8023     0.0585     2.3542     0.1861    97.5333   -41.7766     3.8358     4.3757
  114.0000     7.7640     0.0745     2.3502     0.1920    98.5768   -41.3662     3.7366     4.3929
  114.5000     7.7256     0.0913     2.3322     0.1979    99.8890   -40.9466     3.6119     4.4103
  115.0000     7.6871     0.0944     2.3263     0.2026    99.7801   -40.9402     3.4915     4.1854
  115.5000     7.6484     0.0948     2.3199     0.2006    98.7802   -41.0258     3.3319     3.8631
  116.0000     7.6424     0.1055     2.3180     0.1997    98.0641   -41.0636     3.0185     3.4260
  116.5000     7.6636     0.0888     2.3104     0.2146    98.6224   -40.7292     2.7360     3.0384
  117.0000     7.6832     0.0634     2.2926     0.2174    98.6753   -40.3824     2.4801     2.6943
  117.5000     7.7315     0.0505     2.2928     0.2211    95.9073   -40.2652     2.2481     2.3891
  118.0000     7.7678     0.0505     2.2960     0.2486    93.1073   -40.2632     2.1950     2.1335
  118.5000     7.8041     0.0515     2.2502     0.2761    92.5751   -40.2635     2.2773     2.1499
  119.0000     7.8386     0.0527     2.2030     0.2983    92.3859   -40.2637     2.3357     2.1678
  119.5000     7.8658     0.0537     2.1553     0.3107    91.3310   -40.2636     2.3588     2.1858
  120.0000     7.8642     0.0531     2.1391     0.3099    89.3130   -40.2637     2.3923     2.2519
  120.5000     7.8632     0.0455     2.1357     0.3021    87.9102   -40.2635     2.5410     2.4315
  121.0000     7.8621     0.0385     2.1389     0.2714    88.1348   -40.3140     3.0235     2.7926
  121.5000     7.8610     0.0388     2.1919     0.2417    88.2616   -40.4115     3.5607     3.2510
  122.0000     7.8599     0.0395     2.2659     0.2129    86.5556   -40.5091     3.5694     3.7847
  122.5000     7.8588     0.0401     2.3157     0.1842    84.6568   -40.6061     3.5787     4.0560
  123.0000     7.8577     0.0407     2.3493     0.1815    85.3715   -40.6706     3.5880     4.0397
  123.5000     7.8566     0.0413     2.3448     0.1886    88.1437   -40.6453     3.5974     4.0248
  124.0000     7.8555     0.0419     2.3427     0.1954    88.6525   -40.4904     3.6068     3.9681
  124.5000     7.8544     0.0425     2.3368     0.1984    91.9114   -40.3363     3.6162     3.8810
  125.0000     7.8533     0.0431     2.3286     0.1968    97.4264   -40.1826     3.6276     3.7961
  125.5000     7.8522     0.0437     2.3252     0.1939    97.1330   -40.0309     3.6003     3.7302
  126.0000     7.8511     0.0443     2.3283     0.1895    95.1235   -39.8824     3.5667     3.7599
  126.5000     7.8500     0.0428     2.3342     0.1852    93.4947   -39.7318     3.5333     3.7999
  127.0000     7.8489     0.0405     2.3402     0.1827    94.0269   -39.4379     3.4258     3.7363
  127.5000     7.8478     0.0424     2.3463     0.1836    94.7495   -39.4491     3.3072     3.6276
  128.0000     7.8467     0.0390     2.3475     0.1866    94.1738   -39.4537     3.1967     3.6957
  128.5000     7.8456     0.0344     2.3391     0.1904    93.4922   -39.4456     3.0944     3.5651
  129.0000     7.8445     0.0299     2.3346     0.1912    92.7975   -39.2971     2.9953     3.4306
  129.5000     7.8434     0.0252     2.3357     0.1976    92.0055   -39.1497     2.8619     3.1803
  130.0000     7.8423     0.0242     2.3333     0.2115    91.9045   -39.0030     2.7304     2.9615
  130.5000     7.8412     0.0269     2.3133     0.2254    92.1495   -38.8572     2.5924     2.7406
