~VERSION INFORMATION
 VERS.                2.0:   CWLS LOG ASCII STANDARD - VERSION 2.0
 WRAP.                 NO:   ONE LINE PER DEPTH STEP
~WELL INFORMATION
#MNEM.UNIT      DATA TYPE    INFORMATION
#----------   ------------   ------------------------------
 STRT.F           46.0000:   START DEPTH
 STOP.F          457.0000:   STOP DEPTH
 STEP.F            0.5000:   STEP LENGTH
 NULL.          -999.2500:   NO VALUE
 COMP. BROWN JOHN E&C INC:   COMPANY
 WELL. NPR 3 X10 #54-52-10:   WELL
 FLD .             TEAPOT:   FIELD
 LOC .      S10 T38N R78W:   LOCATION
 CNTY.            NATRONA:   COUNTY
 STAT.            WYOMING:   STATE
 CTRY. UNITED STATES OF AMERICA:   COUNTRY
 SRVC.       Schlumberger:   SERVICE COMPANY
 DATE.        27-SEP-1990:   LOGDATE
 API .       490251131700:   API NUMBER
~CURVE INFORMATION
#MNEM.UNIT       API CODE    CURVE DESCRIPTION
#----------   ------------   ------------------------------
 DEPT.F                  :   
 GRR .GAPI   07 310 01 00:   GAMMA RAY
 ILD .OHMM   07 120 46 00:   INDUCTION LOG DEEP
 ILM .OHMM   07 120 44 00:   INDUCTION LOG MEDIUM
~PARAMETER INFORMATION
#MNEM.UNIT          VALUE    DESCRIPTION
#----------   ------------   ------------------------------
 PD  .                 GL:   PERMANENT DATUM
 EPD .F              5190:   ELEVATION PERMANENT DATUM
 LMF .                 KB:   LOG MEASURED FROM
 DAPD.F              10.0:   FEET ABOVE PERMANENT DATUM
 DMF .                 KB:   DRILLING MEASURED FROM
 EKB .F              5200:   KELLING BUSHING
 EDF .F              5199:   DRILLING FLOOR
 EGL .F              5190:   GROUND LEVEL
 DATE.        27-SEP-1990:   RUN DATE
 RUN .                  1:   RUN NUMBER
 DD  .F               460:   DEPTH DRILLER
 DL  .F               463:   DEPTH LOGGER
 BLI .F               467:   BOTTOM LOG INTERVAL
 TLI .F                48:   TOP LOG INTERVAL
 CS  .IN            8.625:   CASING SIZE
 CBD .F                48:   CASING BOTTOM DRILLER
 CBL .F                62:   CASING BOTTOM LOGGER
 BS  .IN            7.875:   BIT SIZE
 BSD .F               460:   BIT SIZE AT DEPTH
 DFT .                AIR:   DRILLING FLUID TYPE
 TCS .HRS            1900:   TIME CURCULATED STOPPED
 TLAB.HRS            1618:   TIME LOGGER AT BOTTOM
 LUN .               6882:   LOGGING UNIT NUMBER
 LUL .               CODY:   LOGGING UNIT LOCATION
 ENGI.        MICK FISHER:   RECORDING ENGINEER
 WITN.       GARRY STRONG:   WITNESSED BY
 CLNT.            A2DTECH:   CLIENT CODE
 ORIG.           5" PRINT:   ORIGIN OF DATA
 UWI .       490251131700:   UNIQUE WELL ID
 DICO. A2D Technologies, Inc.:   DIGITIZING COMPANY
~OTHER INFORMATION
~A   DEPT       GRR       ILD        ILM   
# ...
  319.0000   105.4279    14.1478    14.1559
  319.5000   106.9388    14.4477    14.3632
  320.0000   103.5865    14.5491    14.5556
  320.5000   100.1850    14.8576    14.7600
  321.0000    96.4881    14.9619    14.8627
  321.5000    95.3509    14.9619    14.4511
  322.0000    98.6855    14.5491    14.0512
  322.5000   101.4122    14.1478    13.7583
  323.0000   103.2270    14.1478    13.6615
  323.5000   101.6984    14.1478    13.3767
  324.0000    99.5618    13.7575    13.1899
  324.5000    99.2490    13.3780    12.9147
  325.0000   100.1520    13.2848    12.8238
  325.5000   102.3354    13.0089    12.5565
  326.0000   104.9952    12.9183    12.4681
  326.5000   106.8100    12.8283    12.2082
  327.0000   105.5854    12.8283    12.2073
  327.5000   105.5765    13.0089    12.2065
  328.0000   106.1755    13.3780    12.2057
  328.5000   107.9903    14.1478    12.9424
  329.0000   108.0264    14.9619    14.4359
  329.5000   105.5409    16.0570    15.9209
  330.0000    99.6760    18.2671    17.8062
  330.5000    92.1895    20.9301    20.3372
  331.0000    87.5789    23.4082    24.5657
  331.5000    84.8345    26.7346    27.4746
  332.0000    82.3940    29.2791    30.3009
  332.5000    80.8654    31.4000    33.1926
  333.0000    79.9446    32.9754    34.4352
  333.5000    79.9358    35.3641    35.0910
  334.0000    80.8387    36.3673    34.3590
  334.5000    82.9734    36.2900    34.1171
  335.0000    85.4609    35.3641    33.6405
  335.5000    87.8007    34.6299    33.1707
  336.0000    89.6156    34.3885    32.7074
  336.5000    88.6948    34.3885    32.6915
  337.0000    87.1662    34.3885    33.3968
  337.5000    86.2455    34.6299    33.9049
  338.0000    86.5427    34.6299    34.3403
  338.5000    85.9237    34.8876    34.8220
  339.0000    82.8754    33.8699    34.0956
  339.5000    80.4347    32.0658    32.4632
  340.0000    81.3356    32.5174    31.1261
  340.5000    86.1899    32.7456    29.6360
  341.0000    91.0443    31.8423    29.4273
  341.5000    94.6828    30.3210    29.0163
  342.0000    94.3700    29.8999    29.0138
  342.5000    90.1058    29.2791    28.8095
  343.0000    87.0574    28.4714    28.2090
  343.5000    87.6564    27.6860    27.2371
  344.0000    90.1114    27.4930    26.4833
  344.5000    91.9423    26.9222    25.9313
  345.0000    92.4930    25.9971    25.2137
  345.5000    92.4819    25.4574    24.5160
  346.0000    92.4730    25.1038    24.1577
  346.5000    92.4641    24.7551    23.8355
  347.0000    93.3671    24.7551    23.6677
  347.5000    92.4464    24.5826    23.5010
  348.0000    90.3098    24.0722    23.4994
  348.5000    89.3891    24.0722    23.4978
  349.0000    90.7051    24.0722    23.3323
  349.5000    95.4481    24.0722    23.3308
  350.0000    98.4788    24.2959    23.1665
  350.5000    99.6879    24.6340    23.0780
  351.0000    97.5491    24.7519    23.0049
  351.5000    96.0205    24.7499    23.0049
  352.0000    94.4919    24.7482    23.1665
  352.5000    93.6872    24.5737    23.1665
  353.0000    93.6692    24.0619    23.1665
  353.5000    94.5585    23.8926    23.1665
  354.0000    94.8490    23.5592    23.1665
  354.5000    94.2203    23.3935    23.1665
  355.0000    93.5959    23.3915    23.0049
  355.5000    93.5781    23.2269    22.8445
  356.0000    93.5568    23.0635    22.5269
  356.5000    96.8778    22.7417    22.5269
  357.0000    99.2884    22.4180    21.9050
  357.5000   100.7884    22.1110    21.3003
  358.0000   101.3780    21.9554    20.7123
  358.5000   101.3563    21.4982    20.7123
  359.0000   100.4284    21.3469    20.7123
  359.5000    97.0727    21.0480    20.7123
  360.0000    91.5925    20.7549    20.7123
  360.5000    89.7541    20.3227    20.2819
  361.0000    91.8568    20.1797    20.1405
  361.5000    96.0883    19.6217    19.8605
  362.0000   100.3198    19.2130    19.0438
  362.5000   103.0338    18.6815    18.5181
  363.0000   103.0164    18.2924    17.8812
  363.5000   101.4416    17.9114    17.0263
  364.0000    99.6389    17.6615    16.5563
  364.5000    97.8006    17.5372    16.3178
  365.0000    95.0518    17.1720    16.0992
  365.5000    92.9100    16.6969    16.0992
  366.0000    90.7434    16.2352    16.0992
  366.5000    88.3185    16.1210    16.0992
  367.0000    88.3011    15.7852    15.6548
  367.5000    91.9256    15.6742    15.6548
  368.0000    97.9781    15.6728    15.6548
  368.5000   101.0046    15.5626    15.5456
  369.0000   102.1922    15.4531    15.3295
  369.5000   101.8669    15.3444    15.2222
  370.0000   100.9391    15.2293    14.8024
  370.5000   100.0112    14.5073    14.3937
  371.0000    98.7799    14.3048    14.0947
  371.5000    96.6337    14.1052    13.9964
  372.0000    95.4024    14.1043    13.9964
  372.5000    95.3850    14.1033    13.8018
  373.0000    96.2781    14.1022    13.8018
  373.5000    96.8677    14.0029    13.7055
  374.0000    97.4573    13.8075    13.7055
  374.5000    97.7434    13.8066    13.7055
  375.0000    98.9356    13.8057    13.6100
  375.5000   100.7392    13.8045    13.7055
  376.0000   102.2392    13.8036    13.6100
  376.5000   103.1323    13.7065    13.6100
  377.0000   103.1106    13.7056    13.6100
  377.5000   102.1827    13.7047    13.6100
  378.0000   100.6479    13.7038    13.6100
  378.5000    98.8096    13.7026    13.6100
  379.0000    97.2746    13.7017    13.6100
  379.5000   101.1984    13.7008    13.6100
  380.0000   105.4299    13.5096    13.6100
  380.5000   108.7509    13.3211    13.5150
  381.0000   109.6483    13.2271    13.3272
  381.5000   105.9847    13.1341    13.2342
  382.0000   102.0212    12.8605    13.1419
  382.5000   103.2142    12.7700    12.8689
  383.0000   105.9282    12.7692    12.8689
  383.5000   108.9457    12.5908    12.6015
  384.0000   110.7496    12.5899    12.5136
  384.5000   109.3831    12.5014    12.5136
  385.0000   106.1578    12.4134    12.5136
  385.5000   105.8413    12.4997    12.5136
  386.0000   110.3719    12.4987    12.5136
  386.5000   111.2656    12.4978    12.5136
  387.0000   110.6223    12.4970    12.5136
  387.5000   108.4945    12.4962    12.5136
  388.0000   106.9596    12.4953    12.5136
  388.5000   105.7283    12.4943    12.5136
  389.0000   103.2830    12.4935    12.5136
  389.5000   100.8377    12.4926    12.5136
  390.0000   102.0342    12.4918    12.5136
  390.5000   102.3204    12.4910    12.5136
  391.0000   101.9951    12.4029    12.4263
  391.5000   103.1917    12.3262    12.4263
  392.0000   108.9407    12.2290    12.1681
  392.5000   113.5661    12.0500    12.0833
  393.0000   116.4931    11.8899    11.8322
  393.5000   116.4714    11.8891    11.8322
  394.0000   114.9366    11.7232    11.7497
  394.5000   114.3122    11.5596    11.6678
  395.0000   115.2053    11.3983    11.5056
  395.5000   116.0940    11.2390    11.2665
  396.0000   116.0766    11.0822    11.0324
  396.5000   115.1488    11.0042    10.8791
  397.0000   113.0070    10.9268    10.8791
  397.5000   111.4566    10.8474    10.8019
  398.0000   112.6644    10.5497    10.5050
  398.5000   115.6819    10.3300    10.2150
  399.0000   117.1820    10.0444     9.7266
  399.5000   118.6820     9.7666     9.3921
  400.0000   118.6646     9.4304     9.0987
  400.5000   118.0322     9.1398     8.6335
  401.0000   116.7948     8.0807     8.1617
  401.5000   117.3981     7.3764     7.3468
  402.0000   121.5719     6.7336     6.5672
  402.5000   127.1926     6.0614     5.7808
  403.0000   131.9130     5.6901     5.1022
  403.5000   132.7603     5.5705     4.9955
  404.0000   130.3030     5.6077     5.3939
  404.5000   119.6573     5.7250     5.7036
  405.0000   115.9920     6.0528     6.1155
  405.5000   115.6650     6.6736     6.6500
  406.0000   116.8555     7.2559     7.2826
  406.5000   117.1354     8.0562     8.0085
  407.0000   113.4642     8.7078     8.9165
  407.5000   111.3163     9.3904     9.4280
  408.0000   110.9952     9.5876     9.6942
  408.5000   113.6972     9.7200     9.6918
  409.0000   118.8330     9.7167     9.6898
  409.5000   122.7549     9.7823     9.6879
