~VERSION INFORMATION
 VERS.                2.0:   CWLS LOG ASCII STANDARD - VERSION 2.0
 WRAP.                 NO:   ONE LINE PER DEPTH STEP
~WELL INFORMATION
#MNEM.UNIT      DATA TYPE    INFORMATION
#----------   ------------   ------------------------------
 STRT.F           40.0000:   START DEPTH
 STOP.F          534.0000:   STOP DEPTH
 STEP.F            0.5000:   STEP LENGTH
 NULL.          -999.2500:   NO VALUE
 COMP. LAWRENCE/ALLISON INC:   COMPANY
 WELL.   55-41 SX FI #3-3:   WELL
 FLD .             TEAPOT:   FIELD
 LOC .       S3 T38N R78W:   LOCATION
 CNTY.            NATRONA:   COUNTY
 STAT.            WYOMING:   STATE
 CTRY. UNITED STATES OF AMERICA:   COUNTRY
 SRVC.      Dresser Atlas:   SERVICE COMPANY
 DATE.        12-DEC-1983:   LOGDATE
 API .       490251089400:   API NUMBER
~CURVE INFORMATION
#MNEM.UNIT       API CODE    CURVE DESCRIPTION
#----------   ------------   ------------------------------
 DEPT.F                  :   
 RILD.OHMM   07 120 46 00:   INDUCTION LOG DEEP RESISTIVITY
 RILM.OHMM   07 120 44 00:   INDUCTION LOG MEDIUM RESISTIVITY
 RFOC.OHMM   07 220 04 00:   RESISTIVITY FOCUSED LOG
 CALD.IN     45 280 60 00:   CALIPER FROM DENSITY LOG
 GRD .GAPI   45 310 01 00:   GAMMA RAY FROM DENSITY LOG
 CORR.G/C3   45 356 01 00:   DENSITY CORRECTION
 DPHI.DEC    45 890 12 00:   DENSITY POROSITY SANDSTONE
 RHOB.G/C3   45 350 01 00:   BULK DENSITY
~PARAMETER INFORMATION
#MNEM.UNIT          VALUE    DESCRIPTION
#----------   ------------   ------------------------------
 PD  .                 GL:   PERMANENT DATUM
 EPD .F              5161:   ELEVATION PERMANENT DATUM
 LMF .                 KB:   LOG MEASURED FROM
 DAPD.F                10:   FEET ABOVE PERMANENT DATUM
 DMF .                 KB:   DRILLING MEASURED FROM
 EKB .F              5171:   KELLING BUSHING
 EGL .F              5161:   GROUND LEVEL
 DATE.        12-DEC-1983:   RUN DATE
 RUN .                  1:   RUN NUMBER
 DD  .F               490:   DEPTH DRILLER
 DL  .F               489:   DEPTH LOGGER
 BLI .F               487:   BOTTOM LOG INTERVAL
 CS  .IN            10.75:   CASING SIZE
 CBD .F                52:   CASING BOTTOM DRILLER
 CBL .F                46:   CASING BOTTOM LOGGER
 BS  .IN             8.75:   BIT SIZE
 BSD .F               490:   BIT SIZE AT DEPTH
 DFT .           AIR FOAM:   DRILLING FLUID TYPE
 TCS .HRS               3:   TIME CURCULATED STOPPED
 MRT .F                72:   MAXIMUM RECORDED TEMPERATURE
 LUN .               6274:   LOGGING UNIT NUMBER
 LUL .               GLTE:   LOGGING UNIT LOCATION
 ENGI.             RAUTIO:   RECORDING ENGINEER
 WITN.             GROOMS:   WITNESSED BY
 CLNT.            A2DTECH:   CLIENT CODE
 ORIG.           5" PRINT:   ORIGIN OF DATA
 UWI .       490251089400:   UNIQUE WELL ID
 DICO. A2D Technologies, Inc.:   DIGITIZING COMPANY
~OTHER INFORMATION
~A   DEPT     RILD       RILM       RFOC       CALD         GRD      CORR       DPHI       RHOB   
# ...
  323.5000    18.0614    17.6361  -999.2500    11.6914    60.4012     0.0304     0.1735     2.4044
  324.0000    17.9496    17.7689  -999.2500    11.6914    61.2927     0.0379     0.1723     2.3955
  324.5000    17.9757    17.6550  -999.2500    11.6914    61.7385     0.0364     0.1806     2.3812
  325.0000    18.2239    17.9136  -999.2500    11.6914    61.0698     0.0313     0.1857     2.3700
  325.5000    18.6197    18.4254  -999.2500    11.6914    58.3952     0.0261     0.1886     2.3626
  326.0000    18.7612    19.2147  -999.2500    11.6914    56.1664     0.0194     0.1931     2.3581
  326.5000    19.1659    19.4932  -999.2500    11.6914    60.4012     0.0180     0.1943     2.3514
  327.0000    19.3115    19.9124  -999.2500    11.6914    62.1842     0.0232     0.1928     2.3559
  327.5000    19.5927    20.0623  -999.2500    11.6914    63.7444     0.0278     0.1907     2.3620
  328.0000    19.8780    20.0746  -999.2500    11.6914    61.2927     0.0315     0.1889     2.3657
  328.5000    20.0291    19.5409  -999.2500    11.6914    60.1783     0.0278     0.1886     2.3665
  329.0000    20.1812    19.2853  -999.2500    11.6914    59.2868     0.0234     0.1906     2.3650
  329.5000    20.1949    19.1458  -999.2500    11.6914    59.0639     0.0190     0.1936     2.3561
  330.0000    20.0665    18.9169  -999.2500    11.6914    59.2868     0.0131     0.1981     2.3417
  330.5000    19.5377    18.5413  -999.2500    11.7062    59.2868     0.0094     0.1984     2.3412
  331.0000    19.0196    18.2988  -999.2500    11.7062    59.5097     0.0102     0.1942     2.3476
  331.5000    18.7721    18.0567  -999.2500    11.7211    59.7325     0.0162     0.1876     2.3584
  332.0000    18.4006    17.9464  -999.2500    11.7211    59.7325     0.0207     0.1816     2.3757
  332.5000    18.1612    17.8314  -999.2500    11.7211    59.7325     0.0260     0.1765     2.3894
  333.0000    18.1829    17.7198  -999.2500    11.7211    59.5097     0.0282     0.1735     2.3952
  333.5000    18.4386    17.6090  -999.2500    11.7211    59.9554     0.0253     0.1765     2.3883
  334.0000    18.4513    17.6224  -999.2500    11.7211    60.4012     0.0194     0.1804     2.3794
  334.5000    18.2137    17.5095  -999.2500    11.7211    61.0698     0.0120     0.1854     2.3683
  335.0000    17.7307    17.2805  -999.2500    11.7211    61.5156     0.0061     0.1875     2.3654
  335.5000    17.0243    17.1723  -999.2500    11.7211    61.9614     0.0039     0.1893     2.3639
  336.0000    16.5729    16.8340  -999.2500    11.7211    61.2927     0.0092     0.1920     2.3624
  336.5000    16.2422    16.4997  -999.2500    11.7211    60.6241     0.0144     0.1955     2.3564
  337.0000    16.4815    16.7389  -999.2500    11.7211    59.7325     0.0182     0.1985     2.3483
  337.5000    16.7215    16.8649  -999.2500    11.7211    58.3952     0.0234     0.1967     2.3513
  338.0000    16.9650    17.1094  -999.2500    11.7211    55.7207     0.0309     0.1919     2.3611
  338.5000    16.9765    16.8855  -999.2500    11.7211    56.1664     0.0377     0.1862     2.3753
  339.0000    16.9880    16.7799  -999.2500    11.7211    58.3952     0.0340     0.1815     2.3806
  339.5000    17.1171    16.9088  -999.2500    11.7211    59.5097     0.0259     0.1820     2.3694
  340.0000    17.1287    17.1539  -999.2500    11.7211    60.6241     0.0192     0.1883     2.3552
  340.5000    17.2588    17.0465  -999.2500    11.7211    61.2927     0.0140     0.1916     2.3650
  341.0000    17.1519    16.7081  -999.2500    11.7211    60.1783     0.0089     0.1901     2.3725
  341.5000    16.9247    16.4870  -999.2500    11.7211    59.0639     0.0059     0.1874     2.3665
  342.0000    16.7085    16.2739  -999.2500    11.7359    57.7266     0.0090     0.1856     2.3621
  342.5000    16.5884    15.9508  -999.2500    11.7359    58.6181     0.0127     0.1879     2.3651
  343.0000    16.2793    15.8485  -999.2500    11.7388    60.4012     0.0172     0.1832     2.3771
  343.5000    16.2903    15.6412  -999.2500    11.7507    62.4071     0.0255     0.1745     2.3929
  344.0000    15.9680    15.6532  -999.2500    11.7656    63.2987     0.0277     0.1637     2.4079
  344.5000    15.8664    15.9898  -999.2500    11.7804    61.5156     0.0218     0.1557     2.4229
  345.0000    15.9897    16.4466  -999.2500    11.7804    59.2868     0.0211     0.1494     2.4446
  345.5000    16.4476    16.8003  -999.2500    11.7953    57.0579     0.0219     0.1267     2.4799
  346.0000    16.8024    16.9268  -999.2500    11.7953    56.3893     0.0264     0.1138     2.4979
  346.5000    16.8138    16.8208  -999.2500    11.7953    58.8410     0.0317     0.1174     2.4837
  347.0000    16.7097    16.5995  -999.2500    11.7953    61.0698     0.0221     0.1362     2.4395
  347.5000    16.3791    16.1524  -999.2500    11.7953    63.2987     0.0176     0.1526     2.3939
  348.0000    16.0550    15.7173  -999.2500    11.7953    65.0817     0.0125     0.1660     2.3894
  348.5000    15.5219    15.1890  -999.2500    11.7953    67.3105     0.0103     0.1711     2.3924
  349.0000    15.1103    14.5019  -999.2500    11.7953    66.6419     0.0118     0.1720     2.3969
  349.5000    14.5083    14.2140  -999.2500    11.8101    64.8588     0.0134     0.1723     2.3940
  350.0000    14.0266    14.0175  -999.2500    11.8102    63.6071     0.0149     0.1743     2.3815
  350.5000    14.0363    13.9154  -999.2500    11.7962    62.6431     0.0142     0.1770     2.3828
  351.0000    14.0458    13.8510  -999.2500    11.7675    61.9856     0.0134     0.1746     2.3851
  351.5000    13.8631    13.5781  -999.2500    11.7536    61.3281     0.0134     0.1731     2.3896
  352.0000    13.8729    13.4911  -999.2500    11.7398    60.6706     0.0135     0.1713     2.3994
  352.5000    13.7867    13.4088  -999.2500    11.7259    60.0131     0.0135     0.1707     2.3972
  353.0000    13.7014    13.4170  -999.2500    11.7272    58.9099     0.0135     0.1713     2.3934
  353.5000    13.6190    13.3311  -999.2500    11.7430    57.8067     0.0128     0.1704     2.3935
  354.0000    13.6283    13.4335  -999.2500    11.7440    58.9323     0.0127     0.1662     2.3965
  354.5000    13.5416    13.4418  -999.2500    11.7450    60.7265     0.0120     0.1611     2.4048
  355.0000    13.3677    13.4500  -999.2500    11.7309    62.0750     0.0121     0.1572     2.4183
  355.5000    13.1916    13.2721  -999.2500    11.7321    62.5319     0.0121     0.1557     2.4206
  356.0000    13.1100    13.1006  -999.2500    11.7331    62.7659     0.0121     0.1593     2.4176
  356.5000    12.8528    12.8401  -999.2500    11.7341    63.0000     0.0121     0.1646     2.4071
  357.0000    12.6856    12.4992  -999.2500    11.7499    63.4977     0.0129     0.1697     2.3958
  357.5000    12.5184    12.3355  -999.2500    11.7509    64.2163     0.0166     0.1637     2.3999
  358.0000    12.4409    12.1742  -999.2500    11.7519    65.5601     0.0255     0.1550     2.4120
  358.5000    12.2812    12.0983  -999.2500    11.7529    68.0187     0.0330     0.1520     2.4241
  359.0000    12.2031    12.1057  -999.2500    11.7539    68.8480     0.0300     0.1458     2.4323
  359.5000    12.0464    12.0300  -999.2500    11.7398    67.4585     0.0256     0.1401     2.4434
  360.0000    11.8877    11.9547  -999.2500    11.7410    66.6122     0.0211     0.1421     2.4568
  360.5000    11.8161    11.8800  -999.2500    11.7269    65.9569     0.0159     0.1481     2.4261
  361.0000    11.7410    11.7246  -999.2500    11.7282    65.0788     0.0107     0.1550     2.4141
  361.5000    11.6701    11.6375  -999.2500    11.7141    63.5091     0.0048     0.1597     2.4112
  362.0000    11.5982    11.5784  -999.2500    11.7153    61.7415     0.0063     0.1478     2.4247
  362.5000    11.6061    11.5873  -999.2500    11.7163    60.9024     0.0130     0.1331     2.4577
  363.0000    11.6943    11.5944  -999.2500    11.7022    62.3001     0.0190     0.1230     2.4719
  363.5000    11.7832    11.6817  -999.2500    11.6883    64.4911     0.0257     0.1182     2.4855
