~VERSION INFORMATION
 VERS.                2.0:   CWLS LOG ASCII STANDARD - VERSION 2.0
 WRAP.                 NO:   ONE LINE PER DEPTH STEP
~WELL INFORMATION
#MNEM.UNIT      DATA TYPE    INFORMATION
#----------   ------------   ------------------------------
 STRT.F          936.5000:   START DEPTH
 STOP.F         2325.5000:   STOP DEPTH
 STEP.F            0.5000:   STEP LENGTH
 NULL.          -999.2500:   NO VALUE
 COMP. LAWRENCE/ALLISON INC:   COMPANY
 WELL.  NPR 3 #45-1-SHX-3:   WELL
 FLD .             TEAPOT:   FIELD
 LOC .       S3 T38N R78W:   LOCATION
 CNTY.            NATRONA:   COUNTY
 STAT.            WYOMING:   STATE
 CTRY. UNITED STATES OF AMERICA:   COUNTRY
 SRVC.            Unknown:   SERVICE COMPANY
 DATE.        10-OCT-1991:   LOGDATE
 API .       490251092300:   API NUMBER
~CURVE INFORMATION
#MNEM.UNIT       API CODE    CURVE DESCRIPTION
#----------   ------------   ------------------------------
 DEPT.F                  :   
 TGAS.UNITS  91 830 01 00:   TOTAL GAS FROM HOTWIRE
 ROP .MIN/FT 91 810 01 00:   RATE OF DRILLING PENETRATION
~PARAMETER INFORMATION
#MNEM.UNIT          VALUE    DESCRIPTION
#----------   ------------   ------------------------------
 EKB .F              5199:   KELLING BUSHING
 EGL .F              5189:   GROUND LEVEL
 DATE.           10-10-91:   RUN DATE
 DD  .F              2325:   DEPTH DRILLER
 BLI .F              2324:   BOTTOM LOG INTERVAL
 TLI .F              1920:   TOP LOG INTERVAL
 CS  .IN            9.625:   CASING SIZE
 CBD .F               498:   CASING BOTTOM DRILLER
 ENGI.               HUSK:   RECORDING ENGINEER
 WITN.              TOWER:   WITNESSED BY
 CLNT.            A2DTECH:   CLIENT CODE
 ORIG.           5" PRINT:   ORIGIN OF DATA
 UWI .       490251092300:   UNIQUE WELL ID
 DICO. A2D Technologies, Inc.:   DIGITIZING COMPANY
~OTHER INFORMATION
~A   DEPT     TGAS          ROP 
# ...
 1058.0000  -999.2500     0.5030
 1058.5000  -999.2500     0.5024
 1059.0000  -999.2500     0.5019
 1059.5000  -999.2500     0.5014
 1060.0000  -999.2500     0.5009
 1060.5000  -999.2500     0.5004
 1061.0000  -999.2500     0.4998
 1061.5000  -999.2500     0.4993
 1062.0000  -999.2500     0.4988
 1062.5000  -999.2500     0.4982
 1063.0000  -999.2500     0.5061
 1063.5000  -999.2500     0.5140
 1064.0000  -999.2500     0.5137
 1064.5000  -999.2500     0.5129
 1065.0000  -999.2500     0.5121
 1065.5000  -999.2500     0.5113
 1066.0000  -999.2500     0.5104
 1066.5000  -999.2500     0.5096
 1067.0000  -999.2500     0.5088
 1067.5000  -999.2500     0.5080
 1068.0000  -999.2500     0.5072
 1068.5000  -999.2500     0.5063
 1069.0000  -999.2500     0.5055
 1069.5000  -999.2500     0.5047
 1070.0000  -999.2500     0.5039
 1070.5000  -999.2500     0.5031
 1071.0000  -999.2500     0.5022
 1071.5000  -999.2500     0.5014
 1072.0000  -999.2500     0.5006
 1072.5000  -999.2500     0.4998
 1073.0000  -999.2500     0.4989
 1073.5000  -999.2500     0.4981
 1074.0000  -999.2500     0.4973
 1074.5000  -999.2500     0.4965
 1075.0000  -999.2500     0.4957
 1075.5000  -999.2500     0.4948
 1076.0000  -999.2500     0.4940
 1076.5000  -999.2500     0.4932
 1077.0000  -999.2500     0.4924
 1077.5000  -999.2500     0.4916
 1078.0000  -999.2500     0.4907
 1078.5000  -999.2500     0.4899
 1079.0000  -999.2500     0.4891
 1079.5000  -999.2500     0.4883
 1080.0000  -999.2500     0.4967
 1080.5000  -999.2500     0.5046
 1081.0000  -999.2500     0.5124
 1081.5000  -999.2500     0.5203
 1082.0000  -999.2500     0.5282
 1082.5000  -999.2500     0.5361
 1083.0000  -999.2500     0.5440
 1083.5000  -999.2500     0.5519
 1084.0000  -999.2500     0.5598
 1084.5000  -999.2500     0.5676
 1085.0000  -999.2500     0.5755
 1085.5000  -999.2500     0.5834
 1086.0000  -999.2500     0.5913
 1086.5000  -999.2500     0.5992
 1087.0000  -999.2500     0.6071
 1087.5000  -999.2500     0.6149
 1088.0000  -999.2500     0.6228
 1088.5000  -999.2500     0.6307
 1089.0000  -999.2500     0.6386
 1089.5000  -999.2500     0.6465
 1090.0000  -999.2500     0.6544
 1090.5000  -999.2500     0.6622
 1091.0000  -999.2500     0.6701
 1091.5000  -999.2500     0.6780
 1092.0000  -999.2500     0.6859
 1092.5000  -999.2500     0.6938
 1093.0000  -999.2500     0.7017
 1093.5000  -999.2500     0.7095
 1094.0000  -999.2500     0.7174
 1094.5000  -999.2500     0.7253
 1095.0000  -999.2500     0.7332
 1095.5000  -999.2500     0.7411
 1096.0000  -999.2500     0.7490
 1096.5000  -999.2500     0.7568
 1097.0000  -999.2500     0.7647
 1097.5000  -999.2500     0.7726
 1098.0000  -999.2500     0.7805
 1098.5000  -999.2500     0.7884
 1099.0000  -999.2500     0.7963
 1099.5000  -999.2500     0.8041
 1100.0000  -999.2500     0.8120
 1100.5000  -999.2500     0.8124
 1101.0000  -999.2500     0.8127
 1101.5000  -999.2500     0.8131
 1102.0000  -999.2500     0.8134
 1102.5000  -999.2500     0.8137
 1103.0000  -999.2500     0.8141
 1103.5000  -999.2500     0.8144
 1104.0000  -999.2500     0.8148
 1104.5000  -999.2500     0.8151
 1105.0000  -999.2500     0.8154
 1105.5000  -999.2500     0.8158
 1106.0000  -999.2500     0.8161
 1106.5000  -999.2500     0.8165
 1107.0000  -999.2500     0.8168
 1107.5000  -999.2500     0.8171
 1108.0000  -999.2500     0.8175
 1108.5000  -999.2500     0.8178
 1109.0000  -999.2500     0.8182
 1109.5000  -999.2500     0.8185
 1110.0000  -999.2500     0.8189
 1110.5000  -999.2500     0.8192
 1111.0000  -999.2500     0.8195
 1111.5000  -999.2500     0.8199
 1112.0000  -999.2500     0.8202
 1112.5000  -999.2500     0.8206
 1113.0000  -999.2500     0.8209
 1113.5000  -999.2500     0.8212
 1114.0000  -999.2500     0.8216
 1114.5000  -999.2500     0.8219
 1115.0000  -999.2500     0.8223
 1115.5000  -999.2500     0.8226
 1116.0000  -999.2500     0.8229
 1116.5000  -999.2500     0.8233
 1117.0000  -999.2500     0.8236
 1117.5000  -999.2500     0.8240
 1118.0000  -999.2500     0.8243
 1118.5000  -999.2500     0.8246
 1119.0000  -999.2500     0.8250
 1119.5000  -999.2500     0.8253
 1120.0000  -999.2500     0.8257
 1120.5000  -999.2500     0.8260
 1121.0000  -999.2500     0.8264
 1121.5000  -999.2500     0.8267
 1122.0000  -999.2500     0.8270
 1122.5000  -999.2500     0.8274
 1123.0000  -999.2500     0.8277
 1123.5000  -999.2500     0.8281
 1124.0000  -999.2500     0.8284
 1124.5000  -999.2500     0.8287
 1125.0000  -999.2500     0.8291
 1125.5000  -999.2500     0.8294
 1126.0000  -999.2500     0.8298
 1126.5000  -999.2500     0.8301
 1127.0000  -999.2500     0.8304
 1127.5000  -999.2500     0.8308
 1128.0000  -999.2500     0.8311
 1128.5000  -999.2500     0.8315
 1129.0000  -999.2500     0.8318
 1129.5000  -999.2500     0.8322
 1130.0000  -999.2500     0.8325
 1130.5000  -999.2500     0.8328
 1131.0000  -999.2500     0.8332
 1131.5000  -999.2500     0.8335
 1132.0000  -999.2500     0.8339
 1132.5000  -999.2500     0.8342
 1133.0000  -999.2500     0.8345
 1133.5000  -999.2500     0.8349
 1134.0000  -999.2500     0.8352
 1134.5000  -999.2500     0.8356
 1135.0000  -999.2500     0.8359
 1135.5000  -999.2500     0.8362
 1136.0000  -999.2500     0.8366
 1136.5000  -999.2500     0.8369
 1137.0000  -999.2500     0.8373
 1137.5000  -999.2500     0.8376
 1138.0000  -999.2500     0.8380
 1138.5000  -999.2500     0.8383
 1139.0000  -999.2500     0.8386
 1139.5000  -999.2500     0.6961
 1140.0000  -999.2500     0.6964
 1140.5000  -999.2500     0.6969
 1141.0000  -999.2500     0.6974
 1141.5000  -999.2500     0.6980
 1142.0000  -999.2500     0.6985
 1142.5000  -999.2500     0.6990
 1143.0000  -999.2500     0.6995
 1143.5000  -999.2500     0.7000
 1144.0000  -999.2500     0.7006
 1144.5000  -999.2500     0.7011
 1145.0000  -999.2500     0.7016
 1145.5000  -999.2500     0.7021
 1146.0000  -999.2500     0.7026
 1146.5000  -999.2500     0.7032
 1147.0000  -999.2500     0.7037
 1147.5000  -999.2500     0.7042
 1148.0000  -999.2500     0.7047
 1148.5000  -999.2500     0.7052
 1149.0000  -999.2500     0.7058
 1149.5000  -999.2500     0.7063
 1150.0000  -999.2500     0.7068
 1150.5000  -999.2500     0.7074
 1151.0000  -999.2500     0.7081
 1151.5000  -999.2500     0.7087
 1152.0000  -999.2500     0.7094
 1152.5000  -999.2500     0.7100
 1153.0000  -999.2500     0.7106
 1153.5000  -999.2500     0.7113
 1154.0000  -999.2500     0.7119
 1154.5000  -999.2500     0.7126
 1155.0000  -999.2500     0.7132
 1155.5000  -999.2500     0.7138
 1156.0000  -999.2500     0.7145
 1156.5000  -999.2500     0.7151
 1157.0000  -999.2500     0.7158
 1157.5000  -999.2500     0.7164
 1158.0000  -999.2500     0.7170
 1158.5000  -999.2500     0.7177
 1159.0000  -999.2500     0.7183
 1159.5000  -999.2500     0.7190
 1160.0000  -999.2500     0.7196
 1160.5000  -999.2500     0.7202
 1161.0000  -999.2500     0.7209
 1161.5000  -999.2500     0.7215
 1162.0000  -999.2500     0.7222
 1162.5000  -999.2500     0.7228
 1163.0000  -999.2500     0.7234
 1163.5000  -999.2500     0.7241
 1164.0000  -999.2500     0.7247
 1164.5000  -999.2500     0.7254
 1165.0000  -999.2500     0.7260
 1165.5000  -999.2500     0.7266
 1166.0000  -999.2500     0.7273
 1166.5000  -999.2500     0.7279
 1167.0000  -999.2500     0.7285
 1167.5000  -999.2500     0.7292
 1168.0000  -999.2500     0.7298
 1168.5000  -999.2500     0.7305
 1169.0000  -999.2500     0.7311
 1169.5000  -999.2500     0.7317
 1170.0000  -999.2500     0.5744
 1170.5000  -999.2500     0.5749
 1171.0000  -999.2500     0.5753
 1171.5000  -999.2500     0.5758
 1172.0000  -999.2500     0.5762
 1172.5000  -999.2500     0.5767
 1173.0000  -999.2500     0.5771
 1173.5000  -999.2500     0.5776
 1174.0000  -999.2500     0.5780
 1174.5000  -999.2500     0.5785
 1175.0000  -999.2500     0.5789
 1175.5000  -999.2500     0.5794
 1176.0000  -999.2500     0.5798
 1176.5000  -999.2500     0.5803
 1177.0000  -999.2500     0.5808
 1177.5000  -999.2500     0.5812
 1178.0000  -999.2500     0.5817
 1178.5000  -999.2500     0.5821
 1179.0000  -999.2500     0.5826
