~VERSION INFORMATION
 VERS.                2.0:   CWLS LOG ASCII STANDARD - VERSION 2.0
 WRAP.                 NO:   ONE LINE PER DEPTH STEP
~WELL INFORMATION
#MNEM.UNIT      DATA TYPE    INFORMATION
#----------   ------------   ------------------------------
 STRT.F           28.0000:   START DEPTH
 STOP.F          461.0000:   STOP DEPTH
 STEP.F            0.5000:   STEP LENGTH
 NULL.          -999.2500:   NO VALUE
 COMP. FENIX & SCISSON INC:   COMPANY
 WELL.       NPR-3 #47S-3:   WELL
 FLD .             TEAPOT:   FIELD
 LOC .       S3 T38N R78W:   LOCATION
 CNTY.            NATRONA:   COUNTY
 STAT.            WYOMING:   STATE
 CTRY. UNITED STATES OF AMERICA:   COUNTRY
 SRVC.            Unknown:   SERVICE COMPANY
 DATE.        06-JUL-1978:   LOGDATE
 API .       490251066400:   API NUMBER
~CURVE INFORMATION
#MNEM.UNIT       API CODE    CURVE DESCRIPTION
#----------   ------------   ------------------------------
 DEPT.F                  :   
 SPR .MV     05 010 01 00:   SPONTANEOUS POTENTIAL FROM RES.
 ILD .OHMM   05 120 46 00:   INDUCTION LOG DEEP
 SN  .OHMM   05 040 16 00:   SHORT NORMAL 16"
 GRD .GAPI   45 310 01 00:   GAMMA RAY FROM DENSITY LOG
 CALD.IN     45 280 60 00:   CALIPER FROM DENSITY LOG
 CORR.G/C3   45 356 01 00:   DENSITY CORRECTION
 DEN .G/C3   45 350 01 00:   DENSTIY
 DPHI.DEC    45 890 12 00:   DENSITY POROSITY SANDSTONE
~PARAMETER INFORMATION
#MNEM.UNIT          VALUE    DESCRIPTION
#----------   ------------   ------------------------------
 PD  .                 GL:   PERMANENT DATUM
 EPD .F              5202:   ELEVATION PERMANENT DATUM
 LMF .                 KB:   LOG MEASURED FROM
 DAPD.F                 4:   FEET ABOVE PERMANENT DATUM
 DMF .                 KB:   DRILLING MEASURED FROM
 EKB .F              5206:   KELLING BUSHING
 EGL .F              5202:   GROUND LEVEL
 DATE.        06-JUL-1978:   RUN DATE
 RUN .                  1:   RUN NUMBER
 DD  .F               460:   DEPTH DRILLER
 DL  .F               461:   DEPTH LOGGER
 BLI .F               461:   BOTTOM LOG INTERVAL
 TLI .F                40:   TOP LOG INTERVAL
 CS  .IN            8.625:   CASING SIZE
 CBD .F                40:   CASING BOTTOM DRILLER
 CBL .F                40:   CASING BOTTOM LOGGER
 BS  .IN            7.875:   BIT SIZE
 BSD .F               460:   BIT SIZE AT DEPTH
 DFT .                KCL:   DRILLING FLUID TYPE
 DFD .                8.6:   DRILLING FLUID DENSITY
 DFV .                 33:   DRILLING FLUID VISCOSITY
 DFPH.                9.5:   DRILLING FLUID PH
 MSS .           FLOWLINE:   MUD SAMPLE SOURCE
 TCS .HRS               1:   TIME CURCULATED STOPPED
 LUN .               2858:   LOGGING UNIT NUMBER
 LUL .               CASP:   LOGGING UNIT LOCATION
 ENGI.           REYNOLDS:   RECORDING ENGINEER
 WITN.           MCGENLEY:   WITNESSED BY
 CLNT.            A2DTECH:   CLIENT CODE
 ORIG.           5" PRINT:   ORIGIN OF DATA
 UWI .       490251066400:   UNIQUE WELL ID
 DICO. A2D Technologies, Inc.:   DIGITIZING COMPANY
~OTHER INFORMATION
~A   DEPT      SPR        ILD         SN         GRD      CALD       CORR        DEN       DPHI   
# ...
  311.5000   -30.9514    20.6358    17.7073    86.5649     7.9170     0.0281     2.3800     0.1802
  312.0000   -31.0859    20.7939    17.4771    86.2561     7.9179     0.0282     2.3778     0.1765
  312.5000   -31.2156    20.9532    17.2469    85.6732     7.9188     0.0284     2.3736     0.1804
  313.0000   -31.3453    20.8211    17.1403    85.5337     7.9197     0.0285     2.3655     0.1869
  313.5000   -31.3214    20.8406    17.0343    85.5507     7.9206     0.0286     2.3572     0.1869
  314.0000   -31.3023    21.0003    17.0487    85.7174     7.9215     0.0287     2.3581     0.1909
  314.5000   -31.2832    20.8679    16.9404    85.4247     7.9224     0.0289     2.3559     0.1958
  315.0000   -31.2641    20.8875    16.9548    83.9069     7.9233     0.0290     2.3498     0.1896
  315.5000   -31.2450    20.9031    16.9664    83.3079     7.9243     0.0306     2.3599     0.1867
  316.0000   -31.2259    20.9188    16.9779    82.5558     7.9252     0.0322     2.3623     0.1867
  316.5000   -31.0580    20.7903    16.9894    82.4128     7.9261     0.0323     2.3624     0.1861
  317.0000   -31.0337    20.6633    16.8844    82.8892     7.9272     0.0324     2.3602     0.1870
  317.5000   -30.8705    20.5373    16.6648    84.2810     7.9281     0.0340     2.3556     0.1915
  318.0000   -31.0006    20.5527    16.5618    85.2393     7.9290     0.0357     2.3534     0.1918
  318.5000   -31.2792    20.5683    16.5730    84.7672     7.9299     0.0358     2.3535     0.1899
  319.0000    -8.4874    20.5838    16.4705    84.3218     7.9308     0.0359     2.3552     0.1893
  319.5000     0.1626    20.5994    16.3687    84.0291     7.9317     0.0360     2.3545     0.1920
  320.0000     0.1818    20.7605    16.2674    84.1960     7.9326     0.0376     2.3522     0.1935
  320.5000    -0.2456    20.9196    16.0559    84.6692     7.9335     0.0377     2.3516     0.1944
  321.0000    -0.6777    21.0799    15.9566    85.1424     7.9344     0.0393     2.3564     0.1891
  321.5000    -0.9562    21.2414    15.8606    85.3119     7.9353     0.0396     2.3610     0.1876
  322.0000    -0.9323    21.1114    15.7626    83.6409     7.9362     0.0428     2.3611     0.1888
  322.5000    -0.7644    20.6954    15.7733    84.4202     7.9371     0.0472     2.3659     0.1838
  323.0000    -0.7453    20.2838    15.6731    85.0464     7.9380     0.0518     2.3698     0.1810
  323.5000    -1.3214    19.7514    15.6864    85.6725     7.9390     0.0549     2.3691     0.1809
  324.0000    -2.3487    19.3622    15.6970    86.1421     7.9401     0.0565     2.3785     0.1775
  324.5000    -2.4784    19.1082    15.7077    84.9306     7.9410     0.0581     2.3801     0.1747
  325.0000    -2.4546    18.8645    15.7184    84.9475     7.9419     0.0612     2.3810     0.1771
  325.5000    -3.1795    18.6170    15.7291    84.5017     7.9428     0.0613     2.3819     0.1754
  326.0000    -4.6485    18.5032    15.7398    83.1370     7.9437     0.0585     2.3835     0.1678
  326.5000    -4.7783    18.3900    15.6424    84.9883     7.9446     0.0466     2.3867     0.1831
  327.0000    -6.2619    18.1550    15.6532    85.7675     7.9455     0.0378     2.3698     0.1825
  327.5000    -8.1870    18.0195    15.6637    85.1686     7.9464     0.0379     2.3706     0.1782
  328.0000   -10.0780    18.5621    15.5669    84.5656     7.9317     0.0380     2.3710     0.1809
  328.5000    -8.6642    18.9636    15.4706    84.4300     7.9329     0.0396     2.3639     0.1865
  329.0000    -8.4029    19.1091    15.4837    84.6197     7.9338     0.0398     2.3601     0.1886
  329.5000    -6.8909    19.1235    15.4943    85.2263     7.9193     0.0414     2.3617     0.1873
  330.0000    -5.3885    19.1380    15.5048    85.2399     7.9049     0.0415     2.3618     0.1864
  330.5000    -7.0015    19.1525    15.4089    84.7940     7.9058     0.0416     2.3611     0.1832
  331.0000    -8.0289    19.0347    15.3110    84.4979     7.9067     0.0417     2.3702     0.1780
  331.5000    -8.0050    18.7885    15.1145    86.0463     7.8923     0.0419     2.3768     0.1807
  332.0000    -8.4371    18.2954    15.0185    87.4381     7.8934     0.0420     2.3784     0.1708
  332.5000    -8.2644    18.1801    15.0312    85.4609     7.8943     0.0421     2.3870     0.1655
  333.0000    -8.8405    18.0689    15.0415    84.2494     7.8952     0.0422     2.3979     0.1633
  333.5000   -10.1607    17.9583    14.9459    84.2629     7.8961     0.0423     2.3996     0.1654
  334.0000   -11.0344    17.8485    14.7541    84.2765     7.8815     0.0425     2.3997     0.1645
  334.5000   -11.3130    17.7393    14.5622    83.9804     7.8826     0.0426     2.3990     0.1657
  335.0000   -12.0379    17.6308    14.4722    83.5380     7.8835     0.0427     2.3991     0.1653
  335.5000   -12.3164    17.4028    14.3824    83.2226     7.8844     0.0428     2.4007     0.1634
  336.0000   -12.8925    17.2963    14.3925    84.1777     7.8853     0.0414     2.4031     0.1628
  336.5000   -13.7663    17.0758    14.5017    84.0381     7.8709     0.0416     2.4032     0.1637
  337.0000   -14.5010    16.8549    14.4120    83.3902     7.8718     0.0402     2.4033     0.1639
  337.5000   -15.2162    16.7513    14.3149    82.6870     7.8727     0.0373     2.4034     0.1630
  338.0000   -15.3651    16.5352    14.1367    83.6228     7.8736     0.0389     2.4050     0.1602
  338.5000   -16.9232    16.4338    14.0493    83.3301     7.8592     0.0405     2.4090     0.1589
  339.0000   -17.9815    16.2215    14.0612    82.4249     7.8603     0.0421     2.4106     0.1598
  339.5000   -19.7481    16.1223    13.9719    82.1288     7.8612     0.0438     2.4091     0.1604
  340.0000   -24.1932    16.0237    14.0803    82.2989     7.8621     0.0439     2.4062     0.1607
  340.5000   -22.3884    16.0360    14.0899    82.9250     7.8630     0.0455     2.4094     0.1591
  341.0000   -21.0348    16.0481    14.0995    83.5512     7.8639     0.0456     2.4110     0.1544
  341.5000   -26.8145    16.0627    14.1091    84.4836     7.8648     0.0472     2.4150     0.1513
  342.0000   -47.6335    16.0747    14.1187    85.2629     7.8657     0.0489     2.4135     0.1617
  342.5000   -38.8346    16.0867    14.0290    85.4296     7.8666     0.0534     2.4043     0.1627
  343.0000   -43.5727    15.9883    14.0409    84.6775     7.8675     0.0595     2.4021     0.1592
  343.5000   -55.1655    15.5658    13.9517    84.3844     7.8685     0.0656     2.4161     0.1400
  344.0000   -24.3380    15.2590    13.9636    85.0109     7.8694     0.0628     2.4417     0.1316
  344.5000   -42.0320    14.9555    13.9730    85.4839     7.8549     0.0584     2.4518     0.1322
  345.0000   -16.5133    14.7621    13.9826    85.4975     7.8558     0.0555     2.4543     0.1322
  345.5000   -14.3120    14.5712    13.9921    85.3579     7.8567     0.0541     2.4528     0.1329
  346.0000   -11.4608    14.4820    13.7154    85.5252     7.8577     0.0528     2.4513     0.1358
  346.5000   -10.2512    14.2947    13.5371    86.6102     7.8588     0.0505     2.4507     0.1361
  347.0000   -10.8273    14.2073    13.4533    85.7083     7.8597     0.0517     2.4508     0.1370
  347.5000   -11.7011    14.2206    13.3701    85.5654     7.8606     0.0521     2.4477     0.1394
  348.0000   -13.4677    14.2312    13.3795    86.3480     7.8615     0.0522     2.4439     0.1428
  348.5000   -13.4486    14.1438    13.4057    88.0462     7.8624     0.0494     2.4425     0.1326
  349.0000   -13.8759    14.1548    13.5855    86.9878     7.8633     0.0452     2.4558     0.1297
  349.5000   -14.1592    14.0681    13.5947    86.5385     7.8642     0.0423     2.4605     0.1319
  350.0000   -15.8248    13.9822    13.6062    87.3221     7.8465     0.0425     2.4560     0.1383
  350.5000   -17.5390    14.0465    13.6619    88.5592     7.8282     0.0501     2.4467     0.1386
  351.0000   -22.5796    14.0957    13.7123    89.3370     7.8098     0.0592     2.4468     0.1407
  351.5000   -29.5547    14.1033    13.7197    89.3490     7.8068     0.0668     2.4484     0.1379
