~VERSION INFORMATION
 VERS.                2.0:   CWLS LOG ASCII STANDARD - VERSION 2.0
 WRAP.                 NO:   ONE LINE PER DEPTH STEP
~WELL INFORMATION
#MNEM.UNIT      DATA TYPE    INFORMATION
#----------   ------------   ------------------------------
 STRT.F           80.0000:   START DEPTH
 STOP.F          740.0000:   STOP DEPTH
 STEP.F            0.5000:   STEP LENGTH
 NULL.          -999.2500:   NO VALUE
 COMP. U S NAVY/INTEX OIL CO:   COMPANY
 WELL. NPR 3 TEAPOT DOME #73-S-34:   WELL
 FLD .             TEAPOT:   FIELD
 LOC .      S34 T39N R78W:   LOCATION
 CNTY.            NATRONA:   COUNTY
 STAT.            WYOMING:   STATE
 CTRY. UNITED STATES OF AMERICA:   COUNTRY
 SRVC. Schlumberger Well Surveying Corp:   SERVICE COMPANY
 DATE.        19-FEB-1961:   LOGDATE
 API .       490250655200:   API NUMBER
~CURVE INFORMATION
#MNEM.UNIT       API CODE    CURVE DESCRIPTION
#----------   ------------   ------------------------------
 DEPT.F                  :   
 GR  .CPS    99 310 30 00:   GAMMA RAY FROM PERFORATING FORMATION COLLAR CHART
 SPR .MV     05 010 01 00:   SPONTANEOUS POTENTIAL
 ILD .OHMM   05 120 46 00:   INDUCTION LOG DEEP
 CILD.MMHO   05 110 46 00:   CONDUCTIVITY INDUCTION LOG DEEP
 ASN .OHMM   05 041 16 00:   AMPLIFIED SHORT NORMAL 16"
~PARAMETER INFORMATION
#MNEM.UNIT          VALUE    DESCRIPTION
#----------   ------------   ------------------------------
 LMF .                 KB:   LOG MEASURED FROM
 DMF .                 KB:   DRILLING MEASURED FROM
 EKB .F              5044:   KELLING BUSHING
 EGL .F              5040:   GROUND LEVEL
 DATE.          2-19-1961:   RUN DATE
 RUN .                  1:   RUN NUMBER
 DD  .F               740:   DEPTH DRILLER
 DL  .F               741:   DEPTH LOGGER
 BLI .F               740:   BOTTOM LOG INTERVAL
 TLI .F                80:   TOP LOG INTERVAL
 CBD .F               740:   CASING BOTTOM DRILLER
 CBL .F               741:   CASING BOTTOM LOGGER
 BS  .IN            7.875:   BIT SIZE
 BSD .F               740:   BIT SIZE AT DEPTH
 DFT .       GEL-OIL EMUL:   DRILLING FLUID TYPE
 DFD .                9.2:   DRILLING FLUID DENSITY
 DFV .                 49:   DRILLING FLUID VISCOSITY
 DFPH.                  8:   DRILLING FLUID PH
 DFL .               11.4:   DRILLING FLUID LOSS
 MSS .           FLOWLINE:   MUD SAMPLE SOURCE
 RMS .OHMM            .84:   RESISTIVITY MUD SAMPLE
 MST .F                74:   MUD SAMPLE TEMPERATURE
 RMF .OHMM            .83:   RESISTIVITY MUD FILTRATE SAMPLE
 MFST.F                75:   MUD FILTRATE SAMPLE TEMPERATURE
 RMC .OHMM            .52:   RESISTIVITY MUD CAKE
 MCST.F                74:   MUD CAKE SAMPLE TEMPERATURE
 RMB .OHMM           1.98:   RESISTIVITY MUD AT BHT
 BHT .F                70:   BOTTOM HOLE TEMPERATURE
 TCS .HRS               1:   TIME CURCULATED STOPPED
 MRT .F                70:   MAXIMUM RECORDED TEMPERATURE
 LUN .               2523:   LOGGING UNIT NUMBER
 LUL .               CSPR:   LOGGING UNIT LOCATION
 ENGI.             KNOBEL:   RECORDING ENGINEER
 WITN.          JORGENSEN:   WITNESSED BY
 CLNT.            A2DTECH:   CLIENT CODE
 ORIG.        2" 5" PRINT:   ORIGIN OF DATA
 UWI .       490250655200:   UNIQUE WELL ID
 DICO. A2D Technologies, Inc.:   DIGITIZING COMPANY
~OTHER INFORMATION
~A   DEPT       GR        SPR          ILD      CILD         ASN 
# ...
  507.0000    57.2634   -19.9115     2.5407   523.5878     3.9578
  507.5000    61.9966   -19.8396     2.7122   480.0415     4.1834
  508.0000    66.0389   -19.9623     2.8742   434.3406     4.4221
  508.5000    65.2392   -20.2089     3.4046   363.8266     5.0137
  509.0000    66.2979   -20.4575     3.9811   299.7023     5.8801
  509.5000    61.7668   -20.7046     4.5562   260.0926     6.5783
  510.0000    65.8148   -20.8386     5.1310   220.4829     7.0494
  510.5000    72.7880   -20.7658     5.7053   190.6299     7.5215
  511.0000    75.2675   -20.6964     6.2842   172.2611     7.8537
  511.5000    74.5385   -20.6270     6.5663   161.5117     7.9852
  512.0000    70.4556   -20.5582     6.6919   159.1051     8.0395
  512.5000    66.0961   -20.4812     6.8152   156.2825     8.0973
  513.0000    68.9498   -20.2778     6.9004   154.9948     8.1494
  513.5000    71.5415   -20.2561     6.7329   156.7359     8.1278
  514.0000    67.4980   -20.2962     6.5670   158.3593     8.1305
  514.5000    71.0347   -20.3347     6.4014   161.8445     8.2221
  515.0000    72.6470   -20.3722     6.2257   166.5974     8.2817
  515.5000    67.3610   -20.4100     5.9848   172.9814     8.2736
  516.0000    65.9264   -20.4305     5.7727   186.2918     8.2376
  516.5000    70.9963   -20.3164     5.3774   202.7451     8.1307
  517.0000    68.2150   -20.2046     4.9966   219.1983     7.7569
  517.5000    64.0552   -20.1035     4.6143   235.6516     7.2678
  518.0000    62.4152   -20.1730     4.2238   246.2134     6.7725
  518.5000    58.6397   -20.3347     4.1132   254.3889     6.3406
  519.0000    56.9756   -20.4736     4.0167   262.5645     6.1223
  519.5000    58.6402   -20.6153     3.9158   270.7400     6.0118
  520.0000    60.4267   -20.7561     3.9338   276.1786     6.1846
  520.5000    62.2103   -20.8356     4.2290   264.2705     6.4422
  521.0000    64.1363   -20.7143     4.5253   249.9065     6.6613
  521.5000    61.8029   -20.5949     4.8206   235.5426     6.7890
  522.0000    63.0544   -20.4755     5.1204   221.1786     7.0648
  522.5000    61.4680   -20.3562     5.3978   206.8146     7.3829
  523.0000    58.9034   -20.2367     5.6864   193.9149     7.7019
  523.5000    58.9233   -20.1176     5.9739   183.4683     8.0208
  524.0000    59.0843   -20.0183     6.2626   173.7351     8.3395
  524.5000    56.9027   -20.0286     6.5513   167.1056     8.6586
  525.0000    54.4407   -20.0504     6.8400   160.4761     8.9783
  525.5000    55.7259   -20.0717     7.1287   153.8466     9.2877
  526.0000    57.8205   -20.0930     7.4190   147.2170     9.3670
  526.5000    60.0846   -20.1143     7.5794   140.7061     9.4106
  527.0000    57.3907   -20.1356     7.5555   141.5955     9.4930
  527.5000    58.2983   -20.1569     7.3670   145.5898     9.5094
  528.0000    57.5755   -20.1782     7.1808   149.5840     9.4172
  528.5000    56.2540   -20.1994     6.9941   153.5783     9.2203
  529.0000    59.2445   -20.2215     6.8076   155.3215     9.1335
  529.5000    53.6992   -20.1982     6.6210   157.3039     9.0691
  530.0000    51.1723   -20.1534     6.4347   160.0005     8.8632
  530.5000    52.4478   -20.1080     6.2494   168.2359     8.6452
  531.0000    51.0334   -20.0626     6.0635   177.2150     8.4512
  531.5000    53.3444   -20.0172     5.7710   186.2440     8.2570
  532.0000    56.2368   -19.9719     5.4844   195.2675     8.0613
  532.5000    57.4877   -19.9265     5.1983   204.2906     7.8405
  533.0000    54.5693   -19.8812     4.9173   213.3126     7.5095
  533.5000    58.1852   -19.8353     4.7202   220.6646     7.2063
  534.0000    60.7750   -19.8143     4.8109   217.8215     6.9612
  534.5000    61.3405   -19.9018     5.0929   214.2477     6.9890
  535.0000    60.5576   -19.9998     5.2765   210.6739     7.1707
  535.5000    61.9900   -20.0978     5.4729   207.1001     7.3883
  536.0000    60.5703   -20.1958     5.7285   197.7653     7.7908
  536.5000    62.3265   -20.2932     5.9821   186.2741     8.2859
  537.0000    63.5126   -20.3921     6.2349   174.7830     8.7340
  537.5000    57.5241   -20.3688     6.4880   166.0177     8.7959
  538.0000    58.8467   -20.2495     6.7483   158.1828     8.8661
  538.5000    59.6202   -20.1289     6.7830   158.0808     8.9407
  539.0000    56.2065   -20.0083     6.7513   160.4550     9.0699
  539.5000    55.4339   -19.8904     6.7184   161.1734     9.2043
  540.0000    59.0937   -19.9040     6.7098   159.4323     9.3388
  540.5000    61.6494   -20.1560     6.7856   157.6912     9.4732
  541.0000    63.6496   -20.4034     6.8605   155.9502     9.6059
  541.5000    63.8085   -20.6486     6.9359   154.2091     9.6555
  542.0000    63.3122   -20.9081     7.0052   152.4680     9.5660
  542.5000    61.0343   -20.9884     6.9447   151.0903     9.4845
  543.0000    59.1627   -20.8918     6.8786   153.0685     9.5185
  543.5000    61.0845   -20.7865     6.8130   155.0273     9.5570
  544.0000    63.9897   -20.6816     6.7480   156.9860     9.5307
  544.5000    62.3536   -20.5774     6.7055   158.9447     9.4623
  545.0000    60.7740   -20.4732     6.7513   160.4361     9.3720
  545.5000    63.1408   -20.5049     6.7949   159.1783     9.2676
  546.0000    64.6716   -20.6620     6.8402   157.2196     9.1727
  546.5000    63.0216   -20.8181     6.8848   155.2609     9.2094
  547.0000    61.6573   -20.9735     6.9553   156.6147     9.2172
  547.5000    61.9328   -21.0079     6.6712   161.8380     9.1840
  548.0000    57.4546   -20.8982     6.3993   167.0613     9.0745
  548.5000    54.6657   -20.7898     6.1298   174.7871     8.8736
  549.0000    58.1156   -20.6809     5.8603   185.2336     8.6829
  549.5000    60.5277   -20.5721     5.5923   195.6802     8.3113
  550.0000    57.1631   -20.4633     5.3325   200.9346     7.9310
  550.5000    55.7931   -20.3545     5.0077   201.2773     7.5472
  551.0000    61.0626   -20.2454     4.9492   204.4258     7.3151
  551.5000    58.6403   -20.1351     5.0006   207.5788     7.2120
  552.0000    57.8032   -20.0281     5.0537   210.7069     7.1316
  552.5000    58.1280   -20.1887     5.1069   212.5519     7.7494
  553.0000    56.1732   -20.3719     5.1440   206.8709     7.9523
  553.5000    53.9056   -20.5542     5.2448   201.1899     8.0541
  554.0000    52.1785   -20.7342     5.2007   205.7016     8.0649
  554.5000    56.4117   -20.8363     5.1597   213.1872     7.9441
  555.0000    59.4807   -20.7894     5.1208   220.6582     7.6798
  555.5000    57.9607   -20.7453     5.0839   221.7030     7.3228
  556.0000    65.4285   -20.7007     5.0493   220.2723     6.9651
  556.5000    69.9976   -20.6562     4.9541   217.9416     6.7891
  557.0000    73.8125   -20.6117     4.9805   216.4590     6.9272
  557.5000    72.2385   -20.5672     5.0069   215.1480     7.0876
  558.0000    76.2981   -20.5230     5.0232   210.4426     7.5410
  558.5000    77.8074   -20.4786     5.4877   198.9713     7.9921
  559.0000    75.2085   -20.4246     6.0150   187.5000     8.3680
  559.5000    75.2634   -20.2478     6.3290   177.0509     8.5468
  560.0000    71.8150   -20.5919     6.5452   165.5531     8.5840
  560.5000    69.8083   -20.9453     6.7007   160.4576     8.6114
  561.0000    71.6660   -21.2544     6.5388   166.0273     8.6672
  561.5000    65.9287   -21.1020     6.1064   172.2719     8.6805
  562.0000    64.7757   -20.9445     5.6692   184.3387     8.6928
  562.5000    69.5018   -20.7891     5.2291   198.6616     8.5425
  563.0000    72.8252   -20.6338     5.0642   213.3508     7.9785
  563.5000    75.8789   -20.4726     5.1040   214.7833     7.3805
  564.0000    73.0743   -20.4557     5.1311   210.3256     7.0015
  564.5000    74.1353   -20.6153     5.0729   211.9671     6.9683
  565.0000    75.3235   -20.7794     5.0970   213.3956     7.0554
  565.5000    72.7058   -20.8431     5.2596   209.4107     7.6236
  566.0000    74.0822   -20.5125     5.5457   197.5078     8.2829
  566.5000    68.8564   -20.3732     6.1603   181.7757     8.8601
  567.0000    68.6085   -20.2879     6.5754   166.0436     9.1187
  567.5000    69.5616   -20.2048     7.0014   154.7248     9.3790
