~VERSION INFORMATION
 VERS.                2.0:   CWLS LOG ASCII STANDARD - VERSION 2.0
 WRAP.                 NO:   ONE LINE PER DEPTH STEP
~WELL INFORMATION
#MNEM.UNIT      DATA TYPE    INFORMATION
#----------   ------------   ------------------------------
 STRT.F           44.0000:   START DEPTH
 STOP.F          666.0000:   STOP DEPTH
 STEP.F            0.5000:   STEP LENGTH
 NULL.          -999.2500:   NO VALUE
 COMP. FENIX & SCISSON INC:   COMPANY
 WELL.     NPR-3 #22SX-10:   WELL
 FLD .             TEAPOT:   FIELD
 LOC .      S10 T38N R78W:   LOCATION
 CNTY.            NATRONA:   COUNTY
 STAT.            WYOMING:   STATE
 CTRY. UNITED STATES OF AMERICA:   COUNTRY
 SRVC.            Unknown:   SERVICE COMPANY
 DATE.        11-JUL-1978:   LOGDATE
 API .       490251065600:   API NUMBER
~CURVE INFORMATION
#MNEM.UNIT       API CODE    CURVE DESCRIPTION
#----------   ------------   ------------------------------
 DEPT.F                  :   
 CALD.IN     45 280 60 00:   CALIPER FROM DENSITY LOG
 GRD .GAPI   45 310 01 00:   GAMMA RAY FROM DENSITY LOG
 CORR.G/C3   45 356 01 00:   DENSITY CORRECTION
 DPHI.DEC    45 890 12 00:   DENSITY POROSITY SANDSTONE
 RHOB.G/C3   45 350 01 00:   BULK DENSITY
 SPR .MV     05 010 01 00:   SPONTANEOUS POTENTIAL FROM RES.
 SN  .OHMM   05 040 16 00:   SHORT NORMAL 16"
 ILD .OHMM   05 120 46 00:   INDUCTION LOG DEEP
~PARAMETER INFORMATION
#MNEM.UNIT          VALUE    DESCRIPTION
#----------   ------------   ------------------------------
 PD  .                 GL:   PERMANENT DATUM
 EPD .F              5263:   ELEVATION PERMANENT DATUM
 LMF .                 KB:   LOG MEASURED FROM
 DAPD.F                 4:   FEET ABOVE PERMANENT DATUM
 DMF .                 KB:   DRILLING MEASURED FROM
 EKB .F              5267:   KELLING BUSHING
 EGL .F              5263:   GROUND LEVEL
 DATE.        11-JUL-1978:   RUN DATE
 RUN .                  1:   RUN NUMBER
 DD  .F               657:   DEPTH DRILLER
 DL  .F               666:   DEPTH LOGGER
 BLI .F               660:   BOTTOM LOG INTERVAL
 TLI .F                50:   TOP LOG INTERVAL
 CS  .IN            8.625:   CASING SIZE
 CBD .F                40:   CASING BOTTOM DRILLER
 BS  .IN            7.875:   BIT SIZE
 BSD .F               657:   BIT SIZE AT DEPTH
 DFT .                KCL:   DRILLING FLUID TYPE
 DFD .                8.6:   DRILLING FLUID DENSITY
 DFV .                 33:   DRILLING FLUID VISCOSITY
 DFPH.                9.0:   DRILLING FLUID PH
 DFL .                 14:   DRILLING FLUID LOSS
 MSS .           FLOWLINE:   MUD SAMPLE SOURCE
 RMS .OHMM            .16:   RESISTIVITY MUD SAMPLE
 MST .F                89:   MUD SAMPLE TEMPERATURE
 RMF .OHMM            .15:   RESISTIVITY MUD FILTRATE SAMPLE
 MFST.F                89:   MUD FILTRATE SAMPLE TEMPERATURE
 RMC .OHMM            .32:   RESISTIVITY MUD CAKE
 MCST.F                88:   MUD CAKE SAMPLE TEMPERATURE
 MFSS.               MEAS:   MUD FILTRATE SAMPLE SOURCE
 BHT .F                76:   BOTTOM HOLE TEMPERATURE
 TCS .HRS            0200:   TIME CURCULATED STOPPED
 MRT .F                76:   MAXIMUM RECORDED TEMPERATURE
 LUN .               2958:   LOGGING UNIT NUMBER
 LUL .               CASP:   LOGGING UNIT LOCATION
 ENGI.             MILLER:   RECORDING ENGINEER
 WITN.           MCGINLEY:   WITNESSED BY
 CLNT.            A2DTECH:   CLIENT CODE
 ORIG.           5" PRINT:   ORIGIN OF DATA
 UWI .       490251065600:   UNIQUE WELL ID
 DICO. A2D Technologies, Inc.:   DIGITIZING COMPANY
~OTHER INFORMATION
~A   DEPT     CALD         GRD      CORR       DPHI       RHOB        SPR         SN        ILD   
# ...
  206.0000     7.8733    85.6029    -0.0072     0.1338     2.4565   -71.7816     8.4680     9.9259
  206.5000     7.8729    85.4471    -0.0069     0.1296     2.4648   -71.7635     8.4726     9.9334
  207.0000     7.8724    85.1400    -0.0066     0.1284     2.4715   -71.7489     8.4772     9.9394
  207.5000     7.8719    85.1355    -0.0064     0.1329     2.4730   -71.8864     8.4819     9.8773
  208.0000     7.8715    84.8284    -0.0065     0.1365     2.4587   -71.8682     8.4874     9.8156
  208.5000     7.8559    84.8238    -0.0005     0.1389     2.4504   -71.8537     8.4920     9.7528
  209.0000     7.8403    85.1230     0.0069     0.1317     2.4489   -71.9881     8.4373     9.6931
  209.5000     7.7944    85.7225     0.0084     0.1225     2.4541   -72.1214     8.3851     9.6327
  210.0000     7.6879    86.9282     0.0083     0.1168     2.4841   -72.1068     8.3311     9.5726
  210.5000     7.6419    89.0417     0.0007     0.1152     2.5007   -72.0920     8.2785     9.5785
  211.0000     7.7627    90.5500    -0.0054     0.1285     2.4924   -72.2261     8.2273     9.5845
  211.5000     7.8683    90.2429    -0.0085     0.1336     2.4645   -72.2080     8.1743     9.5915
  212.0000     7.7012    87.6665    -0.0101     0.1441     2.4480   -72.1934     8.1235     9.5963
  212.5000     7.5644    86.9067    -0.0102     0.1417     2.4390   -72.3309     8.1281     9.6031
  213.0000     7.5791    88.5652    -0.0087     0.1380     2.4517   -72.3127     8.0768     9.6082
  213.5000     7.5938    89.1669    -0.0103     0.1454     2.4584   -72.4466     8.0813     9.6152
  214.0000     7.5933    88.7074    -0.0089     0.1481     2.4389   -72.4320     8.0301     9.6206
  214.5000     7.5929    84.6181    -0.0090     0.1463     2.4351   -72.4175     8.0348     9.6269
  215.0000     7.5924    83.5546    -0.0060     0.1445     2.4396   -72.4030     8.0399     9.6322
  215.5000     7.5920    83.2475    -0.0031     0.1394     2.4448   -72.3884     8.0435     9.6386
  216.0000     7.5915    82.6378    -0.0016     0.1382     2.4538   -72.2255     7.9924     9.5779
  216.5000     7.5911    82.0281    -0.0032     0.1289     2.4561   -72.2107     7.9981     9.5842
  217.0000     7.5906    81.8723    -0.0033     0.1265     2.4560   -72.0475     7.9476     9.5238
  217.5000     7.5902    81.7165    -0.0049     0.1241     2.4778   -72.0299     7.9515     9.5301
  218.0000     7.5897    81.8632    -0.0050     0.1218     2.4868   -72.0154     7.9006     9.4700
  218.5000     7.5892    83.5228    -0.0065     0.1239     2.4905   -72.1528     7.9056     9.3478
  219.0000     7.5888    84.1246    -0.0051     0.1275     2.4770   -72.1347     7.9099     9.2880
  219.5000     7.5883    84.5728    -0.0052     0.1293     2.4672   -72.2721     7.8599     9.2300
  220.0000     7.5879    91.6787    -0.0068     0.1290     2.4664   -72.2540     7.8645     9.1737
  220.5000     7.6025    93.1870    -0.0068     0.1281     2.4679   -72.3914     7.8686     9.1150
  221.0000     7.6476    92.4260    -0.0084     0.1272     2.4694   -72.3733     7.8737     9.0585
  221.5000     7.6623    87.2778    -0.0085     0.1326     2.4716   -72.3587     7.8780     9.0027
  222.0000     7.6770    86.2142    -0.0086     0.1330     2.4738   -72.3442     7.8816     8.9466
  222.5000     7.6613    88.0251    -0.0084     0.1333     2.4603   -72.3294     7.8865     8.8907
  223.0000     7.6457    89.0796    -0.0057     0.1333     2.4588   -72.3145     7.8356     8.8963
  223.5000     7.6301    89.0751    -0.0043     0.1336     2.4595   -72.2970     7.8409     8.9028
  224.0000     7.6296    89.0705    -0.0044     0.1288     2.4670   -72.2824     7.8451     8.8458
  224.5000     7.6292    89.0660    -0.0029     0.1240     2.4767   -72.2679     7.7956     8.8525
  225.0000     7.6287    89.0615    -0.0030     0.1312     2.4729   -72.2534     7.7998     8.7357
  225.5000     7.6283    94.2006    -0.0031     0.1300     2.4624   -72.3908     7.7505     8.5639
  226.0000     7.6278    94.4998    -0.0032     0.1240     2.4646   -72.3727     7.7016     8.4508
  226.5000     7.6426    93.8890    -0.0032     0.1229     2.4759   -72.3581     7.5485     8.2846
  227.0000     7.6573    94.1870    -0.0033     0.1301     2.4789   -72.3436     7.5009     8.1204
  227.5000     7.7022    96.3005    -0.0034     0.1355     2.4593   -72.3291     7.5059     7.9594
  228.0000     7.7775    98.5653    -0.0019     0.1373     2.4533   -72.3145     7.4575     7.8018
  228.5000     7.8226    99.3183    -0.0005     0.1367     2.4503   -72.2997     7.4104     7.6956
  229.0000     7.8525    99.1613    -0.0006     0.1361     2.4495   -72.2849     7.4154     7.5994
  229.5000     7.8823    97.7952     0.0008     0.1352     2.4525   -72.2673     7.4194     7.5013
  230.0000     7.8818    95.2188     0.0053     0.1346     2.4607   -72.2528     7.3716     7.4533
  230.5000     7.8813    92.1886     0.0082     0.1260     2.4674   -72.2382     7.3766     7.4068
  231.0000     7.8961    90.2173     0.0051     0.1205     2.4764   -72.2237     7.4315     7.4124
  231.5000     7.8955    89.3051     0.0020     0.1136     2.4854   -72.2092     7.4868     7.4680
  232.0000     7.8799    89.4518     0.0020     0.1116     2.4914   -72.1946     7.5945     7.5760
  232.5000     7.8795    89.5986    -0.0011     0.1172     2.4937   -72.3285     7.7569     7.7919
  233.0000     7.8639    88.8376    -0.0027     0.1271     2.4906   -72.4623     7.8686     8.0140
  233.5000     7.8180    86.1099    -0.0043     0.1302     2.4741   -72.4478     7.9272     8.2423
  234.0000     7.8024    85.5003    -0.0044     0.1248     2.4583   -72.4332     7.9324     8.3042
  234.5000     7.7565    87.3111    -0.0059     0.1289     2.4733   -72.4184     7.9367     8.2477
  235.0000     7.7257    87.4590    -0.0060     0.1303     2.4763   -72.4036     7.8855     8.1446
  235.5000     7.6949    86.6969    -0.0061     0.1279     2.4612   -72.3860     7.8908     8.0395
  236.0000     7.6945    86.6924    -0.0062     0.1351     2.4755   -72.3715     7.8399     7.9881
  236.5000     7.6789    91.6803    -0.0062     0.1343     2.4559   -72.2086     7.8452     7.8850
  237.0000     7.6633    91.2219    -0.0063     0.1238     2.4634   -72.3424     7.8495     7.8345
  237.5000     7.6477    82.8967    -0.0049     0.1228     2.4829   -72.3279     7.8537     7.8404
  238.0000     7.6321    80.7752    -0.0050     0.1323     2.4746   -72.3133     7.8579     7.7903
  238.5000     7.6316    83.7953    -0.0051     0.1349     2.4663   -72.2988     7.8622     7.8500
  239.0000     7.6312    87.8068    -0.0051     0.1340     2.4573   -72.2843     7.8664     7.9089
  239.5000     7.6307    91.5018    -0.0052     0.1333     2.4483   -72.2697     7.8708     8.0232
  240.0000     7.6302    91.9523    -0.0052     0.1247     2.4700   -72.2552     7.8750     8.1392
  240.5000     7.6298    91.3415    -0.0053     0.1178     2.4798   -72.2404     7.8252     8.3187
  241.0000     7.6293    88.7651    -0.0053     0.1154     2.4843   -72.2255     7.8305     8.4439
  241.5000     7.6442    85.2810    -0.0068     0.1268     2.4887   -72.2080     7.7803     8.5572
  242.0000     7.6589    83.0071    -0.0083     0.1394     2.4759   -72.1934     7.7319     8.5624
  242.5000     7.6735    81.3384    -0.0082     0.1416     2.4579   -72.1789     7.6831     8.5668
  243.0000     7.6882    86.0238    -0.0079     0.1374     2.4451   -72.1644     7.6872     8.5728
  243.5000     7.7181    88.5922    -0.0076     0.1332     2.4496   -72.1498     7.6377     8.5780
  244.0000     7.7328    88.5866    -0.0074     0.1287     2.4631   -72.2873     7.5385     8.5832
  244.5000     7.7322    82.6819    -0.0071     0.1233     2.4706   -72.2691     7.5425     8.5888
  245.0000     7.7318    82.6773    -0.0069     0.1218     2.4751   -72.4036     7.4948     8.5936
  245.5000     7.7162    86.7575    -0.0066     0.1221     2.4803   -72.3884     7.4990     8.5988
  246.0000     7.7157    88.2670    -0.0063     0.1269     2.4810   -72.5223     7.5031     8.6040
