~VERSION INFORMATION
 VERS.                2.0:   CWLS LOG ASCII STANDARD - VERSION 2.0
 WRAP.                 NO:   ONE LINE PER DEPTH STEP
~WELL INFORMATION
#MNEM.UNIT      DATA TYPE    INFORMATION
#----------   ------------   ------------------------------
 STRT.F           12.0000:   START DEPTH
 STOP.F          510.0000:   STOP DEPTH
 STEP.F            0.5000:   STEP LENGTH
 NULL.          -999.2500:   NO VALUE
 COMP. LAWRENCE-ALLISON &AS:   COMPANY
 WELL. NPR 3 #51-41SX10UP4:   WELL
 FLD .            NATRONA:   FIELD
 LOC .      S10 T38N R78W:   LOCATION
 CNTY.            NATRONA:   COUNTY
 STAT.            WYOMING:   STATE
 CTRY. UNITED STATES OF AMERICA:   COUNTRY
 SRVC.      Dresser Atlas:   SERVICE COMPANY
 DATE.        15-DEC-1984:   LOGDATE
 API .       490251100000:   API NUMBER
~CURVE INFORMATION
#MNEM.UNIT       API CODE    CURVE DESCRIPTION
#----------   ------------   ------------------------------
 DEPT.F                  :   
 RD  .OHMM   11 220 10 00:   RESISTIVITY DEEP
 RS  .OHMM   11 220 09 00:   RESISTIVITY SHALLOW
 SPR .MV     11 010 01 00:   SPONTANEOUS POTENTIAL FROM RES.
 DT  .US/F   60 520 00 00:   INTERVAL TRANSIT TIME
 CALD.IN     45 280 60 00:   CALIPER FROM DENSITY LOG
 CNC .DEC    42 890 00 00:   NEUTRON POROSITY
 CORR.G/C3   45 356 01 00:   DENSITY CORRECTION
 GRD .GAPI   45 310 01 00:   GAMMA RAY FROM DENSITY LOG
 PORD.DEC    45 890 00 00:   POROSITY DENSITY
 RHOB.G/C3   45 350 01 00:   BULK DENSITY
~PARAMETER INFORMATION
#MNEM.UNIT          VALUE    DESCRIPTION
#----------   ------------   ------------------------------
 PD  .                 GL:   PERMANENT DATUM
 EPD .F              5207:   ELEVATION PERMANENT DATUM
 LMF .                 GL:   LOG MEASURED FROM
 DMF .                 GL:   DRILLING MEASURED FROM
 EGL .F              5207:   GROUND LEVEL
 DATE.        15-DEC-1984:   RUN DATE
 RUN .                  1:   RUN NUMBER
 DD  .F               515:   DEPTH DRILLER
 DL  .F               511:   DEPTH LOGGER
 BLI .F               510:   BOTTOM LOG INTERVAL
 TLI .F                20:   TOP LOG INTERVAL
 CS  .IN            8.625:   CASING SIZE
 CBD .F                20:   CASING BOTTOM DRILLER
 CBL .F                20:   CASING BOTTOM LOGGER
 BS  .IN            7.875:   BIT SIZE
 BSD .F               515:   BIT SIZE AT DEPTH
 DFT .          KCL/WATER:   DRILLING FLUID TYPE
 MSS .           FLOWLINE:   MUD SAMPLE SOURCE
 RMS .OHMM           .129:   RESISTIVITY MUD SAMPLE
 MST .F                94:   MUD SAMPLE TEMPERATURE
 RMF .OHMM            .10:   RESISTIVITY MUD FILTRATE SAMPLE
 MFST.F                94:   MUD FILTRATE SAMPLE TEMPERATURE
 RMC .OHMM            .16:   RESISTIVITY MUD CAKE
 MCST.F                94:   MUD CAKE SAMPLE TEMPERATURE
 MFSS.               CALC:   MUD FILTRATE SAMPLE SOURCE
 MCSS.               CALC:   MUD CAKE SAMPLE SOURCE
 TCS .HRS               2:   TIME CURCULATED STOPPED
 MRT .F               100:   MAXIMUM RECORDED TEMPERATURE
 LUN .               6270:   LOGGING UNIT NUMBER
 LUL .                 FM:   LOGGING UNIT LOCATION
 ENGI.            LEBSOCK:   RECORDING ENGINEER
 WITN.          DAN LUERS:   WITNESSED BY
 CLNT.            A2DTECH:   CLIENT CODE
 ORIG.           5" PRINT:   ORIGIN OF DATA
 UWI .       490251100000:   UNIQUE WELL ID
 DICO. A2D Technologies, Inc.:   DIGITIZING COMPANY
~OTHER INFORMATION
~A   DEPT       RD         RS        SPR         DT       CALD          CNC     CORR         GRD      PORD       RHOB   
# ...
  246.5000     6.7798     5.3289   -69.3116   122.4379     7.8488     0.3383     0.0082   122.5733     0.1885     2.3395
  247.0000     6.8313     5.3318   -69.3002   122.2853     7.8492     0.3356     0.0294   117.8164     0.2077     2.3358
  247.5000     7.1250     5.5995   -69.5847   119.8882     7.8645     0.3070     0.0175   112.9726     0.1975     2.3509
  248.0000     8.8925     6.8444   -69.5732   116.2728     7.8650     0.2923     0.0056   112.6860     0.1800     2.4057
  248.5000    10.4299     8.0823   -69.2660   112.9593     7.8654     0.2743     0.0072   113.7391     0.1499     2.4387
  249.0000    11.1060     8.4286   -69.2485   110.3251     7.8658     0.2737     0.0193   113.9002     0.1403     2.4463
  249.5000    11.4264     8.5503   -68.6486   110.1059     7.8662     0.2853     0.0240   113.0242     0.1358     2.4532
  250.0000    11.1226     8.5549   -68.0454   109.9623     7.8667     0.3105     0.0226   110.8286     0.1336     2.4561
  250.5000    11.1300     8.6187   -67.7382   109.9698     7.8671     0.3060     0.0182   106.1691     0.1324     2.4585
  251.0000    10.8322     8.5640   -67.4309   109.8277     7.8527     0.3044     0.0349   106.0530     0.1306     2.4623
  251.5000    10.9920     8.5697   -67.4195   109.2311     7.8532     0.3080     0.0245   109.4244     0.1269     2.4668
  252.0000    11.6239     8.5743   -67.4081   108.4837     7.8537     0.3020     0.0215   112.3137     0.1233     2.4699
  252.5000    11.5465     8.5788   -67.3964   107.8117     7.8689     0.3008     0.0292   112.0315     0.1233     2.4700
  253.0000    11.4798     8.7027   -67.3824   108.2718     7.8693     0.3139     0.0369   112.7917     0.1235     2.4693
  253.5000    10.8720     8.6432   -67.3710   110.6921     7.8698     0.3295     0.0370   116.5155     0.1269     2.4618
  254.0000     7.8103     6.0014   -66.9157   113.9994     7.8703     0.3379     0.0130   121.7230     0.1463     2.4417
  254.5000     7.1941     5.5265   -66.3126   116.3434     7.8707     0.3177     0.0071   121.0238     0.1677     2.3938
  255.0000     7.0016     5.5301   -66.1674   116.6496     7.8712     0.3004     0.0012   117.5965     0.1856     2.3706
  255.5000     6.9566     5.6880   -65.8616   116.3521     7.8716     0.2895    -0.0017   114.4968     0.1820     2.3721
  256.0000     8.0507     6.3352   -65.5557   113.3376     7.8720     0.2876     0.0001   114.0626     0.1580     2.3899
  256.5000     9.3838     7.1286   -65.5457   110.3231     7.8873     0.3002     0.0016   116.4548     0.1576     2.4137
  257.0000    10.1571     7.9128   -65.5355   109.4218     7.9067     0.3008     0.0017   117.9531     0.1579     2.4151
  257.5000    10.3449     8.1973   -65.3754   109.1997     7.9074     0.2946    -0.0042   117.0775     0.1555     2.4196
  258.0000    10.9397     8.4920   -65.2174   107.9222     7.9082     0.2778     0.0019   112.1960     0.1464     2.4377
  258.5000    11.6488     8.9196   -65.0595   106.7190     7.9089     0.2802     0.0081   110.5786     0.1302     2.4602
  259.0000    12.2338     9.1767   -65.1975   105.8932     7.9096     0.2861     0.0037   110.7418     0.1293     2.4610
  259.5000    12.5848     9.5142   -65.3354   105.8219     7.8955     0.2834    -0.0037   110.9050     0.1296     2.4619
  260.0000    12.5932     9.8504   -65.4734   105.5245     7.8814     0.2800    -0.0096   111.2159     0.1295     2.4612
  260.5000    12.5149     9.9953   -65.4630   105.3780     7.8525     0.2806    -0.0035   109.7505     0.1301     2.4605
  261.0000    12.6121    10.0033   -65.6013   105.5343     7.8534     0.2824     0.0042   108.5782     0.1313     2.4561
  261.5000    12.6206    10.0113   -65.7393   105.6142     7.8541     0.2835    -0.0078   106.5156     0.1354     2.4516
  262.0000    12.6290    10.0194   -65.5789   105.8450     7.8548     0.2871    -0.0212   106.0851     0.1397     2.4487
  262.5000    12.6375    10.0274   -65.4210   105.8493     7.8556     0.2892    -0.0211   106.8416     0.1405     2.4480
  263.0000    12.8218    10.0355   -65.2631   105.8537     7.8711     0.2894    -0.0149   109.5268     0.1384     2.4528
  263.5000    12.9192    10.0454   -65.2530   105.8581     7.8570     0.2870    -0.0073   113.2506     0.1345     2.4594
  264.0000    13.0174    10.1231   -65.3910   105.5605     7.8579     0.2810     0.0079   114.8973     0.1306     2.4639
  264.5000    13.0264    10.2014   -65.5265   105.1886     7.8586     0.2707     0.0186   114.3185     0.1287     2.4670
  265.0000    13.2183    10.3515   -66.2561   104.6636     7.8593     0.2680     0.0157   111.9592     0.1266     2.4701
  265.5000    13.4111    10.3598   -66.8379   104.2162     7.8601     0.2712     0.0158   107.8195     0.1227     2.4731
  266.0000    13.7958    10.5123   -67.2717   104.0697     7.8608     0.2821     0.0144   104.5700     0.1190     2.4792
  266.5000    13.2448    10.5937   -67.5651   104.1495     7.8615     0.2976     0.0371   105.3265     0.1178     2.4807
  267.0000    12.7159    10.6042   -67.1035   104.4106     7.8622     0.3000     0.0282   106.6825     0.1178     2.4793
  267.5000    12.3778     9.8365   -66.4996   105.2914     7.8631     0.2924     0.0163   107.2849     0.1217     2.4711
  268.0000    12.3861     9.2513   -66.1938   105.5976     7.8638     0.2771     0.0104   106.9555     0.1274     2.4682
  268.5000    12.3946     9.0671   -65.8879   105.7529     7.8794     0.2686     0.0105   106.4235     0.1270     2.4705
  269.0000    12.4047     9.0761   -65.5821   105.6053     7.8651     0.2650     0.0212   106.7385     0.1198     2.4773
  269.5000    12.5856     9.4676   -65.2763   105.3088     7.8660     0.2539     0.0348   107.1983     0.1105     2.4889
  270.0000    12.9467    10.1573   -64.8225   104.1057     7.8667     0.2445     0.0379   107.0645     0.1023     2.5010
  270.5000    13.5033    11.0405   -64.6642   101.6044     7.8674     0.2462     0.0290   106.3373     0.1038     2.5045
  271.0000    14.2797    11.6768   -64.0604    99.8891     7.8681     0.2561     0.0262   106.1999     0.1044     2.5016
  271.5000    14.6894    12.1804   -64.0504    99.6659     7.8713     0.2756     0.0233   107.4051     0.1056     2.5009
  272.0000    14.2781    12.3596   -63.4487   100.1997     7.8696     0.3174     0.0264   110.9599     0.1091     2.5009
  272.5000     8.5856    11.0759   -62.9949   104.6569     7.8705     0.3395     0.0295   118.3840     0.1280     2.4770
  273.0000     6.4287     7.8487   -62.5412   112.5858     7.8712     0.3040     0.0432   124.2691     0.1668     2.4281
  273.5000     6.0874     5.7015   -62.0799   115.3939     7.8719     0.2953     0.0840   125.2665     0.1974     2.3572
  274.0000     6.0495     5.3048   -61.4832   115.6134     7.8726     0.2646     0.0766   122.9109     0.2004     2.3453
  274.5000     6.4417     5.5336   -61.0294   109.2037     7.8734     0.2465     0.0421   110.4626     0.1699     2.3873
  275.0000     8.9788     7.1994   -60.4277   102.0383     7.8741     0.2507     0.0452   107.0648     0.1119     2.4878
  275.5000    13.2258     9.7629   -59.6781    98.7974     7.8748     0.2637     0.0408   108.4147     0.0910     2.5201
  276.0000    15.2144    13.8947   -58.9285    96.7629     7.8757     0.2681     0.0304   109.0228     0.0891     2.5269
  276.5000    15.2045    13.7151   -58.4747    97.2212     7.8764     0.2440     0.0260   105.7721     0.0945     2.5212
  277.0000    14.9053    13.1690   -57.8432    97.8294     7.8771     0.2392     0.0341   104.4514     0.0993     2.5155
  277.5000    14.8102    13.0014   -56.8251    98.2121     7.8778     0.2535     0.0307   103.7240     0.1041     2.5099
  278.0000    14.8226    12.8308   -56.2234    98.5184     7.8786     0.2649     0.0173   103.4420     0.1065     2.5043
  278.5000    14.5284    12.8437   -55.3258    99.1265     7.8793     0.2715     0.0069   103.4570     0.1055     2.4995
  279.0000    14.4378    12.6777   -54.4282   100.2630     7.8800     0.2787     0.0190   103.4065     0.1067     2.4973
  279.5000    14.4478    12.6005   -53.5307   100.8711     7.8807     0.2810     0.0433   101.8575     0.1103     2.4959
