~VERSION INFORMATION
 VERS.                2.0:   CWLS LOG ASCII STANDARD - VERSION 2.0
 WRAP.                 NO:   ONE LINE PER DEPTH STEP
~WELL INFORMATION
#MNEM.UNIT      DATA TYPE    INFORMATION
#----------   ------------   ------------------------------
 STRT.F          376.0000:   START DEPTH
 STOP.F         2400.0000:   STOP DEPTH
 STEP.F            0.5000:   STEP LENGTH
 NULL.          -999.2500:   NO VALUE
 COMP. LAWRENCE/ALLISON INC:   COMPANY
 WELL.        55 X #15-15:   WELL
 FLD .            WILDCAT:   FIELD
 LOC .      S15 T38N R78W:   LOCATION
 CNTY.            NATRONA:   COUNTY
 STAT.            WYOMING:   STATE
 CTRY. UNITED STATES OF AMERICA:   COUNTRY
 SRVC.            Unknown:   SERVICE COMPANY
 DATE.        12-APR-1988:   LOGDATE
 API .       490251119800:   API NUMBER
~CURVE INFORMATION
#MNEM.UNIT       API CODE    CURVE DESCRIPTION
#----------   ------------   ------------------------------
 DEPT.F                  :   
 GR  .GAPI   30 310 01 00:   GAMMA RAY
 TGAS.UNITS  91 830 01 00:   TOTAL GAS UNIT
 ROP .FT/HR  91 810 01 00:   RATE OF DRILLING PENETRATION
~PARAMETER INFORMATION
#MNEM.UNIT          VALUE    DESCRIPTION
#----------   ------------   ------------------------------
 PD  .                 GL:   PERMANENT DATUM
 EPD .F              5293:   ELEVATION PERMANENT DATUM
 LMF .                 GL:   LOG MEASURED FROM
 DMF .                 KB:   DRILLING MEASURED FROM
 EKB .F              5304:   KELLING BUSHING
 EGL .F              5293:   GROUND LEVEL
 DATE.        12-APR-1988:   RUN DATE
 RUN .                  1:   RUN NUMBER
 DD  .F              2400:   DEPTH DRILLER
 DL  .F               851:   DEPTH LOGGER
 BLI .F               846:   BOTTOM LOG INTERVAL
 TLI .F               372:   TOP LOG INTERVAL
 CS  .IN                7:   CASING SIZE
 CBL .F               890:   CASING BOTTOM LOGGER
 BSD .F              2400:   BIT SIZE AT DEPTH
 DFT .              WATER:   DRILLING FLUID TYPE
 TCS .HRS               1:   TIME CURCULATED STOPPED
 ENGI.          BANGERTER:   RECORDING ENGINEER
 WITN.             NORHAN:   WITNESSED BY
 CLNT.            A2DTECH:   CLIENT CODE
 ORIG.           5" PRINT:   ORIGIN OF DATA
 UWI .       490251119800:   UNIQUE WELL ID
 DICO. A2D Technologies, Inc.:   DIGITIZING COMPANY
~OTHER INFORMATION
~A   DEPT        GR      TGAS        ROP   
# ...
  922.0000  -999.2500     1.3491     0.0795
  922.5000  -999.2500     1.3445     0.0890
  923.0000  -999.2500     1.3408     0.0891
  923.5000  -999.2500     1.3371     0.0892
  924.0000  -999.2500     1.3334     0.0893
  924.5000  -999.2500     1.3296     0.0894
  925.0000  -999.2500     1.3263     0.0895
  925.5000  -999.2500     1.3222     0.0896
  926.0000  -999.2500     1.3185     0.0896
  926.5000  -999.2500     1.3148     0.0803
  927.0000  -999.2500     1.3111     0.0710
  927.5000  -999.2500     1.3073     0.0702
  928.0000  -999.2500     1.3036     0.0712
  928.5000  -999.2500     1.2998     0.0713
  929.0000  -999.2500     0.9163     0.0808
  929.5000  -999.2500     0.5337     0.0715
  930.0000  -999.2500     0.5299     0.0716
  930.5000  -999.2500     0.5262     0.0717
  931.0000  -999.2500     0.5225     0.0812
  931.5000  -999.2500     0.5192     0.0907
  932.0000  -999.2500     0.5151     0.1190
  932.5000  -999.2500     0.5114     0.1380
  933.0000  -999.2500     0.5076     0.1663
  933.5000  -999.2500     0.1250     0.1946
  934.0000  -999.2500     0.1213     0.2136
  934.5000  -999.2500     0.1175     0.2231
  935.0000  -999.2500     0.1137     0.2232
  935.5000  -999.2500     0.1092     0.2233
  936.0000  -999.2500     0.1055     0.2234
  936.5000  -999.2500     0.1017     0.2235
  937.0000  -999.2500     0.0980     0.2236
  937.5000  -999.2500     0.0943     0.2236
  938.0000  -999.2500     0.0906     0.2237
  938.5000  -999.2500     0.0869     0.2238
  939.0000  -999.2500     0.0832     0.2239
  939.5000  -999.2500     0.0794     0.2334
  940.0000  -999.2500     0.0000     0.2335
  940.5000  -999.2500     0.0720     0.2377
  941.0000  -999.2500     0.0682     0.2431
  941.5000  -999.2500     0.0644     0.2432
  942.0000  -999.2500     0.4398     0.2433
  942.5000  -999.2500     0.4352     0.2528
  943.0000  -999.2500     0.4314     0.2623
  943.5000  -999.2500     0.4282     0.2624
  944.0000  -999.2500     0.4240     0.2625
  944.5000  -999.2500     0.4203     0.2619
  945.0000  -999.2500     0.4166     0.2533
  945.5000  -999.2500     0.4129     0.2534
  946.0000  -999.2500     0.4091     0.2441
  946.5000  -999.2500     0.4054     0.2348
  947.0000  -999.2500     0.4017     0.2349
  947.5000  -999.2500     0.3979     0.2444
  948.0000  -999.2500     0.3933     0.2445
  948.5000  -999.2500     0.3896     0.2634
  949.0000  -999.2500     0.3859     0.2635
  949.5000  -999.2500     0.3827     0.2730
  950.0000  -999.2500     0.3789     0.2731
  950.5000  -999.2500     0.3748     0.2732
  951.0000  -999.2500     0.7500     0.2733
  951.5000  -999.2500     0.7463     0.2639
  952.0000  -999.2500     0.7426     0.2640
  952.5000  -999.2500     0.7388     0.2641
  953.0000  -999.2500     0.7351     0.2642
  953.5000  -999.2500     0.3524     0.2643
  954.0000  -999.2500     0.3486     0.2644
  954.5000  -999.2500     0.3441     0.2645
  955.0000  -999.2500     0.3411     0.2646
  955.5000  -999.2500     0.3367     0.2647
  956.0000  -999.2500     0.3330     0.2648
  956.5000  -999.2500     0.3292     0.2649
  957.0000  -999.2500     0.3255     0.2650
  957.5000  -999.2500     0.3218     0.2651
  958.0000  -999.2500     0.3181     0.2652
  958.5000  -999.2500     0.3144     0.2653
  959.0000  -999.2500     0.3107     0.2653
  959.5000  -999.2500     0.3069     0.2654
  960.0000  -999.2500     0.6822     0.2656
  960.5000  -999.2500     1.0574     0.2656
  961.0000  -999.2500     1.4326     0.2563
  961.5000  -999.2500     1.8069     0.2564
  962.0000  -999.2500     1.8032     0.2753
  962.5000  -999.2500     1.7995     0.3037
  963.0000  -999.2500     1.7958     0.3320
  963.5000  -999.2500     2.1719     0.3604
  964.0000  -999.2500     2.1673     0.3699
  964.5000  -999.2500     1.7846     0.3794
  965.0000  -999.2500     1.4020     0.3795
  965.5000  -999.2500     1.0193     0.3796
  966.0000  -999.2500     0.6366     0.3797
  966.5000  -999.2500     0.6328     0.3892
  967.0000  -999.2500     0.2501     0.3987
  967.5000  -999.2500     0.2456     0.3988
  968.0000  -999.2500     0.2419     0.3989
  968.5000  -999.2500     0.2382     0.3990
  969.0000  -999.2500     0.2345     0.3991
  969.5000  -999.2500     0.2307     0.3992
  970.0000  -999.2500     0.2270     0.3993
  970.5000  -999.2500     0.2233     0.3994
  971.0000  -999.2500     0.5995     0.3994
  971.5000  -999.2500     0.5948     0.3995
  972.0000  -999.2500     0.5911     0.3996
  972.5000  -999.2500     0.9663     0.3997
  973.0000  -999.2500     0.9625     0.3998
  973.5000  -999.2500     0.9587     0.3999
  974.0000  -999.2500     0.9543     0.4000
  974.5000  -999.2500     0.9505     0.4001
  975.0000  -999.2500     0.9468     0.4002
  975.5000  -999.2500     0.9431     0.4003
  976.0000  -999.2500     0.9398     0.4004
  976.5000  -999.2500     0.9357     0.4005
  977.0000  -999.2500     0.9320     0.4006
  977.5000  -999.2500     0.9282     0.4007
  978.0000  -999.2500     0.9245     0.4008
  978.5000  -999.2500     0.9208     0.4009
  979.0000  -999.2500     0.9171     0.4010
  979.5000  -999.2500     0.9133     0.4010
  980.0000  -999.2500     0.9087     0.4011
  980.5000  -999.2500     0.9057     0.4012
  981.0000  -999.2500     0.9013     0.4013
  981.5000  -999.2500     0.8976     0.4014
  982.0000  -999.2500     0.8939     0.4015
  982.5000  -999.2500     0.8901     0.4016
  983.0000  -999.2500     0.8864     0.4017
  983.5000  -999.2500     0.8827     0.4018
  984.0000  -999.2500     0.8790     0.4019
  984.5000  -999.2500     0.4963     0.4020
  985.0000  -999.2500     0.4926     0.4021
  985.5000  -999.2500     0.4888     0.4022
  986.0000  -999.2500     0.4851     0.4023
  986.5000  -999.2500     0.8595     0.4024
  987.0000  -999.2500     0.8558     0.4025
  987.5000  -999.2500     0.8521     0.4026
  988.0000  -999.2500     0.8488     0.4026
  988.5000  -999.2500     0.8446     0.4027
  989.0000  -999.2500     0.8409     0.4028
  989.5000  -999.2500     0.8372     0.4029
  990.0000  -999.2500     0.8335     0.4030
  990.5000  -999.2500     0.8298     0.4031
  991.0000  -999.2500     0.8260     0.4032
  991.5000  -999.2500     0.8223     0.4033
  992.0000  -999.2500     0.8185     0.4128
  992.5000  -999.2500     0.8147     0.4129
  993.0000  -999.2500     0.8102     0.4130
  993.5000  -999.2500     0.8065     0.4131
  994.0000  -999.2500     0.8028     0.4038
  994.5000  -999.2500     0.7991     0.3850
  995.0000  -999.2500     0.7954     0.3663
  995.5000  -999.2500     0.7917     0.3570
  996.0000  -999.2500     0.7879     0.3571
  996.5000  -999.2500     0.7842     0.3572
  997.0000  -999.2500     0.7805     0.3573
  997.5000  -999.2500     0.7768     0.3573
  998.0000  -999.2500     0.7731     0.3574
  998.5000  -999.2500     0.3903     0.3563
  999.0000  -999.2500     0.3865     0.3482
  999.5000  -999.2500     0.0031     0.3483
 1000.0000  -999.2500     0.0000     0.3484
 1000.5000  -999.2500     0.0000     0.3299
 1001.0000  -999.2500     0.0000     0.3397
 1001.5000  -999.2500     0.0000     0.3402
 1002.0000  -999.2500     0.0000     0.3500
 1002.5000  -999.2500     0.0000     0.3598
 1003.0000  -999.2500     0.0000     0.3601
 1003.5000  -999.2500     0.0000     0.3605
 1004.0000  -999.2500     0.0000     0.3609
 1004.5000  -999.2500     0.0000     0.3612
 1005.0000  -999.2500     0.0762     0.3616
 1005.5000  -999.2500     0.0836     0.3620
 1006.0000  -999.2500     0.0910     0.3624
 1006.5000  -999.2500     0.0985     0.3533
 1007.0000  -999.2500     0.1516     0.3443
 1007.5000  -999.2500     0.4926     0.3258
 1008.0000  -999.2500     0.5003     0.3262
 1008.5000  -999.2500     0.5090     0.3266
 1009.0000  -999.2500     0.5164     0.3270
 1009.5000  -999.2500     0.9019     0.3368
 1010.0000  -999.2500     0.9102     0.3372
 1010.5000  -999.2500     0.9171     0.3375
 1011.0000  -999.2500     0.9246     0.3379
 1011.5000  -999.2500     0.9322     0.3383
 1012.0000  -999.2500     0.9399     0.3386
 1012.5000  -999.2500     0.9474     0.3390
