~VERSION INFORMATION
 VERS.                2.0:   CWLS LOG ASCII STANDARD - VERSION 2.0
 WRAP.                 NO:   ONE LINE PER DEPTH STEP
~WELL INFORMATION
#MNEM.UNIT      DATA TYPE    INFORMATION
#----------   ------------   ------------------------------
 STRT.F            2.5000:   START DEPTH
 STOP.F         1003.0000:   STOP DEPTH
 STEP.F            0.5000:   STEP LENGTH
 NULL.          -999.2500:   NO VALUE
 COMP. U S NAVY-INTEX OIL:   COMPANY
 WELL.   NPR #3 #87-SX-27:   WELL
 FLD .             TEAPOT:   FIELD
 LOC .      S27 T39N R78W:   LOCATION
 CNTY.            NATRONA:   COUNTY
 STAT.            WYOMING:   STATE
 CTRY. UNITED STATES OF AMERICA:   COUNTRY
 SRVC. Schlumberger Well Surveying Corp:   SERVICE COMPANY
 DATE.        13-AUG-1961:   LOGDATE
 API .       490250659000:   API NUMBER
~CURVE INFORMATION
#MNEM.UNIT       API CODE    CURVE DESCRIPTION
#----------   ------------   ------------------------------
 DEPT.F                  :   
 ASN .OHMM   05 041 16 00:   AMPLIFIER SHORT NORMAL
 SPR .MV     05 010 01 00:   SPONTANEOUS POTENSIAL
 CILD.MMHO   05 110 46 00:   CONDUCTIVITY INDUCTION LOG DEEP
 ILD .OHMM   05 120 46 00:   INDUCTION LOG DEEP
 GRN .MG/TON 35 310 30 00:   GAMMA RAY
 NEUT.NAPI   35 330 01 00:   NEUTRON
~PARAMETER INFORMATION
#MNEM.UNIT          VALUE    DESCRIPTION
#----------   ------------   ------------------------------
 PD  .                 GL:   PERMANENT DATUM
 EPD .F              5082:   ELEVATION PERMANENT DATUM
 LMF .                 KB:   LOG MEASURED FROM
 DAPD.F                 5:   FEET ABOVE PERMANENT DATUM
 DMF .                 KB:   DRILLING MEASURED FROM
 EKB .F              5087:   KELLING BUSHING
 EGL .F              5082:   GROUND LEVEL
 DATE.        13-AUG-1961:   RUN DATE
 RUN .                  1:   RUN NUMBER
 DD  .F              1000:   DEPTH DRILLER
 DL  .F              1003:   DEPTH LOGGER
 BLI .F              1002:   BOTTOM LOG INTERVAL
 TLI .F                90:   TOP LOG INTERVAL
 BS  .IN             6.75:   BIT SIZE
 BSD .F              1000:   BIT SIZE AT DEPTH
 DFT . OIL EMUL (12% OIL):   DRILLING FLUID TYPE
 DFD .                9.3:   DRILLING FLUID DENSITY
 DFV .                 60:   DRILLING FLUID VISCOSITY
 DFL .                  4:   DRILLING FLUID LOSS
 MSS .           FLOWLINE:   MUD SAMPLE SOURCE
 RMS .OHMM           1.29:   RESISTIVITY MUD SAMPLE
 MST .F                80:   MUD SAMPLE TEMPERATURE
 TCS .HRS               1:   TIME CURCULATED STOPPED
 LUN .               2523:   LOGGING UNIT NUMBER
 LUL .               CSPR:   LOGGING UNIT LOCATION
 ENGI.              SCOTT:   RECORDING ENGINEER
 WITN.          JORGENSEN:   WITNESSED BY
 CLNT.            A2DTECH:   CLIENT CODE
 ORIG.       2", 5" PRINT:   ORIGIN OF DATA
 UWI .       490250659000:   UNIQUE WELL ID
 DICO. A2D Technologies, Inc.:   DIGITIZING COMPANY
~OTHER INFORMATION
~A    DEPT     ASN        SPR       CILD        ILD          GRN     NEUT   
# ...
  938.5000    13.0787   -17.8679    83.8973    12.4781     4.9718   489.2995
  939.0000    13.0012   -17.8679    83.9304    12.4012     5.1156   497.5795
  939.5000    12.9992   -17.7177    83.9577    12.3243     5.3200   481.0455
  940.0000    12.9970   -17.5676    83.9879    12.3225     5.3049   494.5867
  940.5000    12.9946   -17.4174    84.0181    12.2456     5.0912   498.3535
  941.0000    12.9925   -17.3120    84.0484    12.1618     5.0705   515.6743
  941.5000    12.9901   -17.2673    84.0786    12.0920     5.2068   533.5404
  942.0000    12.9880   -17.2673    84.1124    12.0513     5.2750   544.2406
  942.5000    12.9857   -17.1171    84.1390    11.9382     5.6382   542.7458
  943.0000    12.9834   -17.1171    84.1692    11.8611     5.7442   541.2476
  943.5000    12.9812   -17.1171    82.6904    11.8597     5.6611   549.5275
  944.0000    12.9785   -17.1171    82.7224    11.8582     5.1920   562.3168
  944.5000    12.9763   -17.1171    84.2600    11.8567     5.1543   559.3167
  945.0000    13.0494   -17.2673    84.2900    11.9305     5.3662   561.5779
  945.5000    13.1317   -17.2673    84.3202    11.9288     5.2074   535.2712
  946.0000    13.1958   -17.2673    84.3505    12.0782     5.3588   539.7900
  946.5000    13.2334   -17.4174    84.3855    12.1663     5.2075   539.0451
  947.0000    13.2666   -17.4174    84.4109    12.2264     5.2263   539.1327
  947.5000    13.2643   -17.4174    84.4411    12.3754     4.9805   526.2783
  948.0000    13.2620   -17.4174    84.4713    12.4497     4.9656   515.6398
  948.5000    13.1845   -17.4174    84.5015    12.4479     4.8976   508.2479
  949.0000    13.1069   -17.4174    84.5317    12.4464     4.8901   535.3248
  949.5000    13.1043   -17.4174    84.5626    12.4106     4.9054   548.8660
  950.0000    12.9514   -17.4174    84.5921    12.3680     4.9281   564.6629
  950.5000    12.9360   -17.1171    84.6224    12.2843     4.9509   581.2116
  951.0000    12.8593   -16.8168    84.6526    12.1388     5.0115   581.9691
  951.5000    12.7942   -16.8168    84.6828    11.9862     5.1731   578.2170
  952.0000    12.7500   -16.9670    84.7176    11.8339     5.4499   594.7676
  952.5000    12.7145   -17.2823    84.7432    11.6815     5.3358   577.4818
  953.0000    12.7123   -17.5676    85.3985    11.5292     5.2106   560.1959
  953.5000    12.6348   -17.7177    87.9394    11.4287     5.0702   544.4138
  954.0000    12.6325   -17.8679    89.4944    11.2246     5.1545   527.6976
  954.5000    12.6303   -18.0180    89.5389    11.1477     5.2679   517.1565
  955.0000    12.5600   -18.1682    91.0876    11.0709     5.3208   512.6342
  955.5000    12.5586   -17.8679    92.6489    11.0694     5.3434   544.9465
  956.0000    12.4818   -17.7177    93.4877    11.0679     5.3358   553.5638
  956.5000    12.4803   -17.5676    94.7457    11.1614     5.1995   544.9169
  957.0000    12.5541   -17.6763    95.8035    11.1614     4.8514   580.9924
  957.5000    12.5853   -17.3723    95.8480    11.1614     4.9421   608.7972
  958.0000    12.7018   -17.2192    96.5661    11.1614     5.1539   598.0755
  958.5000    12.7776   -17.0661    97.4471    11.1614     5.1841   592.2226
  959.0000    13.0080   -16.9129    97.4919    11.3876     5.1916   594.4634
  959.5000    13.3747   -16.7592    96.0272    11.6139     5.2293   614.7495
  960.0000    13.7984   -16.7562    91.5497    12.0664     5.2015   679.3963
  960.5000    14.3276   -16.6031    87.0624    12.7451     4.9716   738.7800
  961.0000    14.9516   -16.6002    82.5752    13.4238     4.1547   767.3367
  961.5000    15.5525   -17.0477    77.7567    14.4042     3.8822   800.4045
  962.0000    16.4547   -17.7955    72.0901    15.6349     3.8141   865.8033
  962.5000    17.7333   -18.0936    67.6028    16.9559     3.7686   871.0554
  963.0000    19.5391   -18.3909    63.1044    18.3258     3.6702   803.3677
  963.5000    22.0225   -18.7498    60.1278    19.3816     3.5566   691.3229
  964.0000    23.4518   -19.0804    57.1511    20.0603     3.6246   565.7442
  964.5000    22.8479   -19.2823    54.1855    20.3620     3.8591   548.4136
  965.0000    21.8524   -19.5796    52.7190    20.5128     4.1541   535.7901
  965.5000    21.0045   -19.5876    52.7644    20.3620     4.3507   531.1135
  966.0000    20.0569   -19.7239    53.3735    19.7587     4.3658   541.6250
  966.5000    19.6790   -19.8711    55.8761    19.0045     4.2976   532.5876
  967.0000    19.3010   -20.0176    58.9507    18.4012     4.1455   546.1067
  967.5000    18.9983   -20.3149    60.5057    17.8683     4.3161   546.8400
  968.0000    18.7709   -20.4629    63.8874    17.4782     4.3882   553.5922
  968.5000    18.5435   -20.4592    65.3742    17.1946     4.1536   546.0587
  969.0000    18.4669   -20.4562    66.6814    17.0437     4.2443   513.7130
  969.5000    18.3605   -20.3031    69.0667    16.8929     4.5090   516.7057
  970.0000    18.3132   -19.9999    69.7885    16.7421     4.4787   546.0143
  970.5000    18.2364   -19.5465    71.3465    16.5913     4.4256   542.2402
  971.0000    18.0843   -19.3934    72.9016    16.3650     4.4332   557.2629
  971.5000    17.9296   -19.5406    72.9456    16.2896     4.4028   561.0154
  972.0000    17.8551   -19.8380    71.4799    16.1835     4.4784   531.9399
  972.5000    17.7468   -20.1485    71.5244    16.1388     4.3875   529.3990
  973.0000    17.7016   -20.4320    70.0604    16.1388     4.5388   536.1475
  973.5000    17.7001   -20.5799    68.6033    16.2142     4.6446   548.1664
  974.0000    17.6986   -20.7271    67.1261    16.3017     4.7051   521.8322
  974.5000    17.6971   -20.7234    67.1816    16.6667     4.4963   519.5655
  975.0000    17.8715   -20.8714    64.1938    17.0437     4.3518   545.1110
  975.5000    17.9958   -21.0186    62.6116    17.5716     4.3795   582.6901
  976.0000    18.1445   -21.0149    59.7659    18.0995     4.3113   621.0212
  976.5000    18.3689   -20.7116    57.9254    18.2504     4.4020   675.1418
  977.0000    18.6687   -20.4084    55.3194    18.2504     4.4247   714.2248
  977.5000    18.9734   -20.0951    53.1848    18.2504     4.4397   697.6686
  978.0000    19.4297   -19.6296    52.3867    18.1321     4.6666   626.2252
  978.5000    19.6428   -19.3478    52.4320    17.9487     4.5682   563.0526
  979.0000    19.4154   -19.1947    54.8287    17.6450     4.6740   533.7883
  979.5000    18.5856   -18.8914    58.5740    17.2194     4.7345   507.2856
  980.0000    18.1323   -19.7894    62.0343    16.6667     4.5982   517.8918
  980.5000    17.6175   -20.2376    67.7263    15.9125     4.5376   524.6439
  981.0000    17.0752   -20.0838    70.7919    15.3846     4.5300   528.3922
  981.5000    16.6219   -19.6304    72.7165    15.0075     4.7895   523.8661
  982.0000    16.3192   -19.6275    73.8973    14.7813     4.8401   542.6447
  982.5000    16.1671   -20.0750    72.4248    14.6305     4.6508   520.8254
  983.0000    16.2409   -20.4434    70.9587    14.9321     4.8021   538.1039
  983.5000    16.3148   -20.7467    70.6076    15.1584     4.9457   534.3297
  984.0000    16.3133   -20.8169    68.0376    15.3846     5.1802   523.7886
  984.5000    16.3117   -20.8132    65.8486    15.4600     5.1499   519.8873
  985.0000    16.3100   -20.6601    65.1054    15.5405     4.8472   529.7741
  985.5000    16.3087   -20.5070    65.1511    15.6863     4.6731   528.2555
  986.0000    16.3070   -20.2038    65.1964    15.6863     4.5898   526.7369
  986.5000    16.3435   -20.0130    65.2499    15.6863     4.6956   531.8935
  987.0000    16.4016   -19.8008    65.2870    15.6863     4.6833   545.6390
  987.5000    16.5285   -19.5943    65.3388    15.6863     4.8695   537.2153
  988.0000    16.6023   -19.4413    65.3833    15.6413     4.8698   544.7193
  988.5000    16.6762   -19.4074    65.4230    15.6109     4.6465   530.4188
  989.0000    16.7500   -19.2852    65.4722    15.5354     4.6044   513.1108
  989.5000    16.6732   -19.2823    68.5415    15.4600     4.8767   493.5471
  990.0000    16.5964   -19.4294    68.5801    15.2338     4.9750   476.9910
