~VERSION INFORMATION
 VERS.                2.0:   CWLS LOG ASCII STANDARD - VERSION 2.0
 WRAP.                 NO:   ONE LINE PER DEPTH STEP
~WELL INFORMATION
#MNEM.UNIT      DATA TYPE    INFORMATION
#----------   ------------   ------------------------------
 STRT.F           82.0000:   START DEPTH
 STOP.F          750.0000:   STOP DEPTH
 STEP.F            0.5000:   STEP LENGTH
 NULL.          -999.2500:   NO VALUE
 COMP. U S NAVY/INTEX OIL CO:   COMPANY
 WELL.      GOVT #18-S-35:   WELL
 FLD .             TEAPOT:   FIELD
 LOC .      S35 T39N R78W:   LOCATION
 CNTY.            NATRONA:   COUNTY
 STAT.            WYOMING:   STATE
 CTRY. UNITED STATES OF AMERICA:   COUNTRY
 SRVC. Schlumberger Well Surveying Corp:   SERVICE COMPANY
 DATE.        19-JUL-1962:   LOGDATE
 API .       490250649300:   API NUMBER
~CURVE INFORMATION
#MNEM.UNIT       API CODE    CURVE DESCRIPTION
#----------   ------------   ------------------------------
 DEPT.F                  :   
 SPR .MV     05 010 01 00:   SPONTANEOUS POTENTIAL
 ILD .OHMM   05 120 46 00:   INDUCTION LOG DEEP
 CILD.MMHO   05 110 46 00:   CONDUCTIVITY INDUCTION LOG DEEP
 ASN .OHMM   05 041 16 00:   AMPLIFIED SHORT NORMAL 16"
 NEUT.NAPI   35 330 01 00:   NEUTRON GAMMA RAY
~PARAMETER INFORMATION
#MNEM.UNIT          VALUE    DESCRIPTION
#----------   ------------   ------------------------------
 PD  .                 GL:   PERMANENT DATUM
 EPD .F              5107:   ELEVATION PERMANENT DATUM
 LMF .                 KB:   LOG MEASURED FROM
 DAPD.F                 5:   FEET ABOVE PERMANENT DATUM
 DMF .                 KB:   DRILLING MEASURED FROM
 EKB .F              5112:   KELLING BUSHING
 EGL .F              5107:   GROUND LEVEL
 DATE.            7-19-62:   RUN DATE
 RUN .                  1:   RUN NUMBER
 DD  .F               745:   DEPTH DRILLER
 DL  .F               745:   DEPTH LOGGER
 BLI .F               744:   BOTTOM LOG INTERVAL
 TLI .F                80:   TOP LOG INTERVAL
 BS  .IN             6.75:   BIT SIZE
 BSD .F               745:   BIT SIZE AT DEPTH
 DFT .       OIL EMULSION:   DRILLING FLUID TYPE
 DFD .                 10:   DRILLING FLUID DENSITY
 DFV .                 46:   DRILLING FLUID VISCOSITY
 DFL .                2.9:   DRILLING FLUID LOSS
 RMS .OHMM           3.75:   RESISTIVITY MUD SAMPLE
 MST .F                87:   MUD SAMPLE TEMPERATURE
 RMF .OHMM           2.65:   RESISTIVITY MUD FILTRATE SAMPLE
 MFST.F                87:   MUD FILTRATE SAMPLE TEMPERATURE
 RMC .OHMM           3.54:   RESISTIVITY MUD CAKE
 MCST.F                87:   MUD CAKE SAMPLE TEMPERATURE
 TCS .HRS              .5:   TIME CURCULATED STOPPED
 LUN .               2503:   LOGGING UNIT NUMBER
 LUL .             CASPER:   LOGGING UNIT LOCATION
 ENGI.             DANNER:   RECORDING ENGINEER
 WITN.          JORGENSEN:   WITNESSED BY
 CLNT.            A2DTECH:   CLIENT CODE
 ORIG.       2", 5" PRINT:   ORIGIN OF DATA
 UWI .       490250649300:   UNIQUE WELL ID
 DICO. A2D Technologies, Inc.:   DIGITIZING COMPANY
~OTHER INFORMATION
~A   DEPT      SPR          ILD      CILD         ASN     NEUT   
# ...
  387.0000   -64.7376     8.3412   112.3992     9.0657  -999.2500
  387.5000   -64.8888     8.3212   111.7965     9.1176  -999.2500
  388.0000   -64.8934     8.4163   110.5334     9.1780  -999.2500
  388.5000   -64.6703     8.5090   109.2702     9.2769  -999.2500
  389.0000   -64.3216     8.6009   108.0071     9.3768  -999.2500
  389.5000   -64.3779     8.6928   106.7439     9.4791  -999.2500
  390.0000   -64.4838     8.7846   105.4808     9.6122  -999.2500
  390.5000   -64.5877     8.8766   104.2177     9.7609  -999.2500
  391.0000   -64.7023     8.9687   102.9545     9.8577  -999.2500
  391.5000   -65.0619     9.0592   101.6914     9.8753  -999.2500
  392.0000   -65.4163     9.1161   101.3105     9.8470  -999.2500
  392.5000   -65.6941     9.0889   101.3105     9.7123  -999.2500
  393.0000   -65.4415     9.0634   101.3105     9.7265  -999.2500
  393.5000   -65.1868     9.0375   101.3105     9.7751  -999.2500
  394.0000   -64.9329     9.0118   101.3105     9.7956  -999.2500
  394.5000   -64.6810     8.9861   101.5469     9.6817  -999.2500
  395.0000   -64.5220     8.9604   102.9875     9.5663  -999.2500
  395.5000   -64.7298     8.9331   104.4281     9.5087  -999.2500
  396.0000   -64.9277     8.8497   105.8688     9.4675  -999.2500
  396.5000   -65.0768     8.7043   107.3589     9.4247  -999.2500
  397.0000   -64.9544     8.5595   109.3212     9.3159  -999.2500
  397.5000   -64.8369     8.4141   111.3517     9.2019  -999.2500
  398.0000   -64.7199     8.2688   113.3851     9.0880  -999.2500
  398.5000   -64.6028     8.1234   115.4156     8.9744  -999.2500
  399.0000   -64.4850     7.9779   117.4395     8.8596  -999.2500
  399.5000   -64.3692     7.8316   118.0596     8.7187  -999.2500
  400.0000   -64.3428     7.8402   118.6774     8.6236  -999.2500
  400.5000   -64.5943     7.8816   119.2952     8.5435  -999.2500
  401.0000   -64.8340     7.9237   118.6104     8.5993  -999.2500
  401.5000   -65.0744     7.9654   117.4707     8.6650  -999.2500
  402.0000   -65.3136     8.0055   116.3273     8.7724  -999.2500
  402.5000   -65.4973     8.0942   115.1849     8.8884  -999.2500
  403.0000   -65.4938     8.1905   114.0431     9.0046  -999.2500
  403.5000   -65.4778     8.2870   112.9013     9.1207  -999.2500
  404.0000   -65.3488     8.3834   111.7597     9.2398  -999.2500
  404.5000   -65.1225     8.4797   110.6176     9.2787  -999.2500
  405.0000   -64.8259     8.5760   109.4846     9.2981  -999.2500
  405.5000   -64.5293     8.6723   108.3538     9.2874  -999.2500
  406.0000   -64.2328     8.7688   107.2230     9.2622  -999.2500
  406.5000   -64.2025     8.8653   106.0922     9.3362  -999.2500
  407.0000   -64.4382     8.9604   105.3427     9.4183  -999.2500
  407.5000   -64.6747     9.0034   105.3427     9.4979  -999.2500
  408.0000   -64.9106     8.9479   105.3427     9.5594  -999.2500
  408.5000   -65.0835     8.8940   105.3427     9.6092  -999.2500
  409.0000   -65.0237     8.8397   105.3427     9.5686  -999.2500
  409.5000   -64.9684     8.7855   105.3427     9.5112  -999.2500
  410.0000   -64.9145     8.7313   106.2201     9.4393  -999.2500
  410.5000   -64.5583     8.6771   107.1834     9.3679  -999.2500
  411.0000   -64.0289     8.6229   108.1467     9.3021  -999.2500
  411.5000   -63.7882     8.5683   109.1099     9.2893  -999.2500
  412.0000   -63.5401     8.5194   110.0732     9.2930  -999.2500
  412.5000   -63.2921     8.5345   110.0960     9.3023  -999.2500
  413.0000   -63.0947     8.5507   109.6564     9.2828  -999.2500
  413.5000   -63.2840     8.5665   109.2240     9.2629  -999.2500
  414.0000   -63.4689     8.5821   108.7886     9.2428  -999.2500
  414.5000   -63.6562     8.5983   108.3669     9.2232  -999.2500
  415.0000   -63.5952     8.6121   106.2071     9.2282  -999.2500
  415.5000   -63.4841     8.7501   104.1043     9.3445  -999.2500
  416.0000   -63.7601     8.9408   102.0015     9.4997  -999.2500
  416.5000   -64.0712     9.1341    99.8988     9.7441  -999.2500
  417.0000   -64.0539     9.3272    97.7960     9.9939  -999.2500
  417.5000   -64.0171     9.5202    95.6932    10.3388  -999.2500
  418.0000   -63.9822     9.7132    93.5904    10.3406  -999.2500
  418.5000   -63.9474     9.9061    91.4876    10.5343  -999.2500
  419.0000   -63.9125    10.0991    89.2137    10.7287  -999.2500
  419.5000   -63.8833    10.2921    87.9672    10.9220  -999.2500
  420.0000   -63.9412    10.4848    86.6099    11.1152  -999.2500
  420.5000   -64.0029    10.6774    85.2530    11.3078  -999.2500
  421.0000   -64.0612    10.8756    83.9137    11.5013  -999.2500
  421.5000   -63.9238    11.0964    81.9136    11.7235  -999.2500
  422.0000   -63.5763    11.4451    79.1997    12.0687  -999.2500
  422.5000   -63.2898    11.7909    76.4858    12.4041  -999.2500
  423.0000   -63.4410    12.1386    73.7632    12.7398  -999.2500
  423.5000   -63.5854    12.4848    71.0729    13.0760  -999.2500
  424.0000   -63.7284    12.7567    70.5003    13.4104  -999.2500
  424.5000   -63.8714    12.8150    69.9518    13.6665  -999.2500
  425.0000   -64.0148    12.8893    69.3944    13.7058  -999.2500
  425.5000   -64.4234    12.9509    68.8371    13.7474  -999.2500
  426.0000   -65.0660    12.9086    68.2798    13.9473  -999.2500
  426.5000   -65.0300    12.8705    68.9026    13.7373  -999.2500
  427.0000   -64.9582    12.6351    70.5530    13.3577  -999.2500
  427.5000   -64.8898    12.2828    72.7823    12.9727  -999.2500
  428.0000   -64.8221    11.9271    75.0115    12.5917  -999.2500
  428.5000   -64.7543    11.5763    76.5750    12.5494  -999.2500
  429.0000   -64.6866    11.3318    77.4929    12.5227  -999.2500
  429.5000   -64.6191    11.2941    78.4108    12.3324  -999.2500
  430.0000   -64.5531    11.2521    79.2498    12.1497  -999.2500
  430.5000   -64.4765    11.2113    79.7973    12.0891  -999.2500
  431.0000   -64.1821    11.1703    80.3474    12.0335  -999.2500
  431.5000   -63.8883    11.1292    80.8896    11.9774  -999.2500
  432.0000   -63.5962    11.0880    81.0521    11.9212  -999.2500
  432.5000   -63.3040    11.0451    80.8542    11.8649  -999.2500
  433.0000   -63.0109    11.0754    80.6616    11.8084  -999.2500
  433.5000   -62.7121    11.1227    80.4689    11.7501  -999.2500
  434.0000   -62.8637    11.1700    80.2742    11.8068  -999.2500
  434.5000   -63.0875    11.2175    80.3544    11.8818  -999.2500
  435.0000   -63.2844    11.1925    81.0781    11.9480  -999.2500
  435.5000   -63.2149    11.1035    81.8016    11.9191  -999.2500
  436.0000   -63.1420    11.0137    82.5241    11.7437  -999.2500
  436.5000   -63.0979    10.9240    83.2465    11.5698  -999.2500
  437.0000   -63.5143    10.8347    83.9690    11.3951  -999.2500
  437.5000   -63.6449    10.7442    84.6914    11.3014  -999.2500
  438.0000   -63.7750    10.5632    85.6500    11.2435  -999.2500
  438.5000   -63.8860    10.3709    87.1065    11.1859  -999.2500
  439.0000   -63.8637    10.1798    88.5629    11.1281  -999.2500
  439.5000   -63.8425    10.0244    90.0193    11.0704  -999.2500
  440.0000   -63.8217     9.9637    91.4758    11.0126  -999.2500
  440.5000   -63.8010     9.8984    92.5631    10.9564  -999.2500
  441.0000   -63.7802     9.8334    93.2453    10.8048  -999.2500
  441.5000   -63.7594     9.7684    93.9275    10.6156  -999.2500
  442.0000   -63.7387     9.7034    94.6097    10.4896  -999.2500
  442.5000   -63.7183     9.6384    95.2918    10.4081  -999.2500
  443.0000   -63.6972     9.5733    95.9740    10.3279  -999.2500
  443.5000   -63.6467     9.5083    96.6562    10.2478  -999.2500
  444.0000   -63.4929     9.4409    97.3384    10.1675  -999.2500
  444.5000   -63.3447     9.4189    98.0206    10.0874  -999.2500
  445.0000   -63.1963     9.4097    98.7027    10.0065  -999.2500
  445.5000   -63.0477     9.4010    99.3849     9.9437  -999.2500
  446.0000   -62.8993     9.3920   100.0671     9.9154  -999.2500
  446.5000   -62.8417     9.3830   100.0959     9.8629  -999.2500
  447.0000   -62.8003     9.3741    99.7807     9.8397  -999.2500
  447.5000   -62.7588     9.3651    99.4654     9.8294  -999.2500
