~VERSION INFORMATION
 VERS.                2.0:   CWLS LOG ASCII STANDARD - VERSION 2.0
 WRAP.                 NO:   ONE LINE PER DEPTH STEP
~WELL INFORMATION
#MNEM.UNIT      DATA TYPE    INFORMATION
#----------   ------------   ------------------------------
 STRT.F           19.5000:   START DEPTH
 STOP.F         1292.5000:   STOP DEPTH
 STEP.F            0.5000:   STEP LENGTH
 NULL.          -999.2500:   NO VALUE
 COMP. FENIX & SCISSON INC:   COMPANY
 WELL.  NPR-3 "SX" #74-14:   WELL
 FLD .             TEAPOT:   FIELD
 LOC .      S14 T38N R78W:   LOCATION
 CNTY.            NATRONA:   COUNTY
 STAT.            WYOMING:   STATE
 CTRY. UNITED STATES OF AMERICA:   COUNTRY
 SRVC.            Unknown:   SERVICE COMPANY
 DATE.        22-MAR-1978:   LOGDATE
 API .       490251060300:   API NUMBER
~CURVE INFORMATION
#MNEM.UNIT       API CODE    CURVE DESCRIPTION
#----------   ------------   ------------------------------
 DEPT.F                  :   
 SPR .MV     05 010 01 00:   SPONTANEOUS POTENTIAL
 SN  .OHMM   05 040 16 00:   SHORT NORMAL 16'
 ILD .OHMM   05 120 46 00:   INDUCTION LOG DEEP
 CALD.IN     45 280 60 00:   CALIPER
 GRD .GAPI   45 310 01 00:   GAMMA RAY FROM DENSITY LOG
 CORR.G/C3   45 356 01 00:   DENSITY CORRECTION
 RHOB.G/C3   45 350 01 00:   BULK DENSITY
 DPHI.DEC    45 890 12 00:   DENSITY POROSITY SANDSTONE
~PARAMETER INFORMATION
#MNEM.UNIT          VALUE    DESCRIPTION
#----------   ------------   ------------------------------
 PD  .                 GL:   PERMANENT DATUM
 EPD .F              5312:   ELEVATION PERMANENT DATUM
 LMF .                 KB:   LOG MEASURED FROM
 DMF .                 KB:   DRILLING MEASURED FROM
 EKB .F              5316:   KELLING BUSHING
 EGL .F              5312:   GROUND LEVEL
 DATE.          3-22-1978:   RUN DATE
 RUN .                  1:   RUN NUMBER
 DD  .F              1280:   DEPTH DRILLER
 DL  .F              1292:   DEPTH LOGGER
 BLI .F              1286:   BOTTOM LOG INTERVAL
 TLI .F                50:   TOP LOG INTERVAL
 CS  .IN            8.625:   CASING SIZE
 CBD .F                50:   CASING BOTTOM DRILLER
 CBL .F                50:   CASING BOTTOM LOGGER
 BS  .IN            7.875:   BIT SIZE
 BSD .F              1280:   BIT SIZE AT DEPTH
 DFT .                KCL:   DRILLING FLUID TYPE
 DFD .                8.6:   DRILLING FLUID DENSITY
 DFV .                 31:   DRILLING FLUID VISCOSITY
 DFPH.               10.5:   DRILLING FLUID PH
 DFL .               11.6:   DRILLING FLUID LOSS
 MSS .            MUD PIT:   MUD SAMPLE SOURCE
 RMS .OHMM            .38:   RESISTIVITY MUD SAMPLE
 MST .F                52:   MUD SAMPLE TEMPERATURE
 RMF .OHMM            .32:   RESISTIVITY MUD FILTRATE SAMPLE
 MFST.F                66:   MUD FILTRATE SAMPLE TEMPERATURE
 RMC .OHMM             .4:   RESISTIVITY MUD CAKE
 MCST.F                68:   MUD CAKE SAMPLE TEMPERATURE
 MFSS.           MEASURED:   MUD FILTRATE SAMPLE SOURCE
 RMB .OHMM            .24:   RESISTIVITY MUD AT BHT
 BHT .F                82:   BOTTOM HOLE TEMPERATURE
 TCS .HRS               4:   TIME CURCULATED STOPPED
 MRT .F                82:   MAXIMUM RECORDED TEMPERATURE
 LUN .               2958:   LOGGING UNIT NUMBER
 LUL .               CASP:   LOGGING UNIT LOCATION
 ENGI.            POINTER:   RECORDING ENGINEER
 WITN.           MCGINLEY:   WITNESSED BY
 CLNT.            A2DTECH:   CLIENT CODE
 ORIG.        2" 5" PRINT:   ORIGIN OF DATA
 UWI .       490251060300:   UNIQUE WELL ID
 DICO. A2D Technologies, Inc.:   DIGITIZING COMPANY
~OTHER INFORMATION
~A   DEPT      SPR         SN        ILD       CALD         GRD      CORR       RHOB       DPHI   
# ...
   60.0000   -53.4877  -999.2500  -999.2500     8.1964    84.8220     0.0326     2.4017     0.1433
   60.5000   -53.6609  -999.2500  -999.2500     8.1974    86.8892     0.0320     2.3943     0.1461
   61.0000   -53.9803  -999.2500  -999.2500     8.1983    85.5335     0.0314     2.3869     0.1493
   61.5000   -54.3171  -999.2500  -999.2500     8.1992    83.4046     0.0309     2.3796     0.1525
   62.0000   -55.1617  -999.2500  -999.2500     8.2001    79.4223     0.0303     2.3728     0.1557
   62.5000   -55.3211  -999.2500  -999.2500     8.2011    81.0954     0.0297     2.3712     0.1589
   63.0000   -55.3722  -999.2500  -999.2500     8.2020    84.5331     0.0292     2.3654     0.1601
   63.5000   -55.4191  -999.2500  -999.2500     8.2029    86.6117     0.0286     2.3592     0.1601
   64.0000   -55.4573  -999.2500  -999.2500     8.2038    86.8465     0.0280     2.3569     0.1601
   64.5000   -55.8318  -999.2500  -999.2500     8.2048    87.0526     0.0275     2.3606     0.1588
   65.0000   -56.2751  -999.2500  -999.2500     8.2057    88.3979     0.0269     2.3644     0.1567
   65.5000   -56.5445  -999.2500  -999.2500     8.2066    89.7783     0.0263     2.3682     0.1545
   66.0000   -56.6587  -999.2500  -999.2500     8.2075    86.7273     0.0259     2.3707     0.1549
   66.5000   -56.0022  -999.2500  -999.2500     8.2085    85.3668     0.0246     2.3704     0.1554
   67.0000   -55.4241  -999.2500  -999.2500     8.2094    85.3607     0.0195     2.3702     0.1553
   67.5000   -55.2677  -999.2500  -999.2500     8.2103    86.4758     0.0146     2.3699     0.1541
   68.0000   -55.1056  -999.2500  -999.2500     8.2112    95.0011     0.0137     2.3669     0.1591
   68.5000   -54.9384  -999.2500  -999.2500     8.2121    93.3028     0.0133     2.3606     0.1614
   69.0000   -54.7898  -999.2500  -999.2500     8.2131    89.8169     0.0130     2.3558     0.1600
   69.5000   -54.3354  -999.2500  -999.2500     8.2140    87.6294     0.0126     2.3618     0.1587
   70.0000   -53.8976  -999.2500  -999.2500     8.2149    87.7360     0.0123     2.3675     0.1573
   70.5000   -53.8811  -999.2500  -999.2500     8.2158    89.1484     0.0117     2.3655     0.1573
   71.0000   -53.8831  -999.2500  -999.2500     8.2168    90.7045     0.0098     2.3627     0.1573
   71.5000   -53.8867  -999.2500  -999.2500     8.2177    93.0866     0.0079     2.3616     0.1573
   72.0000   -53.9701  -999.2500  -999.2500     8.2224    95.4801     0.0061     2.3645     0.1567
   72.5000   -54.2868  -999.2500  -999.2500     8.2276    91.2960     0.0042     2.3672     0.1559
   73.0000   -54.5933  -999.2500  -999.2500     8.2329    86.5669     0.0052     2.3697     0.1563
   73.5000   -54.8755  -999.2500  -999.2500     8.2381    84.3110     0.0065     2.3680     0.1562
   74.0000   -54.8820  -999.2500  -999.2500     8.2434    84.2958     0.0078     2.3663     0.1555
   74.5000   -54.8807  -999.2500  -999.2500     8.2486    81.6159     0.0091     2.3673     0.1549
   75.0000   -54.8803  -999.2500  -999.2500     8.2539    83.4971     0.0105     2.3698     0.1542
   75.5000   -54.8804  -999.2500  -999.2500     8.2591    87.1255     0.0118     2.3698     0.1569
   76.0000   -54.8818  -999.2500  -999.2500     8.2644    89.7521     0.0131     2.3680     0.1551
   76.5000   -54.9788  -999.2500  -999.2500     8.2696    90.8707     0.0147     2.3708     0.1528
   77.0000   -55.2700     5.6735     5.6928     8.2749    90.8862     0.0166     2.3748     0.1505
   77.5000   -55.5599     5.5523     5.6556     8.2746    90.5745     0.0170     2.3787     0.1482
   78.0000   -55.8408     5.6388     5.7790     8.2701    88.7963     0.0132     2.3804     0.1459
   78.5000   -55.4968     5.7494     5.8636     8.2655    93.0710     0.0100     2.3790     0.1514
   79.0000   -55.0693     5.8130     5.9200     8.2609    93.4639     0.0112     2.3728     0.1543
   79.5000   -54.6367     5.7085     6.0021     8.2563    94.2567     0.0126     2.3609     0.1532
   80.0000   -54.4475     5.7825     6.0829     8.2517    95.2681     0.0140     2.3638     0.1521
   80.5000   -54.3886     5.9594     6.2021     8.2471    91.7168     0.0154     2.3688     0.1513
   81.0000   -54.3303     6.1420     6.3236     8.2425    89.0060     0.0143     2.3708     0.1507
   81.5000   -54.2211     6.2595     6.3819     8.2379    84.3805     0.0121     2.3722     0.1501
   82.0000   -53.8537     6.2204     6.4181     8.2333    83.6850     0.0135     2.3736     0.1481
   82.5000   -53.5437     6.1802     6.4543     8.2287    83.8846     0.0148     2.3758     0.1460
   83.0000   -53.2842     6.1449     6.4942     8.2241    85.2158     0.0168     2.3833     0.1431
   83.5000   -53.0244     6.2203     6.5454     8.2195    88.8501     0.0239     2.3889     0.1367
   84.0000   -52.8896     6.3285     6.6023     8.2193    90.7584     0.0310     2.3977     0.1284
   84.5000   -52.8893     6.4386     6.6595     8.2216    87.7254     0.0288     2.4100     0.1206
   85.0000   -52.8893     6.5506     6.7171     8.2239    85.8782     0.0253     2.4213     0.1282
   85.5000   -52.8839     6.6153     6.7442     8.2262    88.0408     0.0240     2.4187     0.1289
   86.0000   -52.7462     6.6409     6.7696     8.2285    86.9370     0.0239     2.4157     0.1292
   86.5000   -52.6071     6.6766     6.8008     8.2308    84.7164     0.0239     2.4128     0.1294
   87.0000   -52.4839     6.6697     6.7863     8.2331    87.3648     0.0223     2.4099     0.1287
   87.5000   -52.3852     6.6512     6.7613     8.2354    89.9959     0.0194     2.4070     0.1317
   88.0000   -52.2809     6.6328     6.7363     8.2377    89.2400     0.0165     2.4041     0.1351
   88.5000   -52.7090     6.6144     6.7115     8.2400    87.8878     0.0142     2.4032     0.1337
   89.0000   -53.2725     6.5961     6.6867     8.2423    85.4736     0.0163     2.4040     0.1342
   89.5000   -53.6944     6.5778     6.6621     8.2446    78.5050     0.0185     2.4038     0.1360
   90.0000   -53.6918     6.5596     6.6375     8.2469    77.7007     0.0228     2.3999     0.1357
   90.5000   -53.2995     6.5415     6.6131     8.2493    81.0310     0.0325     2.3993     0.1312
   91.0000   -52.7118     6.5234     6.5895     8.2515    84.1028     0.0337     2.4074     0.1277
   91.5000   -52.5817     6.5053     6.5559     8.2539    81.4713     0.0341     2.4144     0.1289
   92.0000   -52.7977     6.4944     6.6176     8.2562    79.0002     0.0292     2.4141     0.1303
   92.5000   -52.8177     6.4944     6.6153     8.2630    83.6672     0.0233     2.4139     0.1326
   93.0000   -52.6290     6.4944     6.6153     8.2753    87.8473     0.0220     2.4092     0.1349
   93.5000   -52.4415     6.4944     6.6153     8.2875    87.8932     0.0219     2.4035     0.1369
   94.0000   -52.2528     6.4602     6.6037     8.2998    86.8754     0.0214     2.4016     0.1325
   94.5000   -52.0632     6.4136     6.5912     8.3120    90.2369     0.0209     2.4032     0.1360
   95.0000   -51.9018     6.3673     6.5788     8.3244    90.8738     0.0203     2.4046     0.1353
   95.5000   -52.0765     6.3214     6.5664     8.3362    90.9048     0.0193     2.4025     0.1328
   96.0000   -52.2513     6.2758     6.5547     8.3327    91.3931     0.0168     2.4027     0.1309
   96.5000   -52.4257     6.2593     6.5546     8.3285    94.1866     0.0143     2.4071     0.1361
   97.0000   -52.4893     6.2811     6.5546     8.3244    95.0360     0.0117     2.4046     0.1388
   97.5000   -52.4900     6.2989     6.5545     8.3203    94.8207     0.0092     2.4010     0.1411
   98.0000   -52.4902     6.3168     6.5545     8.3163    94.5706     0.0067     2.3980     0.1434
   98.5000   -52.4901     6.3347     6.5543     8.3122    93.4286     0.0042     2.3962     0.1452
   99.0000   -52.4900     6.3526     6.5609     8.3081    87.7089     0.0021     2.3943     0.1445
   99.5000   -52.4900     6.3706     6.6082     8.3041    85.2909     0.0032     2.3915     0.1474
  100.0000   -52.4894     6.4209     6.6557     8.2998    87.7467     0.0044     2.3828     0.1482
