~VERSION INFORMATION
 VERS.                2.0:   CWLS LOG ASCII STANDARD - VERSION 2.0
 WRAP.                 NO:   ONE LINE PER DEPTH STEP
~WELL INFORMATION
#MNEM.UNIT      DATA TYPE    INFORMATION
#----------   ------------   ------------------------------
 STRT.F            8.0000:   START DEPTH
 STOP.F          664.0000:   STOP DEPTH
 STEP.F            0.5000:   STEP LENGTH
 NULL.          -999.2500:   NO VALUE
 COMP. LAWRENCE/ALLISON INC:   COMPANY
 WELL.    13-61 SX #11-11:   WELL
 FLD .             TEAPOT:   FIELD
 LOC .      S11 T38N R78W:   LOCATION
 CNTY.            NATRONA:   COUNTY
 STAT.            WYOMING:   STATE
 CTRY. UNITED STATES OF AMERICA:   COUNTRY
 SRVC.           Gearhart:   SERVICE COMPANY
 DATE.        22-JUN-1986:   LOGDATE
 API .       490251109700:   API NUMBER
~CURVE INFORMATION
#MNEM.UNIT       API CODE    CURVE DESCRIPTION
#----------   ------------   ------------------------------
 DEPT.F                  :   
 GRR .GAPI   07 310 01 00:   GAMMA RAY FROM RES. LOG.
 ILM .OHMM   07 120 44 00:   INDUCTION LOG MEDIUM
 ILD .OHMM   07 120 46 00:   INDUCTION LOG DEEP
~PARAMETER INFORMATION
#MNEM.UNIT          VALUE    DESCRIPTION
#----------   ------------   ------------------------------
 PD  .                 GL:   PERMANENT DATUM
 EPD .F              5154:   ELEVATION PERMANENT DATUM
 LMF .                 KB:   LOG MEASURED FROM
 DAPD.F                 5:   FEET ABOVE PERMANENT DATUM
 DMF .                 KB:   DRILLING MEASURED FROM
 EKB .F              5159:   KELLING BUSHING
 EGL .F              5154:   GROUND LEVEL
 DATE.            6-22-86:   RUN DATE
 RUN .                  1:   RUN NUMBER
 DD  .F               675:   DEPTH DRILLER
 DL  .F               673:   DEPTH LOGGER
 BLI .F               664:   BOTTOM LOG INTERVAL
 CS  .IN            8.625:   CASING SIZE
 CBD .F                44:   CASING BOTTOM DRILLER
 CBL .F                46:   CASING BOTTOM LOGGER
 BS  .IN            7.875:   BIT SIZE
 BSD .F               675:   BIT SIZE AT DEPTH
 DFT .                AIR:   DRILLING FLUID TYPE
 TCS .HRS            1830:   TIME CURCULATED STOPPED
 MRT .F                69:   MAXIMUM RECORDED TEMPERATURE
 LUN .               7609:   LOGGING UNIT NUMBER
 LUL .           GILLETTE:   LOGGING UNIT LOCATION
 ENGI.            WANGLER:   RECORDING ENGINEER
 WITN.              DAVIS:   WITNESSED BY
 CLNT.            A2DTECH:   CLIENT CODE
 ORIG.       2", 5" PRINT:   ORIGIN OF DATA
 UWI .       490251109700:   UNIQUE WELL ID
 DICO. A2D Technologies, Inc.:   DIGITIZING COMPANY
~OTHER INFORMATION
~A    DEPT      GRR       ILM        ILD   
    8.0000    80.0628  -999.2500  -999.2500
    8.5000    80.3681  -999.2500  -999.2500
    9.0000    79.5894  -999.2500  -999.2500
    9.5000    77.7981  -999.2500  -999.2500
   10.0000    75.9269  -999.2500  -999.2500
   10.5000    76.7977  -999.2500  -999.2500
   11.0000    78.0708  -999.2500  -999.2500
   11.5000    79.3476  -999.2500  -999.2500
   12.0000    80.6351  -999.2500  -999.2500
   12.5000    80.8259  -999.2500  -999.2500
   13.0000    80.2391  -999.2500  -999.2500
   13.5000    78.1252  -999.2500  -999.2500
   14.0000    77.7096  -999.2500  -999.2500
   14.5000    78.0661  -999.2500  -999.2500
   15.0000    76.5301  -999.2500  -999.2500
   15.5000    75.0257  -999.2500  -999.2500
   16.0000    73.5163  -999.2500  -999.2500
   16.5000    72.0001  -999.2500  -999.2500
   17.0000    70.6143  -999.2500  -999.2500
   17.5000    71.3861  -999.2500  -999.2500
   18.0000    72.2264  -999.2500  -999.2500
   18.5000    72.9824  -999.2500  -999.2500
   19.0000    72.6947  -999.2500  -999.2500
   19.5000    73.1893  -999.2500  -999.2500
   20.0000    73.7308  -999.2500  -999.2500
   20.5000    73.2315  -999.2500  -999.2500
   21.0000    72.2905  -999.2500  -999.2500
   21.5000    70.7952  -999.2500  -999.2500
   22.0000    69.3008  -999.2500  -999.2500
   22.5000    67.7653  -999.2500  -999.2500
   23.0000    69.0239  -999.2500  -999.2500
   23.5000    71.6097  -999.2500  -999.2500
   24.0000    73.1749  -999.2500  -999.2500
   24.5000    71.2019  -999.2500  -999.2500
   25.0000    68.7821  -999.2500  -999.2500
   25.5000    66.3207  -999.2500  -999.2500
   26.0000    65.1221  -999.2500  -999.2500
   26.5000    64.8497  -999.2500  -999.2500
   27.0000    65.2769  -999.2500  -999.2500
   27.5000    67.8397  -999.2500  -999.2500
   28.0000    70.4675  -999.2500  -999.2500
   28.5000    70.5437  -999.2500  -999.2500
   29.0000    69.3477  -999.2500  -999.2500
   29.5000    69.7822  -999.2500  -999.2500
   30.0000    71.9620  -999.2500  -999.2500
   30.5000    74.1719  -999.2500  -999.2500
   31.0000    75.4957  -999.2500  -999.2500
   31.5000    74.1409  -999.2500  -999.2500
   32.0000    71.8193  -999.2500  -999.2500
   32.5000    68.2626  -999.2500  -999.2500
   33.0000    65.5568  -999.2500  -999.2500
   33.5000    67.3620  -999.2500  -999.2500
   34.0000    69.9278  -999.2500  -999.2500
   34.5000    72.4453  -999.2500  -999.2500
   35.0000    71.7201  -999.2500  -999.2500
   35.5000    70.5426  -999.2500  -999.2500
   36.0000    71.3222  -999.2500  -999.2500
   36.5000    74.3577  -999.2500  -999.2500
   37.0000    75.9565  -999.2500  -999.2500
   37.5000    76.3832  -999.2500  -999.2500
   38.0000    76.8008  -999.2500  -999.2500
   38.5000    77.1075  -999.2500  -999.2500
   39.0000    76.2090  -999.2500  -999.2500
   39.5000    74.5499  -999.2500  -999.2500
   40.0000    74.1093  -999.2500  -999.2500
   40.5000    74.6901  -999.2500  -999.2500
   41.0000    77.8424  -999.2500  -999.2500
   41.5000    80.7799  -999.2500  -999.2500
   42.0000    81.6875  -999.2500  -999.2500
   42.5000    82.3339  -999.2500  -999.2500
   43.0000    82.9982  -999.2500  -999.2500
   43.5000    81.7210  -999.2500  -999.2500
   44.0000    79.2742  -999.2500  -999.2500
   44.5000    76.7596  -999.2500  -999.2500
   45.0000    76.1156  -999.2500  -999.2500
   45.5000    79.7356  -999.2500  -999.2500
   46.0000    85.8784   631.7122    11.5729
   46.5000    94.8185   523.3633     6.5788
   47.0000   103.6896   271.2205     5.0817
   47.5000   105.6667   108.2795     4.7281
   48.0000   104.6736    11.7710     4.1173
   48.5000   103.4437     6.6993     3.9281
   49.0000   104.2585     5.7229     4.1857
   49.5000   106.3508     5.1603     4.8413
   50.0000   108.6158     4.9232     5.8476
   50.5000   111.2564     5.1700     7.0630
   51.0000   111.3752     5.7022     8.5310
   51.5000   107.6537     6.5534     9.0745
   52.0000   103.5464     7.5317     8.7755
   52.5000   100.6752     7.8064     8.4934
   53.0000   100.9525     7.7734     8.2315
   53.5000   102.5879     7.6816     8.0675
   54.0000   104.1882     7.5909     7.9034
   54.5000   105.7641     7.5013     7.7927
   55.0000   109.1064     7.4127     7.7138
   55.5000   112.9036     7.3779     7.6375
   56.0000   114.0548     7.4541     7.5584
   56.5000   110.5182     7.5181     7.5217
   57.0000   106.4052     7.5111     7.5865
   57.5000   103.8139     7.5030     7.5700
   58.0000   104.9715     7.4946     7.5615
   58.5000   108.5106     7.4863     7.5529
   59.0000   112.2463     7.4780     7.5444
   59.5000   115.9604     7.4698     7.5359
   60.0000   116.0127     7.4615     7.5273
   60.5000   115.5674     7.4534     7.5188
   61.0000   113.9442     7.4450     7.5103
   61.5000   109.8917     7.4363     7.5018
   62.0000   105.5454     7.4277     7.4934
   62.5000   102.1798     7.4191     7.4849
   63.0000   101.9812     7.4105     7.4764
   63.5000   103.7557     7.4019     7.4680
   64.0000   106.0272     7.3933     7.4595
   64.5000   106.6720     7.3848     7.4482
   65.0000   106.2590     7.3778     7.4559
   65.5000   104.2603     7.3780     7.4694
   66.0000   102.2216     7.3779     7.4830
   66.5000   105.5631     7.3778     7.4969
   67.0000   109.0920     7.3793     7.5176
   67.5000   112.6088     7.2869     7.4676
   68.0000   112.7254     7.2014     7.3595
   68.5000   112.2998     7.1163     7.2518
   69.0000   111.7013     7.0323     7.1457
   69.5000   108.4569     6.9493     7.0411
   70.0000   104.6651     6.8672     6.9380
   70.5000   103.3830     6.7861     6.7790
   71.0000   105.8369     6.7060     6.7581
   71.5000   109.3793     6.6268     6.7290
   72.0000   108.3097     6.5486     6.7000
   72.5000   105.5811     6.5118     6.6711
   73.0000   103.2945     6.4892     6.6424
   73.5000   105.6716     6.4666     6.6137
   74.0000   109.2247     6.4442     6.5852
   74.5000   112.8126     6.4218     6.5569
   75.0000   114.7261     6.3996     6.5286
   75.5000   115.9297     6.3773     6.5005
   76.0000   115.5693     6.3469     6.4675
   76.5000   115.2766     6.4168     6.5540
   77.0000   113.9140     6.5305     6.6609
   77.5000   109.9573     6.6461     6.7695
   78.0000   102.4801     6.7639     6.8798
   78.5000    99.6640     6.8837     6.9920
   79.0000    99.1938     7.0056     7.1060
   79.5000   102.9252     7.1297     7.2219
   80.0000   106.2137     7.2560     7.3401
   80.5000   108.1504     7.4477     7.5174
   81.0000   108.8091     7.4224     7.4935
   81.5000   109.1244     7.3736     7.4426
   82.0000   109.4282     7.3252     7.3931
   82.5000   109.7254     7.2769     7.3439
   83.0000   110.9019     7.2291     7.2951
   83.5000   112.3246     7.1815     7.2466
   84.0000   113.1916     7.1343     7.1985
   84.5000   111.0704     7.0874     7.1506
   85.0000   108.9828     7.0408     7.1031
   85.5000   107.0191     6.9945     7.0559
   86.0000   107.2162     6.9485     7.0090
   86.5000   109.0097     6.9028     6.9730
   87.0000   111.6139     6.8574     6.9730
   87.5000   114.2701     6.8123     6.9730
   88.0000   115.3913     6.7790     6.9730
   88.5000   112.4088     6.9091     7.0085
   89.0000   110.1893     7.0342     7.1430
   89.5000   110.8938     7.1616     7.2800
   90.0000   113.7633     7.2913     7.4197
   90.5000   114.4332     7.4233     7.5621
   91.0000   114.9826     7.5578     7.7071
   91.5000   116.2538     7.6947     7.8550
   92.0000   117.8205     7.8340     8.0057
   92.5000   117.5888     7.9547     8.1057
   93.0000   115.0735     7.9547     8.1057
   93.5000   111.9694     7.9547     8.1057
   94.0000   107.8493     7.9547     8.1057
   94.5000   102.5072     7.8791     8.0267
   95.0000   100.3722     7.7515     7.8933
   95.5000   104.4024     7.6259     7.7620
   96.0000   109.8680     7.5024     7.6329
   96.5000   113.7769     7.3809     7.5060
   97.0000   116.6045     7.2613     7.3812
   97.5000   115.3753     7.1726     7.2581
   98.0000   114.3483     7.1468     7.2136
   98.5000   114.7377     7.0389     7.1818
