~VERSION INFORMATION
 VERS.                2.0:   CWLS LOG ASCII STANDARD - VERSION 2.0
 WRAP.                 NO:   ONE LINE PER DEPTH STEP
~WELL INFORMATION
#MNEM.UNIT      DATA TYPE    INFORMATION
#----------   ------------   ------------------------------
 STRT.F           80.0000:   START DEPTH
 STOP.F          660.0000:   STOP DEPTH
 STEP.F            0.5000:   STEP LENGTH
 NULL.          -999.2500:   NO VALUE
 COMP. U S NAVY-INTEX OIL:   COMPANY
 WELL.    NPR #3 #34 S-11:   WELL
 FLD .             TEAPOT:   FIELD
 LOC .      S11 T38N R78W:   LOCATION
 CNTY.            NATRONA:   COUNTY
 STAT.            WYOMING:   STATE
 CTRY. UNITED STATES OF AMERICA:   COUNTRY
 SRVC.       Schlumberger:   SERVICE COMPANY
 DATE.        10-JUL-1962:   LOGDATE
 API .       490250635000:   API NUMBER
~CURVE INFORMATION
#MNEM.UNIT       API CODE    CURVE DESCRIPTION
#----------   ------------   ------------------------------
 DEPT.F                  :   
 SPR .MV     05 010 01 00:   SPONTANEOUS POTENTIAL FROM RES.
 ASN .OHMM   05 041 16 00:   AMPLIFIED SHORT NORMAL 16"
 ILD .OHMM   05 120 46 00:   INDUCTION LOG DEEP
 GR  .GAPI   30 310 01 00:   GAMMA RAY
 CALM.IN     15 280 01 00:   CALIPER FROM MICRO LOG
 CILD.MMHO   05 110 46 00:   CONDUCTIVITY INDUCTION LOG DEEP
~PARAMETER INFORMATION
#MNEM.UNIT          VALUE    DESCRIPTION
#----------   ------------   ------------------------------
 CLNT.            A2DTECH:   CLIENT CODE
 UWI .       490250635000:   UNIQUE WELL ID
 DICO. A2D Technologies, Inc.:   DIGITIZING COMPANY
~OTHER INFORMATION
~A   DEPT      SPR        ASN        ILD         GR       CALM        CILD  
# ...
  236.0000   -67.3210     8.4539     7.7334  -999.2500  -999.2500   120.8347
  236.5000   -67.3195     8.4988     7.8061  -999.2500  -999.2500   120.9178
  237.0000   -67.4709     8.5589     7.8780  -999.2500  -999.2500   120.2147
  237.5000   -67.4694     8.6494     8.0244  -999.2500  -999.2500   119.5282
  238.0000   -67.4679     8.7550     8.0207  -999.2500  -999.2500   118.1024
  238.5000   -67.4664     8.8758     8.0934  -999.2500  -999.2500   116.6658
  239.0000   -67.4645     9.0118     8.1653  -999.2500  -999.2500   114.4732
  239.5000   -67.4630     9.1629     8.3126  -999.2500  -999.2500   112.2807
  240.0000   -67.6144     9.3141     8.3844  -999.2500  -999.2500   110.7428
  240.5000   -67.6129     9.4045     8.4553  -999.2500  -999.2500   108.6486
  241.0000   -67.4585     9.4798     8.6027  -999.2500  -999.2500   107.9621
  241.5000   -67.3041     9.5854     8.6745  -999.2500  -999.2500   106.5226
  242.0000   -66.9968     9.7062     8.7463  -999.2500  -999.2500   105.0997
  242.5000   -66.8424     9.8285     8.9073  -999.2500  -999.2500   102.9071
  243.0000   -66.6880     9.9782     9.0401  -999.2500  -999.2500   100.7146
  243.5000   -66.5339    10.1899     9.1884  -999.2500  -999.2500    98.5221
  244.0000   -66.6850    10.3411     9.3348  -999.2500  -999.2500    96.3295
  244.5000   -66.8364    10.5681     9.5577  -999.2500  -999.2500    94.1370
  245.0000   -66.8349    10.5675     9.6295  -999.2500  -999.2500    92.6957
  245.5000   -66.8333    10.5669     9.7023  -999.2500  -999.2500    92.7639
  246.0000   -66.9848    10.5663     9.6976  -999.2500  -999.2500    93.5844
  246.5000   -66.9829    10.7174     9.6939  -999.2500  -999.2500    93.7497
  247.0000   -66.9814    10.7927     9.6147  -999.2500  -999.2500    95.2834
  247.5000   -66.9799    10.5632     9.5355  -999.2500  -999.2500    96.4816
  248.0000   -66.9784    10.3302     9.3787  -999.2500  -999.2500    97.7429
  248.5000   -66.9769    10.1839     9.2258  -999.2500  -999.2500    99.2861
  249.0000   -67.1283    10.1832     9.1465  -999.2500  -999.2500   101.5823
  249.5000   -67.4329    10.2586     8.9910  -999.2500  -999.2500   103.1255
  250.0000   -67.5843    10.2295     8.9973  -999.2500  -999.2500   103.1627
  250.5000   -67.4827    10.1420     9.1080  -999.2500  -999.2500   103.1998
  251.0000   -67.2814    10.0545     9.1315  -999.2500  -999.2500   100.8984
  251.5000   -67.1300    10.0134     9.1276  -999.2500  -999.2500    98.7560
  252.0000   -66.9786    10.0126     9.1239  -999.2500  -999.2500   100.3085
  252.5000   -66.9801     9.9362     9.1193  -999.2500  -999.2500   102.6047
  253.0000   -66.9817     9.7838     8.9645  -999.2500  -999.2500   104.1479
  253.5000   -66.9832     9.9199     8.9608  -999.2500  -999.2500   104.9381
  254.0000   -66.9847     9.7978     8.8815  -999.2500  -999.2500   106.4812
  254.5000   -66.8333     9.7061     8.7267  -999.2500  -999.2500   107.2714
  255.0000   -66.8352     9.6297     8.5719  -999.2500  -999.2500   108.0616
  255.5000   -66.8367     9.5835     8.5682  -999.2500  -999.2500   109.6047
  256.0000   -66.8382     9.5678     8.4889  -999.2500  -999.2500   110.3949
  256.5000   -66.9926     9.5672     8.5607  -999.2500  -999.2500   110.4321
  257.0000   -66.9941     9.6121     8.5570  -999.2500  -999.2500   110.4692
  257.5000   -66.9956     9.7329     8.7043  -999.2500  -999.2500   109.7534
  258.0000   -66.9971     9.8992     8.8526  -999.2500  -999.2500   107.5315
  258.5000   -66.9986    10.0047     9.1509  -999.2500  -999.2500   103.0506
  259.0000   -66.8469    10.8387     9.5239  -999.2500  -999.2500    99.3227
  259.5000   -66.5429    11.2177     9.7477  -999.2500  -999.2500    97.8538
  260.0000   -66.2383    11.0652     9.5164  -999.2500  -999.2500    98.6947
  260.5000   -66.0869    10.2300     9.2861  -999.2500  -999.2500    99.4352
  261.0000   -65.7829     9.7438     9.1313  -999.2500  -999.2500    99.4729
  261.5000   -65.6315    10.3046     9.0520  -999.2500  -999.2500    98.7554
  262.0000   -65.4801    10.8353     9.0483  -999.2500  -999.2500    99.5549
  262.5000   -65.6346    10.0758     8.8935  -999.2500  -999.2500   103.3571
  263.0000   -65.7890     9.7414     8.5846  -999.2500  -999.2500   108.6653
  263.5000   -65.9597     9.4373     8.2757  -999.2500  -999.2500   113.9736
  264.0000   -66.2508     9.2091     8.1088  -999.2500  -999.2500   118.5288
  264.5000   -66.7113     8.9809     7.8210  -999.2500  -999.2500   122.3310
  265.0000   -66.8657     8.7678     7.5899  -999.2500  -999.2500   125.3802
  265.5000   -66.8672     8.5396     7.2840  -999.2500  -999.2500   128.4294
  266.0000   -66.7158     8.2483     7.0537  -999.2500  -999.2500   130.7256
  266.5000   -66.1057     8.0637     6.9744  -999.2500  -999.2500   133.0218
  267.0000   -65.6481     7.9264     6.8952  -999.2500  -999.2500   135.3180
  267.5000   -65.6500     7.8239     6.7404  -999.2500  -999.2500   137.6142
  268.0000   -65.6515     7.7777     6.7366  -999.2500  -999.2500   136.8983
  268.5000   -65.9588     7.8075     6.8094  -999.2500  -999.2500   135.4293
  269.0000   -66.2662     7.9586     6.9557  -999.2500  -999.2500   133.1877
  269.5000   -66.4206     8.3070     7.0285  -999.2500  -999.2500   129.4201
  270.0000   -66.4221     8.6706     7.2513  -999.2500  -999.2500   126.4059
  270.5000   -66.2706     8.7763     7.5488  -999.2500  -999.2500   122.4976
  271.0000   -65.8135     8.8364     7.7725  -999.2500  -999.2500   118.3053
  271.5000   -65.5092     8.9116     7.9945  -999.2500  -999.2500   115.3304
  272.0000   -65.6636     8.9719     8.1427  -999.2500  -999.2500   114.6052
  272.5000   -65.8180     9.0015     7.9114  -999.2500  -999.2500   113.8894
  273.0000   -65.8196     9.0009     7.8322  -999.2500  -999.2500   114.6888
  273.5000   -65.6681     8.9396     7.8284  -999.2500  -999.2500   115.4790
  274.0000   -65.5167     8.7721     7.7492  -999.2500  -999.2500   117.7752
  274.5000   -65.6715     8.6349     7.6699  -999.2500  -999.2500   120.0714
  275.0000   -65.6730     8.5584     7.5906  -999.2500  -999.2500   122.3676
  275.5000   -65.6745     8.5107     7.5083  -999.2500  -999.2500   123.9107
  276.0000   -65.9819     8.3735     7.4320  -999.2500  -999.2500   123.9479
  276.5000   -66.1363     8.3593     7.4282  -999.2500  -999.2500   123.9850
  277.0000   -66.2907     8.4193     7.4245  -999.2500  -999.2500   122.5162
  277.5000   -66.4451     8.4946     7.4964  -999.2500  -999.2500   121.7997
  278.0000   -66.4466     8.5850     7.5682  -999.2500  -999.2500   120.3565
  278.5000   -66.4481     8.6148     7.7146  -999.2500  -999.2500   118.9093
  279.0000   -66.4496     8.6597     7.7873  -999.2500  -999.2500   117.4621
  279.5000   -66.4511     8.7350     7.9337  -999.2500  -999.2500   115.1749
  280.0000   -66.4527     8.8102     8.0810  -999.2500  -999.2500   112.9530
  280.5000   -66.6071     8.8703     8.0773  -999.2500  -999.2500   111.4835
  281.0000   -66.7615     8.9456     8.0735  -999.2500  -999.2500   111.5213
  281.5000   -66.7630     9.0057     8.0698  -999.2500  -999.2500   113.0648
  282.0000   -66.5994     8.9899     7.9905  -999.2500  -999.2500   114.6688
  282.5000   -66.4602     8.9286     7.9113  -999.2500  -999.2500   117.6581
  283.0000   -66.4618     8.8067     7.7565  -999.2500  -999.2500   119.2018
  283.5000   -66.3107     8.6998     7.7527  -999.2500  -999.2500   120.7525
  284.0000   -66.3122     8.6841     7.7490  -999.2500  -999.2500   120.7897
  284.5000   -66.3137     8.6683     7.7452  -999.2500  -999.2500   121.5799
  285.0000   -66.3152     8.6677     7.6660  -999.2500  -999.2500   120.8640
  285.5000   -66.3167     8.6841     7.6622  -999.2500  -999.2500   120.9012
  286.0000   -65.8591     8.6968     7.7341  -999.2500  -999.2500   120.1760
  286.5000   -65.7077     8.7416     7.7303  -999.2500  -999.2500   119.4602
  287.0000   -65.4034     8.7563     7.8021  -999.2500  -999.2500   119.5066
  287.5000   -65.4053     8.7404     7.8739  -999.2500  -999.2500   118.7907
