~VERSION INFORMATION
 VERS.                2.0:   CWLS LOG ASCII STANDARD - VERSION 2.0
 WRAP.                 NO:   ONE LINE PER DEPTH STEP
~WELL INFORMATION
#MNEM.UNIT      DATA TYPE    INFORMATION
#----------   ------------   ------------------------------
 STRT.F           32.0000:   START DEPTH
 STOP.F          648.0000:   STOP DEPTH
 STEP.F            0.5000:   STEP LENGTH
 NULL.          -999.2500:   NO VALUE
 COMP. LAWRENCE/ALLISON INC:   COMPANY
 WELL.    17-16 SX #17-11:   WELL
 FLD .             TEAPOT:   FIELD
 LOC .      S11 T38N R78W:   LOCATION
 CNTY.            NATRONA:   COUNTY
 STAT.            WYOMING:   STATE
 CTRY. UNITED STATES OF AMERICA:   COUNTRY
 SRVC.           Gearhart:   SERVICE COMPANY
 DATE.        12-JUL-1987:   LOGDATE
 API .       490251115200:   API NUMBER
~CURVE INFORMATION
#MNEM.UNIT       API CODE    CURVE DESCRIPTION
#----------   ------------   ------------------------------
 DEPT.F                  :   
 GRR .GAPI   07 310 01 00:   GAMMA RAY
 ILD .OHMM   07 120 46 00:   INDUCTION LOG DEEP
 ILM .OHMM   07 120 44 00:   INDUCTION LOG MEDIUM
~PARAMETER INFORMATION
#MNEM.UNIT          VALUE    DESCRIPTION
#----------   ------------   ------------------------------
 PD  .                 GL:   PERMANENT DATUM
 EPD .F              5231:   ELEVATION PERMANENT DATUM
 LMF .                 KB:   LOG MEASURED FROM
 DAPD.F                 8:   FEET ABOVE PERMANENT DATUM
 DMF .                 KB:   DRILLING MEASURED FROM
 EKB .F              5239:   KELLING BUSHING
 EDF .F              5237:   DRILLING FLOOR
 EGL .F              5231:   GROUND LEVEL
 DATE.        12-JUL-1987:   RUN DATE
 RUN .                  1:   RUN NUMBER
 DD  .F               650:   DEPTH DRILLER
 DL  .F               656:   DEPTH LOGGER
 BLI .F               654:   BOTTOM LOG INTERVAL
 TLI .F                30:   TOP LOG INTERVAL
 CS  .IN            8.625:   CASING SIZE
 CBD .F                48:   CASING BOTTOM DRILLER
 CBL .F                48:   CASING BOTTOM LOGGER
 BS  .IN            7.875:   BIT SIZE
 BSD .F               650:   BIT SIZE AT DEPTH
 DFT .                AIR:   DRILLING FLUID TYPE
 TLAB.HRS            1051:   TIME LOGGER AT BOTTOM
 MRT .F                80:   MAXIMUM RECORDED TEMPERATURE
 LUN .               7597:   LOGGING UNIT NUMBER
 LUL .           GILLETTE:   LOGGING UNIT LOCATION
 ENGI.         WEATHERMON:   RECORDING ENGINEER
 WITN.         MR. STRONG:   WITNESSED BY
 CLNT.            A2DTECH:   CLIENT CODE
 ORIG.           5" PRINT:   ORIGIN OF DATA
 UWI .       490251115200:   UNIQUE WELL ID
 DICO. A2D Technologies, Inc.:   DIGITIZING COMPANY
~OTHER INFORMATION
~A   DEPT       GRR       ILD        ILM   
# ...
  487.0000    94.9975    13.7224    13.4635
  487.5000    95.3119    13.8208    13.4653
  488.0000    94.1133    13.6323    13.4672
  488.5000    91.7045    13.4471    13.3758
  489.0000    90.2034    13.2644    13.3721
  489.5000    90.5177    12.9045    13.1802
  490.0000    92.6475    12.7291    12.8359
  490.5000    93.8699    12.5562    12.6602
  491.0000    95.0945    12.4651    12.3152
  491.5000    96.6192    12.3882    11.9797
  492.0000    98.7489    12.3913    11.6536
  492.5000    98.1555    12.3938    11.5742
  493.0000    97.8647    12.3964    11.4960
  493.5000    96.9658    12.5722    11.4976
  494.0000    96.3752    12.7505    11.4992
  494.5000    93.3011    13.3880    11.5812
  495.0000    91.2053    14.0574    11.8265
  495.5000    90.9644    14.8714    13.0351
  496.0000    90.6765    16.2240    14.4674
  496.5000    89.1754    18.1853    16.9737
  497.0000    83.4383    21.0431    20.3333
  497.5000    79.4402    25.2098    24.0221
  498.0000    74.6872    28.9697    28.1837
  498.5000    71.6733    31.7116    33.3297
  499.0000    67.6611    33.7625    38.6642
  499.5000    65.0402    35.4506    42.1716
  500.0000    64.7494    35.7047    43.0634
  500.5000    66.5786    35.3469    41.8846
  501.0000    71.1291    34.9739    38.8059
  501.5000    75.9821    34.2555    35.4578
  502.0000    79.9354    32.8605    32.6242
  502.5000    81.7549    31.6982    30.8621
  503.0000    80.5591    29.9991    30.0170
  503.5000    77.5453    28.4099    29.1951
  504.0000    73.3211    27.4428    28.3957
  504.5000    72.4223    27.0658    27.6182
  505.0000    73.0422    26.3270    27.2375
  505.5000    73.3566    25.9654    26.8292
  506.0000    74.8814    25.4325    25.7663
  506.5000    76.4061    25.0836    25.0608
  507.0000    78.8385    24.5683    24.5444
  507.5000    81.8760    24.2313    24.0386
  508.0000    82.7958    23.8989    23.7072
  508.5000    83.1104    23.5667    23.3804
  509.0000    85.2428    23.2477    23.2187
  509.5000    87.6753    23.4116    23.2187
  510.0000    86.7794    23.2508    23.2187
  510.5000    84.9758    23.2528    23.2187
  511.0000    84.0770    23.2544    23.2219
  511.5000    84.0918    23.2560    23.3804
  512.0000    84.4062    23.2576    23.3804
  512.5000    85.0232    23.2592    23.3804
  513.0000    85.3376    23.2607    23.2187
  513.5000    85.0449    23.1014    23.0581
  514.0000    83.8484    22.9432    22.8986
  514.5000    84.6294    22.7861    22.7402
  515.0000    87.5060    22.6196    22.4267
  515.5000    89.9384    22.1428    22.1176
  516.0000    90.8579    21.8615    21.4034
  516.5000    89.9621    21.5612    20.7782
  517.0000    87.8559    21.2658    20.6345
  517.5000    86.3549    21.1198    20.4918
  518.0000    85.1535    20.8304    20.2093
  518.5000    83.9576    20.5443    20.0695
  519.0000    83.3646    20.2624    19.7929
  519.5000    83.3909    19.8466    19.5200
  520.0000    84.3368    19.3045    19.1089
  520.5000    86.1264    18.7772    18.5759
  521.0000    88.5588    18.1314    17.9601
  521.5000    91.2938    17.3738    17.3475
  522.0000    94.3313    16.6907    16.6399
  522.5000    97.0663    16.5764    15.8508
  523.0000    97.6833    16.6933    15.5241
  523.5000    97.9948    16.8107    15.8508
  524.0000    93.7736    17.1656    16.1843
  524.5000    88.0366    17.6500    16.7558
  525.0000    85.3253    18.4018    17.4683
  525.5000    83.1406    19.1856    18.7238
  526.0000    79.6936    19.5906    20.2093
  526.5000    74.1686    19.6047    21.2248
  527.0000    70.8522    19.1895    21.9860
  527.5000    71.4692    18.6654    22.1176
  528.0000    73.9016    18.1555    20.0695
  528.5000    78.4520    17.6599    17.9601
  529.0000    80.5818    17.4174    17.1083
  529.5000    82.1066    16.8247    16.6399
  530.0000    85.4467    16.2520    16.2970
  530.5000    87.8791    15.8078    16.0723
  531.0000    89.1014    15.3762    15.7411
  531.5000    89.1135    15.1651    15.5241
  532.0000    87.9176    14.9573    15.3101
  532.5000    86.1140    14.8548    15.0991
  533.0000    84.3104    14.7531    14.9884
  533.5000    82.5069    14.6520    14.7879
  534.0000    81.9106    14.5517    14.5841
  534.5000    82.2280    14.3523    14.4832
  535.0000    84.3578    14.3533    14.3830
  535.5000    87.0928    14.1564    14.1847
  536.0000    88.3149    14.0594    14.1847
  536.5000    88.6294    13.8665    14.0866
  537.0000    89.2708    13.7713    13.9892
  537.5000    89.8638    13.6770    13.9892
  538.0000    89.8782    13.5833    13.7963
  538.5000    89.2819    13.4905    13.6062
  539.0000    88.0864    13.4914    13.5120
  539.5000    88.0983    13.4924    13.4186
  540.0000    88.4127    13.4933    13.4186
  540.5000    89.3322    13.5882    13.4186
  541.0000    90.2518    13.5893    13.4186
  541.5000    91.7765    13.5903    13.4186
  542.0000    92.9986    13.5912    13.4186
  542.5000    93.3132    13.5921    13.4186
  543.0000    93.6278    13.5930    13.4186
  543.5000    93.6423    13.4997    13.3258
  544.0000    93.9567    13.5009    13.2336
  544.5000    94.5737    13.4082    13.2336
  545.0000    95.4933    13.4093    13.2336
  545.5000    95.8047    13.4102    13.2336
  546.0000    94.3067    13.3184    13.2336
  546.5000    94.3185    13.2272    13.2336
  547.0000    94.6329    13.1366    13.2336
  547.5000    95.8551    13.0466    13.2336
  548.0000    97.6823    12.8678    13.0512
  548.5000    98.2995    12.7795    12.8713
  549.0000    97.0529    12.6919    12.6938
  549.5000    96.8102    12.5178    12.5188
  550.0000    98.7067    12.5191    12.3333
  550.5000    98.9599    12.5216    12.2539
  551.0000    95.9600    12.5241    12.1793
  551.5000    93.8626    12.5266    12.1814
  552.0000    95.3961    12.5293    12.2679
  552.5000    97.5347    12.6190    12.3550
  553.0000    99.6734    12.5342    12.4427
  553.5000    99.9966    12.6247    12.4444
  554.0000    96.3915    12.6273    12.5327
  554.5000    94.2890    12.5419    12.5345
  555.0000    95.5250    12.5450    12.5365
  555.5000    97.6637    12.5476    12.5382
  556.0000    99.4997    12.4576    12.4528
  556.5000   100.7306    12.2096    12.3683
  557.0000   101.6590    12.2120    12.2844
  557.5000   100.7719    12.1294    12.1171
  558.0000    99.5822    12.0479    12.0349
  558.5000   100.5558    12.0510    11.9453
  559.0000   101.7467    11.8050    11.7089
  559.5000   101.4647    11.5641    11.6291
  560.0000    99.9725    11.4865    11.5502
  560.5000    99.3828    11.3304    11.5522
  561.0000    98.1983    11.1770    11.3945
  561.5000    97.3112    11.0252    11.3171
  562.0000    96.4242    10.8754    11.0854
  562.5000    96.4448    10.8018    10.7772
  563.0000    98.9511    10.6551    10.5629
  563.5000   100.1221    10.5103    10.4187
  564.0000    99.5324    10.2963    10.2054
  564.5000    99.5582    10.2237     9.9964
  565.0000   101.3942     9.9491     9.7918
  565.5000   103.8354     9.6792     9.6578
  566.0000   106.5792     9.3509     9.5262
  566.5000   108.1127     9.0967     9.3916
  567.0000   108.1333     8.7274     9.0144
  567.5000   108.1543     7.9761     8.2952
  568.0000   108.2280     7.0898     7.6333
  568.5000   109.1081     6.3020     7.1224
  569.0000   113.3647     6.0002     5.9472
  569.5000   120.9497     5.8818     5.3599
  570.0000   128.8372     5.8833     4.9666
  570.5000   135.2118     5.9255     4.9673
  571.0000   137.0479     6.1787     5.2517
  571.5000   132.5299     6.5328     5.7885
  572.0000   118.8305     7.0525     6.5142
  572.5000   109.6773     7.6666     7.2300
  573.0000   105.6681     8.2231     7.9689
  573.5000   104.1758     8.7086     8.5428
  574.0000   104.4990     9.3173     8.9693
  574.5000   105.1248     9.5815     9.2929
  575.0000   106.6583     9.8533     9.8303
  575.5000   109.0995    10.1327    10.0970
  576.0000   108.8176    10.2764    10.3108
  576.5000   108.8382    10.5679    10.3840
  577.0000   109.4927    10.7178    10.3854
  577.5000   111.0026    10.9455    10.4591
