~VERSION INFORMATION
 VERS.                2.0:   CWLS LOG ASCII STANDARD - VERSION 2.0
 WRAP.                 NO:   ONE LINE PER DEPTH STEP
~WELL INFORMATION
#MNEM.UNIT      DATA TYPE    INFORMATION
#----------   ------------   ------------------------------
 STRT.F           30.0000:   START DEPTH
 STOP.F          634.0000:   STOP DEPTH
 STEP.F            0.5000:   STEP LENGTH
 NULL.          -999.2500:   NO VALUE
 COMP. FENIX & SCISSON INC:   COMPANY
 WELL.     26-S-11 #26-11:   WELL
 FLD .             TEAPOT:   FIELD
 LOC .      S11 T38N R78W:   LOCATION
 CNTY.            NATRONA:   COUNTY
 STAT.            WYOMING:   STATE
 CTRY. UNITED STATES OF AMERICA:   COUNTRY
 SRVC.              Welex:   SERVICE COMPANY
 DATE.        26-APR-1977:   LOGDATE
 API .       490251034300:   API NUMBER
~CURVE INFORMATION
#MNEM.UNIT       API CODE    CURVE DESCRIPTION
#----------   ------------   ------------------------------
 DEPT.F                  :   
 SPR .MV     07 010 01 00:   SPONTANEOUS POTENTIAL
 ILD .OHMM   07 120 46 00:   INDUCTION LOG DEEP
 ILM .OHMM   07 120 44 00:   INDUCTION LOG MEDIUM
 SGRD.OHMM   07 221 05 00:   SHALLOW SHORT GUARD RESISTIVITY
 CALD.IN     45 280 60 00:   CALIPER FROM DENSITY LOG
 GRD .GAPI   45 310 01 00:   GAMMA RAY FROM DENSITY LOG
 CORR.G/C3   45 356 01 00:   DENSITY CORRECTION
 DPHI.DEC    45 890 12 00:   DENSITY POROSITY SANDSTONE
 RHOB.G/C3   45 350 01 00:   BULK DENSITY
~PARAMETER INFORMATION
#MNEM.UNIT          VALUE    DESCRIPTION
#----------   ------------   ------------------------------
 PD  .                 GL:   PERMANENT DATUM
 EPD .F              5179:   ELEVATION PERMANENT DATUM
 LMF .                 GL:   LOG MEASURED FROM
 DMF .                 GL:   DRILLING MEASURED FROM
 EGL .F              5179:   GROUND LEVEL
 DATE.          4-24-1977:   RUN DATE
 RUN .                  1:   RUN NUMBER
 DD  .F               645:   DEPTH DRILLER
 DL  .F               634:   DEPTH LOGGER
 BLI .F               632:   BOTTOM LOG INTERVAL
 TLI .F                40:   TOP LOG INTERVAL
 CS  .IN            8.625:   CASING SIZE
 CBD .F                40:   CASING BOTTOM DRILLER
 CBL .F                42:   CASING BOTTOM LOGGER
 BS  .IN            7.875:   BIT SIZE
 BSD .F               645:   BIT SIZE AT DEPTH
 DFT .            KCL MUD:   DRILLING FLUID TYPE
 DFD .                8.8:   DRILLING FLUID DENSITY
 DFV .                 33:   DRILLING FLUID VISCOSITY
 DFPH.                7.5:   DRILLING FLUID PH
 DFL .                 96:   DRILLING FLUID LOSS
 MSS .           FLOWLINE:   MUD SAMPLE SOURCE
 RMS .OHMM            .17:   RESISTIVITY MUD SAMPLE
 MST .F                81:   MUD SAMPLE TEMPERATURE
 RMF .OHMM            .16:   RESISTIVITY MUD FILTRATE SAMPLE
 MFST.F                81:   MUD FILTRATE SAMPLE TEMPERATURE
 RMC .OHMM            .21:   RESISTIVITY MUD CAKE
 MCST.F                81:   MUD CAKE SAMPLE TEMPERATURE
 MFSS.           FANN KIT:   MUD FILTRATE SAMPLE SOURCE
 MCSS.           FANN KIT:   MUD CAKE SAMPLE SOURCE
 RMB .OHMM            .19:   RESISTIVITY MUD AT BHT
 BHT .F                72:   BOTTOM HOLE TEMPERATURE
 TCS .HRS             1.5:   TIME CURCULATED STOPPED
 MRT .F                72:   MAXIMUM RECORDED TEMPERATURE
 LUN .                861:   LOGGING UNIT NUMBER
 LUL .           GILLETTE:   LOGGING UNIT LOCATION
 ENGI.             JOYNER:   RECORDING ENGINEER
 WITN.           ROB LYON:   WITNESSED BY
 CLNT.            A2DTECH:   CLIENT CODE
 ORIG.         2.5" PRINT:   ORIGIN OF DATA
 UWI .       490251034300:   UNIQUE WELL ID
 DICO. A2D Technologies, Inc.:   DIGITIZING COMPANY
~OTHER INFORMATION
~A   DEPT      SPR        ILD        ILM       SGRD       CALD        GRD       CORR       DPHI       RHOB   
# ...
  285.5000   -31.6349     6.7482     8.2549    10.5219     7.9352   104.9237     0.0265     0.1064     2.4742
  286.0000   -31.6380     6.8435     8.3157    10.3783     7.9352   107.2766     0.0265     0.1044     2.4772
  286.5000   -31.6410     6.9401     8.3145    10.4397     7.9353   109.3167     0.0264     0.1011     2.4816
  287.0000   -31.6440     7.1374     8.3751    10.7274     7.9353   108.6746     0.0264     0.0990     2.4845
  287.5000   -31.6470     7.2382     8.4302    10.8062     7.9354   105.4497     0.0263     0.0978     2.4889
  288.0000   -31.6500     7.2382     8.4290    11.0228     7.9354   105.2024     0.0263     0.0978     2.4800
  288.5000   -31.6530     7.3404     8.3098    11.2533     7.9355   107.0161     0.0233     0.0981     2.4844
  289.0000   -31.6560     7.3404     8.3084    11.2518     7.9355   108.8054     0.0232     0.0978     2.4903
  289.5000   -31.6590     7.2382     8.1909    11.4044     7.9356   110.5499     0.0229     0.0948     2.4888
  290.0000   -31.6620     7.2382     8.1897    11.4028     7.9356   112.2874     0.0202     0.0934     2.4828
  290.5000   -31.6650     7.2382     8.0739    11.3229     7.9356   112.8125     0.0201     0.0957     2.4828
  291.0000   -31.6680     7.2348     8.0728    11.0937     7.9357   110.6120     0.0201     0.0990     2.4843
  291.5000   -31.6710     7.1374     8.0717    10.8647     7.9357   109.2876     0.0200     0.1020     2.4842
  292.0000   -31.6740     7.0381     8.0705    10.6471     7.9358   113.6052     0.0204     0.1041     2.4783
  292.5000   -31.6770     7.0381     8.0694    10.5018     7.9358   115.8724     0.0229     0.1056     2.4723
  293.0000   -31.6800     7.0381     8.0683    10.3585     7.9359   117.6892     0.0229     0.1064     2.4782
  293.5000   -31.6830     7.0381     8.0671    10.3571     7.9359   119.5399     0.0258     0.1016     2.4826
  294.0000   -31.6860     7.0381     8.0660    10.3557     7.9360   115.1477     0.0258     0.0981     2.4870
  294.5000   -31.9911     7.0381     8.0649    10.4358     7.9360   114.8419     0.0257     0.1013     2.4826
  295.0000   -31.9941     7.0381     8.0638    10.7235     7.9360   116.8918     0.0257     0.1064     2.4722
  295.5000   -31.9971     7.0381     8.0626    10.8701     7.9361   114.4341     0.0227     0.1118     2.4618
  296.0000   -32.3023     7.0381     8.0615    10.9289     7.9361   111.3255     0.0226     0.1141     2.4603
  296.5000   -32.3053     7.0381     8.0604    10.7795     7.9362   109.5517     0.0226     0.1106     2.4662
  297.0000   -32.3083     7.0381     8.0593    10.7780     7.9362   111.4624     0.0225     0.1077     2.4721
  297.5000   -32.6134     7.0381     8.0581    10.9242     7.9363   112.5587     0.0225     0.1065     2.4780
  298.0000   -32.6164     7.0381     7.9442    10.9227     7.9363   113.0620     0.0224     0.1059     2.4824
  298.5000   -32.9215     7.0381     7.9430    10.9212     7.9364   111.3299     0.0215     0.1119     2.4749
  299.0000   -32.9245     7.0381     7.9419    10.7722     7.9361   108.9911     0.0175     0.1196     2.4542
  299.5000   -32.9275     7.0381     7.8296    10.4816     7.9358   106.3183     0.0095     0.1273     2.4394
  300.0000   -32.9305     6.9401     7.7635    10.2877     7.9355   105.3186     0.0039     0.1313     2.4231
  300.5000   -33.3318     6.9396     7.6117    10.1325     7.9346   104.6724     0.0002     0.1309     2.4216
  301.0000   -33.5317     6.8425     7.5784     9.9772     7.9337   104.4370    -0.0016     0.1279     2.4274
  301.5000   -33.5302     6.8420     7.4020     9.8807     7.9328   107.4594     0.0013     0.1250     2.4348
  302.0000   -33.5287     6.7463     7.2994     9.9254     7.9320   110.3861     0.0012     0.1220     2.4436
  302.5000   -33.8293     6.6519     7.1982     9.9254     7.9311   112.7263     0.0041     0.1197     2.4466
  303.0000   -33.8278     6.5589     7.1688     9.9254     7.9302   115.3598     0.0070     0.1179     2.4524
  303.5000   -34.1284     6.3771     6.9999     9.9254     7.9293   117.9932     0.0128     0.1156     2.4583
  304.0000   -34.1269     6.2003     6.9029     9.9254     7.9284   118.8563     0.0128     0.1114     2.4657
  304.5000   -34.1254     6.1136     6.8761     9.9254     7.9276   114.1692     0.0157     0.1014     2.4716
  305.0000   -34.1239     5.9441     6.8081     9.9254     7.9267   114.1633     0.0185     0.0978     2.4789
  305.5000   -34.1224     5.7794     6.6877     9.7912     7.9258   114.1574     0.0214     0.0990     2.4818
  306.0000   -34.1208     5.5410     6.5954     9.4014     7.9249   113.8583     0.0214     0.1056     2.4848
  306.5000   -34.1193     5.3874     6.5288     8.6645     7.9240   112.9727     0.0213     0.1110     2.4729
  307.0000   -34.1178     5.2381     6.5299     8.1307     7.9232   111.5006     0.0212     0.1139     2.4625
  307.5000   -34.4184     5.1648     6.5548     7.7345     7.9223   110.3217     0.0182     0.1169     2.4521
  308.0000   -34.4169     5.2373     6.7428     7.3249     7.9214   110.0226     0.0181     0.1199     2.4462
  308.5000   -34.1133     5.3109     6.8390     7.4601     7.9205   110.0167     0.0151     0.1217     2.4417
  309.0000   -33.8097     5.4615     7.0110     8.7463     7.9196   112.3569     0.0120     0.1229     2.4402
  309.5000   -33.5060     5.5383     7.0357     9.4426     7.9188   114.4038     0.0119     0.1241     2.4386
  310.0000   -33.5045     5.6953     7.2136     9.3997     7.9179   117.0372     0.0178     0.1200     2.4445
  310.5000   -33.2009     5.7753     7.2146     9.5284     7.9170   119.0842     0.0207     0.1165     2.4519
  311.0000   -33.1994     5.9391     7.2156     9.5719     7.9161   112.3334     0.0236     0.1141     2.4592
  311.5000   -33.1979     6.0226     7.2166     9.7912     7.9152   109.9815     0.0235     0.1122     2.4651
  312.0000   -33.1964     6.1072     7.2177     9.7912     7.9144   110.5622     0.0234     0.1104     2.4695
  312.5000   -33.1949     6.1929     7.2187     9.7912     7.9135   113.1956     0.0234     0.1082     2.4754
  313.0000   -33.1934     6.2799     7.2197     9.7912     7.9126   114.9493     0.0233     0.1065     2.4783
  313.5000   -33.1918     6.3681     7.1195     9.7912     7.9117   116.9962     0.0232     0.1059     2.4798
  314.0000   -33.1903     6.3677     7.0208     9.7912     7.9109   114.6443     0.0231     0.1083     2.4753
  314.5000   -33.1888     6.3672     6.9234     9.7912     7.9100   111.9992     0.0231     0.1125     2.4723
  315.0000   -33.1873     6.2782     6.9067     9.7912     7.9093   110.5270     0.0230     0.1137     2.4634
  315.5000   -33.1858     6.1903     6.8284     9.7912     7.9096   109.9347     0.0229     0.1167     2.4574
  316.0000   -33.1843     6.1037     6.7174     9.5284     7.9098   111.6883     0.0228     0.1226     2.4485
  316.5000   -33.1828     6.0183     6.6247     9.4855     7.9101   113.4420     0.0228     0.1226     2.4426
  317.0000   -33.1813     5.9341     6.5333     9.3997     7.9103   111.0901     0.0227     0.1221     2.4411
  317.5000   -33.1798     5.7697     6.4432     9.3997     7.9106   110.4977     0.0226     0.1209     2.4469
  318.0000   -33.4804     5.6097     6.2653     9.3997     7.9108   111.6649     0.0225     0.1197     2.4587
  318.5000   -33.4789     5.4543     6.1049     9.3997     7.9111   113.4186     0.0225     0.1174     2.4646
  319.0000   -33.4773     5.3031     6.0083     9.3574     7.9113   114.2925     0.0194     0.1162     2.4527
  319.5000   -33.7779     5.1561     5.8424     9.1898     7.9116   112.8203     0.0194     0.1210     2.4453
  320.0000   -34.0785     4.9434     5.6811     8.8222     7.9118   110.7617     0.0193     0.1252     2.4364
  320.5000   -34.0770     4.8064     5.4566     8.3549     7.9121   108.1165     0.0192     0.1287     2.4275
  321.0000   -34.3776     4.6732     5.3056     7.9853     7.9124   109.8702     0.0162     0.1311     2.4200
  321.5000   -34.3761     4.5437     5.2320     7.1305     7.9126   111.9171     0.0161     0.1341     2.4097
