~VERSION INFORMATION
 VERS.                2.0:   CWLS LOG ASCII STANDARD - VERSION 2.0
 WRAP.                 NO:   ONE LINE PER DEPTH STEP
~WELL INFORMATION
#MNEM.UNIT      DATA TYPE    INFORMATION
#----------   ------------   ------------------------------
 STRT.F           20.0000:   START DEPTH
 STOP.F          672.0000:   STOP DEPTH
 STEP.F            0.5000:   STEP LENGTH
 NULL.          -999.2500:   NO VALUE
 COMP.              FENIX:   COMPANY
 WELL.    NPR ##3 23-S-11:   WELL
 FLD .        TEAPOT DOME:   FIELD
 LOC .      S11 T38N R78W:   LOCATION
 CNTY.            NATRONA:   COUNTY
 STAT.            WYOMING:   STATE
 CTRY. UNITED STATES OF AMERICA:   COUNTRY
 SRVC.           BIRDWELL:   SERVICE COMPANY
 DATE.        05-FEB-1978:   LOGDATE
 API .       490251057300:   API NUMBER
~CURVE INFORMATION
#MNEM.UNIT       API CODE    CURVE DESCRIPTION
#----------   ------------   ------------------------------
 DEPT.F                  :   
 ILD .OHMM   05 120 46 00:   INDUCTION LOG DEEP
 SN  .OHMM   05 040 16 00:   SHORT NORMAL 16"
 SPR .MV     05 010 01 00:   SPONTANEOUS POTENTIAL FROM RES.
 CALD.IN     45 280 60 00:   CALIPER FROM DENSITY LOG
 CORR.G/C3   45 356 01 00:   DENSITY CORRECTION
 DPHI.DEC    45 890 10 00:   DENSITY POROSITY LIMESTONE
 GRD .GAPI   45 310 01 00:   GAMMA RAY FROM DENSITY LOG
 RHOB.G/C3   45 350 01 00:   BULK DENSITY
~PARAMETER INFORMATION
#MNEM.UNIT          VALUE    DESCRIPTION
#----------   ------------   ------------------------------
 PD  .                 GL:   PERMANENT DATUM
 EPD .F              5175:   ELEVATION PERMANENT DATUM
 LMF .                 KB:   LOG MEASURED FROM
 DMF .                 KB:   DRILLING MEASURED FROM
 EKB .F              5178:   KELLING BUSHING
 EGL .F              5175:   GROUND LEVEL
 DATE.        05-FEB-1978:   RUN DATE
 RUN .                  1:   RUN NUMBER
 DD  .F               670:   DEPTH DRILLER
 DL  .F               675:   DEPTH LOGGER
 BLI .F               670:   BOTTOM LOG INTERVAL
 TLI .F                40:   TOP LOG INTERVAL
 CS  .IN            8.625:   CASING SIZE
 CBD .F                39:   CASING BOTTOM DRILLER
 CBL .F                40:   CASING BOTTOM LOGGER
 BS  .IN            7.875:   BIT SIZE
 BSD .F               670:   BIT SIZE AT DEPTH
 DFT .                KCL:   DRILLING FLUID TYPE
 DFD .                8.4:   DRILLING FLUID DENSITY
 DFV .                 32:   DRILLING FLUID VISCOSITY
 DFPH.                  8:   DRILLING FLUID PH
 DFL .                8.8:   DRILLING FLUID LOSS
 MSS .           FLOWLINE:   MUD SAMPLE SOURCE
 RMS .OHMM           0.58:   RESISTIVITY MUD SAMPLE
 MST .F                62:   MUD SAMPLE TEMPERATURE
 RMF .OHMM           0.58:   RESISTIVITY MUD FILTRATE SAMPLE
 MFST.F                62:   MUD FILTRATE SAMPLE TEMPERATURE
 RMC .OHMM            0.9:   RESISTIVITY MUD CAKE
 MCST.F                66:   MUD CAKE SAMPLE TEMPERATURE
 MFSS.               MEAS:   MUD FILTRATE SAMPLE SOURCE
 RMB .OHMM           0.55:   RESISTIVITY MUD AT BHT
 BHT .F                72:   BOTTOM HOLE TEMPERATURE
 TCS .HRS               1:   TIME CURCULATED STOPPED
 MRT .F                72:   MAXIMUM RECORDED TEMPERATURE
 LUN .               2958:   LOGGING UNIT NUMBER
 LUL .               CASP:   LOGGING UNIT LOCATION
 ENGI.            POINTER:   RECORDING ENGINEER
 WITN.         HARRINGTON:   WITNESSED BY
 CLNT.            A2DTECH:   CLIENT CODE
 ORIG.           5" PRINT:   ORIGIN OF DATA
 UWI .       490251057300:   UNIQUE WELL ID
 DICO. A2D Technologies, Inc.:   DIGITIZING COMPANY
~OTHER INFORMATION
~A   DEPT      ILD         SN        SPR       CALD       CORR       DPHI         GRD      RHOB   
# ...
  465.5000     6.1266     6.0853   -51.4561     7.9217     0.0603     0.1128    90.9860     2.4603
  466.0000     6.0758     6.1413   -51.4635     7.9367     0.0356     0.1236    93.3820     2.4145
  466.5000     5.9973     6.7033   -51.4710     7.9217     0.0004     0.1485    93.5432     2.3837
  467.0000     6.3380     7.7000   -51.4787     7.9066     0.0191     0.1804    89.1778     2.3519
  467.5000     7.0801     8.7836   -51.4875     7.9066     0.0365     0.1840    77.1810     2.3822
  468.0000     8.1316     9.3479   -51.3415     7.9066     0.0304     0.1612    77.1782     2.4723
  468.5000     8.8968     9.7434   -51.1956     7.8916     0.0266     0.1020    77.3273     2.5024
  469.0000     9.3372    10.0157   -50.9995     7.8765     0.0229     0.0851    77.5182     2.5023
  469.5000     9.4681    10.1536   -50.7549     7.8765     0.0184     0.0845    78.0694     2.5046
  470.0000     9.6063    10.1515   -50.3050     7.8765     0.0154     0.0851    78.4025     2.4888
  470.5000     9.7270    10.1490   -50.0795     7.8765     0.0139     0.0998    78.9619     2.4828
  471.0000     9.8606    10.2893   -49.7100     7.8916     0.0116     0.1004    79.5588     2.4828
  471.5000     9.9954    10.4310   -49.2620     7.8916     0.0093     0.0983    80.1557     2.4820
  472.0000    10.4176    10.7220   -48.8120     7.9066     0.0056     0.0978    80.4568     2.4798
  472.5000    11.0094    11.1757   -48.5127     7.9066     0.0086     0.1038    79.3337     2.4767
  473.0000    11.9620    11.7297   -48.0646     7.8916     0.0146     0.1038    78.6474     2.4715
  473.5000    12.8292    12.3969   -47.9177     7.8916     0.0259     0.1024    78.3447     2.4700
  474.0000    14.0732    13.3200   -47.9270     7.9066     0.0454     0.0985    77.8601     2.4760
  474.5000    15.6654    14.9452   -47.9344     7.9217     0.0641     0.0967    72.4913     2.4872
  475.0000    16.7865    16.4670   -47.9167     7.9367     0.0888     0.0955    64.0927     2.4895
  475.5000    17.7401    18.0183   -47.7967     7.9518     0.1128     0.0937    52.8455     2.4947
  476.0000    18.7478    19.3094   -47.9584     7.9217     0.1256     0.0973    46.9954     2.4902
  476.5000    19.2717    19.8490   -47.9658     7.8464     0.1128     0.1021    44.7438     2.4703
  477.0000    19.4002    20.1223   -47.7698     7.7259     0.1131     0.1088    45.4899     2.4609
  477.5000    19.5306    20.1183   -47.3708     7.6054     0.1286     0.1187    46.9863     2.4556
  478.0000    19.6617    20.1141   -47.0733     7.5602     0.0873     0.1178    53.1344     2.4526
  478.5000    19.6569    20.2500   -46.4619     7.6205     0.0499     0.1217    53.7273     2.4421
  479.0000    19.6521    20.4081   -45.8455     7.7108     0.0184     0.1437    53.1241     2.3880
  479.5000    19.6474    20.6669   -45.1157     7.7711     0.0154     0.2176    52.8215     2.2805
  480.0000    19.6422    20.6627   -44.6657     7.8163     0.0206     0.2213    52.8186     2.2768
  480.5000    19.7754    20.8035   -44.2140     7.8464     0.0232     0.2179    53.1150     2.2888
  481.0000    19.7692    21.0889   -43.9165     7.8614     0.0253     0.2105    52.9623     2.3008
  481.5000    19.8432    21.1004   -43.9257     7.8614     0.0259     0.1925    49.1174     2.3143
  482.0000    19.8976    20.9346   -44.0856     7.8614     0.0244     0.2021    46.9597     2.3218
  482.5000    19.8928    20.7855   -44.2480     7.8765     0.0260     0.2006    47.5566     2.3113
  483.0000    19.8877    20.7811   -44.4269     7.8765     0.0326     0.2117    47.5531     2.3068
  483.5000    19.8822    20.7768   -44.8718     7.8916     0.0371     0.2063    47.2364     2.3128
  484.0000    20.0170    20.7725   -44.7249     7.9066     0.0176     0.1967    46.6472     2.3188
  484.5000    20.1508    20.7674   -44.4274     7.9066     0.0274     0.2037    47.3941     2.3173
  485.0000    20.1462    20.7638   -44.4367     7.9066     0.0214     0.2028    48.9103     2.3158
  485.5000    20.1413    20.7595   -44.2898     7.8916     0.0086     0.1938    49.6856     2.3188
  486.0000    20.2844    20.7551   -44.2990     7.8614     0.0176     0.1863    50.4608     2.3353
  486.5000    20.5551    20.8955   -44.1540     7.8313     0.0266     0.1995    51.2360     2.3248
  487.0000    20.6928    21.0357   -44.1616     7.8163     0.0296     0.1830    52.7762     2.3278
  487.5000    21.1222    21.1790   -44.4755     7.8163     0.0281     0.1649    54.5725     2.3758
  488.0000    21.4121    21.1736   -44.9402     7.8163     0.0235     0.1605    55.7691     2.3773
  488.5000    21.5573    21.1694   -45.2525     7.8163     0.0199     0.1620    54.5662     2.3713
  489.0000    21.5510    21.1651   -45.7172     7.8163     0.0191     0.1699    53.9637     2.3668
  489.5000    21.5397    21.0145   -46.0301     7.8464     0.0206     0.1699    53.0613     2.3660
  490.0000    21.3918    20.7206   -46.3423     7.8464     0.0244     0.1717    50.5337     2.3653
  490.5000    21.2388    20.5655   -46.3497     7.8765     0.0439     0.1756    49.3053     2.3608
  491.0000    21.0861    20.1449   -46.2047     7.8765     0.0341     0.1759    48.7042     2.3518
  491.5000    20.8969    20.0007   -45.9072     7.8765     0.0266     0.1726    48.1017     2.3606
  492.0000    20.6422    19.7210   -45.4533     7.8916     0.0214     0.1711    48.9984     2.3645
  492.5000    20.3531    19.4452   -44.9848     7.9066     0.0214     0.1976    55.9120     2.3367
  493.0000    20.2076    19.4412   -44.4068     7.9367     0.0214     0.1985    57.2380     2.3142
  493.5000    20.0632    19.3029   -43.9551     7.9066     0.0213     0.1934    57.5357     2.3187
  494.0000    20.0583    19.0329   -43.6594     7.9217     0.0206     0.1877    56.9325     2.3314
  494.5000    19.9149    18.6369   -43.5125     7.9217     0.0199     0.1811    56.0295     2.3457
  495.0000    19.7718    18.6331   -43.9791     7.9217     0.0199     0.1808    55.1271     2.3472
  495.5000    19.6305    18.4996   -44.7317     7.9066     0.0206     0.1776    54.3747     2.3517
  496.0000    19.6262    18.1147   -45.2175     7.9066     0.0214     0.1815    53.9220     2.3487
  496.5000    19.4856    17.9867   -45.8516     7.9066     0.0229     0.1896    53.9186     2.3374
  497.0000    19.3464    18.1083   -46.4495     7.9066     0.0229     0.1911    54.3656     2.3321
  497.5000    19.1390    17.8542   -46.6094     7.9066     0.0206     0.1884    55.1124     2.3344
  498.0000    18.9389    17.6045   -46.7692     7.9066     0.0011     0.1737    57.5077     2.3389
  498.5000    18.8027    17.3583   -46.7766     7.9367     0.0034     0.1689    60.6533     2.3291
  499.0000    18.6683    16.9971   -46.7840     7.9518     0.0056     0.1707    63.1992     2.3253
  499.5000    18.5349    16.8753   -46.6390     7.9518     0.0064     0.1684    63.9540     2.3373
  500.0000    18.5185    16.8728   -46.7988     7.9367     0.0064     0.1594    64.6922     2.3576
  500.5000    18.4367    16.9047   -46.7291     7.9217     0.0094     0.1559    64.9978     2.3636
  501.0000    18.3550    16.9343   -46.6593     7.9066     0.0139     0.1542    64.7022     2.3666
  501.5000    18.2733    16.9678   -46.5896     7.9217     0.0146     0.1527    64.7064     2.3697
  502.0000    18.2492    16.9610   -46.5239     7.9362     0.0138     0.1506    64.7106     2.3742
  502.5000    18.2430    16.9542   -46.5331     7.9360     0.0108     0.1494    63.6665     2.3787
  503.0000    18.2369    16.9474   -46.5405     7.9358     0.0131     0.1503    60.6722     2.3773
  503.5000    18.2308    16.9405   -46.5479     7.9357     0.0138     0.1798    57.9767     2.3681
  504.0000    18.4793    17.2884   -46.5552     7.9355     0.0116     0.1762    58.1319     2.3562
  504.5000    18.8615    17.5230   -46.5626     7.9354     0.0063     0.1732    58.4371     2.3563
  505.0000    19.3944    17.8863   -46.5549     7.9352     0.0033     0.1726    58.8911     2.3563
  505.5000    20.0612    18.3806   -46.2543     7.9351     0.0010     0.1714    59.9448     2.3593
