~VERSION INFORMATION
 VERS.                2.0:   CWLS LOG ASCII STANDARD - VERSION 2.0
 WRAP.                 NO:   ONE LINE PER DEPTH STEP
~WELL INFORMATION
#MNEM.UNIT      DATA TYPE    INFORMATION
#----------   ------------   ------------------------------
 STRT.F           50.0000:   START DEPTH
 STOP.F          854.0000:   STOP DEPTH
 STEP.F            0.5000:   STEP LENGTH
 NULL.          -999.2500:   NO VALUE
 COMP. FENIX & SCISSON INC:   COMPANY
 WELL.    45 SX 11 #45-11:   WELL
 FLD .             TEAPOT:   FIELD
 LOC .      S11 T38N R78W:   LOCATION
 CNTY.            NATRONA:   COUNTY
 STAT.            WYOMING:   STATE
 CTRY. UNITED STATES OF AMERICA:   COUNTRY
 SRVC.           BIRDWELL:   SERVICE COMPANY
 DATE.        01-MAR-1978:   LOGDATE
 API .       490251058600:   API NUMBER
~CURVE INFORMATION
#MNEM.UNIT       API CODE    CURVE DESCRIPTION
#----------   ------------   ------------------------------
 DEPT.F                  :   
 CALD.IN     45 280 60 00:   CALIPER
 CORR.G/C3   45 356 01 00:   DENSITY CORRECTION
 RHOB.G/C3   45 350 01 00:   BULK DENSITY
 DPOR.DEC    45 890 12 00:   DENSITY POROSITY SANDSTONE
 GRD .GAPI   45 310 01 00:   GAMMA RAY FROM DENSITY LOG
 SPR .MV     05 010 01 00:   SPONTANEOUS POTENTIAL FROM RES.
 SN  .OHMM   05 040 16 00:   SHORT NORMAL 16"
 ILD .OHMM   05 120 46 00:   INDUCTION LOG DEEP
~PARAMETER INFORMATION
#MNEM.UNIT          VALUE    DESCRIPTION
#----------   ------------   ------------------------------
 PD  .                 GL:   PERMANENT DATUM
 EPD .F              5186:   ELEVATION PERMANENT DATUM
 LMF .                 KB:   LOG MEASURED FROM
 DAPD.F                 4:   FEET ABOVE PERMANENT DATUM
 DMF .                 KB:   DRILLING MEASURED FROM
 EKB .F              5190:   KELLING BUSHING
 EGL .F              5186:   GROUND LEVEL
 DATE.           3-1-1978:   RUN DATE
 RUN .                  1:   RUN NUMBER
 DD  .F               848:   DEPTH DRILLER
 DL  .F               856:   DEPTH LOGGER
 BLI .F               851:   BOTTOM LOG INTERVAL
 TLI .F                50:   TOP LOG INTERVAL
 CS  .IN            8.625:   CASING SIZE
 CBD .F                40:   CASING BOTTOM DRILLER
 CBL .F                40:   CASING BOTTOM LOGGER
 BS  .IN            7.875:   BIT SIZE
 BSD .F               848:   BIT SIZE AT DEPTH
 DFT .          LIGNOSULF:   DRILLING FLUID TYPE
 DFD .                8.5:   DRILLING FLUID DENSITY
 DFV .                 30:   DRILLING FLUID VISCOSITY
 DFPH.               11.5:   DRILLING FLUID PH
 MSS .                PIT:   MUD SAMPLE SOURCE
 RMS .OHMM              2:   RESISTIVITY MUD SAMPLE
 MST .F                59:   MUD SAMPLE TEMPERATURE
 RMF .OHMM            1.8:   RESISTIVITY MUD FILTRATE SAMPLE
 MFST.F                60:   MUD FILTRATE SAMPLE TEMPERATURE
 RMC .OHMM            2.2:   RESISTIVITY MUD CAKE
 MCST.F                60:   MUD CAKE SAMPLE TEMPERATURE
 MFSS.               MEAS:   MUD FILTRATE SAMPLE SOURCE
 MCSS.               MEAS:   MUD CAKE SAMPLE SOURCE
 RMB .OHMM           1.69:   RESISTIVITY MUD AT BHT
 BHT .F                70:   BOTTOM HOLE TEMPERATURE
 TCS .HRS               3:   TIME CURCULATED STOPPED
 MRT .F                70:   MAXIMUM RECORDED TEMPERATURE
 LUN .               2959:   LOGGING UNIT NUMBER
 LUL .               CASP:   LOGGING UNIT LOCATION
 ENGI.            POINTER:   RECORDING ENGINEER
 WITN.         HARRINGTON:   WITNESSED BY
 CLNT.            A2DTECH:   CLIENT CODE
 ORIG.       2", 5" PRINT:   ORIGIN OF DATA
 UWI .       490251058600:   UNIQUE WELL ID
 DICO. A2D Technologies, Inc.:   DIGITIZING COMPANY
~OTHER INFORMATION
~A   DEPT       CALD      CORR      RHOB       DPOR        GRD        SPR         SN        ILD   
# ...
  779.0000     7.9332     0.0412     2.4603     0.1241   105.8993   -24.2291     5.7309     5.3033
  779.5000     7.9340     0.0351     2.4687     0.1162   106.7652   -24.4531     6.9912     5.5579
  780.0000     7.9347     0.0318     2.4640     0.1117   106.5299   -24.6377     7.9936     5.9887
  780.5000     7.9354     0.0284     2.4640     0.1167   103.1303   -24.5358     8.3932     6.7561
  781.0000     7.9362     0.0283     2.4680     0.1251   100.1183   -24.4377     8.6124     7.6219
  781.5000     7.9369     0.0283     2.4567     0.1250   101.1183   -24.3406     8.8375     8.0494
  782.0000     7.9377     0.0282     2.4461     0.1250   105.6635   -24.2436     9.0686     8.1337
  782.5000     7.9384     0.0267     2.4495     0.1226   111.3402   -24.1465     9.2449     8.2189
  783.0000     7.9391     0.0250     2.4527     0.1198   112.8913   -24.0495     9.4108     8.3026
  783.5000     7.9399     0.0244     2.4559     0.1190   113.3036   -23.9525     9.5796     8.4187
  784.0000     7.9406     0.0305     2.4595     0.1194   112.0492   -23.8553     9.7515     8.5608
  784.5000     7.9414     0.0365     2.4527     0.1269   110.3639   -23.7589     9.9265     8.7054
  785.0000     7.9421     0.0390     2.4416     0.1311   108.8664   -23.6564    10.0917     8.8524
  785.5000     7.9429     0.0373     2.4371     0.1220   108.4614   -23.8458    10.2928     9.0019
  786.0000     7.9436     0.0360     2.4518     0.1143   109.6892   -24.1498    10.5255     9.1735
  786.5000     7.9443     0.0346     2.4719     0.1077   110.9036   -24.4591    10.7653     9.4016
  787.0000     7.9451     0.0333     2.4684     0.1077   111.0799   -24.7788    11.0103     9.6354
  787.5000     7.9453     0.0312     2.4616     0.1102   111.2087   -24.8035    11.2861     9.8750
  788.0000     7.9454     0.0341     2.4734     0.1137   110.4391   -24.7244    11.3788    10.1026
  788.5000     7.9453     0.0382     2.4622     0.1171   108.8477   -24.6430    11.4825    10.1835
  789.0000     7.9453     0.0424     2.4571     0.1194   109.0920   -24.5621    11.5872    10.2651
  789.5000     7.9453     0.0464     2.4599     0.1170   110.2081   -24.4815    11.6928    10.3474
  790.0000     7.9453     0.0461     2.4617     0.1132   111.2841   -24.4008    11.7994    10.4303
  790.5000     7.9453     0.0456     2.4639     0.1094   110.4219   -24.3202    11.9070    10.5139
  791.0000     7.9453     0.0451     2.4691     0.1057   108.8239   -24.2393    11.9338    10.5981
  791.5000     7.9453     0.0446     2.4746     0.1091   108.6225   -24.1588    11.9342    10.6830
  792.0000     7.9454     0.0441     2.4715     0.1126   108.8005   -24.0793    11.9341    10.7686
  792.5000     7.9453     0.0436     2.4654     0.1161   107.7835   -24.0940    11.9340    10.8738
  793.0000     7.9454     0.0431     2.4638     0.1190   105.6558   -24.2142    11.9340    10.8349
  793.5000     7.9426     0.0426     2.4629     0.1198   103.5510   -24.3333    11.9340    10.7851
  794.0000     7.9389     0.0397     2.4619     0.1184   103.1616   -24.4530    11.9341    10.7357
  794.5000     7.9350     0.0359     2.4615     0.1169   106.4202   -24.5726    11.9340    10.6865
  795.0000     7.9312     0.0316     2.4665     0.1155   107.1050   -24.6922    11.9355    10.6374
  795.5000     7.9274     0.0389     2.4709     0.1140   106.7848   -24.8113    11.8918    10.5886
  796.0000     7.9251     0.0482     2.4627     0.1121   105.6948   -24.9288    11.8256    10.5401
  796.5000     7.9251     0.0459     2.4502     0.1103   105.9851   -25.0634    11.7592    10.4917
  797.0000     7.9251     0.0436     2.4479     0.1085   106.3143   -25.5691    11.6932    10.4437
  797.5000     7.9251     0.0412     2.4681     0.1093   107.6269   -26.0748    11.6276    10.3957
  798.0000     7.9257     0.0388     2.4695     0.1117   109.6022   -26.1096    11.5624    10.3498
  798.5000     7.9268     0.0365     2.4676     0.1142   111.3460   -24.4836    11.4975    10.3050
  799.0000     7.9279     0.0363     2.4627     0.1166   111.0310   -24.7220    11.4330    10.2603
  799.5000     7.9290     0.0378     2.4574     0.1190   110.1597   -25.0077    11.3688    10.2159
  800.0000     7.9301     0.0405     2.4522     0.1204   109.3189   -25.2369    11.3050    10.1716
  800.5000     7.9312     0.0432     2.4489     0.1214   109.6888   -24.9469    11.2416    10.1276
  801.0000     7.9323     0.0459     2.4474     0.1214   109.3751   -24.6608    11.1785    10.0837
  801.5000     7.9334     0.0486     2.4507     0.1167   108.6515   -24.8411    11.1160    10.0400
  802.0000     7.9345     0.0507     2.4613     0.1125   110.7110   -25.0662    11.0534     9.9967
  802.5000     7.9356     0.0452     2.4656     0.1083   113.9146   -25.4939    10.9914     9.9539
  803.0000     7.9367     0.0393     2.4722     0.1040   114.9172   -26.9839    10.7238     9.9080
  803.5000     7.9378     0.0334     2.4773     0.1037   113.9551   -25.7832    10.3944     9.6286
  804.0000     7.9389     0.0304     2.4811     0.1101   111.7656   -24.6992    10.0715     9.3427
  804.5000     7.9400     0.0284     2.4739     0.1151   109.6895   -25.0395     9.9577     9.1032
  805.0000     7.9411     0.0297     2.4659     0.1186   110.7998   -25.0137     9.9006     9.0516
  805.5000     7.9422     0.0327     2.4585     0.1123   111.2946   -24.9891     9.8445     9.0003
  806.0000     7.9433     0.0356     2.4614     0.1107   111.1641   -24.9629     9.7887     8.9493
  806.5000     7.9444     0.0384     2.4626     0.1127   110.9280   -24.9370     9.7334     8.8986
  807.0000     7.9455     0.0384     2.4596     0.1147   110.6903   -24.9110     9.6778     8.8482
  807.5000     7.9466     0.0386     2.4596     0.1153   110.4944   -24.8851     9.5983     8.7980
  808.0000     7.9477     0.0381     2.4676     0.1109   110.5322   -24.8592     9.4258     8.6404
  808.5000     7.9488     0.0402     2.4803     0.1067   111.4181   -24.8332     9.2573     8.5064
  809.0000     7.9499     0.0349     2.4786     0.1048   112.3579   -24.8073     9.1902     8.3744
  809.5000     7.9510     0.0322     2.4748     0.1044   112.3667   -24.7814     9.1791     8.2446
  810.0000     7.9521     0.0308     2.4728     0.1073   112.1684   -24.7554     9.1681     8.1495
  810.5000     7.9532     0.0280     2.4725     0.1117   111.9624   -24.7295     9.1571     8.1645
  811.0000     7.9543     0.0228     2.4686     0.1161   111.7535   -24.7036     9.1461     8.1787
  811.5000     7.9554     0.0274     2.4639     0.1205   111.9603   -24.6778     9.1351     8.1929
  812.0000     7.9565     0.0335     2.4592     0.1239   114.0337   -24.6529     9.1242     8.2072
  812.5000     7.9577     0.0343     2.4585     0.1222   117.4512   -24.5498     9.1123     8.2254
  813.0000     7.9587     0.0323     2.4625     0.1136   120.8531   -24.4221     9.0482     8.1842
  813.5000     7.9598     0.0299     2.4617     0.1073   120.2458   -24.2939     8.9784     8.1253
  814.0000     7.9609     0.0297     2.4647     0.1088   118.5524   -24.1657     8.8590     8.0670
  814.5000     7.9620     0.0326     2.4699     0.1114   116.0633   -24.0376     8.6981     8.0089
  815.0000     7.9632     0.0344     2.4579     0.1152   112.4513   -23.9109     8.5400     7.9513
  815.5000     7.9643     0.0344     2.4507     0.1190   114.7709   -23.8601     8.3847     7.7999
  816.0000     7.9654     0.0384     2.4550     0.1228   116.4908   -23.9299     8.2257     7.5747
  816.5000     7.9665     0.0480     2.4551     0.1239   117.1712   -23.9979     8.3026     7.3559
  817.0000     7.9675     0.0574     2.4494     0.1194   120.8120   -24.0664     8.1961     7.1855
  817.5000     7.9686     0.0631     2.4518     0.1125   120.5376   -24.1346     8.1286     7.2565
  818.0000     7.9697     0.0540     2.4635     0.1056   118.7977   -24.2022     8.0578     7.2930
  818.5000     7.9709     0.0454     2.4749     0.1024   118.8055   -24.2099     7.9710     7.3298
  819.0000     7.9720     0.0420     2.4859     0.1085   118.9827   -24.1454     7.8853     7.3667
