~VERSION INFORMATION
 VERS.                2.0:   CWLS LOG ASCII STANDARD - VERSION 2.0
 WRAP.                 NO:   ONE LINE PER DEPTH STEP
~WELL INFORMATION
#MNEM.UNIT      DATA TYPE    INFORMATION
#----------   ------------   ------------------------------
 STRT.F            0.0000:   START DEPTH
 STOP.F         2838.0000:   STOP DEPTH
 STEP.F            0.5000:   STEP LENGTH
 NULL.          -999.2500:   NO VALUE
 COMP. INTEX OIL CO U S NAVY:   COMPANY
 WELL. NAVAL PETROLEUM RESERVE 3 29 #NPR #3 (204A29)-29:   WELL
 FLD .                N/A:   FIELD
 LOC .      S29 T39N R78W:   LOCATION
 CNTY.            NATRONA:   COUNTY
 STAT.            WYOMING:   STATE
 CTRY. UNITED STATES OF AMERICA:   COUNTRY
 SRVC.      NL McCullough:   SERVICE COMPANY
 DATE.        24-JUN-1965:   LOGDATE
 API .       490251021700:   API NUMBER
~CURVE INFORMATION
#MNEM.UNIT       API CODE    CURVE DESCRIPTION
#----------   ------------   ------------------------------
 DEPT.F                  :   
 GR  .GAPI   30 310 01 00:   GAMMA RAY
 HD  .IN     70 280 01 00:   DAIMETER
~PARAMETER INFORMATION
#MNEM.UNIT          VALUE    DESCRIPTION
#----------   ------------   ------------------------------
 PD  .                 GL:   PERMANENT DATUM
 LMF .                 GL:   LOG MEASURED FROM
 EDF .F              5016:   DRILLING FLOOR
 DATE.        24-JUN-1965:   RUN DATE
 RUN .                  1:   RUN NUMBER
 DD  .F              2838:   DEPTH DRILLER
 DL  .F              2838:   DEPTH LOGGER
 BLI .F              2836:   BOTTOM LOG INTERVAL
 TLI .F              2400:   TOP LOG INTERVAL
 CS  .IN            6.625:   CASING SIZE
 CBD .F              2820:   CASING BOTTOM DRILLER
 BSD .F              2838:   BIT SIZE AT DEPTH
 LUN .               1497:   LOGGING UNIT NUMBER
 ENGI.         COWLTHORPE:   RECORDING ENGINEER
 WITN.         MR. HUDSON:   WITNESSED BY
 CLNT.            A2DTECH:   CLIENT CODE
 ORIG.           5" PRINT:   ORIGIN OF DATA
 UWI .       490251021700:   UNIQUE WELL ID
 DICO. A2D Technologies, Inc.:   DIGITIZING COMPANY
~OTHER INFORMATION
~A    DEPT      GR           HD 
    0.0000  -999.2500     6.6394
    0.5000  -999.2500     6.6394
    1.0000  -999.2500     6.5536
    1.5000  -999.2500     6.4931
    2.0000  -999.2500     6.4626
    2.5000  -999.2500     6.4623
    3.0000  -999.2500     6.4620
    3.5000  -999.2500     6.4617
    4.0000  -999.2500     6.4614
    4.5000  -999.2500     6.4611
    5.0000  -999.2500     6.4608
    5.5000  -999.2500     6.4455
    6.0000  -999.2500     6.4451
    6.5000  -999.2500     6.4448
    7.0000  -999.2500     6.4445
    7.5000  -999.2500     6.4594
    8.0000  -999.2500     6.4591
    8.5000  -999.2500     6.4587
    9.0000  -999.2500     6.4584
    9.5000  -999.2500     6.4581
   10.0000  -999.2500     6.4578
   10.5000  -999.2500     6.4575
   11.0000  -999.2500     6.4723
   11.5000  -999.2500     6.4720
   12.0000  -999.2500     6.4867
   12.5000  -999.2500     6.4865
   13.0000  -999.2500     6.4862
   13.5000  -999.2500     6.4859
   14.0000  -999.2500     6.4856
   14.5000  -999.2500     6.4852
   15.0000  -999.2500     6.4699
   15.5000  -999.2500     6.4695
   16.0000  -999.2500     6.4692
   16.5000  -999.2500     6.4539
   17.0000  -999.2500     6.4536
   17.5000  -999.2500     6.4684
   18.0000  -999.2500     6.4681
   18.5000  -999.2500     6.4979
   19.0000  -999.2500     6.5126
   19.5000  -999.2500     6.5123
   20.0000  -999.2500     6.5271
   20.5000  -999.2500     6.5268
   21.0000  -999.2500     6.5265
   21.5000  -999.2500     6.5262
   22.0000  -999.2500     6.5259
   22.5000  -999.2500     6.5256
   23.0000  -999.2500     6.5102
   23.5000  -999.2500     6.4948
   24.0000  -999.2500     6.4945
   24.5000  -999.2500     6.4792
   25.0000  -999.2500     6.4789
   25.5000  -999.2500     6.4636
   26.0000  -999.2500     6.4632
   26.5000  -999.2500     6.4478
   27.0000  -999.2500     6.4475
   27.5000  -999.2500     6.4473
   28.0000  -999.2500     6.4470
   28.5000  -999.2500     6.4316
   29.0000  -999.2500     6.4313
   29.5000  -999.2500     6.4310
   30.0000  -999.2500     6.4307
   30.5000  -999.2500     6.4153
   31.0000  -999.2500     6.4150
   31.5000  -999.2500     6.3997
   32.0000  -999.2500     6.4000
   32.5000  -999.2500     6.4006
   33.0000  -999.2500     6.4012
   33.5000  -999.2500     6.4017
   34.0000  -999.2500     6.4023
   34.5000  -999.2500     6.4029
   35.0000  -999.2500     6.4035
   35.5000  -999.2500     6.4041
   36.0000  -999.2500     6.4047
   36.5000  -999.2500     6.4052
   37.0000  -999.2500     6.4058
   37.5000  -999.2500     6.4064
   38.0000  -999.2500     6.4070
   38.5000  -999.2500     6.4076
   39.0000  -999.2500     6.4082
   39.5000  -999.2500     6.4087
   40.0000  -999.2500     6.4093
   40.5000  -999.2500     6.4099
   41.0000  -999.2500     6.4105
   41.5000  -999.2500     6.4111
   42.0000  -999.2500     6.4117
   42.5000  -999.2500     6.4122
   43.0000  -999.2500     6.4128
   43.5000  -999.2500     6.4134
   44.0000  -999.2500     6.4140
   44.5000  -999.2500     6.4146
   45.0000  -999.2500     6.4152
   45.5000  -999.2500     6.4158
   46.0000  -999.2500     6.4163
   46.5000  -999.2500     6.4169
   47.0000  -999.2500     6.4175
   47.5000  -999.2500     6.4181
   48.0000  -999.2500     6.4187
   48.5000  -999.2500     6.4193
   49.0000  -999.2500     6.4192
   49.5000  -999.2500     6.4189
   50.0000  -999.2500     6.4187
   50.5000  -999.2500     6.4033
   51.0000  -999.2500     6.4030
   51.5000  -999.2500     6.4027
   52.0000  -999.2500     6.4024
   52.5000  -999.2500     6.4021
   53.0000  -999.2500     6.3867
   53.5000  -999.2500     6.3864
   54.0000  -999.2500     6.3861
   54.5000  -999.2500     6.3858
   55.0000  -999.2500     6.3855
   55.5000  -999.2500     6.3853
   56.0000  -999.2500     6.3849
   56.5000  -999.2500     6.3846
   57.0000  -999.2500     6.3843
   57.5000  -999.2500     6.3840
   58.0000  -999.2500     6.3837
   58.5000  -999.2500     6.3834
   59.0000  -999.2500     6.3831
   59.5000  -999.2500     6.3828
   60.0000  -999.2500     6.3825
   60.5000  -999.2500     6.3822
   61.0000  -999.2500     6.3819
   61.5000  -999.2500     6.3816
   62.0000  -999.2500     6.3813
   62.5000  -999.2500     6.3810
   63.0000  -999.2500     6.3807
   63.5000  -999.2500     6.3804
   64.0000  -999.2500     6.3801
   64.5000  -999.2500     6.3798
   65.0000  -999.2500     6.3795
   65.5000  -999.2500     6.3792
   66.0000  -999.2500     6.3789
   66.5000  -999.2500     6.3786
   67.0000  -999.2500     6.3783
   67.5000  -999.2500     6.3780
   68.0000  -999.2500     6.3777
   68.5000  -999.2500     6.3774
   69.0000  -999.2500     6.3771
   69.5000  -999.2500     6.3768
   70.0000  -999.2500     6.3765
   70.5000  -999.2500     6.3762
   71.0000  -999.2500     6.3759
   71.5000  -999.2500     6.3755
   72.0000  -999.2500     6.3904
   72.5000  -999.2500     6.3900
   73.0000  -999.2500     6.4049
   73.5000  -999.2500     6.4045
   74.0000  -999.2500     6.4042
   74.5000  -999.2500     6.3738
   75.0000  -999.2500     6.3559
   75.5000  -999.2500     6.3430
   76.0000  -999.2500     6.3427
   76.5000  -999.2500     6.3274
   77.0000  -999.2500     6.3271
   77.5000  -999.2500     6.3268
   78.0000  -999.2500     6.3114
   78.5000  -999.2500     6.3112
   79.0000  -999.2500     6.3104
   79.5000  -999.2500     6.3095
   80.0000  -999.2500     6.3087
   80.5000  -999.2500     6.3078
   81.0000  -999.2500     6.3069
   81.5000  -999.2500     6.3061
   82.0000  -999.2500     6.3052
   82.5000  -999.2500     6.3043
   83.0000  -999.2500     6.3034
   83.5000  -999.2500     6.3026
   84.0000  -999.2500     6.3017
   84.5000  -999.2500     6.3008
   85.0000  -999.2500     6.3000
   85.5000  -999.2500     6.2991
   86.0000  -999.2500     6.2982
   86.5000  -999.2500     6.2973
   87.0000  -999.2500     6.2965
   87.5000  -999.2500     6.2956
   88.0000  -999.2500     6.2947
   88.5000  -999.2500     6.2939
   89.0000  -999.2500     6.2930
   89.5000  -999.2500     6.2921
   90.0000  -999.2500     6.2912
   90.5000  -999.2500     6.2904
   91.0000  -999.2500     6.2895
   91.5000  -999.2500     6.2886
   92.0000  -999.2500     6.2880
   92.5000  -999.2500     6.2876
   93.0000  -999.2500     6.2873
   93.5000  -999.2500     6.2870
   94.0000  -999.2500     6.2867
   94.5000  -999.2500     6.2864
   95.0000  -999.2500     6.2861
   95.5000  -999.2500     6.2859
   96.0000  -999.2500     6.2855
   96.5000  -999.2500     6.3003
   97.0000  -999.2500     6.3000
   97.5000  -999.2500     6.3023
   98.0000  -999.2500     6.3086
   98.5000  -999.2500     6.3148
   99.0000  -999.2500     6.3211
   99.5000  -999.2500     6.3286
  100.0000  -999.2500     6.3283
  100.5000  -999.2500     6.3280
  101.0000  -999.2500     6.3294
  101.5000  -999.2500     6.3317
  102.0000  -999.2500     6.3341
  102.5000  -999.2500     6.3365
  103.0000  -999.2500     6.3388
  103.5000  -999.2500     6.3412
  104.0000  -999.2500     6.3435
  104.5000  -999.2500     6.3459
  105.0000  -999.2500     6.3482
  105.5000  -999.2500     6.3506
  106.0000  -999.2500     6.3529
  106.5000  -999.2500     6.3553
  107.0000  -999.2500     6.3577
  107.5000  -999.2500     6.3600
  108.0000  -999.2500     6.3624
  108.5000  -999.2500     6.3647
  109.0000  -999.2500     6.3658
  109.5000  -999.2500     6.3630
  110.0000  -999.2500     6.3602
  110.5000  -999.2500     6.3574
  111.0000  -999.2500     6.3546
  111.5000  -999.2500     6.3518
  112.0000  -999.2500     6.3490
  112.5000  -999.2500     6.3463
  113.0000  -999.2500     6.3435
  113.5000  -999.2500     6.3407
  114.0000  -999.2500     6.3379
  114.5000  -999.2500     6.3351
  115.0000  -999.2500     6.3323
  115.5000  -999.2500     6.3295
  116.0000  -999.2500     6.3126
  116.5000  -999.2500     6.3132
  117.0000  -999.2500     6.3136
  117.5000  -999.2500     6.3141
  118.0000  -999.2500     6.3296
  118.5000  -999.2500     6.3300
  119.0000  -999.2500     6.3455
  119.5000  -999.2500     6.3459
  120.0000  -999.2500     6.3464
  120.5000  -999.2500     6.3318
  121.0000  -999.2500     6.3322
