~VERSION INFORMATION
 VERS.                2.0:   CWLS LOG ASCII STANDARD - VERSION 2.0
 WRAP.                 NO:   ONE LINE PER DEPTH STEP
~WELL INFORMATION
#MNEM.UNIT      DATA TYPE    INFORMATION
#----------   ------------   ------------------------------
 STRT.F           31.0000:   START DEPTH
 STOP.F          590.0000:   STOP DEPTH
 STEP.F            0.1000:   STEP LENGTH
 NULL.          -999.2500:   NO VALUE
 COMP. LAWRENCE/ALLISON INC:   COMPANY
 WELL. NPR 3 73-61 SX #3-3:   WELL
 FLD .             TEAPOT:   FIELD
 LOC .       S3 T38N R78W:   LOCATION
 CNTY.            NATRONA:   COUNTY
 STAT.            WYOMING:   STATE
 CTRY. UNITED STATES OF AMERICA:   COUNTRY
 SRVC.           Gearhart:   SERVICE COMPANY
 DATE.        14-AUG-1988:   LOGDATE
 API .       490251124200:   API NUMBER
~CURVE INFORMATION
#MNEM.UNIT       API CODE    CURVE DESCRIPTION
#----------   ------------   ------------------------------
 DEPT.F                  :   
 GRR .GAPI   07 310 01 00:   GAMMA RAY
 RILD.OHMM   07 120 46 00:   INDUCTION LOG DEEP RESISTIVITY
 RILM.OHMM   07 120 44 00:   INDUCTION LOG MEDIUM RESISTIVITY
~PARAMETER INFORMATION
#MNEM.UNIT          VALUE    DESCRIPTION
#----------   ------------   ------------------------------
 PD  .                 GL:   PERMANENT DATUM
 EPD .F              5136:   ELEVATION PERMANENT DATUM
 LMF .                 KB:   LOG MEASURED FROM
 DAPD.F                10:   FEET ABOVE PERMANENT DATUM
 DMF .                 KB:   DRILLING MEASURED FROM
 EKB .F              5146:   KELLING BUSHING
 EDF .F              5144:   DRILLING FLOOR
 EGL .F              5136:   GROUND LEVEL
 DATE.        14-AUG-1988:   RUN DATE
 RUN .                  1:   RUN NUMBER
 DD  .F               597:   DEPTH DRILLER
 DL  .F               598:   DEPTH LOGGER
 BLI .F               590:   BOTTOM LOG INTERVAL
 TLI .F                50:   TOP LOG INTERVAL
 CS  .IN            9.625:   CASING SIZE
 CBD .F                50:   CASING BOTTOM DRILLER
 CBL .F                50:   CASING BOTTOM LOGGER
 BS  .IN             8.75:   BIT SIZE
 BSD .F               597:   BIT SIZE AT DEPTH
 DFT .                AIR:   DRILLING FLUID TYPE
 TCS .HRS            1930:   TIME CURCULATED STOPPED
 TLAB.HRS            2030:   TIME LOGGER AT BOTTOM
 MRT .F                70:   MAXIMUM RECORDED TEMPERATURE
 LUN .               7597:   LOGGING UNIT NUMBER
 LUL .           GILLETTE:   LOGGING UNIT LOCATION
 ENGI.         WEATHERMON:   RECORDING ENGINEER
 WITN.             STRONG:   WITNESSED BY
 CLNT.            A2DTECH:   CLIENT CODE
 ORIG.           5" PRINT:   ORIGIN OF DATA
 UWI .       490251124200:   UNIQUE WELL ID
 DICO. A2D Technologies, Inc.:   DIGITIZING COMPANY
~OTHER INFORMATION
~A   DEPT       GRR      RILD       RILM   
# ...
   49.2000    57.7821  -999.2500  -999.2500
   49.3000    59.0440  -999.2500  -999.2500
   49.4000    60.3000  -999.2500  -999.2500
   49.5000    61.4932  -999.2500  -999.2500
   49.6000    62.7327  -999.2500  -999.2500
   49.7000    64.4015  -999.2500  -999.2500
   49.8000    66.6827  -999.2500  -999.2500
   49.9000    69.9627  -999.2500  -999.2500
   50.0000    74.2424    13.8487   405.7504
   50.1000    76.7618     6.8133   420.0329
   50.2000    78.8812     5.1712   355.1066
   50.3000    80.6016     4.3881   274.9512
   50.4000    82.1158     4.0200   194.7958
   50.5000    83.5836     3.7066   120.8856
   50.6000    84.8759     3.4973    66.9705
   50.7000    86.1075     3.1465    25.9480
   50.8000    87.1756     2.7878    22.7883
   50.9000    88.0437     2.5270    19.6286
   51.0000    88.8938     2.3939    16.4689
   51.1000    89.9049     2.4272    13.3092
   51.2000    90.9639     2.5304    10.1495
   51.3000    91.6864     2.6959     7.6454
   51.4000    92.6332     2.9000     6.6564
   51.5000    93.5074     3.0736     5.6673
   51.6000    94.1818     3.1458     4.6783
   51.7000    94.6896     3.2244     3.6270
   51.8000    95.2337     3.3876     3.5875
   51.9000    95.4713     3.7010     3.6713
   52.0000    95.9091     4.4372     3.7980
   52.1000    96.1561     5.4834     3.9246
   52.2000    96.2393     6.6343     4.0513
   52.3000    96.4954     8.2212     4.2706
   52.4000    96.7762     9.9689     4.5965
   52.5000    96.7803    11.6387     4.9788
   52.6000    96.7848    13.1674     5.3611
   52.7000    96.6651    14.8614     5.7434
   52.8000    96.4182    17.5102     6.1257
   52.9000    96.1501    22.3921     6.5079
   53.0000    95.5915    30.9074     6.8902
   53.1000    95.3742    32.6375     7.2725
   53.2000    95.1273    33.8670     7.8029
   53.3000    94.8803    34.4757     8.7680
   53.4000    94.6334    34.7676     9.7332
   53.5000    94.3864    34.7656    10.6984
   53.6000    94.1037    34.7635    11.6636
   53.7000    93.8924    34.0519    12.6287
   53.8000    93.4817    30.3088    13.5939
   53.9000    92.9833    25.3456    14.5591
   54.0000    92.5455    21.3752    16.0683
   54.1000    92.2985    19.6081    18.7495
   54.2000    92.0099    19.0078    21.4308
   54.3000    91.5954    18.5977    24.1120
   54.4000    91.4121    18.2472    26.7933
   54.5000    91.4166    18.0374    29.4745
   54.6000    91.4212    17.9165    32.1558
   54.7000    91.4258    17.7955    34.0945
   54.8000    91.4312    17.6745    35.4754
   54.9000    91.8407    17.5535    36.8563
   55.0000    92.3485    17.4325    38.2372
   55.1000    92.7562    17.3115    38.5131
   55.2000    93.0607    17.1906    37.5142
   55.3000    93.5743    17.0696    35.7375
   55.4000    93.8272    17.0427    33.9608
   55.5000    94.0833    17.2383    32.1841
   55.6000    94.1939    17.7457    30.4074
   55.7000    94.2924    18.3446    28.9107
   55.8000    94.5061    18.8099    27.5641
   55.9000    94.5108    19.5190    26.2175
   56.0000    94.5151    20.2723    24.8709
   56.1000    94.5197    20.9554    23.5244
   56.2000    94.3849    21.5844    22.1778
   56.3000    94.1379    22.4241    20.8312
   56.4000    93.8179    23.0242    19.4846
   56.5000    93.0230    23.6046    18.7080
   56.6000    92.5545    24.1599    18.1155
   56.7000    92.0561    24.7276    17.4586
   56.8000    91.6909    25.3085    16.7983
   56.9000    91.4440    25.9313    16.3913
   57.0000    91.1968    26.6619    16.2096
   57.1000    90.9292    27.2045    16.0918
   57.2000    90.9334    27.8702    16.0505
   57.3000    91.1167    28.5625    16.0851
   57.4000    91.3727    29.0638    16.1779
   57.5000    91.5530    29.5740    16.2713
   57.6000    91.5575    29.9851    16.4972
   57.7000    91.5626    29.9837    16.8119
   57.8000    91.5667    29.7672    17.2073
   57.9000    91.3984    29.4207    17.5670
   58.0000    91.1515    28.9990    17.8476
   58.1000    90.9046    28.3278    18.0451
   58.2000    90.6754    27.5814    18.2426
   58.3000    90.7350    26.7706    18.4401
   58.4000    90.5354    25.6549    18.6377
   58.5000    90.5408    24.5510    18.8352
   58.6000    90.8427    23.5668    19.0327
   58.7000    91.0527    22.6576    19.2302
   58.8000    91.3088    22.0845    19.4277
   58.9000    91.7868    21.7379    19.6033
   59.0000    92.5497    21.3603    19.5748
   59.1000    93.2992    20.9891    19.5492
   59.2000    93.8783    20.6637    19.5235
   59.3000    94.5371    20.4398    19.4979
   59.4000    95.1300    20.3142    19.4722
   59.5000    95.6396    20.0893    19.4466
   59.6000    96.2223    19.9437    19.4209
   59.7000    96.9360    19.8267    19.3953
   59.8000    97.2159    19.7104    19.3696
   59.9000    97.6778    19.5948    19.3440
   60.0000    98.0060    19.4798    19.3183
   60.1000    98.2619    19.4785    19.3167
   60.2000    98.4338    19.3861    19.3156
   60.3000    98.4362    19.3419    19.2449
   60.4000    98.4388    19.2927    19.1795
   60.5000    98.2004    19.1796    19.1517
   60.6000    97.9493    19.0723    19.0443
   60.7000    97.6981    19.0711    19.0428
   60.8000    97.4469    18.9752    19.0416
   60.9000    97.1491    18.9373    18.9667
   61.0000    96.6405    18.8840    18.9075
   61.1000    96.0392    18.8044    18.9061
   61.2000    95.4321    18.8033    18.9048
   61.3000    94.8282    18.8022    18.9034
   61.4000    94.2175    18.7025    18.9022
   61.5000    93.4021    18.6703    18.9008
   61.6000    92.4076    18.6125    18.8995
   61.7000    91.8239    18.5392    18.8983
   61.8000    91.1842    18.5228    18.8969
   61.9000    90.5913    18.4089    18.8956
   62.0000    90.0865    18.4079    18.8943
   62.1000    89.5820    18.3256    18.8930
   62.2000    89.1164    18.2787    18.8917
   62.3000    89.1193    18.2373    18.8904
   62.4000    89.1215    18.1504    18.8891
   62.5000    89.3002    18.1494    18.8878
   62.6000    89.6839    18.1482    18.8862
   62.7000    90.1142    18.0620    18.8851
   62.8000    90.4009    18.0209    18.8838
   62.9000    90.9464    18.0199    18.8825
   63.0000    91.1843    17.9940    18.8812
   63.1000    91.6273    17.8934    18.8799
   63.2000    91.9983    17.8923    18.8784
   63.3000    92.1644    17.8914    18.8773
   63.4000    92.1252    17.8212    18.8760
   63.5000    91.8671    17.7658    18.8225
   63.6000    91.3764    17.7648    18.7429
   63.7000    91.0697    17.7540    18.7416
   63.8000    90.6691    17.6400    18.7402
   63.9000    90.2652    17.6391    18.6406
   64.0000    90.0665    17.5649    18.6082
   64.1000    90.0688    17.5152    18.5504
   64.2000    89.7696    17.5143    18.4771
   64.3000    89.7716    17.4987    18.4604
   64.4000    89.7740    17.3912    18.3467
   64.5000    89.8882    17.3903    18.2441
   64.6000    90.0810    17.3124    18.1369
   64.7000    90.0981    17.2682    18.0303
   64.8000    90.3882    17.2291    17.9243
   64.9000    90.6100    17.1469    17.8190
   65.0000    90.8661    17.1460    17.7141
   65.1000    91.1220    17.0264    17.5902
   65.2000    91.3780    17.0256    17.5892
   65.3000    91.6597    16.9634    17.5248
   65.4000    92.2153    16.9060    17.3786
   65.5000    92.4482    16.8817    17.2234
   65.6000    92.7042    16.7874    17.2174
   65.7000    93.0937    16.7863    17.1019
   65.8000    93.5182    16.7020    17.0158
   65.9000    93.7742    16.6686    16.9158
   66.0000    94.0424    16.6216    16.8163
   66.1000    94.2862    16.5515    16.7453
   66.2000    94.5423    16.5415    16.7348
   66.3000    94.7983    16.4352    16.6271
   66.4000    95.0542    16.3480    16.6260
   66.5000    95.3102    16.3198    16.5559
   66.6000    95.5674    16.2693    16.4586
   66.7000    95.8724    16.1740    16.3619
   66.8000    95.8744    16.0924    16.2791
   66.9000    96.0320    16.0914    16.2780
   67.0000    96.1813    16.0016    16.1870
   67.1000    96.2419    15.9079    16.0918
   67.2000    96.4882    15.8672    16.0505
   67.3000    96.4910    15.8312    16.0139
