~VERSION INFORMATION
 VERS.                2.0:   CWLS LOG ASCII STANDARD - VERSION 2.0
 WRAP.                 NO:   ONE LINE PER DEPTH STEP
~WELL INFORMATION
#MNEM.UNIT      DATA TYPE    INFORMATION
#----------   ------------   ------------------------------
 STRT.F           99.0000:   START DEPTH
 STOP.F          761.5000:   STOP DEPTH
 STEP.F            0.5000:   STEP LENGTH
 NULL.          -999.2500:   NO VALUE
 COMP.          U.S. NAVY:   COMPANY
 WELL. RES 3 TEAPOT DOM #48S-11:   WELL
 FLD .             TEAPOT:   FIELD
 LOC .      S11 T38N R78W:   LOCATION
 CNTY.            NATRONA:   COUNTY
 STAT.            WYOMING:   STATE
 CTRY. UNITED STATES OF AMERICA:   COUNTRY
 SRVC.       Schlumberger:   SERVICE COMPANY
 DATE.        14-JUL-1963:   LOGDATE
 API .       490250632500:   API NUMBER
~CURVE INFORMATION
#MNEM.UNIT       API CODE    CURVE DESCRIPTION
#----------   ------------   ------------------------------
 DEPT.F                  :   
 SPR .MV     05 010 01 00:   SPONTANEOUS POTENTIAL FROM RES.
 ILD .OHMM   05 120 46 00:   INDUCTION LOG DEEP
 CILD.MMHO   05 110 46 00:   CONDUCTIVITY INDUCTION LOG DEEP
 GR  .GAPI   30 310 01 00:   GAMMA RAY
 ASN .OHMM   05 041 16 00:   AMPLIFIED SHORT NORMAL 16"
~PARAMETER INFORMATION
#MNEM.UNIT          VALUE    DESCRIPTION
#----------   ------------   ------------------------------
 PD  .                 GL:   PERMANENT DATUM
 EPD .F              5187:   ELEVATION PERMANENT DATUM
 LMF .                 KB:   LOG MEASURED FROM
 DAPD.F                 5:   FEET ABOVE PERMANENT DATUM
 DMF .                 KB:   DRILLING MEASURED FROM
 EKB .F              5192:   KELLING BUSHING
 EGL .F              5187:   GROUND LEVEL
 DATE.            7-14-63:   RUN DATE
 RUN .                  1:   RUN NUMBER
 DD  .F               762:   DEPTH DRILLER
 DL  .F               761:   DEPTH LOGGER
 BLI .F               760:   BOTTOM LOG INTERVAL
 TLI .F               100:   TOP LOG INTERVAL
 CS  .IN            8.625:   CASING SIZE
 CBD .F                10:   CASING BOTTOM DRILLER
 BS  .IN            7.875:   BIT SIZE
 BSD .F               762:   BIT SIZE AT DEPTH
 DFT .            GEL-OIL:   DRILLING FLUID TYPE
 DFD .                 10:   DRILLING FLUID DENSITY
 DFV .                 55:   DRILLING FLUID VISCOSITY
 DFPH.                9.5:   DRILLING FLUID PH
 DFL .                  4:   DRILLING FLUID LOSS
 MSS .          FLOW LINE:   MUD SAMPLE SOURCE
 RMS .OHMM           3.11:   RESISTIVITY MUD SAMPLE
 MST .F                78:   MUD SAMPLE TEMPERATURE
 RMF .OHMM           2.31:   RESISTIVITY MUD FILTRATE SAMPLE
 MFST.F                78:   MUD FILTRATE SAMPLE TEMPERATURE
 RMC .OHMM           3.82:   RESISTIVITY MUD CAKE
 MCST.F                78:   MUD CAKE SAMPLE TEMPERATURE
 MFSS.                  M:   MUD FILTRATE SAMPLE SOURCE
 MCSS.                  M:   MUD CAKE SAMPLE SOURCE
 TCS .HRS               1:   TIME CURCULATED STOPPED
 LUN .               4507:   LOGGING UNIT NUMBER
 ENGI.             KNOBEL:   RECORDING ENGINEER
 WITN.          JORGENSEN:   WITNESSED BY
 CLNT.            A2DTECH:   CLIENT CODE
 ORIG.       2", 5" PRINT:   ORIGIN OF DATA
 UWI .       490250632500:   UNIQUE WELL ID
 DICO. A2D Technologies, Inc.:   DIGITIZING COMPANY
~OTHER INFORMATION
~A   DEPT      SPR        ILD       CILD         GR        ASN   
# ...
  648.0000   -26.1787     9.0400   108.6487    62.7328    10.2968
  648.5000   -26.0625     9.0205   108.1882    55.3644    10.3535
  649.0000   -25.9500     9.0008   108.0402    56.8140    10.4111
  649.5000   -25.8349     8.9950   109.3209    50.4045    10.4608
  650.0000   -25.8743     8.9949   110.7681    43.6250    10.4767
  650.5000   -25.9773     8.9950   111.9518    53.2471    10.4310
  651.0000   -25.8565     8.9950   110.9387    52.4293    10.2959
  651.5000   -25.6527     8.9948   109.9256    59.5684    10.1389
  652.0000   -25.4450     8.9951   109.0452    53.5388    10.0437
  652.5000   -25.2372     8.9941   107.5712    54.0565    10.0664
  653.0000   -25.0293     9.1332   104.1943    50.3195    10.1752
  653.5000   -24.8242     9.3864   100.8174    54.1904    10.4544
  654.0000   -24.8678     9.6431    98.9950    52.4020    10.9458
  654.5000   -25.0117     9.9107   103.1035    58.0932    11.0077
  655.0000   -25.1554     9.0729   112.0201    52.3695    10.9634
  655.5000   -25.2980     7.9965   132.7983    48.3359    10.9029
  656.0000   -25.4002     6.8665   159.8588    40.7462    10.3863
  656.5000   -25.2120     5.9738   180.2120    43.2513     9.2455
  657.0000   -24.8088     5.5689   181.4070    52.3601     8.1105
  657.5000   -24.5886     5.5343   178.9146    49.1333     7.1087
  658.0000   -24.9155     5.4687   177.8166    53.7698     6.9659
  658.5000   -25.2861     5.3986   179.7683    58.3268     7.0972
  659.0000   -25.3528     5.3621   180.3021    62.0796     7.0196
  659.5000   -25.0565     5.8047   166.0811    55.8015     7.7336
  660.0000   -24.8284     6.5045   139.6482    38.9865     9.2829
  660.5000   -24.7985     7.9647   113.4774    41.0469    10.3102
  661.0000   -24.7993     9.3817    99.0452    43.9432    10.7023
  661.5000   -24.8031    10.5620    88.5039    45.0984    11.1330
  662.0000   -24.6569    11.1444    84.8996    47.8059    11.5597
  662.5000   -24.4906    11.4129    86.9739    44.4587    11.6168
  663.0000   -24.3969    11.2468    88.9026    45.7819    11.7745
  663.5000   -24.3976    10.9261    90.9548    48.2462    11.7099
  664.0000   -24.3986    10.7109    92.4100    46.0062    11.7710
  664.5000   -24.4636    10.7508    94.4362    46.1003    11.8274
  665.0000   -24.6145    10.7890    92.0000    48.0464    11.8828
  665.5000   -24.7645    10.8696    88.0611    40.3524    12.0759
  666.0000   -24.9167    11.4010    82.5906    42.7472    12.5055
  666.5000   -25.1629    12.1169    77.1200    45.0754    12.9478
  667.0000   -25.5494    12.8969    71.6501    46.1706    13.8819
  667.5000   -25.9438    13.9685    66.1702    40.8451    15.6809
  668.0000   -26.7554    15.3210    60.8723    29.9553    17.6387
  668.5000   -27.8179    17.0481    55.7951    24.7642    19.7070
  669.0000   -29.2554    18.4965    50.7414    14.3294    21.5697
  669.5000   -31.3796    20.1379    45.5931     0.0000    22.6217
  670.0000   -33.4421    21.1838    43.7646     0.0000    23.6594
  670.5000   -35.1730    22.2031    43.7025     0.3497    24.0456
  671.0000   -36.8696    22.2364    43.7041     3.3918    22.9715
  671.5000   -38.2631    21.6010    44.3622     6.2122    21.9691
  672.0000   -37.3147    20.9788    45.7994     7.8648    21.7491
  672.5000   -36.6427    20.3531    47.2510    13.4449    21.5550
  673.0000   -36.8995    20.1207    48.6998    12.0500    21.3800
  673.5000   -38.2579    20.0702    49.7542    10.4714    21.2933
  674.0000   -39.3069    20.0221    49.7494    10.8266    21.4706
  674.5000   -37.8392    19.9690    49.7482     9.5947    21.4832
  675.0000   -35.8063    19.6736    49.7448    11.7476    21.3114
  675.5000   -35.4416    19.1146    50.2215     9.0929    20.4632
  676.0000   -35.4930    18.5605    51.7816     7.4708    19.8683
  676.5000   -34.4996    18.0015    53.3416     7.5599    19.3250
  677.0000   -34.2403    17.5606    54.9017     9.8736    18.7684
  677.5000   -34.2704    17.2110    56.4498    10.6575    18.5991
  678.0000   -33.7873    16.8658    57.8042    11.6404    18.5346
  678.5000   -32.3238    16.5204    59.1288    17.0217    17.8631
  679.0000   -30.7854    16.1382    60.5524    17.7558    17.5432
  679.5000   -29.7974    15.5666    61.9706    12.4967    17.4603
  680.0000   -29.4570    15.2952    63.3889     6.9789    17.2319
  680.5000   -29.1984    15.0709    64.8241     9.0105    16.7961
  681.0000   -29.1090    14.8529    65.7653    11.7901    16.3499
  681.5000   -29.0141    14.6343    66.9571    21.4716    15.9348
  682.0000   -29.2221    14.4337    68.1490    31.0656    15.5371
  682.5000   -29.4892    14.3119    68.6649    30.0529    15.4843
  683.0000   -29.7598    14.3452    67.8435    32.5624    15.4457
  683.5000   -30.0242    14.4137    67.0221    29.8312    15.4055
  684.0000   -30.2911    14.5673    66.2007    29.9438    15.3646
  684.5000   -30.5573    14.7536    65.3793    27.5971    15.3289
  685.0000   -31.0356    14.8586    64.5579    28.9375    15.3668
  685.5000   -31.5739    14.9635    63.7365    33.5289    15.4066
  686.0000   -32.0107    15.0701    62.9151    29.1925    15.4455
  686.5000   -31.7981    15.1261    62.6481    23.3044    15.5263
  687.0000   -31.6228    15.1088    62.4613    24.0052    15.6044
  687.5000   -31.6759    15.0850    62.2738    28.0320    15.6831
  688.0000   -31.7302    15.0609    62.0867    27.0265    15.7611
  688.5000   -31.7830    15.0367    61.8991    29.3355    15.7932
  689.0000   -31.7806    15.0253    62.1143    27.7316    15.6553
  689.5000   -31.4397    15.0252    63.0641    28.2836    15.5491
  690.0000   -31.2773    15.0258    64.0138    21.7752    15.4451
  690.5000   -30.8278    15.0231    64.9636    22.6582    15.3409
  691.0000   -30.4207    14.9056    65.9133    24.6273    15.2365
  691.5000   -30.0389    14.7782    66.8631    27.3443    15.1314
  692.0000   -29.9321    14.6475    67.8392    28.1480    15.0292
  692.5000   -29.8193    14.6572    67.5823    30.7984    15.0397
  693.0000   -29.7038    14.7008    67.2415    25.2585    15.0562
  693.5000   -29.5888    14.7453    66.9026    21.0185    15.0722
  694.0000   -29.4728    14.7894    66.5650    22.3519    15.0879
  694.5000   -29.5692    14.8244    66.2271    18.6586    15.1040
  695.0000   -29.8222    14.8677    65.8895    21.2907    15.1188
  695.5000   -30.0927    14.9369    65.4880    21.9015    15.2007
  696.0000   -30.4304    15.0068    64.9402    12.5437    15.3192
  696.5000   -30.3655    15.0767    64.3928    15.5916    15.4376
  697.0000   -30.2963    15.1464    63.8452    19.4260    15.5263
  697.5000   -30.2262    15.2140    63.2974    16.7968    15.6476
  698.0000   -30.7715    15.3269    62.7485    15.1393    15.7884
  698.5000   -31.9952    15.4438    62.1964    13.3268    15.9284
  699.0000   -33.1854    15.5329    61.8091    17.5590    16.0347
  699.5000   -34.0596    15.4116    62.7216    18.6044    15.8828
  700.0000   -33.9257    15.2796    63.5639    16.7993    15.6776
  700.5000   -32.1984    15.1474    64.4062    23.7762    15.5252
  701.0000   -30.3073    15.0164    65.2486    16.7949    15.4563
  701.5000   -29.1724    14.8645    65.8291    16.7117    15.3139
  702.0000   -29.2474    14.6680    65.8291    20.1273    15.1721
  702.5000   -29.3257    14.4710    66.8960    14.8904    15.0302
  703.0000   -29.4062    14.2678    68.0603    19.3525    14.8882
  703.5000   -29.0918    14.1049    69.2250    22.4164    14.7465
  704.0000   -28.6346    13.8834    70.3872    20.2529    14.5954
  704.5000   -28.5482    13.6657    71.5655    26.7860    14.4091
  705.0000   -28.7955    13.5181    71.8593    25.8927    14.2184
  705.5000   -29.0436    13.5428    71.8248    25.8436    14.0284
  706.0000   -29.2225    13.5644    71.5846    25.7796    14.0073
  706.5000   -29.0834    13.5864    71.3443  -999.2500    13.9932
  707.0000   -28.9007    13.6084    71.1041  -999.2500    13.9781
  707.5000   -28.8518    13.6303    70.8638  -999.2500    13.9628
  708.0000   -29.1259    13.6523    70.6236  -999.2500    13.9475
  708.5000   -29.4109    13.6743    70.3833  -999.2500    13.9323
