~VERSION INFORMATION
 VERS.                2.0:   CWLS LOG ASCII STANDARD - VERSION 2.0
 WRAP.                 NO:   ONE LINE PER DEPTH STEP
~WELL INFORMATION
#MNEM.UNIT      DATA TYPE    INFORMATION
#----------   ------------   ------------------------------
 STRT.F           24.0000:   START DEPTH
 STOP.F          464.0000:   STOP DEPTH
 STEP.F            0.5000:   STEP LENGTH
 NULL.          -999.2500:   NO VALUE
 COMP.    FENIX & SCISSON:   COMPANY
 WELL.       NPR #62-S-10:   WELL
 FLD .             TEAPOT:   FIELD
 LOC .      S10 T38N R78W:   LOCATION
 CNTY.            NATRONA:   COUNTY
 STAT.            WYOMING:   STATE
 CTRY. UNITED STATES OF AMERICA:   COUNTRY
 SRVC.              Welex:   SERVICE COMPANY
 DATE.        12-APR-1977:   LOGDATE
 API .       490251033300:   API NUMBER
~CURVE INFORMATION
#MNEM.UNIT       API CODE    CURVE DESCRIPTION
#----------   ------------   ------------------------------
 DEPT.F                  :   
 SPR .MV     07 010 01 00:   SPONTANEOUS POTENTIAL
 ILD .OHMM   07 120 46 00:   INDUCTION LOG DEEP
 ILM .OHMM   07 120 44 00:   INDUCTION LOG MEDIUM
 SGRD.OHMM   07 221 05 00:   SHALLOW SHORT GUARD RESISTIVITY
 GRD .GAPI   45 310 01 00:   GAMMA RAY FROM DENSITY LOG
 CALD.IN     45 280 60 00:   CALIPER FROM DENSITY LOG
 CORR.G/C3   45 356 01 00:   DENSITY CORRECTION
 RHOB.G/C3   45 350 01 00:   BULK DENSITY
 DPHI.DEC    45 890 12 00:   DENSITY POROSITY SANDSTONE
~PARAMETER INFORMATION
#MNEM.UNIT          VALUE    DESCRIPTION
#----------   ------------   ------------------------------
 PD  .                 GL:   PERMANENT DATUM
 EPD .F              5155:   ELEVATION PERMANENT DATUM
 LMF .                 GL:   LOG MEASURED FROM
 DMF .                 GL:   DRILLING MEASURED FROM
 EGL .F              5155:   GROUND LEVEL
 DATE.        12-APR-1977:   RUN DATE
 RUN .                  1:   RUN NUMBER
 DD  .F               460:   DEPTH DRILLER
 DL  .F               464:   DEPTH LOGGER
 BLI .F               462:   BOTTOM LOG INTERVAL
 TLI .F                30:   TOP LOG INTERVAL
 CS  .IN            8.625:   CASING SIZE
 BS  .IN            7.875:   BIT SIZE
 BSD .F               460:   BIT SIZE AT DEPTH
 DFT .            KCL GEL:   DRILLING FLUID TYPE
 DFD .                8.8:   DRILLING FLUID DENSITY
 TCS .HRS            0100:   TIME CURCULATED STOPPED
 MRT .F                65:   MAXIMUM RECORDED TEMPERATURE
 ENGI.        E. CALLAHAN:   RECORDING ENGINEER
 WITN.            R. LYON:   WITNESSED BY
 CLNT.            A2DTECH:   CLIENT CODE
 ORIG.           5" PRINT:   ORIGIN OF DATA
 UWI .       490251033300:   UNIQUE WELL ID
 DICO. A2D Technologies, Inc.:   DIGITIZING COMPANY
~OTHER INFORMATION
~A   DEPT      SPR        ILD        ILM       SGRD        GRD       CALD       CORR       RHOB       DPHI   
   24.0000  -999.2500  -999.2500  -999.2500  -999.2500  -999.2500  -999.2500  -999.2500  -999.2500  -999.2500
   24.5000  -999.2500  -999.2500  -999.2500  -999.2500    71.3976     8.2967    -0.5875     1.3262  -999.2500
   25.0000  -999.2500  -999.2500  -999.2500  -999.2500    72.0168     8.2986    -0.5693     1.3616  -999.2500
   25.5000  -999.2500  -999.2500  -999.2500  -999.2500    73.0838     8.2850    -0.5541     1.3872  -999.2500
   26.0000  -999.2500  -999.2500  -999.2500  -999.2500    74.8970     8.2569    -0.5285     1.4060  -999.2500
   26.5000  -999.2500  -999.2500  -999.2500  -999.2500    77.1580     8.2593    -0.5088     1.4639  -999.2500
   27.0000  -999.2500  -999.2500  -999.2500  -999.2500    79.5683     8.2611    -0.4846     1.5084  -999.2500
   27.5000  -999.2500  -999.2500  -999.2500  -999.2500    82.5756     8.2475    -0.4605     1.5942  -999.2500
   28.0000  -999.2500  -999.2500  -999.2500  -999.2500    88.4186     8.2648    -0.4063     1.6439  -999.2500
   28.5000  -999.2500  -999.2500  -999.2500  -999.2500    92.9185     8.2667    -0.3102     1.8441  -999.2500
   29.0000  -999.2500  -999.2500  -999.2500  -999.2500    97.7168     8.2531    -0.2080     1.9963  -999.2500
   29.5000  -999.2500  -999.2500  -999.2500  -999.2500   103.5599     8.2699    -0.0954     2.0051  -999.2500
   30.0000  -999.2500  -999.2500  -999.2500  -999.2500   116.1194     8.2568     0.0247     2.2521  -999.2500
   30.5000  -999.2500  -999.2500  -999.2500  -999.2500   118.3955     8.2292     0.0519     2.4591  -999.2500
   31.0000  -999.2500  -999.2500  -999.2500  -999.2500   120.3731     8.2311     0.0567     2.4598  -999.2500
   31.5000  -999.2500  -999.2500  -999.2500  -999.2500   122.0373     8.2329     0.0628     2.4576  -999.2500
   32.0000  -999.2500  -999.2500  -999.2500  -999.2500   123.4129     8.2348     0.0630     2.4524  -999.2500
   32.5000   -25.7965  -999.2500  -999.2500     5.4322   124.4901     8.2366     0.0632     2.4456  -999.2500
   33.0000   -25.9335  -999.2500  -999.2500     5.7055   125.8104     8.2235     0.0633     2.4419  -999.2500
   33.5000   -26.2117     1.0108  -999.2500     6.3774   126.8774     8.2104     0.0570     2.4465  -999.2500
   34.0000   -26.4938     0.5633  -999.2500     6.8861   127.4966     8.1973     0.0457     2.4557  -999.2500
   34.5000   -26.4775     0.3473     6.1010     7.5913   127.6681     8.1842     0.0519     2.4872  -999.2500
   35.0000   -26.6145     0.3026     6.4101     7.9184   127.5410     8.1861     0.0581     2.5030  -999.2500
   35.5000   -26.5941     0.3382     6.8298     8.8508   127.1155     8.1730     0.0598     2.5136     0.0871
   36.0000   -26.5778     0.4348     7.3230     9.0426   126.0929     8.1749     0.0585     2.5181     0.0814
   36.5000   -26.5615     0.6111     7.7463     9.3026   123.2793     8.1921     0.0587     2.5174     0.0798
   37.0000   -26.5452     0.8639     8.0772    10.1846   120.7642     8.1939     0.0589     2.5160     0.0802
   37.5000   -26.5288     1.6896     8.3679    11.0734   119.5923     8.1958     0.0575     2.5130     0.0811
   38.0000   -26.3633     3.4831     8.6691    11.0045   119.1612     8.1976     0.0548     2.5084     0.0835
   38.5000   -26.3469     6.2933     8.9812    11.3211   119.0397     8.1995     0.0534     2.5033     0.0880
   39.0000   -26.3306     6.5977     9.2403    11.6466   118.6142     8.2013     0.0491     2.4988     0.0943
   39.5000   -26.3143     6.8816     9.3762    11.9815   116.8453     8.2032     0.0433     2.4898     0.1051
   40.0000   -26.2980     9.5181     9.5713    12.4977   115.8172     8.1896     0.0285     2.4575     0.1165
   40.5000   -26.4313    12.0465     9.7885    12.6805   116.1435     8.1919     0.0257     2.4688     0.1171
   41.0000   -26.7131    13.1859    10.0015    12.8660   115.8671     8.1938     0.0274     2.4756     0.1114
   41.5000   -26.8463    13.7510    10.2900    13.2359   114.5461     8.1807     0.0276     2.4772     0.1075
   42.0000   -26.9791    11.1803    10.5012    13.6165   112.3295     8.1825     0.0262     2.4719     0.1084
   42.5000   -27.2611    11.9865    10.7310    13.9116   109.0681     8.1844     0.0204     2.4607     0.1126
   43.0000   -27.3941    13.8665    10.9962    14.3116   106.8515     8.1708     0.0191     2.4600     0.1144
   43.5000   -27.5270    15.0734    11.2614    14.8253   105.6797     8.1577     0.0193     2.4583     0.1135
   44.0000   -27.6677    14.8735    11.7642    15.2516   105.2537     8.1600     0.0225     2.4727     0.1087
   44.5000   -27.7929    12.6052    12.1867    15.6902   105.4256     8.1469     0.0242     2.4819     0.1054
   45.0000   -27.9403    10.6829    12.7121    16.0301   105.7463     8.1488     0.0259     2.4812     0.1030
   45.5000   -28.2259    10.9877    13.0779    16.6055   105.9229     8.1357     0.0306     2.4820     0.0997
   46.0000   -28.6607    11.4587    13.2693    17.4410   106.5473     8.1377     0.0367     2.4926     0.0976
   46.5000   -29.0708    11.6225    13.3707    16.7438   109.5896     8.1244     0.0399     2.4957     0.0970
   47.0000   -29.2318    11.2343    13.4728    16.4113   111.0995     8.1264     0.0401     2.4942     0.0979
   47.5000   -29.4860    11.2397    13.4821    16.3096   112.9478     8.1282     0.0418     2.4906     0.1012
   48.0000   -29.6189    11.2451    13.4915    16.2083   113.9447     8.1300     0.0435     2.4824     0.1057
   48.5000   -29.5985    11.3285    13.3152    16.2196   113.8177     8.1323     0.0467     2.4727     0.1090
   49.0000   -29.2837    11.2545    13.0484    16.1189   113.2429     8.1338     0.0529     2.4750     0.1084
   49.5000   -29.1181    11.2613    12.7913    15.9086   112.6681     8.1360     0.0620     2.4864     0.1039
   50.0000   -28.9525    11.0354    12.8002    15.8099   111.7952     8.1525     0.0652     2.4881     0.0997
   50.5000   -28.6377    10.8128    13.2599    16.0411   110.0614     8.1544     0.0638     2.4891     0.0967
   51.0000   -28.4721    10.6694    13.1776    15.9409   108.3276     8.1564     0.0592     2.4865     0.0990
   51.5000   -28.1573    10.6010    12.8267    15.1978   107.8231     8.1583     0.0532     2.4806     0.1038
   52.0000   -27.6932    10.5330    12.4852    14.8971   109.0429     8.1302     0.0476     2.4723     0.1095
   52.5000   -27.3824    10.5393    12.1527    15.1168   109.2128     8.1027     0.0462     2.4641     0.1131
   53.0000   -27.6646    10.5444    11.9112    15.5518   109.0842     8.1046     0.0418     2.4581     0.1161
   53.5000   -27.9427    10.6227    11.8352    15.9967   108.3586     8.1065     0.0404     2.4574     0.1170
   54.0000   -28.0757    10.7015    11.8454    15.3545   107.6329     8.1234     0.0389     2.4597     0.1169
   54.5000   -27.9101    10.7067    11.8536    15.1568   106.9073     8.1403     0.0360     2.4635     0.1157
   55.0000   -27.8938    10.7118    11.9442    15.4889   105.8832     8.1571     0.0346     2.4696     0.1135
   55.5000   -27.5789    10.7170    12.1190    15.7118   105.1575     8.1590     0.0347     2.4712     0.1118
   56.0000   -27.4133    10.6483    12.2964    15.7225   104.4319     8.1759     0.0303     2.4674     0.1120
   56.5000   -27.2478    10.5071    12.3903    15.4059   105.3481     8.1778     0.0244     2.4614     0.1141
   57.0000   -27.2314    10.3678    12.3988    14.7897   106.1150     8.1947     0.0215     2.4546     0.1168
   57.5000   -27.2151    10.3013    12.4936    14.6012   105.5386     8.1966     0.0201     2.4471     0.1195
   58.0000   -27.3521    10.3063    12.3303    15.0324   107.4995     8.1985     0.0217     2.4401     0.1237
   58.5000   -27.6302    10.0995    12.1693    14.4151   107.3709     8.2004     0.0233     2.4375     0.1258
   59.0000   -27.7673     9.8969    11.9275    13.8386   106.1975     8.2023     0.0264     2.4549     0.1194
   59.5000   -28.0494     9.8335    11.4503    13.3772   104.7256     8.1893     0.0294     2.4625     0.1149
   60.0000   -28.3275     9.8382    11.4369    13.2999   103.7015     8.2066     0.0325     2.4565     0.1158
