~VERSION INFORMATION
 VERS.                2.0:   CWLS LOG ASCII STANDARD - VERSION 2.0
 WRAP.                 NO:   ONE LINE PER DEPTH STEP
~WELL INFORMATION
#MNEM.UNIT      DATA TYPE    INFORMATION
#----------   ------------   ------------------------------
 STRT.F            8.0000:   START DEPTH
 STOP.F          664.0000:   STOP DEPTH
 STEP.F            0.5000:   STEP LENGTH
 NULL.          -999.2500:   NO VALUE
 COMP. LAWRENCE/ALLISON INC:   COMPANY
 WELL.    13-61 SX #11-11:   WELL
 FLD .             TEAPOT:   FIELD
 LOC .      S11 T38N R78W:   LOCATION
 CNTY.            NATRONA:   COUNTY
 STAT.            WYOMING:   STATE
 CTRY. UNITED STATES OF AMERICA:   COUNTRY
 SRVC.           Gearhart:   SERVICE COMPANY
 DATE.        22-JUN-1986:   LOGDATE
 API .       490251109700:   API NUMBER
~CURVE INFORMATION
#MNEM.UNIT       API CODE    CURVE DESCRIPTION
#----------   ------------   ------------------------------
 DEPT.F                  :   
 GRR .GAPI   07 310 01 00:   GAMMA RAY FROM RES. LOG.
 ILM .OHMM   07 120 44 00:   INDUCTION LOG MEDIUM
 ILD .OHMM   07 120 46 00:   INDUCTION LOG DEEP
~PARAMETER INFORMATION
#MNEM.UNIT          VALUE    DESCRIPTION
#----------   ------------   ------------------------------
 PD  .                 GL:   PERMANENT DATUM
 EPD .F              5154:   ELEVATION PERMANENT DATUM
 LMF .                 KB:   LOG MEASURED FROM
 DAPD.F                 5:   FEET ABOVE PERMANENT DATUM
 DMF .                 KB:   DRILLING MEASURED FROM
 EKB .F              5159:   KELLING BUSHING
 EGL .F              5154:   GROUND LEVEL
 DATE.            6-22-86:   RUN DATE
 RUN .                  1:   RUN NUMBER
 DD  .F               675:   DEPTH DRILLER
 DL  .F               673:   DEPTH LOGGER
 BLI .F               664:   BOTTOM LOG INTERVAL
 CS  .IN            8.625:   CASING SIZE
 CBD .F                44:   CASING BOTTOM DRILLER
 CBL .F                46:   CASING BOTTOM LOGGER
 BS  .IN            7.875:   BIT SIZE
 BSD .F               675:   BIT SIZE AT DEPTH
 DFT .                AIR:   DRILLING FLUID TYPE
 TCS .HRS            1830:   TIME CURCULATED STOPPED
 MRT .F                69:   MAXIMUM RECORDED TEMPERATURE
 LUN .               7609:   LOGGING UNIT NUMBER
 LUL .           GILLETTE:   LOGGING UNIT LOCATION
 ENGI.            WANGLER:   RECORDING ENGINEER
 WITN.              DAVIS:   WITNESSED BY
 CLNT.            A2DTECH:   CLIENT CODE
 ORIG.       2", 5" PRINT:   ORIGIN OF DATA
 UWI .       490251109700:   UNIQUE WELL ID
 DICO. A2D Technologies, Inc.:   DIGITIZING COMPANY
~OTHER INFORMATION
~A    DEPT      GRR       ILM        ILD   
# ...
  463.0000    80.0403    15.5823    15.6949
  463.5000    82.0380    15.5541    15.5923
  464.0000    84.1493    15.5252    15.4905
  464.5000    84.8059    15.4182    15.3893
  465.0000    83.5459    15.2563    15.2208
  465.5000    82.2588    15.0961    15.0365
  466.0000    81.3417    14.9375    14.8544
  466.5000    80.8036    14.7807    14.6746
  467.0000    81.2566    14.6254    14.4969
  467.5000    81.4783    14.4718    14.3212
  468.0000    82.4437    14.3199    14.1477
  468.5000    84.1067    14.1695    13.9880
  469.0000    84.3235    14.0207    13.9627
  469.5000    84.1665    13.8734    13.8677
  470.0000    84.5153    13.7277    13.7739
  470.5000    86.6691    13.5851    13.6807
  471.0000    90.3324    13.4566    13.5882
  471.5000    93.6644    13.3294    13.3457
  472.0000    92.9579    13.2033    13.3916
  472.5000    91.6401    13.0969    13.4778
  473.0000    90.3651    13.2166    13.5646
  473.5000    89.9792    13.3216    13.6520
  474.0000    89.8059    13.4275    13.7400
  474.5000    90.4516    13.5343    13.8286
  475.0000    91.0951    13.6419    13.9173
  475.5000    91.3323    13.7272    13.9882
  476.0000    91.0478    13.6156    13.9273
  476.5000    91.8514    13.5233    13.8754
  477.0000    91.3136    13.4718    13.7338
  477.5000    89.7927    13.3838    13.5408
  478.0000    88.6652    13.1885    13.3505
  478.5000    89.6614    12.9959    13.1629
  479.0000    90.5357    12.8062    12.9779
  479.5000    88.8869    12.6193    12.7955
  480.0000    84.7913    12.4351    12.6157
  480.5000    80.6408    12.2535    12.4385
  481.0000    80.5975    12.0747    12.2637
  481.5000    85.0650    11.9112    12.1474
  482.0000    88.7948    11.8499    12.1474
  482.5000    90.7021    11.8086    12.1474
  483.0000    92.0070    11.8497    12.1474
  483.5000    95.1144    11.8849    12.5385
  484.0000    98.0958    11.9210    13.0708
  484.5000    94.8539    12.4119    13.6256
  485.0000    90.5138    12.9272    14.5386
  485.5000    88.1159    13.4764    15.7615
  486.0000    87.2162    15.5501    17.5358
  486.5000    85.9849    17.9407    19.8303
  487.0000    82.8658    20.6890    22.4250
  487.5000    79.7555    23.8583    25.3593
  488.0000    76.6479    27.5016    28.6774
  488.5000    73.5396    31.7194    32.4298
  489.0000    70.5493    35.9526    36.6731
  489.5000    68.9014    39.1031    38.3425
  490.0000    67.9568    40.8838    39.3738
  490.5000    68.1851    38.8850    38.1230
  491.0000    70.0857    37.1696    36.4139
  491.5000    72.5946    35.5245    34.7778
  492.0000    73.8059    33.9548    33.2159
  492.5000    73.6606    32.4545    31.7269
  493.0000    72.2350    31.0204    30.2922
  493.5000    70.3844    29.6497    29.3872
  494.0000    68.4654    28.3396    28.6342
  494.5000    66.9103    27.8542    28.2958
  495.0000    69.6731    27.7992    28.2421
  495.5000    73.7223    27.7993    28.1890
  496.0000    74.8618    27.8016    28.1373
  496.5000    75.9182    27.6252    28.0761
  497.0000    77.9762    27.3435    27.4841
  497.5000    79.9272    27.0665    27.2547
  498.0000    79.9233    26.7924    27.0271
  498.5000    78.7739    26.5210    26.8015
  499.0000    77.6085    26.2523    26.5219
  499.5000    78.6700    25.9864    26.2370
  500.0000    80.0014    25.7232    25.9553
  500.5000    81.1160    25.3918    25.6765
  501.0000    80.1916    24.9074    25.2864
  501.5000    79.9488    24.4323    24.7965
  502.0000    81.3130    23.9662    24.3161
  502.5000    81.3338    23.5090    23.8451
  503.0000    81.0129    23.0604    23.3831
  503.5000    81.4411    22.6206    22.9301
  504.0000    83.3021    22.1806    22.4859
  504.5000    84.3505    21.8950    22.1068
  505.0000    84.0883    21.5351    21.7496
  505.5000    85.1753    21.1812    21.3982
  506.0000    86.3288    20.8330    21.0525
  506.5000    86.4288    20.4905    20.7123
  507.0000    83.8850    20.1537    20.3777
  507.5000    81.3341    19.8225    20.0484
  508.0000    80.5319    19.4958    19.9112
  508.5000    80.1731    19.2232    19.8108
  509.0000    81.0334    19.0798    19.5407
  509.5000    83.3223    18.9386    19.2886
  510.0000    84.7494    18.7980    19.1505
  510.5000    85.3587    18.6584    19.0268
  511.0000    85.9281    18.5199    18.9039
  511.5000    87.5684    18.3824    18.7819
  512.0000    88.9844    18.2459    18.6606
  512.5000    87.6699    18.1104    18.5401
  513.0000    85.3378    17.9760    18.4203
  513.5000    83.8932    17.8465    18.3014
  514.0000    84.2667    17.7374    18.1709
  514.5000    85.6218    17.6290    17.9852
  515.0000    84.2332    17.5213    17.8014
  515.5000    81.4102    17.4142    17.6195
  516.0000    80.3605    17.3077    17.4394
  516.5000    81.1017    17.2051    17.2612
  517.0000    82.1195    16.9651    17.0848
  517.5000    85.0994    16.7353    16.9116
  518.0000    85.9631    16.5085    16.6924
  518.5000    86.5238    16.2848    16.4713
  519.0000    87.0241    16.0642    16.2522
  519.5000    89.1468    15.8465    16.0361
  520.0000    90.9258    15.6318    15.8230
  520.5000    88.1741    15.4201    15.6126
  521.0000    81.9052    15.2111    15.4051
  521.5000    79.9192    15.0050    15.2003
  522.0000    79.1166    14.8017    14.9982
  522.5000    80.7432    14.6012    14.7988
  523.0000    81.1777    14.4034    14.6021
  523.5000    81.1828    14.2082    14.4080
  524.0000    81.1141    14.0157    14.2164
  524.5000    84.1808    13.8258    14.0274
  525.0000    87.9785    13.6385    13.8211
  525.5000    91.0501    13.4537    13.6125
  526.0000    89.3121    13.2714    13.4069
  526.5000    85.1513    13.0969    13.2045
  527.0000    81.6291    13.0762    12.9735
  527.5000    80.1936    13.0514    13.0070
  528.0000    78.7296    13.0266    13.0587
  528.5000    77.2432    13.0019    13.1107
  529.0000    77.5729    12.9772    13.1628
  529.5000    79.9413    12.9526    13.2150
  530.0000    85.2391    12.9280    13.2674
  530.5000    87.7185    12.9034    13.3457
  531.0000    88.3824    12.8789    13.3032
  531.5000    89.0088    12.8545    13.2210
  532.0000    91.2890    12.8301    13.1393
  532.5000    89.8354    12.8057    13.0581
  533.0000    88.0652    12.7814    12.9743
  533.5000    88.8547    12.7571    12.9005
  534.0000    89.7355    12.7324    12.8241
  534.5000    88.1937    12.6438    12.7482
  535.0000    86.7805    12.5540    12.6727
  535.5000    91.0462    12.4649    12.5976
  536.0000    95.6419    12.3764    12.5231
  536.5000    98.0084    12.2885    12.4654
  537.0000    98.1251    12.2011    12.3959
  537.5000    97.8350    12.1146    12.3268
  538.0000    97.5150    12.0336    12.2581
  538.5000    96.6759    12.0336    12.1898
  539.0000    95.8432    12.0336    12.1218
  539.5000    95.0142    12.0336    12.0328
  540.0000    94.2840    12.0336    12.0608
  540.5000    94.4022    12.0336    12.1151
  541.0000    94.5242    12.0337    12.1703
  541.5000    94.6264    12.0338    12.2262
  542.0000    95.5115    12.0340    12.2619
  542.5000    99.1207    11.9743    12.1588
  543.0000   103.0167    11.8947    12.0820
  543.5000   106.8061    11.8156    12.0057
  544.0000   105.9756    11.7370    11.9299
  544.5000   102.2929    11.6590    11.8546
  545.0000    99.3963    11.5816    11.7797
  545.5000    96.9721    11.5046    11.7054
  546.0000    94.5493    11.4281    11.6314
  546.5000    92.2600    11.3522    11.5405
  547.0000    92.0441    11.2767    11.4268
  547.5000    94.4735    11.2018    11.3143
  548.0000    98.6101    11.1064    11.2028
  548.5000   100.1427    10.9872    11.0863
  549.0000   101.2609    10.8692    10.8582
  549.5000   102.5866    10.7524    10.6402
  550.0000   102.8169    10.6483    10.4525
  550.5000   101.8903    10.4516    10.2663
  551.0000   101.3179    10.2758    10.0834
  551.5000   101.9474    10.1383     9.9037
  552.0000   100.1162     9.9791     9.7273
  552.5000    97.4857     9.7774     9.5540
  553.0000    96.3456     9.4979     9.3279
  553.5000    96.7813     9.2261     9.0893
