~VERSION INFORMATION
 VERS.                2.0:   CWLS LOG ASCII STANDARD - VERSION 2.0
 WRAP.                 NO:   ONE LINE PER DEPTH STEP
~WELL INFORMATION
#MNEM.UNIT      DATA TYPE    INFORMATION
#----------   ------------   ------------------------------
 STRT.F            0.0000:   START DEPTH
 STOP.F          752.0000:   STOP DEPTH
 STEP.F            0.1000:   STEP LENGTH
 NULL.          -999.2500:   NO VALUE
 COMP. BROWN JOHN E&C INC:   COMPANY
 WELL. N P R 3 STX-34 #53-1-34:   WELL
 FLD .             TEAPOT:   FIELD
 LOC .      S34 T39N R78W:   LOCATION
 CNTY.            NATRONA:   COUNTY
 STAT.            WYOMING:   STATE
 CTRY. UNITED STATES OF AMERICA:   COUNTRY
 SRVC.     Atlas Wireline:   SERVICE COMPANY
 DATE.        29-OCT-1991:   LOGDATE
 API .       490252248700:   API NUMBER
~CURVE INFORMATION
#MNEM.UNIT       API CODE    CURVE DESCRIPTION
#----------   ------------   ------------------------------
 DEPT.F                  :   
 GRR .GAPI   07 310 01 00:   GAMMA RAY
 RILD.OHMM   07 120 46 00:   INDUCTION LOG DEEP RESISTIVITY
 RILM.OHMM   07 120 44 00:   RESITIVITY LONG MEDIUM
~PARAMETER INFORMATION
#MNEM.UNIT          VALUE    DESCRIPTION
#----------   ------------   ------------------------------
 PD  .                 GL:   PERMANENT DATUM
 EPD .F              5067:   ELEVATION PERMANENT DATUM
 LMF .                 KB:   LOG MEASURED FROM
 DAPD.F                10:   FEET ABOVE PERMANENT DATUM
 DMF .                 KB:   DRILLING MEASURED FROM
 EKB .F              5077:   KELLING BUSHING
 EGL .F              5067:   GROUND LEVEL
 DATE.        29-OCT-1991:   RUN DATE
 RUN .                  1:   RUN NUMBER
 DD  .F               760:   DEPTH DRILLER
 DL  .F               760:   DEPTH LOGGER
 BLI .F               758:   BOTTOM LOG INTERVAL
 TLI .F                 0:   TOP LOG INTERVAL
 CS  .IN            9.625:   CASING SIZE
 CBD .F                52:   CASING BOTTOM DRILLER
 CBL .F                52:   CASING BOTTOM LOGGER
 BS  .IN             8.75:   BIT SIZE
 BSD .F               760:   BIT SIZE AT DEPTH
 DFT .        AIR DRILLED:   DRILLING FLUID TYPE
 MRT .F               154:   MAXIMUM RECORDED TEMPERATURE
 LUN .            HL 6307:   LOGGING UNIT NUMBER
 LUL .             CASPER:   LOGGING UNIT LOCATION
 ENGI.          RASMUSSEN:   RECORDING ENGINEER
 WITN.        GARY STRONG:   WITNESSED BY
 CLNT.            A2DTECH:   CLIENT CODE
 ORIG.           5" PRINT:   ORIGIN OF DATA
 UWI .       490252248700:   UNIQUE WELL ID
 DICO. A2D Technologies, Inc.:   DIGITIZING COMPANY
~OTHER INFORMATION
~A    DEPT      GRR      RILD       RILM   
# ...
  600.6000   104.2864    11.4915    11.8165
  600.7000   104.0343    11.5558    11.8168
  600.8000   103.7675    11.5725    11.8171
  600.9000   103.7658    11.5728    11.8175
  601.0000   103.9475    11.5732    11.8178
  601.1000   104.1961    11.5822    11.8181
  601.2000   104.5238    11.6548    11.8185
  601.3000   104.9690    11.6551    11.8188
  601.4000   104.9668    11.6554    11.8191
  601.5000   104.9652    11.6558    11.8542
  601.6000   104.9634    11.6561    11.9025
  601.7000   104.9616    11.6626    11.9028
  601.8000   104.8916    11.7383    11.9032
  601.9000   104.6394    11.7386    11.9035
  602.0000   104.3507    11.7849    11.9038
  602.1000   104.3492    11.8214    11.9364
  602.2000   104.3474    11.8217    11.9878
  602.3000   104.2361    11.8257    11.9881
  602.4000   104.0412    11.9052    11.9885
  602.5000   104.0444    11.9055    12.0475
  602.6000   104.3397    11.9058    12.0730
  602.7000   104.3383    11.9358    12.0434
  602.8000   104.3365    11.9898    11.9898
  602.9000   104.3346    11.9901    11.9901
  603.0000   104.2864    11.9905    11.9905
  603.1000   104.0284    11.9908    11.9908
  603.2000   104.3218    11.9911    11.9911
  603.3000   104.4790    11.9914    11.9914
  603.4000   104.4766    11.9918    11.9918
  603.5000   104.4740    11.9921    11.9921
  603.6000   104.9484    11.9924    11.9924
  603.7000   105.2631    11.9928    11.9928
  603.8000   105.6455    11.9931    11.9931
  603.9000   106.1459    11.9934    11.9934
  604.0000   106.6180    12.0039    11.9938
  604.1000   106.8910    12.0780    11.9941
  604.2000   107.3434    12.0784    11.9944
  604.3000   107.8438    12.0787    12.0455
  604.4000   108.2220    12.0428    12.0790
  604.5000   108.4712    11.9954    12.0794
  604.6000   108.7029    11.9958    12.0797
  604.7000   108.7000    11.9961    12.0801
  604.8000   108.6979    11.9964    12.0179
  604.9000   108.3677    11.9968    11.9968
  605.0000   107.8623    11.9971    11.9971
  605.1000   107.4748    11.9975    11.9975
  605.2000   107.4592    11.9978    11.9978
  605.3000   106.8616    11.9982    11.9982
  605.4000   106.4486    11.9985    11.9985
  605.5000   105.9433    11.9988    11.9988
  605.6000   105.4380    11.9991    11.9991
  605.7000   104.8846    11.9995    11.9995
  605.8000   104.1142    11.9998    11.9998
  605.9000   103.3710    12.0002    12.0002
  606.0000   103.3921    12.0005    12.0005
  606.1000   103.6411    12.0008    12.0008
  606.2000   104.0695    12.0011    12.0011
  606.3000   104.7844    11.9878    11.9878
  606.4000   105.3154    11.9184    11.9184
  606.5000   105.7853    11.9187    11.9187
  606.6000   106.1021    11.9191    11.9191
  606.7000   106.4822    11.9194    11.9194
  606.8000   106.9828    11.8946    11.9197
  606.9000   107.4834    11.8372    11.9092
  607.0000   108.0362    11.8376    11.8376
  607.1000   108.4843    11.8379    11.8379
  607.2000   108.8122    11.7372    11.8382
  607.3000   109.0612    11.6746    11.8020
  607.4000   109.3102    11.6529    11.7567
  607.5000   109.5442    11.5941    11.7570
  607.6000   109.2373    11.5945    11.7573
  607.7000   109.2353    11.5948    11.7576
  607.8000   108.9093    11.5481    11.7580
  607.9000   108.4040    11.5149    11.7246
  608.0000   107.8986    11.5152    11.6769
  608.1000   107.3976    11.5155    11.6717
  608.2000   107.0950    11.5159    11.5965
  608.3000   106.8898    11.5162    11.5968
  608.4000   106.4851    11.4723    11.5971
  608.5000   105.9796    11.4066    11.5974
  608.6000   105.5660    11.3577    11.5810
  608.7000   105.5635    11.3580    11.5175
  608.8000   105.3163    11.3583    11.5178
  608.9000   105.2547    11.3586    11.5181
  609.0000   105.2523    11.3589    11.5184
  609.1000   105.2498    11.3592    11.5188
  609.2000   105.2824    11.3596    11.5191
  609.3000   105.5488    11.3599    11.5194
  609.4000   105.7804    11.3602    11.5197
  609.5000   106.0294    11.3605    11.5200
  609.6000   106.4073    11.3223    11.5204
  609.7000   106.8314    11.2822    11.5207
  609.8000   107.0804    11.2825    11.5210
  609.9000   107.3578    11.2828    11.5213
  610.0000   107.3556    11.2832    11.4576
  610.1000   107.5237    11.2835    11.4419
  610.2000   107.7727    11.2838    11.4060
  610.3000   107.9562    11.2841    11.3406
  610.4000   107.9668    11.2844    11.2844
  610.5000   108.2549    11.2847    11.2847
  610.6000   108.4648    11.2850    11.2248
  610.7000   108.5544    11.2854    11.1605
  610.8000   108.7658    11.2524    11.1294
  610.9000   109.1574    11.2076    11.1102
  611.0000   109.1550    11.2079    11.0465
  611.1000   109.1526    11.2082    10.9762
  611.2000   109.1502    11.1512    10.9765
  611.3000   109.1477    11.1309    10.9338
  611.4000   109.1453    11.1009    10.8712
  611.5000   109.2298    11.0542    10.8254
  611.6000   109.7482    11.0545    10.8221
  611.7000   109.9884    11.0549    10.7508
  611.8000   110.4276    11.0551    10.7511
  611.9000   111.0656    11.0146    10.7914
  612.0000   112.0726    10.9789    10.8269
  612.1000   113.4814    10.9793    10.8272
  612.2000   114.2928    10.9783    10.8275
  612.3000   114.7536    10.9036    10.8279
  612.4000   115.0752    10.9039    10.8281
  612.5000   115.3243    10.9042    10.8284
  612.6000   115.5733    10.8796    10.8287
  612.7000   115.8008    10.8290    10.8408
  612.8000   115.7979    10.8293    10.9051
  612.9000   116.2371    10.7685    10.9054
  613.0000   116.4012    10.7547    10.9057
  613.1000   116.3988    10.7550    10.9060
  613.2000   116.3964    10.7553    10.9063
  613.3000   116.3831    10.7556    10.9066
  613.4000   116.0871    10.7559    10.9069
  613.5000   115.6656    10.7562    10.9072
  613.6000   115.0030    10.7565    10.9075
  613.7000   114.3510    10.7568    10.9078
  613.8000   113.8979    10.7571    10.9081
  613.9000   113.6438    10.7574    10.9084
  614.0000   113.1387    10.7577    10.9088
  614.1000   112.6333    10.8143    10.9091
  614.2000   112.1280    10.8336    10.9094
  614.3000   111.5289    10.8645    10.9097
  614.4000   110.8133    10.9100    10.9100
  614.5000   110.2856    10.9103    10.9103
  614.6000   109.5624    10.9106    10.9106
  614.7000   108.8054    10.9109    10.9109
  614.8000   108.1839    10.9112    10.9112
  614.9000   107.6785    10.9399    10.9115
  615.0000   107.1733    10.9881    10.9118
  615.1000   106.6235    10.9884    10.9121
  615.2000   106.3919    10.9888    10.9125
  615.3000   106.1380    10.9891    10.9649
  615.4000   106.0085    10.9894    10.9894
  615.5000   106.0061    10.9897    10.9897
  615.6000   106.0036    10.9900    10.9900
  615.7000   106.0009    10.9903    10.9903
  615.8000   106.2173    11.0539    10.9906
  615.9000   106.4663    11.1183    11.0410
  616.0000   107.2825    11.1830    11.1053
  616.1000   108.8499    11.2480    11.1699
  616.2000   110.5736    11.3134    11.2348
  616.3000   111.4573    11.3821    11.3030
  616.4000   111.8703    11.5089    11.4290
  616.5000   112.3709    11.5926    11.5121
  616.6000   112.6663    11.6601    11.5790
  616.7000   112.7639    11.7735    11.6690
  616.8000   113.2693    11.9617    11.7961
  616.9000   113.2669    12.0370    11.8703
  617.0000   113.2644    12.1659    11.9974
  617.1000   113.4061    12.3076    12.1371
  617.2000   113.4719    12.4508    12.2784
  617.3000   113.2571    12.5957    12.4427
  617.4000   113.2546    12.7552    12.6536
  617.5000   112.7761    13.0897    12.8187
  617.6000   112.2708    13.2238    12.9501
  617.7000   111.3663    13.3779    13.1522
  617.8000   110.1871    13.5702    13.3823
  617.9000   109.2070    13.7868    13.5959
  618.0000   108.3767    13.9471    13.7539
  618.1000   107.6930    14.1355    13.9397
  618.2000   107.1109    14.2046    14.0763
  618.3000   106.4832    14.3928    14.2402
  618.4000   105.6566    14.6082    14.4059
  618.5000   104.6829    14.7970    14.5735
  618.6000   104.1067    15.0555    14.7430
  618.7000   101.7256    15.3716    14.9488
