~VERSION INFORMATION
 VERS.                2.0:   CWLS LOG ASCII STANDARD - VERSION 2.0
 WRAP.                 NO:   ONE LINE PER DEPTH STEP
~WELL INFORMATION
#MNEM.UNIT      DATA TYPE    INFORMATION
#----------   ------------   ------------------------------
 STRT.F           46.0000:   START DEPTH
 STOP.F         2100.0000:   STOP DEPTH
 STEP.F            0.5000:   STEP LENGTH
 NULL.          -999.2500:   NO VALUE
 COMP. LAWRENCE/ALLISON INC:   COMPANY
 WELL.    58-21 SX #10-10:   WELL
 FLD .             TEAPOT:   FIELD
 LOC .      S10 T38N R78W:   LOCATION
 CNTY.            NATRONA:   COUNTY
 STAT.            WYOMING:   STATE
 CTRY. UNITED STATES OF AMERICA:   COUNTRY
 SRVC.           Gearhart:   SERVICE COMPANY
 DATE.        06-JUL-1987:   LOGDATE
 API .       490251114400:   API NUMBER
~CURVE INFORMATION
#MNEM.UNIT       API CODE    CURVE DESCRIPTION
#----------   ------------   ------------------------------
 DEPT.F                  :   
 GR  .GAPI   81 310 01 00:   GAMMA RAY
 TGAS.UNITS  91 830 01 00:   TOTAL GAS FROM HOTWIRE
 ROP .MIN/FT 91 810 01 00:   RAT OF DRILLING PENETRATION
~PARAMETER INFORMATION
#MNEM.UNIT          VALUE    DESCRIPTION
#----------   ------------   ------------------------------
 PD  .                 GL:   PERMANENT DATUM
 EPD .F              5219:   ELEVATION PERMANENT DATUM
 LMF .                 KB:   LOG MEASURED FROM
 DAPD.F                 8:   FEET ABOVE PERMANENT DATUM
 DMF .                 KB:   DRILLING MEASURED FROM
 EKB .F              5227:   KELLING BUSHING
 EDF .F              5225:   DRILLING FLOOR
 EGL .F              5219:   GROUND LEVEL
 DATE.             7-6-87:   RUN DATE
 RUN .                  1:   RUN NUMBER
 DD  .F               610:   DEPTH DRILLER
 DL  .F             531.5:   DEPTH LOGGER
 BLI .F               526:   BOTTOM LOG INTERVAL
 TLI .F                50:   TOP LOG INTERVAL
 BS  .IN            7.875:   BIT SIZE
 BSD .F               610:   BIT SIZE AT DEPTH
 DFT .              WATER:   DRILLING FLUID TYPE
 LUN .               6084:   LOGGING UNIT NUMBER
 LUL .           GILLETTE:   LOGGING UNIT LOCATION
 ENGI.                COX:   RECORDING ENGINEER
 WITN.               LOWE:   WITNESSED BY
 CLNT.            A2DTECH:   CLIENT CODE
 ORIG.           5" PRINT:   ORIGIN OF DATA
 UWI .       490251114400:   UNIQUE WELL ID
 DICO. A2D Technologies, Inc.:   DIGITIZING COMPANY
~OTHER INFORMATION
~A   DEPT        GR      TGAS        ROP   
# ...
 1411.0000  -999.2500    50.8844     1.0653
 1411.5000  -999.2500    51.0667     1.1528
 1412.0000  -999.2500    51.2575     1.2356
 1412.5000  -999.2500    51.4285     1.3188
 1413.0000  -999.2500    50.8867     1.4029
 1413.5000  -999.2500    50.9232     1.4893
 1414.0000  -999.2500    49.9752     1.4536
 1414.5000  -999.2500    48.9541     1.3605
 1415.0000  -999.2500    47.9292     1.2725
 1415.5000  -999.2500    46.9110     1.1850
 1416.0000  -999.2500    45.8841     1.0975
 1416.5000  -999.2500    45.2690     1.0098
 1417.0000  -999.2500    45.0258     0.9224
 1417.5000  -999.2500    44.7923     0.8399
 1418.0000  -999.2500    44.5598     0.8199
 1418.5000  -999.2500    44.3266     0.8200
 1419.0000  -999.2500    44.0934     0.8217
 1419.5000  -999.2500    43.8600     0.8234
 1420.0000  -999.2500    43.6248     0.8250
 1420.5000  -999.2500    43.3829     0.8266
 1421.0000  -999.2500    43.3687     0.8281
 1421.5000  -999.2500    43.3738     0.8300
 1422.0000  -999.2500    43.5725     0.8370
 1422.5000  -999.2500    43.9782     0.8715
 1423.0000  -999.2500    44.3811     0.9102
 1423.5000  -999.2500    44.7856     0.9492
 1424.0000  -999.2500    45.1879     0.9886
 1424.5000  -999.2500    45.5924     1.0291
 1425.0000  -999.2500    46.1337     1.0321
 1425.5000  -999.2500    46.3753     1.0339
 1426.0000  -999.2500    46.3846     1.0357
 1426.5000  -999.2500    46.2815     1.0377
 1427.0000  -999.2500    46.1729     1.0396
 1427.5000  -999.2500    46.0618     1.0417
 1428.0000  -999.2500    45.9396     1.0429
 1428.5000  -999.2500    45.4206     1.0841
 1429.0000  -999.2500    45.3671     1.1398
 1429.5000  -999.2500    45.3749     1.1962
 1430.0000  -999.2500    45.3760     1.2530
 1430.5000  -999.2500    45.3760     1.2809
 1431.0000  -999.2500    45.3760     1.2854
 1431.5000  -999.2500    45.3760     1.2893
 1432.0000  -999.2500    45.3760     1.2930
 1432.5000  -999.2500    45.3760     1.2968
 1433.0000  -999.2500    45.3760     1.3005
 1433.5000  -999.2500    45.3760     1.3038
 1434.0000  -999.2500    45.3760     1.2734
 1434.5000  -999.2500    45.3760     1.2074
 1435.0000  -999.2500    45.3760     1.1416
 1435.5000  -999.2500    45.3760     1.0734
 1436.0000  -999.2500    45.3760     1.0836
 1436.5000  -999.2500    45.3761     1.2236
 1437.0000  -999.2500    45.3760     1.4624
 1437.5000  -999.2500    45.3757     1.7060
 1438.0000  -999.2500    45.3571     1.7218
 1438.5000  -999.2500    45.3190     1.6808
 1439.0000  -999.2500    45.2811     1.6376
 1439.5000  -999.2500    45.2431     1.5945
 1440.0000  -999.2500    45.2051     1.5489
 1440.5000  -999.2500    45.1671     1.5437
 1441.0000  -999.2500    45.1292     1.5428
 1441.5000  -999.2500    45.0912     1.5416
 1442.0000  -999.2500    45.0532     1.5404
 1442.5000  -999.2500    45.0152     1.5391
 1443.0000  -999.2500    44.9770     1.5379
 1443.5000  -999.2500    44.9381     1.5366
 1444.0000  -999.2500    44.9029     1.5354
 1444.5000  -999.2500    44.9681     1.5341
 1445.0000  -999.2500    45.3537     1.5330
 1445.5000  -999.2500    45.7227     1.5300
 1446.0000  -999.2500    46.0913     1.5456
 1446.5000  -999.2500    46.4599     1.9027
 1447.0000  -999.2500    46.8286     2.2888
 1447.5000  -999.2500    47.1973     2.6680
 1448.0000  -999.2500    47.5659     2.9373
 1448.5000  -999.2500    47.9346     2.5441
 1449.0000  -999.2500    48.3033     2.2373
 1449.5000  -999.2500    48.6720     1.9323
 1450.0000  -999.2500    49.0405     1.6123
 1450.5000  -999.2500    49.4097     1.5752
 1451.0000  -999.2500    49.7950     1.6941
 1451.5000  -999.2500    49.8850     1.8113
 1452.0000  -999.2500    49.8404     1.9279
 1452.5000  -999.2500    49.7939     2.0441
 1453.0000  -999.2500    49.7485     2.1607
 1453.5000  -999.2500    49.7034     2.2164
 1454.0000  -999.2500    49.6582     2.0337
 1454.5000  -999.2500    49.6130     1.7140
 1455.0000  -999.2500    49.5679     1.3949
 1455.5000  -999.2500    49.5227     1.0765
 1456.0000  -999.2500    49.4775     0.7537
 1456.5000  -999.2500    49.4324     0.4556
 1457.0000  -999.2500    49.3872     0.4295
 1457.5000  -999.2500    49.3420     0.4314
 1458.0000  -999.2500    49.2968     0.4312
 1458.5000  -999.2500    49.2517     0.4313
 1459.0000  -999.2500    49.2065     0.4313
 1459.5000  -999.2500    49.1613     0.4312
 1460.0000  -999.2500    49.1162     0.4314
 1460.5000  -999.2500    49.0710     0.4296
 1461.0000  -999.2500    49.0258     0.5998
 1461.5000  -999.2500    48.9806     0.8127
 1462.0000  -999.2500    48.9351     0.9695
 1462.5000  -999.2500    48.8883     0.8480
 1463.0000  -999.2500    48.8854     0.6555
 1463.5000  -999.2500    48.8857     0.4630
 1464.0000  -999.2500    48.8858     0.3041
 1464.5000  -999.2500    48.8858     0.6028
 1465.0000  -999.2500    48.8858     0.8901
 1465.5000  -999.2500    48.8858     1.1747
 1466.0000  -999.2500    48.8858     1.4713
 1466.5000  -999.2500    48.8858     1.5032
 1467.0000  -999.2500    48.8858     1.4344
 1467.5000  -999.2500    48.8858     1.3674
 1468.0000  -999.2500    48.8858     1.2981
 1468.5000  -999.2500    48.8858     1.2815
 1469.0000  -999.2500    48.8858     1.2812
 1469.5000  -999.2500    48.8858     1.2806
 1470.0000  -999.2500    48.8858     1.2651
 1470.5000  -999.2500    48.8858     1.1081
 1471.0000  -999.2500    48.8858     0.9200
 1471.5000  -999.2500    48.8858     0.7291
 1472.0000  -999.2500    48.8858     0.5307
 1472.5000  -999.2500    48.8858     0.4691
 1473.0000  -999.2500    48.8858     0.4673
 1473.5000  -999.2500    48.8858     0.4666
 1474.0000  -999.2500    48.8858     0.4656
 1474.5000  -999.2500    48.8858     0.4645
 1475.0000  -999.2500    48.8858     0.4634
 1475.5000  -999.2500    48.8858     0.4623
 1476.0000  -999.2500    48.8858     0.4612
 1476.5000  -999.2500    48.8858     0.4601
 1477.0000  -999.2500    48.8858     0.4590
 1477.5000  -999.2500    48.8858     0.4579
 1478.0000  -999.2500    48.8858     0.4568
 1478.5000  -999.2500    48.8858     0.4557
 1479.0000  -999.2500    48.8858     0.4546
 1479.5000  -999.2500    48.8858     0.4535
 1480.0000  -999.2500    48.8858     0.4524
 1480.5000  -999.2500    48.8860     0.4513
 1481.0000  -999.2500    48.8844     0.4502
 1481.5000  -999.2500    48.9603     0.4491
 1482.0000  -999.2500    49.0632     0.4480
 1482.5000  -999.2500    49.1678     0.4469
 1483.0000  -999.2500    49.2733     0.4458
 1483.5000  -999.2500    49.3813     0.4447
 1484.0000  -999.2500    49.3881     0.4439
 1484.5000  -999.2500    49.3894     0.4521
 1485.0000  -999.2500    49.4938     0.4690
 1485.5000  -999.2500    49.7078     0.4858
 1486.0000  -999.2500    49.9205     0.5027
 1486.5000  -999.2500    50.1339     0.5193
 1487.0000  -999.2500    50.3473     0.5315
 1487.5000  -999.2500    50.5607     0.5309
 1488.0000  -999.2500    50.7741     0.5294
 1488.5000  -999.2500    50.9881     0.5281
 1489.0000  -999.2500    51.2014     0.5267
 1489.5000  -999.2500    51.3986     0.5253
 1490.0000  -999.2500    51.3932     0.5239
 1490.5000  -999.2500    51.3964     0.5225
 1491.0000  -999.2500    51.2013     0.5210
 1491.5000  -999.2500    50.9365     0.5197
 1492.0000  -999.2500    50.6677     0.5245
 1492.5000  -999.2500    50.3980     0.6190
 1493.0000  -999.2500    50.1295     0.7441
 1493.5000  -999.2500    49.8814     0.8701
 1494.0000  -999.2500    49.8874     1.0010
 1494.5000  -999.2500    49.8885     0.9975
 1495.0000  -999.2500    49.8886     0.8230
 1495.5000  -999.2500    49.8887     0.6813
 1496.0000  -999.2500    49.8946     0.5398
 1496.5000  -999.2500    49.9067     0.3923
 1497.0000  -999.2500    49.9187     0.3575
 1497.5000  -999.2500    49.9308     0.3426
 1498.0000  -999.2500    49.9429     0.3422
 1498.5000  -999.2500    49.9549     0.3410
 1499.0000  -999.2500    49.9670     0.3400
 1499.5000  -999.2500    49.9790     0.3389
 1500.0000  -999.2500    49.9911     0.3378
 1500.5000  -999.2500    50.0032     0.3368
 1501.0000  -999.2500    50.0152     0.3357
 1501.5000  -999.2500    50.0273     0.3346
