~VERSION INFORMATION
 VERS.                2.0:   CWLS LOG ASCII STANDARD - VERSION 2.0
 WRAP.                 NO:   ONE LINE PER DEPTH STEP
~WELL INFORMATION
#MNEM.UNIT      DATA TYPE    INFORMATION
#----------   ------------   ------------------------------
 STRT.F           12.5000:   START DEPTH
 STOP.F          688.0000:   STOP DEPTH
 STEP.F            0.5000:   STEP LENGTH
 NULL.          -999.2500:   NO VALUE
 COMP. FENIX & SCISSON INC:   COMPANY
 WELL. 26-66 SX 11 WO #26-11:   WELL
 FLD .             TEAPOT:   FIELD
 LOC .      S11 T38N R78W:   LOCATION
 CNTY.            NATRONA:   COUNTY
 STAT.            WYOMING:   STATE
 CTRY. UNITED STATES OF AMERICA:   COUNTRY
 SRVC.      Dresser Atlas:   SERVICE COMPANY
 DATE.        28-AUG-1980:   LOGDATE
 API .       490251084700:   API NUMBER
~CURVE INFORMATION
#MNEM.UNIT       API CODE    CURVE DESCRIPTION
#----------   ------------   ------------------------------
 DEPT.F                  :   
 SFL .OHMM   07 220 01 00:   SHALLOW FOCUSED LOG RESISTIVITY
 ILD .OHMM   07 120 46 00:   INDUCTION LOG DEEP
 ILM .OHMM   07 120 44 00:   INDUCTION LOG MEDIUM
 SPR .MV     07 010 01 00:   SPONTANEOUS POTENTIAL
 CORR.G/C3   45 356 01 00:   DENSITY CORRECTION
 RHOB.G/C3   45 350 01 00:   BULK DENSITY
 DPOR.DEC    45 890 12 00:   DENSITY POROSITY SANDSTONE
 NPOR.DEC    42 890 03 00:   NEUTRON POROSITY SANDSTONE
 GRD .GAPI   45 310 01 00:   GAMMA RAY FROM DENSITY LOG
~PARAMETER INFORMATION
#MNEM.UNIT          VALUE    DESCRIPTION
#----------   ------------   ------------------------------
 PD  .                 GL:   PERMANENT DATUM
 EPD .F              5194:   ELEVATION PERMANENT DATUM
 LMF .                 KB:   LOG MEASURED FROM
 DAPD.F                 5:   FEET ABOVE PERMANENT DATUM
 DMF .                 KB:   DRILLING MEASURED FROM
 EKB .F              5199:   KELLING BUSHING
 EGL .F              5194:   GROUND LEVEL
 DATE.          8-28-1980:   RUN DATE
 RUN .                  1:   RUN NUMBER
 DD  .F               700:   DEPTH DRILLER
 DL  .F               689:   DEPTH LOGGER
 BLI .F               688:   BOTTOM LOG INTERVAL
 TLI .F                14:   TOP LOG INTERVAL
 BS  .IN             8.75:   BIT SIZE
 BSD .F               700:   BIT SIZE AT DEPTH
 DFT .                KCL:   DRILLING FLUID TYPE
 DFD .                8.8:   DRILLING FLUID DENSITY
 DFV .                 55:   DRILLING FLUID VISCOSITY
 DFPH.                 11:   DRILLING FLUID PH
 DFL .                  8:   DRILLING FLUID LOSS
 MSS .           FLOWLINE:   MUD SAMPLE SOURCE
 RMS .OHMM            .72:   RESISTIVITY MUD SAMPLE
 MST .F                66:   MUD SAMPLE TEMPERATURE
 RMF .OHMM            .21:   RESISTIVITY MUD FILTRATE SAMPLE
 MFST.F                66:   MUD FILTRATE SAMPLE TEMPERATURE
 RMC .OHMM           1.24:   RESISTIVITY MUD CAKE
 MCST.F                66:   MUD CAKE SAMPLE TEMPERATURE
 MFSS.               MEAS:   MUD FILTRATE SAMPLE SOURCE
 MCSS.               MEAS:   MUD CAKE SAMPLE SOURCE
 BHT .F               100:   BOTTOM HOLE TEMPERATURE
 TCS .HRS               2:   TIME CURCULATED STOPPED
 MRT .F               100:   MAXIMUM RECORDED TEMPERATURE
 LUN .               6240:   LOGGING UNIT NUMBER
 LUL .               RYTN:   LOGGING UNIT LOCATION
 ENGI.           J. GETTY:   RECORDING ENGINEER
 WITN.              FIVAS:   WITNESSED BY
 CLNT.            A2DTECH:   CLIENT CODE
 ORIG.      1" 2.5" PRINT:   ORIGIN OF DATA
 UWI .       490251084700:   UNIQUE WELL ID
 DICO. A2D Technologies, Inc.:   DIGITIZING COMPANY
~OTHER INFORMATION
~A   DEPT      SFL        ILD        ILM        SPR       CORR       RHOB       DPOR         NPOR      GRD   
# ...
   85.5000     4.0242     2.5149     3.0610   -75.6193     0.0434     2.4369     0.1474     0.3403   112.3469
   86.0000     5.7269     3.0317     3.9778   -75.7242     0.0352     2.4219     0.1466     0.3234   107.2755
   86.5000     8.2206     3.8897     5.4546   -75.8385     0.0253     2.3957     0.1625     0.3096   104.8734
   87.0000     7.9434     4.9828     6.9562   -75.9493     0.0149     2.3693     0.1788     0.2944   102.0786
   87.5000     7.4920     6.3841     7.6010   -75.8397     0.0053     2.3486     0.1984     0.2761    99.2368
   88.0000     9.0361     7.2602     8.6374   -75.1244    -0.0044     2.3487     0.2000     0.2681    96.5100
   88.5000    10.8417     8.1042     9.8176   -74.4011     0.0032     2.3882     0.1922     0.2793    94.2602
   89.0000    10.7031     9.7084    10.4554   -73.6663     0.0297     2.4412     0.1597     0.2744    95.4347
   89.5000    10.4132     9.4964    10.1321   -72.9084     0.0426     2.4564     0.1347     0.2652    98.1592
   90.0000    10.1301     9.0674     9.8625   -72.7208     0.0303     2.4314     0.1482     0.2606   100.8431
   90.5000     9.8707     8.6867     9.6001   -73.1372     0.0280     2.4042     0.1644     0.2677   103.7439
   91.0000     9.6081     7.2539     8.3877   -74.1551     0.0285     2.3770     0.1805     0.2711   105.1029
   91.5000     9.3551     6.1313     7.0393   -75.1497     0.0334     2.3493     0.1968     0.2778   105.1059
   92.0000     7.0891     5.1825     5.9076   -76.1472     0.0374     2.3235     0.2130     0.2853   105.4218
   92.5000     5.3871     4.3805     4.6261   -76.8645     0.0424     2.2947     0.2311     0.2853   111.1374
   93.0000     4.0938     3.7026     4.7022   -76.5687     0.0458     2.3122     0.2207     0.3774   116.6709
   93.5000     3.1934     3.1934     4.8008   -76.0178     0.0531     2.3501     0.1993     0.3680   119.9182
   94.0000     3.1934     3.1934     5.1715   -74.9606     0.0505     2.3792     0.1801     0.3393   112.5761
   94.5000     3.8798     4.0594     5.6240   -73.7878     0.0478     2.3745     0.1823     0.3070   108.3113
   95.0000     5.6982     5.1702     6.1161   -72.6020     0.0449     2.3717     0.1843     0.2813   111.4108
   95.5000     9.1951     5.5680     6.8207   -72.2215     0.0419     2.3702     0.1865     0.2717   113.0955
   96.0000     8.9856     6.3575     7.6562   -71.9463     0.0392     2.3784     0.1802     0.2717   109.5991
   96.5000     8.5564     7.1669     8.4129   -71.6816     0.0362     2.3938     0.1715     0.2940   103.0248
   97.0000     8.1463     8.0661     8.9390   -71.4352     0.0351     2.4051     0.1641     0.2936   101.4036
   97.5000     7.5656     8.7897     9.4982   -71.2355     0.0339     2.3996     0.1710     0.2901   104.2506
   98.0000     7.6086     9.5670     9.9113   -71.2278     0.0327     2.3818     0.1800     0.2829   107.9273
   98.5000     8.0292     9.9364    10.2634   -71.6308     0.0319     2.3731     0.1857     0.2924   111.5888
   99.0000     8.4719    10.0133    10.0750   -71.7681     0.0311     2.3770     0.1827     0.2988   114.4400
   99.5000     8.9391    10.2634    10.4025   -71.1164     0.0300     2.3739     0.1801     0.3036   110.5844
  100.0000     9.4320    10.5466    10.8502   -70.4878     0.0283     2.3570     0.1917     0.3068   105.4043
  100.5000     9.8900    10.8861    10.9092   -69.8566     0.0328     2.3411     0.2032     0.3014   100.1869
  101.0000     9.8900    11.2366    10.9809   -68.8987     0.0458     2.3666     0.1978     0.2927    96.2259
  101.5000     9.8900    11.4829    11.0531   -67.5229     0.0583     2.3942     0.1736     0.2870    96.0845
  102.0000     9.8900    11.5183    11.1257   -66.6415     0.0687     2.4064     0.1649     0.2862    97.0148
  102.5000     9.8894    11.5539    11.1989   -66.8022     0.0606     2.3896     0.1752     0.2801    97.6924
  103.0000     9.8904    11.5896    11.2725   -66.9267     0.0401     2.3704     0.1873     0.2707    96.8768
  103.5000     9.8912    11.6254    11.3466   -67.2735     0.0202     2.3518     0.1984     0.2724    96.2972
  104.0000     9.8919    11.6614    11.4212   -67.8717     0.0078     2.3522     0.1970     0.2741    99.7145
  104.5000     9.8924    11.7113    11.5249   -68.4722     0.0126     2.3531     0.1928     0.2759   101.8346
  105.0000     9.8881    11.7883    11.6850   -68.5577     0.0256     2.3550     0.1939     0.2843   102.3324
  105.5000    10.2746    11.8659    11.8474   -68.3807     0.0330     2.3561     0.1934     0.2889   102.9534
  106.0000    10.6997    11.9439    12.0120   -68.2133     0.0294     2.3562     0.1912     0.2940   103.5861
  106.5000    11.1452    12.0225    12.1790   -68.0569     0.0245     2.3498     0.1957     0.2937   104.1816
  107.0000    11.6092    12.1016    12.3482   -67.8963     0.0198     2.3446     0.2005     0.2932   104.7949
  107.5000    12.0926    12.1995    12.5201   -67.7360     0.0150     2.3386     0.2052     0.2932   105.4378
  108.0000    12.5960    12.3066    12.6024   -67.5771     0.0103     2.3337     0.2100     0.2968   105.5822
  108.5000    12.8718    12.4146    12.6312   -67.4140     0.0054     2.3242     0.2147     0.2980   105.3748
  109.0000    12.9642    12.5236    12.6602   -67.2558     0.0008     2.3161     0.2194     0.2932   105.2013
  109.5000    13.0572    12.6336    12.6894   -67.1113    -0.0036     2.3083     0.2231     0.2757   105.0316
  110.0000    13.1509    12.7445    12.7190   -66.5207    -0.0047     2.3065     0.2231     0.2741   104.8526
  110.5000    13.2453    12.8564    12.7489   -65.4258     0.0034     2.3424     0.1906     0.2747   104.6640
  111.0000    13.3404    12.9692    12.7789   -65.6244     0.0254     2.3812     0.1785     0.2802   104.4676
  111.5000    13.4361    13.0848    12.8049   -65.8264     0.0372     2.3768     0.1821     0.2858   103.4851
  112.0000    13.5325    13.2001    12.8195   -66.1266     0.0321     2.3673     0.1875     0.2913   102.2959
  112.5000    14.1294    13.3059    13.1703   -65.8812     0.0377     2.3581     0.1920     0.2969   101.0588
  113.0000    15.4296    13.5936    13.4836   -65.4320     0.0443     2.3718     0.1807     0.3009    99.6993
  113.5000    15.4007    13.8632    13.8044   -64.5578     0.0517     2.3915     0.1721     0.3032   100.3194
  114.0000    15.3302    14.1879    14.1328   -63.7851     0.0520     2.3851     0.1789     0.2848   103.8294
  114.5000    15.2406    14.6653    14.4690   -62.9674     0.0408     2.3668     0.1863     0.2669   108.2276
  115.0000    15.1610    15.1581    14.8132   -63.1309     0.0265     2.3613     0.1896     0.2623   106.0006
  115.5000    16.4132    15.6686    15.1655   -63.3117     0.0128     2.3754     0.1813     0.2585   100.9051
  116.0000    17.5919    16.1963    15.5263   -63.5425     0.0123     2.3881     0.1741     0.2594    94.6419
  116.5000    18.9068    16.7417    15.8956   -63.7500     0.0155     2.4017     0.1657     0.2751    96.1759
  117.0000    20.0182    17.5668    16.3117   -64.1910     0.0159     2.4183     0.1553     0.2714    98.2578
  117.5000    21.2479    17.5310    16.3117   -64.6088     0.0136     2.4332     0.1410     0.2594    96.9743
  118.0000    24.4610    17.3481    16.3117   -65.0323     0.0125     2.4429     0.1447     0.2513    95.6807
  118.5000    30.0672    17.2442    15.9011   -65.2694     0.0341     2.4197     0.1609     0.2566    94.6900
  119.0000    26.7837    16.7603    15.5477   -64.8319     0.0558     2.3861     0.1770     0.2611    96.6832
  119.5000    19.5529    16.3271    15.2021   -64.4054     0.0562     2.3683     0.1843     0.2634    99.3657
  120.0000    15.5444    15.9057    14.8642   -63.9744     0.0537     2.3749     0.1815     0.2657   101.0887
  120.5000    16.0173    15.4953    14.5339   -63.5338     0.0382     2.3582     0.1876     0.2677   102.7942
  121.0000    16.5374    15.0953    14.2108   -63.0850     0.0180     2.3369     0.2031     0.2674   104.8670
  121.5000    16.3935    14.7052    13.8950   -62.9406     0.0131     2.3174     0.2183     0.2663   103.3589
