~VERSION INFORMATION
 VERS.                2.0:   CWLS LOG ASCII STANDARD - VERSION 2.0
 WRAP.                 NO:   ONE LINE PER DEPTH STEP
~WELL INFORMATION
#MNEM.UNIT      DATA TYPE    INFORMATION
#----------   ------------   ------------------------------
 STRT.F           34.0000:   START DEPTH
 STOP.F          534.0000:   STOP DEPTH
 STEP.F            0.5000:   STEP LENGTH
 NULL.          -999.2500:   NO VALUE
 COMP.    FENIX & SCISSON:   COMPANY
 WELL.      33 SX 3 #33-3:   WELL
 FLD .             TEAPOT:   FIELD
 LOC .       S3 T38N R78W:   LOCATION
 CNTY.            NATRONA:   COUNTY
 STAT.            WYOMING:   STATE
 CTRY. UNITED STATES OF AMERICA:   COUNTRY
 SRVC.       Schlumberger:   SERVICE COMPANY
 DATE.        23-FEB-1977:   LOGDATE
 API .       490251028500:   API NUMBER
~CURVE INFORMATION
#MNEM.UNIT       API CODE    CURVE DESCRIPTION
#----------   ------------   ------------------------------
 DEPT.F                  :   
 SPR .MV     07 010 01 00:   SPONTANEOUS POTENTIAL
 LL8 .OHMM   07 220 08 00:   LATEROLOG-8 RES.
 ILD .OHMM   07 120 46 00:   INDUCTION LOG DEEP
 ILM .OHMM   07 120 44 00:   INDUCTION LOG MEDIUM
 CALD.IN     45 280 60 00:   CALIPER
 GRD .GAPI   45 310 01 00:   GAMMA RAY FROM DENSITY LOG
 RHOB.G/C3   45 350 01 00:   BULK DENSITY
 DPOR.DEC    45 890 12 00:   DENSITY POROSITY SANDSTONE
 CORR.G/C3   45 356 01 00:   DENSITY CORRECTION
~PARAMETER INFORMATION
#MNEM.UNIT          VALUE    DESCRIPTION
#----------   ------------   ------------------------------
 PD  .                 GL:   PERMANENT DATUM
 EPD .F              5170:   ELEVATION PERMANENT DATUM
 LMF .                 KB:   LOG MEASURED FROM
 DAPD.F                 5:   FEET ABOVE PERMANENT DATUM
 DMF .                 KB:   DRILLING MEASURED FROM
 EKB .F              5175:   KELLING BUSHING
 EGL .F              5170:   GROUND LEVEL
 DATE.            2-23-77:   RUN DATE
 RUN .                  1:   RUN NUMBER
 DD  .F               550:   DEPTH DRILLER
 DL  .F               535:   DEPTH LOGGER
 BLI .F               525:   BOTTOM LOG INTERVAL
 TLI .F                47:   TOP LOG INTERVAL
 CS  .IN            8.625:   CASING SIZE
 CBD .F                40:   CASING BOTTOM DRILLER
 CBL .F                47:   CASING BOTTOM LOGGER
 BS  .IN            7.875:   BIT SIZE
 BSD .F               550:   BIT SIZE AT DEPTH
 DFT .                KCL:   DRILLING FLUID TYPE
 DFD .                  9:   DRILLING FLUID DENSITY
 DFV .                 36:   DRILLING FLUID VISCOSITY
 MSS .            MUDTANK:   MUD SAMPLE SOURCE
 RMS .OHMM           .255:   RESISTIVITY MUD SAMPLE
 MST .F                74:   MUD SAMPLE TEMPERATURE
 RMF .OHMM           .246:   RESISTIVITY MUD FILTRATE SAMPLE
 MFST.F                74:   MUD FILTRATE SAMPLE TEMPERATURE
 RMC .OHMM            .38:   RESISTIVITY MUD CAKE
 MCST.F                74:   MUD CAKE SAMPLE TEMPERATURE
 MFSS.                  M:   MUD FILTRATE SAMPLE SOURCE
 MCSS.                  C:   MUD CAKE SAMPLE SOURCE
 RMB .OHMM            .34:   RESISTIVITY MUD AT BHT
 BHT .F                55:   BOTTOM HOLE TEMPERATURE
 TCS .HRS            0600:   TIME CURCULATED STOPPED
 TLAB.HRS            0730:   TIME LOGGER AT BOTTOM
 MRT .F                55:   MAXIMUM RECORDED TEMPERATURE
 LUN .               5642:   LOGGING UNIT NUMBER
 LUL .               CSPR:   LOGGING UNIT LOCATION
 ENGI.                FIX:   RECORDING ENGINEER
 WITN.         STUEBINGER:   WITNESSED BY
 CLNT.            A2DTECH:   CLIENT CODE
 ORIG.       2", 5" PRINT:   ORIGIN OF DATA
 UWI .       490251028500:   UNIQUE WELL ID
 DICO. A2D Technologies, Inc.:   DIGITIZING COMPANY
~OTHER INFORMATION
~A   DEPT      SPR        LL8        ILD        ILM       CALD         GRD      RHOB       DPOR       CORR   
# ...
  253.0000   -44.8079     8.2029     5.4181     6.3392     8.6906   118.1590     2.4548     0.1213     0.0214
  253.5000   -44.7179     8.5521     5.3134     6.1058     8.6920   116.8652     2.4448     0.1261     0.0122
  254.0000   -44.6308     8.7561     5.2172     5.7695     8.6934   116.5496     2.4339     0.1343    -0.0025
  254.5000   -44.5310     6.6955     5.1228     5.4517     8.6945   117.0421     2.4230     0.1448     0.0119
  255.0000   -44.1521     5.4054     5.0313     5.2223     8.6959   118.2399     2.4071     0.1509     0.0332
  255.5000   -43.5627     4.5894     5.0345     5.3971     8.6974   116.2731     2.3884     0.1594     0.0542
  256.0000   -42.7136     5.4782     4.9847     5.6829     8.6988   113.9235     2.3691     0.1730     0.0393
  256.5000   -41.8619     6.9391     5.1814     5.9838     8.7002   111.5440     2.3912     0.1749     0.0088
  257.0000   -41.3021     8.7561     5.5081     6.2825     8.7017   110.6399     2.4410     0.1343     0.0165
  257.5000   -40.8901     8.7011     5.8125     6.2797     8.7031   110.7105     2.4598     0.1187     0.0096
  258.0000   -40.5328     8.5691     6.1235     6.7449     8.7045   111.4806     2.4707     0.1153     0.0208
  258.5000   -40.3900     8.4388     6.4512     7.0936     8.7060   112.7377     2.4818     0.1120     0.0292
  259.0000   -40.2407     8.5548     6.7963     7.4610     8.7074   113.9712     2.4700     0.1156     0.0218
  259.5000   -40.0906     8.7561     7.0816     7.7662     8.7088   114.3794     2.4615     0.1196     0.0146
  260.0000   -39.9409     8.8936     7.1472     7.9842     8.7103   112.7945     2.4639     0.1214     0.0115
  260.5000   -39.7916     8.9659     6.8882     7.9246     8.7117   112.9618     2.4564     0.1242     0.0139
  261.0000   -39.6391     9.0388     6.5436     7.6530     8.7132   114.0164     2.4549     0.1177     0.0194
  261.5000   -39.7053     9.0854     6.1968     7.0160     8.7145   115.0648     2.4606     0.1132     0.0248
  262.0000   -39.9018     9.1697     5.8683     6.4320     8.7157   116.0406     2.4641     0.1196     0.0200
  262.5000   -40.0995     8.6607     5.5572     5.8966     8.7170   116.5580     2.4392     0.1293     0.0081
  263.0000   -40.2950     7.2437     5.2626     5.5196     8.7182   117.8542     2.4197     0.1464    -0.0026
  263.5000   -40.4933     5.4800     4.9836     5.3196     8.7195   119.2526     2.4002     0.1578     0.0024
  264.0000   -40.2763     4.3022     4.8061     5.2707     8.7207   118.8868     2.3896     0.1641     0.0187
  264.5000   -39.7880     5.8299     4.8123     5.4137     8.7220   116.7761     2.3898     0.1573     0.0330
  265.0000   -39.2940     7.7662     4.8616     5.5231     8.7233   115.5147     2.4166     0.1464     0.0147
  265.5000   -39.0160     7.5145     4.9868     5.6564     8.7245   115.3504     2.4434     0.1276     0.0203
  266.0000   -38.7953     7.2135     5.2931     5.9642     8.7258   115.1678     2.4379     0.1376     0.0110
  266.5000   -38.5761     8.4613     5.6862     6.2886     8.7270   108.8373     2.4397     0.1341    -0.0014
  267.0000   -38.3566     9.0854     6.1077     6.7058     8.7283   104.2956     2.4613     0.1233     0.0064
  267.5000   -38.1370     9.3168     6.5596     7.2326     8.7295   105.5404     2.4794     0.1137     0.0163
  268.0000   -37.9180     9.5329     7.0445     7.8018     8.7308   107.5813     2.4757     0.1182     0.0077
  268.5000   -37.6975     9.7541     7.4847     8.3613     8.7320   109.6646     2.4763     0.1153     0.0007
  269.0000   -37.6002     9.8723     7.6948     8.5170     8.7333   110.7093     2.4881     0.1097     0.0127
  269.5000   -37.6086     9.8723     7.7879     8.5960     8.7329   110.4980     2.5048     0.1001     0.0270
  270.0000   -37.2642     9.8723     7.8205     8.6757     8.7316   110.0017     2.5216     0.0820     0.0481
  270.5000   -36.8175     9.8723     7.8382     8.7027     8.7303   108.8578     2.5339     0.0897     0.0410
  271.0000   -36.5760    10.1464     7.9109     8.7343     8.7290   106.9120     2.5160     0.1036     0.0287
  271.5000   -36.5132    10.5311     7.8826     8.7660     8.7277   104.7143     2.4995     0.1064     0.0206
  272.0000   -36.4494    10.3018     7.8600     8.7978     8.7264   103.0744     2.5017     0.1083     0.0125
  272.5000   -36.3606     9.9638     7.8375     8.8297     8.7251   104.2323     2.4878     0.1100     0.0080
  273.0000   -36.1908     9.8723     7.8151     8.8617     8.7238   107.0221     2.4724     0.1144     0.0144
  273.5000   -36.0260    10.0321     7.7927     8.8939     8.7225   110.1509     2.4712     0.1149     0.0234
  274.0000   -35.8623    10.1644     7.7704     8.9193     8.7212   112.0497     2.4979     0.1084     0.0346
  274.5000   -35.6982    10.3385     7.7662     8.9021     8.7199   110.5916     2.5139     0.1093     0.0342
  275.0000   -35.6780    10.3194     7.8434     8.8804     8.7186   110.6354     2.4987     0.1112     0.0089
  275.5000   -35.8002    10.2722     7.9208     8.8588     8.7172   109.2023     2.5074     0.1067     0.0339
  276.0000   -35.9252    10.2435     7.9991     8.8366     8.7159   107.7103     2.5128     0.1040     0.0246
  276.5000   -36.1088     9.6943     8.0781     8.8373     8.7146   108.9087     2.4867     0.1096     0.0135
  277.0000   -36.4819     9.0121     8.1579     8.9722     8.7139   109.2699     2.4980     0.1054     0.0233
  277.5000   -36.8447     9.3662     8.2084     9.1480     8.7198   106.4109     2.4925     0.1018     0.0370
  278.0000   -37.2065     9.8572     8.2845     9.3273     8.7255   104.4138     2.4809     0.0999     0.0261
  278.5000   -37.3683    10.3766     8.2236     9.5100     8.7312   102.4387     2.4724     0.1149     0.0125
  279.0000   -37.3029    10.9286     8.0720     9.6964     8.7368   100.4584     2.4793     0.1131     0.0189
  279.5000   -37.2374    11.1344     7.6991     9.8723     8.7425    98.5997     2.4864     0.1120     0.0248
  280.0000   -37.0340    11.2301     7.3434     9.4897     8.7482    98.6374     2.4808     0.1148     0.0113
  280.5000   -36.6640    11.2339     7.0041     8.8238     8.7534    99.1267     2.4777     0.1142     0.0266
  281.0000   -35.4119     9.3421     6.6806     8.2046     8.7535    99.6203     2.4797     0.1136     0.0128
  281.5000   -34.1955     7.5864     6.3719     7.6289     8.7589    98.8601     2.4650     0.1148     0.0237
  282.0000   -33.3754     6.0533     6.0533     7.0936     8.7653    96.8021     2.4500     0.1165     0.0290
  282.5000   -32.7773     5.9977     5.8880     6.4492     8.7717    95.4517     2.4382     0.1180     0.0075
  283.0000   -32.0109     7.9649     5.9977     6.6147     8.7781    96.8316     2.4668     0.1101     0.0126
  283.5000   -31.0225     9.8875     6.2435     7.1876     8.7845    99.9400     2.4859     0.1020     0.0181
  284.0000   -30.4634    11.2339     6.6471     7.8098     8.7909   103.1684     2.4846     0.0970     0.0169
  284.5000   -29.5882    11.5717     7.0762     8.4837     8.7908   106.4153     2.4878     0.0979     0.0208
  285.0000   -28.9641    11.7605     7.6522     9.2158     8.7869   108.2466     2.4802     0.1024     0.0143
  285.5000   -28.2780    11.9525     8.4744    10.0133     8.7830   108.0170     2.4834     0.0984     0.0189
  286.0000   -27.7450    12.0946     9.3867    10.7273     8.7792   104.9406     2.4828     0.0972     0.0104
  286.5000   -27.8975    12.1636     9.6855    11.0284     8.7753   101.5497     2.4753     0.1080     0.0110
  287.0000   -28.0537    12.2435     9.6440    11.1307     8.7714    98.5636     2.4700     0.1084     0.0107
  287.5000   -27.8758    12.3200     9.6027    10.9846     8.7675    98.9510     2.4980     0.0865     0.0397
  288.0000   -27.5803    12.1383     9.9476    10.8480     8.7636    99.8530     2.5240     0.0728     0.0663
  288.5000   -26.9294    11.8631    10.5044    10.7273     8.7597    99.4933     2.5275     0.0787     0.0484
  289.0000   -26.0195    11.6563    11.0925    11.0724     8.7559    96.6640     2.4865     0.0986     0.0224
