~VERSION INFORMATION
 VERS.                2.0:   CWLS LOG ASCII STANDARD - VERSION 2.0
 WRAP.                 NO:   ONE LINE PER DEPTH STEP
~WELL INFORMATION
#MNEM.UNIT      DATA TYPE    INFORMATION
#----------   ------------   ------------------------------
 STRT.F          100.0000:   START DEPTH
 STOP.F          812.0000:   STOP DEPTH
 STEP.F            0.5000:   STEP LENGTH
 NULL.          -999.2500:   NO VALUE
 COMP.               NAVY:   COMPANY
 WELL. RES 3 TEAPOT DOM #42S-11:   WELL
 FLD .             TEAPOT:   FIELD
 LOC .      S11 T38N R78W:   LOCATION
 CNTY.            NATRONA:   COUNTY
 STAT.            WYOMING:   STATE
 CTRY. UNITED STATES OF AMERICA:   COUNTRY
 SRVC.       Schlumberger:   SERVICE COMPANY
 DATE.        02-AUG-1961:   LOGDATE
 API .       490250636700:   API NUMBER
~CURVE INFORMATION
#MNEM.UNIT       API CODE    CURVE DESCRIPTION
#----------   ------------   ------------------------------
 DEPT.F                  :   
 SPR .MV     05 010 01 00:   SPONTANEOUS POTENTIAL FROM RES.
 ILD .OHMM   05 120 46 00:   INDUCTION LOG DEEP
 ASN .OHMM   05 041 16 00:   AMPLIFIED SHORT NORMAL 16"
 CILD.MMHO   05 110 46 00:   CONDUCTIVITY INDUCTION LOG DEEP
 GR  .GAPI   30 310 01 00:   GAMMA RAY
~PARAMETER INFORMATION
#MNEM.UNIT          VALUE    DESCRIPTION
#----------   ------------   ------------------------------
 PD  .                 GL:   PERMANENT DATUM
 EPD .F              5172:   ELEVATION PERMANENT DATUM
 LMF .                 KB:   LOG MEASURED FROM
 DAPD.F                 5:   FEET ABOVE PERMANENT DATUM
 DMF .                 KB:   DRILLING MEASURED FROM
 EKB .F              5177:   KELLING BUSHING
 EGL .F              5172:   GROUND LEVEL
 DATE.             8-2-61:   RUN DATE
 RUN .                  1:   RUN NUMBER
 DD  .F               810:   DEPTH DRILLER
 DL  .F               813:   DEPTH LOGGER
 BLI .F               812:   BOTTOM LOG INTERVAL
 TLI .F               100:   TOP LOG INTERVAL
 BS  .IN             6.75:   BIT SIZE
 BSD .F               810:   BIT SIZE AT DEPTH
 DFT .       OIL EMULSION:   DRILLING FLUID TYPE
 DFD .                9.2:   DRILLING FLUID DENSITY
 DFV .                 56:   DRILLING FLUID VISCOSITY
 MFSS.                  M:   MUD FILTRATE SAMPLE SOURCE
 MCSS.                  M:   MUD CAKE SAMPLE SOURCE
 RMB .OHMM            .70:   RESISTIVITY MUD AT BHT
 BHT .F                80:   BOTTOM HOLE TEMPERATURE
 TCS .HRS               1:   TIME CURCULATED STOPPED
 MRT .F                80:   MAXIMUM RECORDED TEMPERATURE
 LUN .               2552:   LOGGING UNIT NUMBER
 LUL .                RIV:   LOGGING UNIT LOCATION
 ENGI.             RANDLE:   RECORDING ENGINEER
 WITN.          VORGENSON:   WITNESSED BY
 CLNT.            A2DTECH:   CLIENT CODE
 ORIG.       2", 5" PRINT:   ORIGIN OF DATA
 UWI .       490250636700:   UNIQUE WELL ID
 DICO. A2D Technologies, Inc.:   DIGITIZING COMPANY
~OTHER INFORMATION
~A   DEPT      SPR        ILD        ASN        CILD        GR   
# ...
  344.0000   -35.4038     7.4424     7.9978   142.1493  -999.2500
  344.5000   -35.5248     7.5963     8.1464   138.6215  -999.2500
  345.0000   -35.6576     7.7667     8.2925   135.0936  -999.2500
  345.5000   -35.6746     7.8088     8.4432   133.7033  -999.2500
  346.0000   -35.6674     7.6902     8.5639   133.9657  -999.2500
  346.5000   -35.5967     7.5998     8.5601   135.7215  -999.2500
  347.0000   -35.5034     7.4333     8.4665   138.1357  -999.2500
  347.5000   -35.4146     7.2683     8.3818   141.8485  -999.2500
  348.0000   -35.3238     7.1034     8.2783   145.5613  -999.2500
  348.5000   -35.2336     6.9399     8.0129   149.2741  -999.2500
  349.0000   -35.1436     6.7738     7.7673   152.9869  -999.2500
  349.5000   -35.0524     6.6120     7.5273   156.6997  -999.2500
  350.0000   -34.9642     6.4283     7.4040   160.4125  -999.2500
  350.5000   -34.8704     6.4029     7.3222   164.9849  -999.2500
  351.0000   -34.7868     6.4053     7.2531   164.9849  -999.2500
  351.5000   -34.6841     6.4294     7.2593   163.9758  -999.2500
  352.0000   -34.7088     6.5114     7.2767   163.3172  -999.2500
  352.5000   -34.8424     6.5904     7.2963   161.1610  -999.2500
  353.0000   -34.9545     6.6721     7.3406   159.0047  -999.2500
  353.5000   -35.0759     6.7523     7.3961   156.8485  -999.2500
  354.0000   -35.1941     6.8333     7.4463   154.6922  -999.2500
  354.5000   -35.3107     6.9138     7.5287   152.5360  -999.2500
  355.0000   -35.4322     6.9945     7.6098   150.3797  -999.2500
  355.5000   -35.4621     7.0749     7.6925   148.2235  -999.2500
  356.0000   -35.3674     7.1559     7.7741   146.0672  -999.2500
  356.5000   -35.2886     7.2358     7.8566   143.7941  -999.2500
  357.0000   -35.2020     7.3178     7.9381   142.4756  -999.2500
  357.5000   -35.1197     7.3958     8.0211   141.7928  -999.2500
  358.0000   -35.0424     7.4819     8.1017   141.1100  -999.2500
  358.5000   -35.2154     7.5220     8.1869   140.4272  -999.2500
  359.0000   -35.2769     7.5178     8.2443   139.7444  -999.2500
  359.5000   -35.2652     7.5138     8.2779   139.0096  -999.2500
  360.0000   -35.4466     7.4507     8.3125   139.7072  -999.2500
  360.5000   -35.4311     7.3851     8.3475   141.0399  -999.2500
  361.0000   -35.3040     7.3192     8.3073   142.3132  -999.2500
  361.5000   -35.1901     7.2536     8.2230   143.5862  -999.2500
  362.0000   -35.0717     7.1878     8.1492   144.8554  -999.2500
  362.5000   -35.0600     7.1221     8.0703   146.1203  -999.2500
  363.0000   -35.0584     7.0564     7.9945   147.3837  -999.2500
  363.5000   -35.0253     6.9906     7.9165   148.6440  -999.2500
  364.0000   -34.9858     6.9253     7.8406   149.9045  -999.2500
  364.5000   -34.9507     6.8590     7.7633   151.1651  -999.2500
  365.0000   -34.9086     6.7945     7.7353   152.4257  -999.2500
  365.5000   -34.8792     6.7282     7.7266   153.6862  -999.2500
  366.0000   -34.8435     6.7108     7.7142   154.9468  -999.2500
  366.5000   -35.0086     6.7380     7.7033   155.9031  -999.2500
  367.0000   -35.1092     6.7587     7.6927   155.9031  -999.2500
  367.5000   -35.1682     6.7818     7.6790   154.8604  -999.2500
  368.0000   -35.2401     6.8035     7.6904   153.4948  -999.2500
  368.5000   -35.2746     6.8260     7.7320   151.8668  -999.2500
  369.0000   -35.2254     6.8481     7.7723   151.8668  -999.2500
  369.5000   -35.0022     6.8704     7.8140   151.5005  -999.2500
  370.0000   -34.8264     6.8926     7.8541   151.0551  -999.2500
  370.5000   -34.6405     6.9147     7.8975   150.6098  -999.2500
  371.0000   -34.4492     6.9369     7.9385   150.1645  -999.2500
  371.5000   -34.2702     6.9590     7.9421   149.7192  -999.2500
  372.0000   -34.0719     6.9810     7.9407   149.2739  -999.2500
  372.5000   -34.2384     7.0031     7.9425   148.8286  -999.2500
  373.0000   -34.5235     7.0249     7.9385   148.3833  -999.2500
  373.5000   -34.7864     7.0474     7.9682   147.9380  -999.2500
  374.0000   -35.0588     7.0685     8.0364   147.4926  -999.2500
  374.5000   -35.3280     7.0925     8.0997   147.0473  -999.2500
  375.0000   -35.5952     7.1085     8.1656   146.8214  -999.2500
  375.5000   -35.8714     7.1314     8.2304   144.9371  -999.2500
  376.0000   -36.1274     7.2919     8.2953   143.2121  -999.2500
  376.5000   -36.4258     7.4411     8.3615   141.4871  -999.2500
  377.0000   -36.6022     7.5915     8.4240   139.7621  -999.2500
  377.5000   -36.5248     7.7389     8.4998   138.0371  -999.2500
  378.0000   -36.7092     7.8920     8.6678   136.3121  -999.2500
  378.5000   -36.6709     8.0152     8.8448   134.5871  -999.2500
  379.0000   -36.6128     8.0237     8.9817   132.8621  -999.2500
  379.5000   -36.5182     8.0227     9.0135   131.1371  -999.2500
  380.0000   -36.4426     8.0228     9.0605   129.6670  -999.2500
  380.5000   -36.3510     8.0215     9.0622   128.6579  -999.2500
  381.0000   -36.3132     8.0233     9.0423   129.6670  -999.2500
  381.5000   -36.6236     8.0191     9.0240   129.6670  -999.2500
  382.0000   -36.8599     8.0258     9.0117   130.0252  -999.2500
  382.5000   -36.7239     8.0114     9.0098   130.5373  -999.2500
  383.0000   -36.5728     8.1142     9.0684   129.1826  -999.2500
  383.5000   -36.4204     8.2765     9.2487   128.1617  -999.2500
  384.0000   -36.2720     8.4271     9.4060   126.1864  -999.2500
  384.5000   -36.1211     8.5874     9.5665   124.2111  -999.2500
  385.0000   -36.0718     8.7490     9.7426   122.2358  -999.2500
  385.5000   -36.0782     8.9315     9.8985   120.2606  -999.2500
  386.0000   -36.0743     9.1059    10.0804   118.2853  -999.2500
  386.5000   -36.0767     9.2847    10.2511   116.3100  -999.2500
  387.0000   -36.0802     9.4608    10.4451   114.3347  -999.2500
  387.5000   -36.1835     9.6394    10.6206   112.3595  -999.2500
  388.0000   -36.3279     9.8140    10.7431   110.3842  -999.2500
  388.5000   -36.4613     9.9956    10.8850   108.4089  -999.2500
  389.0000   -36.6056    10.1644    10.9582   106.4336  -999.2500
  389.5000   -36.7347    10.3593    11.0724   104.4583  -999.2500
  390.0000   -36.8905    10.4505    11.2140   102.4831  -999.2500
  390.5000   -36.7660    10.4482    11.3440   112.0603  -999.2500
  391.0000   -36.4161    10.3710    11.4235   110.6198  -999.2500
  391.5000   -36.1102    10.4605    11.0611   101.4127  -999.2500
  392.0000   -41.1154    10.2603    11.0611   108.0402  -999.2500
  392.5000   -40.8662    10.1203    11.0611   109.2598  -999.2500
  393.0000   -40.6171    10.0476    10.9610   110.3382  -999.2500
  393.5000   -40.6004    10.0261    10.8987   111.0157  -999.2500
  394.0000   -40.4970     9.9397    10.8403   111.9556  -999.2500
  394.5000   -40.4545     9.8654    10.6801   113.0653  -999.2500
  395.0000   -40.4133     9.7933    10.6562   113.2887  -999.2500
  395.5000   -40.3722     9.7203    10.6641   113.5762  -999.2500
  396.0000   -40.3281     9.6476    10.6565   113.8638  -999.2500
  396.5000   -40.3070     9.5750    10.6684   114.0704  -999.2500
  397.0000   -40.4345     9.5021    10.5843   115.2240  -999.2500
  397.5000   -40.5607     9.4295    10.5532   116.2849  -999.2500
  398.0000   -40.6975     9.3564    10.4923   117.3458  -999.2500
  398.5000   -40.7479     9.2842    10.3925   118.4067  -999.2500
  399.0000   -40.7500     9.2104    10.2944   119.4676  -999.2500
  399.5000   -40.6885     9.1389    10.2079   120.5286  -999.2500
  400.0000   -40.5796     9.0635    10.1182   121.5895  -999.2500
  400.5000   -40.4761     9.0793    10.1813   121.8995  -999.2500
  401.0000   -40.3902     9.1223    10.2135   121.4847  -999.2500
  401.5000   -40.2429     9.1563    10.2833   121.0699  -999.2500
  402.0000   -40.0512     9.1945    10.3412   120.6552  -999.2500
  402.5000   -40.0763     9.2297    10.3819   120.2404  -999.2500
  403.0000   -40.0618     9.2681    10.4340   119.8256  -999.2500
  403.5000   -40.0728     9.3019    10.4405   119.4108  -999.2500
  404.0000   -40.0619     9.3447    10.3331   119.0955  -999.2500
  404.5000   -40.0781     9.3413    10.2327   119.6900  -999.2500
