~VERSION INFORMATION
 VERS.                2.0:   CWLS LOG ASCII STANDARD - VERSION 2.0
 WRAP.                 NO:   ONE LINE PER DEPTH STEP
~WELL INFORMATION
#MNEM.UNIT      DATA TYPE    INFORMATION
#----------   ------------   ------------------------------
 STRT.F           30.0000:   START DEPTH
 STOP.F          620.0000:   STOP DEPTH
 STEP.F            0.5000:   STEP LENGTH
 NULL.          -999.2500:   NO VALUE
 COMP. FENIX & SCISSON INC:   COMPANY
 WELL.       NPR-3 #62-15:   WELL
 FLD .             TEAPOT:   FIELD
 LOC .      S15 T38N R78W:   LOCATION
 CNTY.            NATRONA:   COUNTY
 STAT.            WYOMING:   STATE
 CTRY. UNITED STATES OF AMERICA:   COUNTRY
 SRVC.           BIRDWELL:   SERVICE COMPANY
 DATE.        08-JUN-1978:   LOGDATE
 API .       490251063700:   API NUMBER
~CURVE INFORMATION
#MNEM.UNIT       API CODE    CURVE DESCRIPTION
#----------   ------------   ------------------------------
 DEPT.F                  :   
 SPR .MV     05 010 01 00:   SPONTANEOUS POTENTIAL FROM RES.
 SN  .OHMM   05 040 16 00:   SHORT NORMAL 16"
 ILD .OHMM   05 120 46 00:   INDUCTION LOG DEEP
 CALD.IN     45 280 60 00:   CALIPER FROM DENSITY LOG
 GRD .GAPI   45 310 01 00:   GAMMA RAY FROM DENSITY LOG
 CORR.G/C3   45 356 01 00:   DENSITY CORRECTION
 DPHI.DEC    45 890 12 00:   DENSITY POROSITY SANDSTONE
 DEN .G/C3   45 350 01 00:   DENSITY
~PARAMETER INFORMATION
#MNEM.UNIT          VALUE    DESCRIPTION
#----------   ------------   ------------------------------
 PD  .                 GL:   PERMANENT DATUM
 EPD .F              5246:   ELEVATION PERMANENT DATUM
 LMF .                 KB:   LOG MEASURED FROM
 DAPD.F                 4:   FEET ABOVE PERMANENT DATUM
 DMF .                 KB:   DRILLING MEASURED FROM
 EKB .F              5250:   KELLING BUSHING
 EGL .F              5246:   GROUND LEVEL
 DATE.        08-JUN-1978:   RUN DATE
 RUN .                  1:   RUN NUMBER
 DD  .F               620:   DEPTH DRILLER
 DL  .F               627:   DEPTH LOGGER
 BLI .F               620:   BOTTOM LOG INTERVAL
 TLI .F                42:   TOP LOG INTERVAL
 CS  .IN            8.625:   CASING SIZE
 CBD .F                40:   CASING BOTTOM DRILLER
 CBL .F                42:   CASING BOTTOM LOGGER
 BS  .IN            7.875:   BIT SIZE
 BSD .F               620:   BIT SIZE AT DEPTH
 DFT .                KCL:   DRILLING FLUID TYPE
 DFD .                8.7:   DRILLING FLUID DENSITY
 DFV .                 31:   DRILLING FLUID VISCOSITY
 DFPH.               10.5:   DRILLING FLUID PH
 DFL .                 10:   DRILLING FLUID LOSS
 MSS .           FLOWLINE:   MUD SAMPLE SOURCE
 RMS .OHMM            .26:   RESISTIVITY MUD SAMPLE
 MST .F                76:   MUD SAMPLE TEMPERATURE
 RMF .OHMM            .28:   RESISTIVITY MUD FILTRATE SAMPLE
 MFST.F                76:   MUD FILTRATE SAMPLE TEMPERATURE
 RMC .OHMM            .40:   RESISTIVITY MUD CAKE
 MCST.F                77:   MUD CAKE SAMPLE TEMPERATURE
 MFSS.               MEAS:   MUD FILTRATE SAMPLE SOURCE
 MCSS.               MEAS:   MUD CAKE SAMPLE SOURCE
 RMB .OHMM            .28:   RESISTIVITY MUD AT BHT
 BHT .F                70:   BOTTOM HOLE TEMPERATURE
 TCS .HRS            0400:   TIME CURCULATED STOPPED
 MRT .F                70:   MAXIMUM RECORDED TEMPERATURE
 LUN .               2958:   LOGGING UNIT NUMBER
 LUL .               CASP:   LOGGING UNIT LOCATION
 ENGI.             MILLER:   RECORDING ENGINEER
 WITN.           MCGINLEY:   WITNESSED BY
 CLNT.            A2DTECH:   CLIENT CODE
 ORIG.           5" PRINT:   ORIGIN OF DATA
 UWI .       490251063700:   UNIQUE WELL ID
 DICO. A2D Technologies, Inc.:   DIGITIZING COMPANY
~OTHER INFORMATION
~A   DEPT      SPR         SN        ILD       CALD        GRD       CORR       DPHI        DEN   
# ...
   70.5000   -22.6510     9.1592     6.1748     8.0236    83.3268     0.0368     0.1374     2.4471
   71.0000   -23.8353     8.6702     5.8048     8.0232    84.3165     0.0308     0.1452     2.4343
   71.5000   -25.1861     8.3215     5.4949     8.0378    83.5387     0.0338     0.1386     2.4327
   72.0000   -26.2395     7.9868     5.2742     8.0373    86.9759     0.0442     0.1327     2.4477
   72.5000   -27.1158     7.7722     5.1685     7.9465    91.8549     0.0472     0.1315     2.4552
   73.0000   -27.8209     7.6679     5.0650     7.8256    93.4610     0.0337     0.1381     2.4469
   73.5000   -28.1103     7.6182     5.0328     7.7649    92.8298     0.0322     0.1441     2.4346
   74.0000   -28.2467     7.6221     5.0356     7.7343    90.1024     0.0352     0.1393     2.4352
   74.5000   -28.2302     7.6252     5.0389     7.6887    87.0999     0.0337     0.1366     2.4408
   75.0000   -28.2169     7.6283     5.0767     7.5979    86.6416     0.0277     0.1471     2.4349
   75.5000   -28.2036     7.6314     5.0780     7.3263    88.8900     0.0277     0.1510     2.4216
   76.0000   -28.1904     7.6346     5.0776     7.3711    89.4819     0.0262     0.1507     2.4182
   76.5000   -28.3301     7.5850     5.0773     7.4911    89.3207     0.0276     0.1516     2.4189
   77.0000   -28.3136     7.5888     5.0770     7.5358    87.3514     0.0276     0.1543     2.4172
   77.5000   -28.3003     7.5919     5.0767     7.4902    86.1386     0.0291     0.1523     2.4135
   78.0000   -28.2870     7.5950     5.0764     7.3843    91.2459     0.0276     0.1409     2.4209
   78.5000   -28.1241     7.5450     5.1398     7.3538    91.3886     0.0276     0.1412     2.4369
   79.0000   -28.1108     7.4961     5.1415     7.5039    90.3211     0.0276     0.1391     2.4397
   79.5000   -28.2472     7.3460     5.1433     7.5637    90.3106     0.0306     0.1380     2.4428
   80.0000   -28.7026     7.2482     5.1450     7.6536    90.1494     0.0350     0.1389     2.4494
   80.5000   -29.1189     7.1024     5.1468     7.7284    88.3316     0.0380     0.1328     2.4486
   81.0000   -29.2554     7.0563     5.1485     7.8485    87.5706     0.0410     0.1268     2.4501
   81.5000   -29.2388     7.0592     5.1503     7.9084    90.5694     0.0425     0.1235     2.4606
   82.0000   -29.3752     7.0622     5.1524     7.8778    90.8627     0.0455     0.1205     2.4672
   82.5000   -29.3619     7.0657     5.1542     8.2388    89.3435     0.0484     0.1355     2.4574
   83.0000   -29.3487     7.0685     5.1559     8.1930    87.0739     0.0529     0.1290     2.4536
   83.5000   -29.4884     7.0714     5.1577     8.1474    84.8042     0.0664     0.1246     2.4581
   84.0000   -29.4719     7.1233     5.1952     8.0867    86.1491     0.0843     0.1170     2.4671
   84.5000   -29.4586     7.2254     5.2330     8.0260    88.2469     0.0933     0.1116     2.4813
   85.0000   -29.2956     7.3289     5.2710     7.9352    90.7966     0.0888     0.1140     2.4842
   85.5000   -29.2824     7.4854     5.3094     7.7540    93.6475     0.0738     0.1200     2.4707
   86.0000   -29.2691     7.5404     5.3112     7.6934    92.8839     0.0588     0.1278     2.4482
   86.5000   -29.2558     7.5435     5.3130     7.6460    90.7658     0.0513     0.1338     2.4436
   87.0000   -29.2425     7.6515     5.3148     7.5705    89.3998     0.0483     0.1356     2.4466
   87.5000   -29.3790     7.7077     5.3166     7.5100    88.7868     0.0468     0.1350     2.4481
   88.0000   -29.5155     7.7152     5.3188     7.4496    88.0232     0.0438     0.1362     2.4435
   88.5000   -29.6519     7.7676     5.3206     7.4042    87.7114     0.0393     0.1402     2.4405
   89.0000   -29.7850     7.7714     5.3593     7.3739    88.3032     0.0333     0.1408     2.4389
   89.5000   -29.7718     7.8285     5.5113     7.2981    89.3469     0.0332     0.1390     2.4374
   90.0000   -29.9115     7.8317     5.7864     7.1928    90.5411     0.0347     0.1378     2.4383
   90.5000   -30.0479     7.7273     5.8689     7.0869    90.3799     0.0332     0.1366     2.4405
   91.0000   -30.4805     7.5719     5.9526     6.9961    88.8633     0.0302     0.1357     2.4418
   91.5000   -30.6202     7.4196     5.9546     7.0408    86.7443     0.0257     0.1399     2.4425
   92.0000   -30.9030     7.3207     5.9566     7.6428    85.0771     0.0242     0.1405     2.4416
   92.5000   -30.8898     7.3237     5.8755     7.9435    88.2318     0.0287     0.1381     2.4418
   93.0000   -30.8765     7.2762     5.7982     7.9913    87.3150     0.0361     0.1360     2.4455
   93.5000   -30.8633     7.2792     5.6816     8.0330    86.2502     0.0421     0.1345     2.4476
   94.0000   -30.8500     7.2822     5.6051     8.1229    88.1974     0.0541     0.1352     2.4484
   94.5000   -30.8367     7.2852     5.4924     8.1526    91.1989     0.0690     0.1358     2.4490
   95.0000   -30.8234     7.2379     5.4560     8.1370    92.3932     0.0900     0.1331     2.4498
   95.5000   -30.8099     7.1910     5.4202     8.0763    92.6864     0.1154     0.1217     2.4552
   96.0000   -30.7725     7.2445     5.3847     7.9855    89.7779     0.1543     0.0947     2.5419
   96.5000   -30.6307     7.3483     5.3495     7.8947    83.9885     0.1738     0.0737     2.5997
   97.0000   -30.6174     7.5052     5.3517     7.8189    77.2906     0.1558     0.0710     2.5996
   97.5000   -30.4544     7.6128     5.3535     7.7733    69.4487     0.1183     0.0707     2.5936
   98.0000   -30.4412     7.7218     5.3553     7.7427    73.2032     0.0661     0.0740     2.5823
   98.5000   -30.8770     7.7785     5.4722     7.7724    85.0902     0.0166     0.0845     2.4772
   99.0000   -31.4625     7.6221     5.5921     7.8322    86.2871     0.0345     0.1154     2.4742
   99.5000   -31.6023     7.3662     5.6659     7.9221    84.9184     0.0397     0.1214     2.4719
  100.0000   -31.7387     7.2681     5.6632     7.9368    83.5543     0.0409     0.1222     2.4707
  100.5000   -31.4212     7.5271     5.6124     7.7738    83.5452     0.0419     0.1235     2.4643
  101.0000   -31.5569     7.6350     5.5934     7.7845    84.2876     0.0433     0.1242     2.4636
  101.5000   -31.5416     7.6911     5.5958     7.7976    85.4834     0.0433     0.1233     2.4636
  102.0000   -31.6766     7.8013     5.5977     7.7203    85.7755     0.0417     0.1242     2.4636
  102.5000   -31.8116     7.8044     5.5996     7.6436    85.4653     0.0417     0.1287     2.4620
  103.0000   -31.9479     7.8617     5.5629     7.5506    84.7032     0.0416     0.1326     2.4583
  103.5000   -31.9824     7.8649     5.6034     7.4614    84.3930     0.0431     0.1329     2.4545
  104.0000   -32.0170     7.8681     5.6053     7.4151    86.7935     0.0460     0.1272     2.4515
  104.5000   -32.0511     7.8713     5.6462     7.4139    87.6904     0.0490     0.1233     2.4567
  105.0000   -32.0359     7.8746     5.6480     7.4127    87.6791     0.0505     0.1245     2.4642
  105.5000   -32.6169     7.8779     5.6891     7.4287    87.2182     0.0429     0.1269     2.4680
  106.0000   -32.9053     7.8818     5.6911     7.4555    85.5525     0.0294     0.1248     2.4619
  106.5000   -32.8869     7.8850     5.7726     7.4869    83.7363     0.0219     0.1230     2.4612
  107.0000   -32.8722     7.8882     5.8146     7.4982    84.9320     0.0158     0.1245     2.4649
  107.5000   -32.8576     7.8914     5.8569     7.4967    88.8386     0.0158     0.1333     2.4611
  108.0000   -32.8429     7.7327     5.8181     7.3148    90.4885     0.0262     0.1203     2.4581
  108.5000   -32.8282     7.6289     5.8206     7.2233    88.8205     0.0411     0.1192     2.4671
  109.0000   -32.8135     7.5794     5.8629     7.2070    87.0042     0.0411     0.1198     2.4723
  109.5000   -32.7989     7.5833     5.9878     7.2510    85.4892     0.0396     0.1197     2.4753
  110.0000   -32.7842     7.5864     6.0308     7.5510    84.6988     0.0395     0.1192     2.4753
  110.5000   -32.7695     7.6421     5.9096     8.0016    86.0994     0.0395     0.1198     2.4746
