~VERSION INFORMATION
 VERS.                2.0:   CWLS LOG ASCII STANDARD - VERSION 2.0
 WRAP.                 NO:   ONE LINE PER DEPTH STEP
~WELL INFORMATION
#MNEM.UNIT      DATA TYPE    INFORMATION
#----------   ------------   ------------------------------
 STRT.F           38.0000:   START DEPTH
 STOP.F          846.0000:   STOP DEPTH
 STEP.F            0.5000:   STEP LENGTH
 NULL.          -999.2500:   NO VALUE
 COMP. FENIX & SCISSON INC:   COMPANY
 WELL.    NPR 3 #34-SX-14:   WELL
 FLD .        TEAPOT DOME:   FIELD
 LOC .      S14 T38N R78W:   LOCATION
 CNTY.            NATRONA:   COUNTY
 STAT.            WYOMING:   STATE
 CTRY. UNITED STATES OF AMERICA:   COUNTRY
 SRVC.           BIRDWELL:   SERVICE COMPANY
 DATE.        26-APR-1978:   LOGDATE
 API .       490251063500:   API NUMBER
~CURVE INFORMATION
#MNEM.UNIT       API CODE    CURVE DESCRIPTION
#----------   ------------   ------------------------------
 DEPT.F                  :   
 NEUT.CPS    81 330 30 00:   NEUTRON
 TT  .US/F   81 520 00 00:   TRANSIT TIME
 GRD .GAPI   45 310 01 00:   GAMMA RAY FROM DENSITY LOG
 RHOB.G/C3   45 350 01 00:   BULK DENSITY
 DPOR.DEC    45 890 10 00:   DENSITY POROSITY
 CALD.IN     45 280 60 00:   CALIPER FROM DENSITY LOG
 CORR.G/C3   45 356 01 00:   DENSITY CORRECTION
~PARAMETER INFORMATION
#MNEM.UNIT          VALUE    DESCRIPTION
#----------   ------------   ------------------------------
 PD  .                 GL:   PERMANENT DATUM
 EPD .F              5232:   ELEVATION PERMANENT DATUM
 LMF .                 KB:   LOG MEASURED FROM
 DMF .                 KB:   DRILLING MEASURED FROM
 EKB .F              5236:   KELLING BUSHING
 EGL .F              5232:   GROUND LEVEL
 DATE.          4-26-1978:   RUN DATE
 RUN .                  1:   RUN NUMBER
 DD  .F               855:   DEPTH DRILLER
 DL  .F               853:   DEPTH LOGGER
 BLI .F               846:   BOTTOM LOG INTERVAL
 TLI .F                40:   TOP LOG INTERVAL
 CS  .IN            8.625:   CASING SIZE
 CBD .F                40:   CASING BOTTOM DRILLER
 CBL .F                40:   CASING BOTTOM LOGGER
 BS  .IN            7.875:   BIT SIZE
 BSD .F               855:   BIT SIZE AT DEPTH
 DFT .                KCL:   DRILLING FLUID TYPE
 DFD .                8.5:   DRILLING FLUID DENSITY
 DFV .                 31:   DRILLING FLUID VISCOSITY
 DFPH.                 10:   DRILLING FLUID PH
 DFL .               10.4:   DRILLING FLUID LOSS
 MSS .          FLUID PIT:   MUD SAMPLE SOURCE
 RMS .OHMM            .36:   RESISTIVITY MUD SAMPLE
 MST .F                68:   MUD SAMPLE TEMPERATURE
 RMF .OHMM            .28:   RESISTIVITY MUD FILTRATE SAMPLE
 MFST.F                74:   MUD FILTRATE SAMPLE TEMPERATURE
 RMC .OHMM            .48:   RESISTIVITY MUD CAKE
 MCST.F                79:   MUD CAKE SAMPLE TEMPERATURE
 MFSS.               MEAS:   MUD FILTRATE SAMPLE SOURCE
 RMB .OHMM            .33:   RESISTIVITY MUD AT BHT
 BHT .F                75:   BOTTOM HOLE TEMPERATURE
 TCS .HRS               1:   TIME CURCULATED STOPPED
 MRT .F                75:   MAXIMUM RECORDED TEMPERATURE
 LUN .               3006:   LOGGING UNIT NUMBER
 LUL .              CASP.:   LOGGING UNIT LOCATION
 ENGI.             MILLER:   RECORDING ENGINEER
 WITN.           MCGINLEY:   WITNESSED BY
 CLNT.            A2DTECH:   CLIENT CODE
 ORIG.      2" , 5" PRINT:   ORIGIN OF DATA
 UWI .       490251063500:   UNIQUE WELL ID
 DICO. A2D Technologies, Inc.:   DIGITIZING COMPANY
~OTHER INFORMATION
~A   DEPT     NEUT         TT         GRD      RHOB       DPOR       CALD       CORR   
# ...
  493.0000  -999.2500  -999.2500    82.0665     2.4308     0.1146     8.4830    -0.0096
  493.5000  -999.2500  -999.2500    82.6891     2.4451     0.1074     8.4832     0.0015
  494.0000  -999.2500  -999.2500    82.7677     2.4527     0.1067     8.4731     0.0082
  494.5000  -999.2500  -999.2500    82.8609     2.4574     0.1072     8.4593     0.0073
  495.0000  -999.2500  -999.2500    83.0315     2.4560     0.1077     8.4452     0.0066
  495.5000  -999.2500  -999.2500    83.3180     2.4547     0.1066     8.4312     0.0059
  496.0000  -999.2500  -999.2500    83.9911     2.4565     0.1050     8.4171     0.0053
  496.5000  -999.2500  -999.2500    84.6849     2.4566     0.1084     8.4031     0.0046
  497.0000  -999.2500  -999.2500    85.3765     2.4547     0.1116     8.3890     0.0034
  497.5000  -999.2500  -999.2500    86.1104     2.4530     0.1149     8.3749    -0.0020
  498.0000  -999.2500  -999.2500    85.6200     2.4457     0.1182     8.3628    -0.0075
  498.5000  -999.2500  -999.2500    83.7040     2.4368     0.1191     8.3637    -0.0129
  499.0000  -999.2500  -999.2500    83.7642     2.4321     0.1199     8.3791    -0.0153
  499.5000  -999.2500  -999.2500    84.1015     2.4317     0.1202     8.3950    -0.0130
  500.0000  -999.2500  -999.2500    83.3175     2.4314     0.1177     8.4032    -0.0082
  500.5000  -999.2500  -999.2500    81.9184     2.4351     0.1153     8.4032    -0.0054
  501.0000  -999.2500  -999.2500    81.3108     2.4392     0.1138     8.4032    -0.0041
  501.5000  -999.2500  -999.2500    81.2997     2.4428     0.1180     8.4032    -0.0029
  502.0000  -999.2500  -999.2500    81.2872     2.4317     0.1232     8.4029    -0.0034
  502.5000  -999.2500  -999.2500    81.8580     2.4190     0.1285     8.4017    -0.0099
  503.0000  -999.2500  -999.2500    82.5413     2.4058     0.1337     8.4220    -0.0162
  503.5000  -999.2500  -999.2500    83.2488     2.4016     0.1359     8.4410    -0.0199
  504.0000  -999.2500  -999.2500    83.9638     2.3988     0.1327     8.4643    -0.0194
  504.5000  -999.2500  -999.2500    81.2532     2.4009     0.1291     8.4872    -0.0190
  505.0000  -999.2500  -999.2500    80.7566     2.4086     0.1276     8.5033    -0.0185
  505.5000  -999.2500  -999.2500    81.5364     2.4165     0.1262     8.4992    -0.0180
  506.0000  -999.2500  -999.2500    82.2586     2.4184     0.1254     8.4758    -0.0170
  506.5000  -999.2500  -999.2500    81.7080     2.4176     0.1265     8.4526    -0.0161
  507.0000  -999.2500  -999.2500    81.4682     2.4160     0.1277     8.4294    -0.0166
  507.5000  -999.2500  -999.2500    83.0362     2.4145     0.1289     8.4060    -0.0171
  508.0000  -999.2500  -999.2500    84.6066     2.4130     0.1295     8.3844    -0.0176
  508.5000  -999.2500  -999.2500    86.1362     2.4114     0.1254     8.4020    -0.0178
  509.0000  -999.2500  -999.2500    85.3678     2.4180     0.1214     8.4212    -0.0111
  509.5000  -999.2500  -999.2500    83.9889     2.4278     0.1185     8.4401    -0.0044
  510.0000  -999.2500  -999.2500    82.5648     2.4378     0.1142     8.4591     0.0023
  510.5000  -999.2500  -999.2500    82.5071     2.4479     0.1090     8.4780     0.0090
  511.0000  -999.2500  -999.2500    83.0340     2.4486     0.1107     8.4970     0.0105
  511.5000  -999.2500  -999.2500    83.5533     2.4473     0.1117     8.5162     0.0110
  512.0000  -999.2500  -999.2500    83.7700     2.4471     0.1067     8.5340     0.0115
  512.5000  -999.2500  -999.2500    82.8220     2.4524     0.1042     8.5630     0.0120
  513.0000  -999.2500  -999.2500    82.0797     2.4564     0.1080     8.5282     0.0111
  513.5000  -999.2500  -999.2500    82.3776     2.4516     0.1119     8.4934     0.0104
  514.0000  -999.2500  -999.2500    82.7921     2.4453     0.1161     8.4583     0.0030
  514.5000  -999.2500  -999.2500    83.2181     2.4292     0.1221     8.4231    -0.0048
  515.0000  -999.2500  -999.2500    83.6285     2.4129     0.1282     8.4698    -0.0171
  515.5000  -999.2500  -999.2500    83.1931     2.3967     0.1342     8.5296    -0.0322
  516.0000  -999.2500  -999.2500    81.0275     2.3811     0.1403     8.5845    -0.0393
  516.5000  -999.2500  -999.2500    81.8322     2.3812     0.1451     8.5830    -0.0377
  517.0000  -999.2500  -999.2500    82.0157     2.3812     0.1451     8.5828    -0.0360
  517.5000  -999.2500  -999.2500    80.7021     2.3772     0.1443     8.5825    -0.0344
  518.0000  -999.2500  -999.2500    80.4834     2.3672     0.1465     8.5845    -0.0328
  518.5000  -999.2500  -999.2500    81.2538     2.3575     0.1491     8.6198    -0.0311
  519.0000  -999.2500  -999.2500    80.6600     2.3513     0.1507     8.6548    -0.0269
  519.5000  -999.2500  -999.2500    79.1406     2.3730     0.1401     8.7002    -0.0179
  520.0000  -999.2500  -999.2500    78.2007     2.3920     0.1293     8.7480    -0.0088
  520.5000  -999.2500  -999.2500    79.5397     2.4114     0.1290     8.7562    -0.0076
  521.0000  -999.2500  -999.2500    80.9301     2.4097     0.1306     8.7303    -0.0228
  521.5000  -999.2500  -999.2500    82.3097     2.4044     0.1294     8.7052    -0.0377
  522.0000  -999.2500  -999.2500    83.6858     2.3990     0.1277     8.6801    -0.0344
  522.5000  -999.2500  -999.2500    84.0943     2.4065     0.1256     8.6551    -0.0282
  523.0000  -999.2500  -999.2500    83.7805     2.4184     0.1234     8.6422    -0.0221
  523.5000  -999.2500  -999.2500    82.6844     2.4250     0.1212     8.6685    -0.0159
  524.0000  -999.2500  -999.2500    81.6026     2.4316     0.1191     8.7016    -0.0098
  524.5000  -999.2500  -999.2500    80.5207     2.4354     0.1174     8.7028    -0.0041
  525.0000  -999.2500  -999.2500    79.4370     2.4346     0.1191     8.7027    -0.0059
  525.5000  -999.2500  -999.2500    78.2995     2.4322     0.1210     8.6984    -0.0123
  526.0000  -999.2500  -999.2500    77.6870     2.4279     0.1222     8.6925    -0.0181
  526.5000  -999.2500  -999.2500    77.9066     2.4264     0.1169     8.6866    -0.0160
  527.0000  -999.2500  -999.2500    79.0155     2.4297     0.1115     8.6807    -0.0097
  527.5000  -999.2500  -999.2500    80.0945     2.4450     0.1061     8.6748    -0.0033
  528.0000  -999.2500  -999.2500    81.1730     2.4597     0.1007     8.6689     0.0032
  528.5000  -999.2500  -999.2500    82.2543     2.4718     0.0970     8.6630     0.0097
  529.0000  -999.2500  -999.2500    83.3385     2.4696     0.0998     8.6571     0.0112
  529.5000  -999.2500  -999.2500    84.0482     2.4678     0.1032     8.6513     0.0098
  530.0000  -999.2500  -999.2500    82.6453     2.4659     0.1066     8.6458     0.0039
  530.5000  -999.2500  -999.2500    81.3680     2.4598     0.1094     8.6377    -0.0018
  531.0000  -999.2500  -999.2500    82.3840     2.4499     0.1088     8.6207    -0.0040
  531.5000  -999.2500  -999.2500    83.5147     2.4487     0.1061     8.7093    -0.0040
  532.0000  -999.2500  -999.2500    84.5493     2.4561     0.1033     8.8147    -0.0053
  532.5000  -999.2500  -999.2500    83.6284     2.4633     0.1011     8.9172    -0.0098
  533.0000  -999.2500  -999.2500    82.4283     2.4705     0.1018     8.9439    -0.0144
  533.5000  -999.2500  -999.2500    81.2212     2.4725     0.0938     8.9346    -0.0104
  534.0000  -999.2500  -999.2500    80.0450     2.4726     0.0973     8.9173    -0.0016
  534.5000  -999.2500  -999.2500    78.9720     2.4678     0.1026     8.8999     0.0073
  535.0000  -999.2500  -999.2500    77.6710     2.4625     0.1074     8.8825     0.0164
  535.5000  -999.2500  -999.2500    76.3502     2.4575     0.1071     8.8650     0.0181
  536.0000  -999.2500  -999.2500    75.9918     2.4578     0.1058     8.8622     0.0181
  536.5000  -999.2500  -999.2500    77.4000     2.4596     0.1044     8.8622     0.0180
  537.0000  -999.2500  -999.2500    78.7622     2.4614     0.1030     8.8623     0.0180
  537.5000  -999.2500  -999.2500    80.1214     2.4633     0.1051     8.8623     0.0180
  538.0000  -999.2500  -999.2500    81.4755     2.4556     0.1094     8.8623     0.0181
