~VERSION INFORMATION
 VERS.                2.0:   CWLS LOG ASCII STANDARD - VERSION 2.0
 WRAP.                 NO:   ONE LINE PER DEPTH STEP
~WELL INFORMATION
#MNEM.UNIT      DATA TYPE    INFORMATION
#----------   ------------   ------------------------------
 STRT.F           87.0000:   START DEPTH
 STOP.F          987.0000:   STOP DEPTH
 STEP.F            0.5000:   STEP LENGTH
 NULL.          -999.2500:   NO VALUE
 COMP.   FLUOR DANIEL INC:   COMPANY
 WELL. NAVAL PETROLEUM RESERVE 3 SH-2 #53-2:   WELL
 FLD .        TEAPOT DOME:   FIELD
 LOC .       S2 T38N R78W:   LOCATION
 CNTY.            NATRONA:   COUNTY
 STAT.            WYOMING:   STATE
 CTRY. UNITED STATES OF AMERICA:   COUNTRY
 SRVC. Schlumberger Well Surveying Corp:   SERVICE COMPANY
 DATE.        17-JUL-1963:   LOGDATE
 API .       490250645200:   API NUMBER
~CURVE INFORMATION
#MNEM.UNIT       API CODE    CURVE DESCRIPTION
#----------   ------------   ------------------------------
 DEPT.F                  :   
 GR  .GAPI   30 310 01 00:   GAMMA RAY
 SPR .MV     05 010 01 00:   SPONTANEOUS POTENTIAL
 CILD.MMHO   05 110 46 00:   CONDUCTIVITY INDUCTION LOG DEEP
 ILD .OHMM   05 120 46 00:   INDUCTION LOG DEEP
 ASN .OHMM   05 041 16 00:   AMPLIFIED SHORT NORMAL 16"
~PARAMETER INFORMATION
#MNEM.UNIT          VALUE    DESCRIPTION
#----------   ------------   ------------------------------
 PD  .                 GL:   PERMANENT DATUM
 EPD .F              5165:   ELEVATION PERMANENT DATUM
 LMF .                 KB:   LOG MEASURED FROM
 DAPD.F                 5:   FEET ABOVE PERMANENT DATUM
 DMF .                 KB:   DRILLING MEASURED FROM
 EKB .F              5170:   KELLING BUSHING
 EGL .F              5165:   GROUND LEVEL
 DATE.          7-17-1963:   RUN DATE
 RUN .                  1:   RUN NUMBER
 DD  .F               986:   DEPTH DRILLER
 DL  .F               987:   DEPTH LOGGER
 BLI .F               986:   BOTTOM LOG INTERVAL
 TLI .F                30:   TOP LOG INTERVAL
 CS  .IN            8.625:   CASING SIZE
 CBD .F                10:   CASING BOTTOM DRILLER
 BS  .IN            7.875:   BIT SIZE
 BSD .F               986:   BIT SIZE AT DEPTH
 DFT .            GEL-OIL:   DRILLING FLUID TYPE
 DFD .                9.4:   DRILLING FLUID DENSITY
 DFV .                 67:   DRILLING FLUID VISCOSITY
 DFPH.                8.5:   DRILLING FLUID PH
 DFL .                4.6:   DRILLING FLUID LOSS
 MSS .           FLOWLINE:   MUD SAMPLE SOURCE
 RMS .OHMM           3.37:   RESISTIVITY MUD SAMPLE
 MST .F                79:   MUD SAMPLE TEMPERATURE
 RMF .OHMM           1.49:   RESISTIVITY MUD FILTRATE SAMPLE
 MFST.F                83:   MUD FILTRATE SAMPLE TEMPERATURE
 MFSS.           MEASURED:   MUD FILTRATE SAMPLE SOURCE
 BHT .F                80:   BOTTOM HOLE TEMPERATURE
 TCS .HRS            0030:   TIME CURCULATED STOPPED
 MRT .F                80:   MAXIMUM RECORDED TEMPERATURE
 LUN .               4507:   LOGGING UNIT NUMBER
 LUL .              CSPR.:   LOGGING UNIT LOCATION
 ENGI.            WINKLER:   RECORDING ENGINEER
 WITN.          JORGENSON:   WITNESSED BY
 CLNT.            A2DTECH:   CLIENT CODE
 ORIG.      2" & 5" PRINT:   ORIGIN OF DATA
 UWI .       490250645200:   UNIQUE WELL ID
 DICO. A2D Technologies, Inc.:   DIGITIZING COMPANY
~OTHER INFORMATION
~A   DEPT       GR        SPR       CILD          ILD        ASN 
# ...
  758.0000   102.5228   -48.2931   114.3169     8.8676     9.9103
  758.5000   106.5695   -48.2930   114.4501     8.8948     9.9127
  759.0000   101.7775   -48.2928   115.0717     8.8945     9.8478
  759.5000   106.4696   -48.2933   115.6857     8.8939     9.8390
  760.0000   113.7677   -48.3256   116.2997     8.8577     9.8401
  760.5000   109.5673   -48.4749   116.9137     8.7763     9.7710
  761.0000   112.1172   -48.6188   117.5276     8.6954     9.6710
  761.5000   103.9980   -48.6566   118.0904     8.6144     9.5756
  762.0000   106.9015   -48.5757   119.5870     8.5333     9.5081
  762.5000   103.6363   -48.4957   120.9685     8.4523     9.4436
  763.0000   103.3043   -48.4152   122.3499     8.3712     9.3792
  763.5000    97.4487   -48.3349   123.7314     8.2902     9.3137
  764.0000   102.5639   -48.2546   124.8482     8.2093     9.2142
  764.5000    88.8783   -48.1743   125.8613     8.1284     9.1000
  765.0000    93.5450   -48.0940   127.9900     8.0238     8.9856
  765.5000    96.2631   -48.0136   131.2111     7.8896     8.8712
  766.0000    91.5328   -47.9333   137.3006     7.5898     8.7570
  766.5000   103.3637   -47.8532   144.1537     7.2729     8.6429
  767.0000    97.4653   -47.7737   151.0250     6.9554     8.4789
  767.5000   103.6275   -47.6872   157.4843     6.6392     8.1803
  768.0000   109.1622   -47.4441   163.7757     6.3594     7.8132
  768.5000    92.6866   -47.1872   166.9266     6.2714     7.4474
  769.0000    96.6007   -47.1773   166.9114     6.1831     7.1684
  769.5000    92.8258   -47.3192   166.3782     6.1815     7.0933
  770.0000   101.0693   -47.4639   165.8450     6.2235     7.1460
  770.5000    97.5188   -47.6088   165.3266     6.2637     7.3610
  771.0000    97.4443   -47.7533   161.3065     6.4577     7.7063
  771.5000   113.4535   -47.8939   155.1859     6.7318     7.9729
  772.0000   104.1559   -48.0087   149.2764     7.0085     8.1166
  772.5000   103.2614   -48.0779   143.3668     7.2843     8.2060
  773.0000   105.5739   -48.0001   138.6026     7.5074     8.2809
  773.5000   107.2421   -47.9262   135.7671     7.5734     8.3258
  774.0000   109.3011   -47.8526   134.2359     7.6404     8.3652
  774.5000   111.8742   -47.7790   133.1658     7.6894     8.4044
  775.0000   106.3073   -47.7054   133.1658     7.6885     8.4367
  775.5000   104.3734   -47.6318   133.1658     7.6888     8.4524
  776.0000    94.6401   -47.5582   133.7524     7.6889     8.4688
  776.5000    97.8760   -47.4845   135.6684     7.6692     8.4730
  777.0000    97.7287   -47.4107   138.0052     7.5114     8.4716
  777.5000    96.9737   -47.3384   140.5531     7.3525     8.3123
  778.0000   104.0083   -47.3155   143.9598     7.1889     8.0817
  778.5000   101.1532   -47.3982   149.0251     6.9644     7.9218
  779.0000    98.5751   -47.4791   154.2714     6.7304     7.7768
  779.5000    94.5209   -47.5603   164.0188     6.4315     7.6290
  780.0000    87.7499   -47.6396   176.3775     6.0155     7.4310
  780.5000    95.9174   -47.6370   190.4310     5.6053     7.1844
  781.0000   101.7649   -47.4902   200.4623     5.2265     6.8634
  781.5000   105.7352   -47.3470   209.3116     4.9535     6.5437
  782.0000   111.8992   -47.1242   211.5578     4.8753     6.2222
  782.5000   111.8775   -46.8558   211.5578     4.8738     6.0133
  783.0000   104.7536   -46.5821   210.2673     4.8748     5.8658
  783.5000    99.2559   -46.5634   206.3518     4.8700     5.8110
  784.0000    91.5401   -46.6799   199.7100     5.1724     6.2011
  784.5000    88.2752   -46.7988   188.1321     5.6285     6.8711
  785.0000    96.2789   -46.8895   173.0352     6.0894     7.3629
  785.5000   101.7633   -46.8877   157.3327     6.5495     7.6589
  786.0000   101.3176   -46.8875   149.4070     6.9427     7.9572
  786.5000    97.7689   -46.8871   144.1427     7.1610     8.1366
  787.0000    94.3848   -46.8906   139.5839     7.3786     8.2627
  787.5000   100.1387   -46.9507   136.8719     7.5171     8.3894
  788.0000   107.9424   -47.0096   134.9724     7.6391     8.5408
  788.5000   105.5520   -47.0681   133.0729     7.7595     8.7191
  789.0000   103.8194   -47.1264   130.9217     7.8582     8.8913
  789.5000    99.3928   -47.1848   128.5380     7.9549     8.9908
  790.0000    93.7989   -47.2432   126.1543     8.0511     9.0745
  790.5000    93.2997   -47.3016   124.0437     8.1479     9.1575
  791.0000   101.8010   -47.3600   123.5197     8.2132     9.2154
  791.5000   104.5490   -47.4185   122.9957     8.2551     9.2887
  792.0000    93.9981   -47.4783   122.4717     8.2965     9.3834
  792.5000    98.9178   -47.4899   121.9477     8.3378     9.4557
  793.0000   105.3922   -47.4903   121.4237     8.3792     9.4904
  793.5000   100.5510   -47.4910   120.1005     8.4205     9.5361
  794.0000    97.5890   -47.4852   119.7401     8.4619     9.6386
  794.5000    94.9841   -47.3346   119.3783     8.5032     9.7406
  795.0000    91.7450   -47.1786   119.0955     8.5446     9.8000
  795.5000    97.5285   -47.0742   119.0955     8.5861     9.8420
  796.0000    98.9823   -47.0434   119.0955     8.6075     9.8503
  796.5000    93.0913   -47.0116   119.0955     8.6250     9.8595
  797.0000    88.3846   -46.9800   118.5494     8.6424     9.7767
  797.5000    82.5466   -46.9483   117.7052     8.6599     9.5841
  798.0000    79.5027   -46.9162   116.8610     8.6774     9.5320
  798.5000    81.6080   -46.8850   116.0167     8.6936     9.4695
  799.0000    87.3186   -46.9858   115.1725     8.6933     9.3522
  799.5000    96.5048   -47.0986   115.9719     8.6686     9.1680
  800.0000    98.5395   -47.2117   118.3417     8.5634     8.9885
  800.5000   101.2387   -47.3242   121.1055     8.4614     8.8018
  801.0000   102.0984   -47.4380   125.7085     8.2711     8.5790
  801.5000    96.1620   -47.4898   132.3331     7.8703     8.3434
  802.0000   100.5519   -47.4402   141.3568     7.4722     8.0298
  802.5000    96.9838   -47.0803   154.0201     6.9790     7.6139
  803.0000    99.4032   -46.7203   170.8181     6.3458     7.1503
  803.5000   102.0287   -46.3586   196.9045     5.4748     6.6878
  804.0000   107.3896   -46.0671   228.6097     4.5991     6.2039
  804.5000   100.6322   -45.7897   274.5564     3.8391     5.6343
  805.0000   105.7588   -45.5128   322.2355     3.4313     5.0607
  805.5000   102.3677   -45.2362   370.3517     3.0091     4.4844
  806.0000   107.7554   -45.0421   404.1357     2.7360     4.1101
  806.5000   109.0729   -44.9579   433.4204     2.4668     3.7310
  807.0000   115.3658   -44.8804   449.8637     2.3588     3.6090
  807.5000   117.0642   -44.8809   459.7622     2.2638     3.5627
  808.0000   114.6148   -44.9780   452.4814     2.2579     3.4140
  808.5000   108.8076   -45.1820   417.0595     2.4375     3.3331
  809.0000    98.1657   -45.3846   375.7301     2.7149     3.4441
  809.5000   109.4558   -45.5880   324.8201     3.1085     3.9053
  810.0000   110.8428   -45.7912   278.8083     3.6575     4.3697
  810.5000   118.6197   -45.9946   241.1403     4.2035     4.8381
  811.0000   112.2327   -46.1973   212.1768     4.7507     5.4415
  811.5000   119.1320   -46.4026   185.8128     5.3022     6.2046
  812.0000   117.0771   -46.4160   165.4874     5.8258     6.6340
  812.5000   119.5772   -46.3009   153.2663     6.3338     6.8385
  813.0000   113.5856   -46.1836   147.9872     6.8326     6.9165
  813.5000   117.8655   -46.0661   144.7638     7.1922     6.9426
  814.0000   127.8908   -45.9489   143.2161     7.1858     6.9743
  814.5000   126.9309   -45.8316   148.0101     7.0215     7.0450
  815.0000   118.8232   -45.7144   154.2714     6.7103     7.1166
  815.5000   117.6360   -45.5971   162.0126     6.3861     7.1904
  816.0000   117.7719   -45.4797   174.3434     5.8625     7.2122
  816.5000   122.5648   -45.3641   194.1826     5.3116     6.9650
  817.0000   109.3324   -45.2796   214.5729     4.9490     6.6123
  817.5000   111.3925   -45.2813   223.9744     4.7178     6.0855
  818.0000   116.3025   -45.2811   233.6624     4.4900     5.6869
  818.5000   119.3889   -45.2811   243.3425     4.2611     5.5094
