~VERSION INFORMATION
 VERS.                2.0:   CWLS LOG ASCII STANDARD - VERSION 2.0
 WRAP.                 NO:   ONE LINE PER DEPTH STEP
~WELL INFORMATION
#MNEM.UNIT      DATA TYPE    INFORMATION
#----------   ------------   ------------------------------
 STRT.F            0.0000:   START DEPTH
 STOP.F          825.0000:   STOP DEPTH
 STEP.F            0.5000:   STEP LENGTH
 NULL.          -999.2500:   NO VALUE
 COMP. BROWN JOHN E&C INC:   COMPANY
 WELL. NAVAL PETROLEUM RESERVE 3 SHX- #21-1-2:   WELL
 FLD .             TEAPOT:   FIELD
 LOC .       S2 T38N R78W:   LOCATION
 CNTY.            NATRONA:   COUNTY
 STAT.            WYOMING:   STATE
 CTRY. UNITED STATES OF AMERICA:   COUNTRY
 SRVC.     Atlas Wireline:   SERVICE COMPANY
 DATE.        11-NOV-1991:   LOGDATE
 API .       490252247600:   API NUMBER
~CURVE INFORMATION
#MNEM.UNIT       API CODE    CURVE DESCRIPTION
#----------   ------------   ------------------------------
 DEPT.F                  :   
 GRR .GAPI   07 310 01 00:   GAMMA RAY
 RFOC.OHMM   07 220 04 00:   RESISTIVITY FOCUSED LOG
 RILD.OHMM   07 120 46 00:   INDUCTION LOG DEEP RESISTIVITY
 RILM.OHMM   07 120 44 00:   INDUCTION LOG MEDIUM RESISTIVITY
 SPR .MV     07 010 01 00:   SPONTANEOUS POTENTIAL
~PARAMETER INFORMATION
#MNEM.UNIT          VALUE    DESCRIPTION
#----------   ------------   ------------------------------
 PD  .                 GL:   PERMANENT DATUM
 EPD .F              5110:   ELEVATION PERMANENT DATUM
 LMF .                 KB:   LOG MEASURED FROM
 DAPD.F                10:   FEET ABOVE PERMANENT DATUM
 DMF .                 KB:   DRILLING MEASURED FROM
 EKB .F              5120:   KELLING BUSHING
 EGL .F              5110:   GROUND LEVEL
 DATE.        11-NOV-1991:   RUN DATE
 RUN .                  1:   RUN NUMBER
 DD  .F               830:   DEPTH DRILLER
 DL  .F               527:   DEPTH LOGGER
 BLI .F               525:   BOTTOM LOG INTERVAL
 CS  .IN            9.625:   CASING SIZE
 CBD .F                58:   CASING BOTTOM DRILLER
 CBL .F                58:   CASING BOTTOM LOGGER
 BS  .IN             8.75:   BIT SIZE
 BSD .F               830:   BIT SIZE AT DEPTH
 DFT .          KCL WATER:   DRILLING FLUID TYPE
 RMS .OHMM          0.248:   RESISTIVITY MUD SAMPLE
 MST .F                93:   MUD SAMPLE TEMPERATURE
 BHT .F               104:   BOTTOM HOLE TEMPERATURE
 TCS .HRS               2:   TIME CURCULATED STOPPED
 MRT .F               104:   MAXIMUM RECORDED TEMPERATURE
 LUN .            HL 6274:   LOGGING UNIT NUMBER
 LUL .             CASPER:   LOGGING UNIT LOCATION
 ENGI.       P. RASMUSSEN:   RECORDING ENGINEER
 WITN.        GARY STRONG:   WITNESSED BY
 CLNT.            A2DTECH:   CLIENT CODE
 ORIG.           5" PRINT:   ORIGIN OF DATA
 UWI .       490252247600:   UNIQUE WELL ID
 DICO. A2D Technologies, Inc.:   DIGITIZING COMPANY
~OTHER INFORMATION
~A    DEPT       GRR     RFOC       RILD       RILM        SPR   
# ...
  671.0000    83.2335    11.8525    11.9716    11.8091   -55.3611
  671.5000    85.9281    11.6857    12.1355    11.4816   -55.3886
  672.0000    88.9222    11.2066    12.2996    11.2408   -55.6708
  672.5000    88.9222    11.1256    12.1263    11.0805   -55.9750
  673.0000    87.4232    11.0452    12.0386    10.9996   -56.5791
  673.5000    85.5510    11.0415    11.8690    10.9952   -57.3331
  674.0000    86.2275    10.9616    11.7017    10.9907   -58.5368
  674.5000    88.9222    10.8815    11.6969    10.9863   -59.7471
  675.0000    89.8204    10.8028    11.6929    10.9060   -60.0700
  675.5000    89.2216    10.7247    11.6890    10.8264   -60.0060
  676.0000    88.3234    10.5738    11.6850    10.6661   -59.6037
  676.5000    87.4251    10.4973    11.6005    10.3760   -59.3094
  677.0000    86.2275    10.3496    11.4371    10.0186   -58.9640
  677.5000    84.9600    10.2039    11.3543     9.8767   -58.7184
  678.0000    82.3353    10.2004    11.2722     9.8727   -58.7227
  678.5000    83.2335    10.1969    11.1807     9.8006   -59.1814
  679.0000    90.4192    10.1231    11.0321     9.7966   -59.8041
  679.5000    92.8144    10.1191    10.9522     9.8608   -60.5360
  680.0000    88.3234    10.1161    10.9485     9.8567   -60.8402
  680.5000    85.0299    10.1123    10.9449     9.8519   -60.9945
  681.0000    85.9281    10.1089    10.9412     9.8485   -61.1488
  681.5000    89.0458    10.1758    11.0144     9.9134   -61.1532
  682.0000    90.7186    10.1722    11.0098     9.9783   -61.1575
  682.5000    86.8263    10.3105    11.0826    10.1135   -61.1619
  683.0000    85.0299    10.4498    11.1671    10.1788   -61.0163
  683.5000    83.8323    10.5197    11.2296    10.1746   -60.5720
  684.0000    83.2335    10.5892    11.3038    10.1001   -60.1266
  684.5000    82.0359    10.4393    11.2211     9.8875   -59.6812
  685.0000    82.0359    10.0809    11.0405     9.7474   -59.8355
  685.5000    83.2335     9.8024    10.8319     9.4771   -60.5895
  686.0000    83.8323     9.7315    10.6056     9.2784   -61.1935
  686.5000    85.3293     9.6611    10.4562     9.0838   -61.7976
  687.0000    87.4251     9.5905    10.3051     8.9552   -61.9520
  687.5000    88.9222     9.5108    10.1519     8.8897   -61.6564
  688.0000    85.3293     9.3224    10.0197     8.9480   -61.3609
  688.5000    82.0359     9.2551     9.9472     9.0683   -61.3664
  689.0000    81.4371     9.1881     9.8752     9.0646   -61.3707
  689.5000    82.0590     9.1217     9.8719     8.9363   -61.3751
  690.0000    83.2335     9.1187     9.8004     8.6884   -61.5294
  690.5000    84.4311     9.1155     9.7971     8.3891   -61.5337
  691.0000    88.3234     9.0388     9.8619     8.2703   -61.3882
  691.5000    92.8144     8.9485     9.9961     8.1531   -60.9439
  692.0000    94.3114     8.8571     9.9919     8.2628   -60.6473
  692.5000    93.7126     8.8541     9.9196     8.2595   -60.6527
  693.0000    92.8144     8.8514     9.5788     8.0305   -60.9569
  693.5000    91.2604     8.8481     9.3139     7.8621   -61.1112
  694.0000    85.3293     8.9066     9.0564     7.6440   -60.9655
  694.5000    84.7305     8.8414     8.9288     7.5882   -60.6702
  695.0000    88.9222     8.5821     8.9258     7.5327   -60.2099
  695.5000    90.7186     8.1315     9.0473     7.5821   -59.4806
  696.0000    88.0239     7.8523     9.1071     7.7375   -58.8853
  696.5000    88.0239     7.6884     9.1673     7.8968   -57.9901
  697.0000    89.2216     7.5802     9.1002     8.0595   -56.7950
  697.5000    92.2454     7.5776     9.0971     8.1687   -56.4985
  698.0000    92.5150     7.6278     9.1573     8.3369   -56.6538
  698.5000    84.7305     7.7851     9.2818     8.6874   -57.2579
  699.0000    84.1317     7.8959     9.4743     8.9371   -57.5622
  699.5000    82.6347     8.2220     9.8040     9.3033   -57.7175
  700.0000    79.6407     8.6870    10.1460     9.5600   -57.8718
  700.5000    78.7425     9.3063    10.5081     9.7569   -57.7251
  701.0000    82.6347     9.5651    10.9407     9.9579   -57.5796
  701.5000    86.2606     9.6952    11.4011     9.9539   -57.4340
  702.0000    84.8383     9.7592    11.6365    10.0278   -57.1394
  702.5000    82.0359     9.6878    11.8778     9.9560   -56.8441
  703.0000    83.2335     9.4821    12.0394    10.0238   -56.5377
  703.5000    85.0299     9.2875    12.1190    10.0212   -55.6535
  704.0000    84.4311     9.3482    12.1139    10.0192   -55.6589
  704.5000    80.4848     9.6073    12.0262    10.0868   -55.5123
  705.0000    77.7844    10.8030    12.0110    10.1549   -55.5177
  705.5000    76.5518    11.4150    11.8518    10.0126   -55.6720
  706.0000    77.1725    10.8707    11.8478     9.9415   -55.3765
  706.5000    81.9572    10.2109    11.6004     9.8708   -54.7812
  707.0000    85.8450     9.6560    11.4370     9.6658   -54.4768
  707.5000    84.0414     9.3175    11.3543     9.5971   -54.3401
  708.0000    79.2451     9.2580    11.0404     9.5289   -54.9453
  708.5000    81.3352     9.3847    10.8775     9.5269   -55.5493
  709.0000    90.3177     9.5783    10.6566     9.5979   -56.0035
  709.5000    92.4014     9.6416    10.5065     9.7227   -55.8579
  710.0000    88.4031     9.7718    10.4305     9.7210   -56.3430
  710.5000    83.1069     9.8365    10.2835     9.7187   -56.6487
  711.0000    81.0053     9.8331    10.2091     9.7168   -56.9543
  711.5000    79.2031     9.6946    10.1353     9.6477   -57.7098
  712.0000    81.5925     9.6244    10.0620     9.6458   -58.3153
  712.5000    83.9819     9.6205    10.1285     9.6438   -58.7709
  713.0000    83.9760     9.6173    10.1249     9.6418   -59.2264
  713.5000    82.4719     9.5478    10.0510     9.6398   -59.2324
  714.0000    78.8732     9.5446    10.0476     9.6375   -59.0881
  714.5000    77.9707     9.5414    10.0442     9.5690   -58.7941
  715.0000    78.8631     9.5382     9.9716     9.5010   -58.5015
  715.5000    80.3529     9.4692     9.9682     9.4335   -58.6573
  716.0000    87.2333     9.3894     9.8278     9.4316   -58.8130
  716.5000    87.8263     9.3320     9.8244     9.4296   -59.1187
  717.0000    87.8204     9.3289     9.8482     9.4277   -59.2744
  717.5000    85.1186     9.3257     9.8861     9.4313   -59.4303
  718.0000    81.8209     9.4525     9.8820     9.5555   -59.5873
  718.5000    84.8076     9.5158     9.8787     9.6200   -59.7431
  719.0000    87.7958     9.6443     9.8753     9.6849   -59.5990
  719.5000    91.0835     9.7089     9.8720     9.6825   -59.1550
  720.0000    89.5806     9.8490     9.8687     9.6805   -58.8595
  720.5000    85.9820     9.9730     9.9340     9.6787   -59.1666
  721.0000    83.5428     9.9009     9.9996     9.6766   -59.6222
  721.5000    82.9750     9.8293    10.0657     9.6078   -59.7781
  722.0000    85.0650     9.6909    10.1314     9.5395   -59.7852
  722.5000    90.1490     9.6209    10.0581     9.4059   -59.6396
  723.0000    91.6417     9.4854     9.9854     9.2745   -59.6469
  723.5000    89.8380     9.3519     9.9131     9.1450   -59.6522
  724.0000    88.3352     9.2783     9.7735     9.0173   -59.9584
  724.5000    86.5219     9.1529     9.6998     8.8914   -60.2641
  725.0000    84.9800     9.1498     9.6214     8.8896   -60.5697
  725.5000    84.7235     9.2110     9.4961     8.8878   -60.7256
  726.0000    85.9153     9.0806     9.4274     8.9478   -60.7327
  726.5000    88.3047     9.0149     9.3592     8.8838   -60.7385
  727.0000    91.5924     8.9498     9.2915     8.8206   -60.7443
  727.5000    96.0776     8.8851     9.3537     8.7579   -60.7502
  728.0000    96.0718     8.9438     9.3498     8.8175   -60.7560
  728.5000    96.0659     9.0028     9.4116     8.8770   -60.7616
  729.0000    96.0597     9.0623     9.5396     8.9370   -60.6177
  729.5000    96.3533     9.1222     9.6694     9.0594   -60.4528
  730.0000    96.0479     9.2462     9.8010     9.1206   -60.0311
  730.5000    95.4420     9.3711     9.9335     9.2460   -59.8855
  731.0000    90.0470     9.4993     9.8616     9.3084   -59.7414
  731.5000    89.7433     9.5613     9.7229     9.3061   -59.5973
