~VERSION INFORMATION
 VERS.                2.0:   CWLS LOG ASCII STANDARD - VERSION 2.0
 WRAP.                 NO:   ONE LINE PER DEPTH STEP
~WELL INFORMATION
#MNEM.UNIT      DATA TYPE    INFORMATION
#----------   ------------   ------------------------------
 STRT.F           88.0000:   START DEPTH
 STOP.F          893.0000:   STOP DEPTH
 STEP.F            0.5000:   STEP LENGTH
 NULL.          -999.2500:   NO VALUE
 COMP.          U.S. NAVY:   COMPANY
 WELL. RES 3 TEAPOT DOM #24S-35:   WELL
 FLD .        TEAPOT DOME:   FIELD
 LOC .      S35 T39N R78W:   LOCATION
 CNTY.            NATRONA:   COUNTY
 STAT.            WYOMING:   STATE
 CTRY. UNITED STATES OF AMERICA:   COUNTRY
 SRVC.       Schlumberger:   SERVICE COMPANY
 DATE.        26-JUL-1963:   LOGDATE
 API .       490250654800:   API NUMBER
~CURVE INFORMATION
#MNEM.UNIT       API CODE    CURVE DESCRIPTION
#----------   ------------   ------------------------------
 DEPT.F                  :   
 CALS.IN     60 280 50 00:   CALIPER FROM SONIC LOG
 DT  .US/F   60 520 00 00:   INTERVAL TRANSIT TIME
 GR  .GAPI   30 310 01 00:   GAMMA RAY
 ASN .OHMM   05 041 16 00:   AMPLIFIED SHORT NORMAL 16"
 CILD.MMHO   05 110 46 00:   CONDUCTIVITY INDUCTION LOG DEEP
 ILD .OHMM   05 120 46 00:   INDUCTION LOG DEEP
 SPR .MV     05 010 01 00:   SPONTANEOUS POTENTIAL FROM RES.
~PARAMETER INFORMATION
#MNEM.UNIT          VALUE    DESCRIPTION
#----------   ------------   ------------------------------
 PD  .                 GL:   PERMANENT DATUM
 EPD .F              5116:   ELEVATION PERMANENT DATUM
 LMF .                 KB:   LOG MEASURED FROM
 DAPD.F                 5:   FEET ABOVE PERMANENT DATUM
 DMF .                 KB:   DRILLING MEASURED FROM
 EKB .F              5121:   KELLING BUSHING
 EGL .F              5116:   GROUND LEVEL
 DATE.        26-JUL-1963:   RUN DATE
 RUN .                  1:   RUN NUMBER
 DD  .F               900:   DEPTH DRILLER
 DL  .F               894:   DEPTH LOGGER
 BLI .F               893:   BOTTOM LOG INTERVAL
 TLI .F                88:   TOP LOG INTERVAL
 CBD .F                10:   CASING BOTTOM DRILLER
 BS  .IN             6.75:   BIT SIZE
 BSD .F               900:   BIT SIZE AT DEPTH
 DFT .            GEL-OIL:   DRILLING FLUID TYPE
 DFD .                9.5:   DRILLING FLUID DENSITY
 DFV .                 92:   DRILLING FLUID VISCOSITY
 DFPH.                9.5:   DRILLING FLUID PH
 DFL .                5.8:   DRILLING FLUID LOSS
 MSS .           FLOWLINE:   MUD SAMPLE SOURCE
 RMS .OHMM           4.05:   RESISTIVITY MUD SAMPLE
 MST .F                75:   MUD SAMPLE TEMPERATURE
 RMF .OHMM           3.91:   RESISTIVITY MUD FILTRATE SAMPLE
 MFST.F                75:   MUD FILTRATE SAMPLE TEMPERATURE
 RMC .OHMM           3.54:   RESISTIVITY MUD CAKE
 MCST.F                75:   MUD CAKE SAMPLE TEMPERATURE
 MFSS.               MEAS:   MUD FILTRATE SAMPLE SOURCE
 MCSS.               MEAS:   MUD CAKE SAMPLE SOURCE
 TCS .HRS             0.5:   TIME CURCULATED STOPPED
 LUN .               4507:   LOGGING UNIT NUMBER
 LUL .               CSPR:   LOGGING UNIT LOCATION
 ENGI.             KNOBEL:   RECORDING ENGINEER
 WITN.          JORGENSON:   WITNESSED BY
 CLNT.            A2DTECH:   CLIENT CODE
 ORIG.           5" PRINT:   ORIGIN OF DATA
 UWI .       490250654800:   UNIQUE WELL ID
 DICO. A2D Technologies, Inc.:   DIGITIZING COMPANY
~OTHER INFORMATION
~A   DEPT     CALS         DT         GR          ASN      CILD         ILD      SPR   
# ...
  861.5000     6.6710    90.9984  -999.2500    11.5560    95.4856    11.0853   -19.2713
  862.0000     6.6719    90.8450  -999.2500    11.5552    96.7527    11.0845   -19.4211
  862.5000     6.6878    90.9180  -999.2500    11.5543    96.8008    11.0837   -18.4892
  863.0000     6.6886    90.9916  -999.2500    11.4781    97.4810    11.1188   -17.6076
  863.5000     6.6893    90.8376  -999.2500    11.4773    98.2246    11.1579   -17.3045
  864.0000     6.6748    90.6087  -999.2500    11.4766    98.2094    11.0815   -17.0015
  864.5000     6.6756    90.3043  -999.2500    11.4001    98.1942    11.0808   -16.8489
  865.0000     6.6763    90.0000  -999.2500    11.4327    99.6949    11.0800   -16.9986
  865.5000     6.6771    89.8398  -999.2500    11.4743    99.6795    10.9282   -17.2989
  866.0000     6.6778    89.8574  -999.2500    11.4735   100.0759    10.8520   -16.9955
  866.5000     6.6786    90.0681  -999.2500    11.4728   100.4097    10.7755   -16.2396
  867.0000     6.6795    90.0650  -999.2500    11.4720   100.2361    10.7748   -15.6348
  867.5000     6.6802    89.8361  -999.2500    11.5468    99.6191    10.6986   -15.1809
  868.0000     6.6809    89.7582  -999.2500    11.5460    99.6025    10.6224   -15.0287
  868.5000     6.6817    89.6054  -999.2500    11.6210    99.5883    10.6215   -14.8761
  869.0000     6.6824    90.1306  -999.2500    11.6202    99.3020    10.6965   -14.5730
  869.5000     6.6832    90.5055  -999.2500    11.6195    98.8012    10.6956   -14.5716
  870.0000     6.6839    90.8050  -999.2500    11.6157    98.7834    10.6192   -14.5701
  870.5000     6.6847    90.8025  -999.2500    11.5423    98.7692    10.6942   -14.5684
  871.0000     6.6854    90.6491  -999.2500    11.4660    98.7557    10.6933   -14.5670
  871.5000     6.6863    90.5711  -999.2500    11.4652    98.7405    10.6926   -14.8673
  872.0000     6.6871    90.4926  -999.2500    11.3671    97.9679    10.6917   -15.1675
  872.5000     6.6878    90.4902  -999.2500    11.3123    99.4711    10.6910   -15.6186
  873.0000     6.6885    90.6386  -999.2500    11.3115    99.4534    10.6148   -15.7680
  873.5000     6.6893    90.9381  -999.2500    11.2352   100.1979    10.6139   -15.6154
  874.0000     6.6746    91.2375  -999.2500    11.2344   100.1802    10.6132   -15.4628
  874.5000     6.6603    91.3866  -999.2500    11.1580   100.1659    10.5370   -15.4614
  875.0000     6.6459    91.4590  -999.2500    11.1573   100.1517    10.5363   -15.3091
  875.5000     6.6619    91.3056  -999.2500    11.1566   100.8927    10.4598   -15.3077
  876.0000     6.6626    91.0767  -999.2500    11.1557   100.8801    10.4591   -15.3060
  876.5000     6.6635    90.8444  -999.2500    11.1551   101.0723    10.4584   -15.1537
  877.0000     6.6643    90.6943  -999.2500    11.1543   102.3676    10.4577   -15.1523
  877.5000     6.6650    90.6913  -999.2500    11.1536   103.1085    10.4568   -15.4526
  878.0000     6.6503    90.8404  -999.2500    11.1528   103.8566    10.4561   -15.7528
  878.5000     6.6665    91.0644  -999.2500    11.1519   103.8391    10.4554   -15.6002
  879.0000     6.6518    90.0802  -999.2500    11.1512   103.8240    10.3790   -15.1463
  879.5000     6.6375    88.9456  -999.2500    11.1348   103.8088    10.3783   -14.5412
  880.0000     6.6383    87.9621  -999.2500    11.0741   103.7927    10.3776   -14.0873
  880.5000     6.6391    90.6766  -999.2500    10.9977   103.7785    10.3769   -13.7842
  881.0000     6.5640    91.1270  -999.2500    10.9970   103.7607    10.3760   -13.3303
  881.5000     6.5039    90.8981  -999.2500    10.9925   102.9878    10.4508   -13.1777
  882.0000     6.4589    90.3673  -999.2500    10.9197   102.9736    10.4501   -13.0255
  882.5000     6.4446    89.8197  -999.2500    10.9329   102.1244    10.6003   -13.3258
  883.0000     6.2630    87.9467  -999.2500    10.9939    99.9067    10.7507   -13.6260
  883.5000     6.0966    83.4159  -999.2500    11.1778    99.1338    10.8255   -13.9259
  884.0000     6.0061    86.7348  -999.2500    11.3414    97.6021    10.9003   -13.9245
  884.5000  -999.2500    81.1475  -999.2500    11.5968    96.0669    10.9751   -13.6214
  885.0000  -999.2500    88.1639  -999.2500    11.9741    94.5353    11.0500   -13.1672
  885.5000  -999.2500    90.2740  -999.2500    12.3517    92.2449    11.1246   -12.8641
  886.0000     6.0548    93.2910  -999.2500    12.6535    89.9545    11.1994   -12.2593
  886.5000     6.1620  -999.2500  -999.2500    13.0371    88.4193    11.1985   -11.1695
  887.0000     6.2235  -999.2500  -999.2500    13.4084    86.8877    11.2735    -9.6921
  887.5000  -999.2500  -999.2500  -999.2500    13.8615    86.8735    11.3482   -10.8973
  888.0000  -999.2500  -999.2500  -999.2500    14.3147    86.8589    11.3473   -13.7616
  888.5000  -999.2500  -999.2500  -999.2500    14.6920    86.8415    11.4223   -25.4250
  889.0000  -999.2500  -999.2500  -999.2500    14.7671    86.8273    11.4214   -32.3105
  889.5000  -999.2500  -999.2500  -999.2500    14.9175    86.8131    11.4962   -32.4603
  890.0000  -999.2500  -999.2500  -999.2500    15.0681    86.7953    11.4954   -32.3077
  890.5000  -999.2500  -999.2500  -999.2500    15.3698    86.0260    11.4947   -32.0042
  891.0000  -999.2500  -999.2500  -999.2500    15.7473    86.7705    11.5695   -28.6866
  891.5000  -999.2500  -999.2500  -999.2500    16.1268    87.5115    11.6443   -27.8553
  892.0000  -999.2500  -999.2500  -999.2500    16.8804    88.2560    11.6434   -28.9433
  892.5000  -999.2500  -999.2500  -999.2500    18.0899    88.2382    11.6427   -30.3550
  893.0000  -999.2500  -999.2500  -999.2500  -999.2500    89.7450    11.6367  -999.2500
