~VERSION INFORMATION
 VERS.                2.0:   CWLS LOG ASCII STANDARD - VERSION 2.0
 WRAP.                 NO:   ONE LINE PER DEPTH STEP
~WELL INFORMATION
#MNEM.UNIT      DATA TYPE    INFORMATION
#----------   ------------   ------------------------------
 STRT.F            0.0000:   START DEPTH
 STOP.F          984.0000:   STOP DEPTH
 STEP.F            0.5000:   STEP LENGTH
 NULL.          -999.2500:   NO VALUE
 COMP. LAWRENCE/ALLISON INC:   COMPANY
 WELL.     NPR 3 #51-X-11:   WELL
 FLD .             TEAPOT:   FIELD
 LOC .      S11 T38N R78W:   LOCATION
 CNTY.            NATRONA:   COUNTY
 STAT.            WYOMING:   STATE
 CTRY. UNITED STATES OF AMERICA:   COUNTRY
 SRVC.           Gearhart:   SERVICE COMPANY
 DATE.        22-AUG-1988:   LOGDATE
 API .       490251125400:   API NUMBER
~CURVE INFORMATION
#MNEM.UNIT       API CODE    CURVE DESCRIPTION
#----------   ------------   ------------------------------
 DEPT.F                  :   
 GRR .GAPI   07 310 01 00:   GAMMA RAY FROM RES. LOG.
 ILM .OHMM   07 120 44 00:   INDUCTION LOG MEDIUM
 ILD .OHMM   07 120 46 00:   INDUCTION LOG DEEP
~PARAMETER INFORMATION
#MNEM.UNIT          VALUE    DESCRIPTION
#----------   ------------   ------------------------------
 PD  .                 GL:   PERMANENT DATUM
 EPD .F              5187:   ELEVATION PERMANENT DATUM
 LMF .                 KB:   LOG MEASURED FROM
 DAPD.F                10:   FEET ABOVE PERMANENT DATUM
 DMF .                 KB:   DRILLING MEASURED FROM
 EKB .F              5197:   KELLING BUSHING
 EGL .F              5187:   GROUND LEVEL
 DATE.            8-22-88:   RUN DATE
 RUN .                  1:   RUN NUMBER
 DD  .F              1000:   DEPTH DRILLER
 DL  .F               992:   DEPTH LOGGER
 BLI .F             983.5:   BOTTOM LOG INTERVAL
 CS  .IN            9.625:   CASING SIZE
 CBD .F                49:   CASING BOTTOM DRILLER
 CBL .F                49:   CASING BOTTOM LOGGER
 BS  .IN             8.75:   BIT SIZE
 BSD .F              1000:   BIT SIZE AT DEPTH
 DFT .                AIR:   DRILLING FLUID TYPE
 BHT .F                70:   BOTTOM HOLE TEMPERATURE
 TLAB.HRS            0300:   TIME LOGGER AT BOTTOM
 MRT .F                70:   MAXIMUM RECORDED TEMPERATURE
 LUN .               7609:   LOGGING UNIT NUMBER
 LUL .           GILLETTE:   LOGGING UNIT LOCATION
 ENGI.          HUCKFELDT:   RECORDING ENGINEER
 WITN.             STRONG:   WITNESSED BY
 CLNT.            A2DTECH:   CLIENT CODE
 ORIG.      1" 2.5" PRINT:   ORIGIN OF DATA
 UWI .       490251125400:   UNIQUE WELL ID
 DICO. A2D Technologies, Inc.:   DIGITIZING COMPANY
~OTHER INFORMATION
~A    DEPT      GRR       ILM        ILD   
# ...
  637.0000   110.1450     7.6797     7.9894
  637.5000   110.4133     7.6689     7.9810
  638.0000   110.6737     7.6581     7.9726
  638.5000   110.9536     7.6473     7.9641
  639.0000   110.9786     7.6366     7.9555
  639.5000   110.9701     7.6258     7.9468
  640.0000   110.9770     7.6151     7.9382
  640.5000   110.3964     7.6044     7.9296
  641.0000   109.5087     7.5932     7.9209
  641.5000   109.7372     7.5834     7.9122
  642.0000   110.7691     7.5714     7.9035
  642.5000   111.7117     7.5877     7.8950
  643.0000   110.8219     7.6083     7.8861
  643.5000   109.9348     7.6303     7.8771
  644.0000   109.3831     7.6527     7.8695
  644.5000   110.8524     7.6753     7.8609
  645.0000   112.4346     7.6974     7.9209
  645.5000   111.2499     7.7154     8.0056
  646.0000   109.9317     7.9100     8.0911
  646.5000   108.4126     8.0784     8.1944
  647.0000   107.6710     8.2503     8.3573
  647.5000   107.7253     8.4258     8.5236
  648.0000   107.7256     8.6053     8.6931
  648.5000   106.4421     8.7889     8.8660
  649.0000   104.5462     8.9765     9.0423
  649.5000   102.6819     9.1682     9.2221
  650.0000   101.2660     9.3639     9.4191
  650.5000   101.1906     9.5638     9.6301
  651.0000   101.7143     9.7680     9.8457
  651.5000   102.7828     9.9766    10.0663
  652.0000   103.6289    10.2080    10.2917
  652.5000   104.2514    10.2679    10.4005
  653.0000   101.6270    10.3339    10.4442
  653.5000    99.2145    10.4002    10.4829
  654.0000    96.6384    10.4670    10.5217
  654.5000    94.9977    10.5343    10.5606
  655.0000    96.1784    10.5966    10.5966
  655.5000    97.3809    10.5093    10.5186
  656.0000    97.8081    10.4288    10.4467
  656.5000    97.1475    10.3490    10.3753
  657.0000    97.1897    10.2698    10.3043
  657.5000    97.2399    10.1912    10.2339
  658.0000    99.1494    10.1132    10.1640
  658.5000   101.3235    10.0358    10.0945
  659.0000   101.3218     9.9591    10.0255
  659.5000    98.5164     9.8828     9.9571
  660.0000    94.9557     9.8336     9.8891
  660.5000    94.8572     9.8336     9.8339
  661.0000    96.0611     9.8336     9.8572
  661.5000    97.3514     9.8336     9.8769
  662.0000    98.6041     9.8336     9.8967
  662.5000    99.5450     9.8336     9.9164
  663.0000    99.2147     9.8336     9.9360
  663.5000    98.9809     9.8336     9.9560
  664.0000    98.3514     9.8336     9.9760
  664.5000    97.3761     9.8336     9.9959
  665.0000    96.4205     9.6717    10.0191
  665.5000    95.4151     9.4171     9.8180
  666.0000    94.5589     9.1692     9.5851
  666.5000    93.1055     8.9566     9.3578
  667.0000    93.6683     8.9566     9.2539
  667.5000    95.0080     8.9566     9.1949
  668.0000    97.8872     8.9566     9.1363
  668.5000   100.3614     8.9566     9.0781
  669.0000    99.6520     8.9566     9.0202
  669.5000    96.9154     8.8150     8.9566
  670.0000    96.2123     8.6838     8.8473
  670.5000    99.1175     8.5544     8.7265
  671.0000   100.5590     8.4270     8.6073
  671.5000   100.9109     8.3015     8.4897
  672.0000   101.8279     8.1579     8.3738
  672.5000   103.5141     8.1235     8.2957
  673.0000   101.8125     8.0825     8.2627
  673.5000    99.7234     8.0418     8.2300
  674.0000    98.7267     8.0012     8.1974
  674.5000   100.7634     7.9609     8.1649
  675.0000   102.7195     7.9208     8.1325
  675.5000   101.8256     7.8587     8.1001
  676.0000    97.5190     7.8826     8.0679
  676.5000    95.3964     7.9369     8.0358
  677.0000    95.6834     7.9915     8.0073
  677.5000    98.1102     8.0465     8.0326
  678.0000   100.9983     8.1019     8.0557
  678.5000   100.9594     8.1577     8.0789
  679.0000   100.7299     8.2138     8.1004
  679.5000   100.3847     8.2698     8.1233
  680.0000    98.6869     8.3112     8.1579
  680.5000    96.6348     8.0554     8.0356
  681.0000    94.8144     7.7754     7.7938
  681.5000    94.5943     7.5051     7.5593
  682.0000    96.2581     7.2440     7.3318
  682.5000    99.9006     6.9919     7.1395
  683.0000   101.4685     6.7499     7.0543
  683.5000   101.5911     6.5153     6.9701
  684.0000   101.9452     6.3792     6.8870
  684.5000   101.6077     6.4476     6.7677
  685.0000   100.5418     6.5168     6.8010
  685.5000    99.6112     6.5867     6.8625
  686.0000   100.1652     6.6574     6.9245
  686.5000   101.1995     6.7288     6.9872
  687.0000   101.5809     6.8010     7.0504
  687.5000    99.5245     6.8739     7.1141
  688.0000    99.6514     6.9306     7.1688
  688.5000   102.4786     6.9807     7.2033
  689.0000   103.7674     7.0311     7.2380
  689.5000   103.6368     7.0820     7.2728
  690.0000   103.6601     7.1332     7.3078
  690.5000   104.6924     7.1847     7.3430
  691.0000   105.2950     7.2366     7.3783
  691.5000   104.9405     7.2928     7.4139
  692.0000   104.6323     7.3580     7.6244
  692.5000   104.1155     7.4290     7.9994
  693.0000   103.2398     7.5006     8.2751
  693.5000   102.0957     7.5705     8.0965
  694.0000   103.9284     7.5306     7.9217
  694.5000   106.9957     7.3772     7.7507
  695.0000   109.9160     7.2270     7.5705
  695.5000   107.7741     7.1578     7.5705
  696.0000   105.3770     7.1578     7.5705
  696.5000   104.4872     7.1578     7.5705
  697.0000   103.8926     7.1578     7.5705
  697.5000   105.3243     7.1578     7.5705
  698.0000   107.5685     7.1578     7.5706
  698.5000   110.3499     7.1580     7.5706
  699.0000   112.6886     7.1579     7.5705
  699.5000   110.9117     7.1579     7.5705
  700.0000   106.5158     7.1579     7.5705
  700.5000   102.3598     7.1579     7.5705
  701.0000   104.5589     7.1580     7.5704
  701.5000   106.7773     7.1579     7.5703
  702.0000   108.4901     7.1574     7.5705
  702.5000   107.1230     7.1652     7.5711
  703.0000   105.3612     7.1831     7.5706
  703.5000   105.6001     7.2001     7.5702
  704.0000   106.0041     7.2172     7.5743
  704.5000   105.3077     7.2347     7.5335
  705.0000   103.3640     7.2515     7.4531
  705.5000   103.4370     7.2696     7.3778
  706.0000   103.6817     7.2928     7.3032
  706.5000   103.7308     7.2751     7.2293
  707.0000   105.2195     7.1893     7.1578
  707.5000   106.9898     7.1046     7.0517
  708.0000   108.8651     7.0208     6.9495
  708.5000   107.9205     6.9380     6.8487
  709.0000   105.7284     6.7592     6.7495
  709.5000   103.7756     6.4843     6.6424
  710.0000   101.4219     6.2206     6.3631
  710.5000   102.3354     5.9676     6.0682
  711.0000   103.7318     5.7249     5.9381
  711.5000   104.5616     5.4920     5.8977
  712.0000   104.4590     5.3084     5.8629
  712.5000   105.0745     5.2102     5.8282
  713.0000   105.1639     5.2965     5.8282
  713.5000   104.9741     5.4421     5.8292
  714.0000   104.7755     5.5917     5.8262
  714.5000   104.5339     5.7454     5.8296
  715.0000   105.1150     5.9033     5.9284
  715.5000   106.8483     6.0656     6.0848
  716.0000   108.5887     6.2323     6.2456
  716.5000   107.2982     6.4036     6.4105
  717.0000   105.1122     6.5195     6.5306
  717.5000   103.6675     6.5195     6.5541
  718.0000   105.0555     6.5214     6.5801
  718.5000   106.4449     6.5206     6.6062
  719.0000   107.6875     6.5201     6.6424
  719.5000   107.8304     6.5198     6.5971
  720.0000   106.5112     6.4609     6.5238
  720.5000   105.1699     6.3906     6.4514
  721.0000   105.3128     6.3212     6.3797
  721.5000   105.9079     6.2525     6.3089
  722.0000   105.6950     6.1839     6.2389
  722.5000   104.2223     6.0410     6.1642
  723.0000   102.6400     5.8715     6.0046
  723.5000   102.4183     5.7066     5.8282
  724.0000   103.3838     5.5465     5.5204
  724.5000   104.2670     5.2421     5.2148
  725.0000   103.5877     4.9137     4.9262
  725.5000   102.4607     4.6058     4.6586
  726.0000   101.3223     4.3172     4.5852
  726.5000   100.1350     4.0111     4.6403
  727.0000    99.5133     4.0111     4.6959
  727.5000   100.0278     4.2582     4.7474
