~VERSION INFORMATION
 VERS.                2.0:   CWLS LOG ASCII STANDARD - VERSION 2.0
 WRAP.                 NO:   ONE LINE PER DEPTH STEP
~WELL INFORMATION
#MNEM.UNIT      DATA TYPE    INFORMATION
#----------   ------------   ------------------------------
 STRT.F           84.0000:   START DEPTH
 STOP.F          860.0000:   STOP DEPTH
 STEP.F            0.5000:   STEP LENGTH
 NULL.          -999.2500:   NO VALUE
 COMP.               NAVY:   COMPANY
 WELL. 52-S-11  NPR #3 #52S-11:   WELL
 FLD .        TEAPOT DOME:   FIELD
 LOC .      S11 T38N R78W:   LOCATION
 CNTY.            NATRONA:   COUNTY
 STAT.            WYOMING:   STATE
 CTRY. UNITED STATES OF AMERICA:   COUNTRY
 SRVC.       Schlumberger:   SERVICE COMPANY
 DATE.        01-JUL-1962:   LOGDATE
 API .       490250637300:   API NUMBER
~CURVE INFORMATION
#MNEM.UNIT       API CODE    CURVE DESCRIPTION
#----------   ------------   ------------------------------
 DEPT.F                  :   
 ASN .OHMM   05 041 16 00:   AMPLIFIED SHORT NORMAL 16"
 CILD.MMHO   05 110 46 00:   CONDUCTIVITY INDUCTION LOG DEEP
 ILD .OHMM   05 120 46 00:   INDUCTION LOG DEEP
 SPR .MV     05 010 01 00:   SPONTANEOUS POTENTIAL FROM RES.
 GR  .GAPI   30 310 01 00:   GAMMA RAY
~PARAMETER INFORMATION
#MNEM.UNIT          VALUE    DESCRIPTION
#----------   ------------   ------------------------------
 LMF .                 KB:   LOG MEASURED FROM
 DMF .                 KB:   DRILLING MEASURED FROM
 EKB .F              5191:   KELLING BUSHING
 EGL .F              5186:   GROUND LEVEL
 DATE.           7-1-1962:   RUN DATE
 RUN .                  1:   RUN NUMBER
 DD  .F               860:   DEPTH DRILLER
 DL  .F               861:   DEPTH LOGGER
 BLI .F               860:   BOTTOM LOG INTERVAL
 TLI .F                91:   TOP LOG INTERVAL
 CBD .F                10:   CASING BOTTOM DRILLER
 BS  .IN             6.75:   BIT SIZE
 BSD .F               860:   BIT SIZE AT DEPTH
 DFT .            GEL-OIL:   DRILLING FLUID TYPE
 DFD .               10.2:   DRILLING FLUID DENSITY
 DFV .                 45:   DRILLING FLUID VISCOSITY
 DFL .                  4:   DRILLING FLUID LOSS
 MSS .           FLOWLINE:   MUD SAMPLE SOURCE
 RMS .OHMM           5.54:   RESISTIVITY MUD SAMPLE
 MST .F                75:   MUD SAMPLE TEMPERATURE
 RMB .OHMM           5.19:   RESISTIVITY MUD AT BHT
 BHT .F                80:   BOTTOM HOLE TEMPERATURE
 TCS .HRS               1:   TIME CURCULATED STOPPED
 MRT .F                80:   MAXIMUM RECORDED TEMPERATURE
 LUN .               2503:   LOGGING UNIT NUMBER
 LUL .              CSPR.:   LOGGING UNIT LOCATION
 ENGI.             KNOBEL:   RECORDING ENGINEER
 WITN.          JORGENSEN:   WITNESSED BY
 CLNT.            A2DTECH:   CLIENT CODE
 ORIG.      2" & 5" PRINT:   ORIGIN OF DATA
 UWI .       490250637300:   UNIQUE WELL ID
 DICO. A2D Technologies, Inc.:   DIGITIZING COMPANY
~OTHER INFORMATION
~A   DEPT      ASN       CILD        ILD        SPR         GR   
# ...
  450.0000     6.5183   168.4191     6.3554   -24.9749  -999.2500
  450.5000     6.4683   168.5026     6.2410   -24.8576  -999.2500
  451.0000     6.4974   167.7983     6.2080   -24.8728  -999.2500
  451.5000     6.5871   165.6174     6.3529   -25.0373  -999.2500
  452.0000     6.7222   162.6643     6.4279   -24.8940  -999.2500
  452.5000     6.8574   159.7111     6.4986   -24.9091  -999.2500
  453.0000     7.0077   156.0026     6.6360   -24.9212  -999.2500
  453.5000     7.0823   153.8047     6.7810   -24.9333  -999.2500
  454.0000     7.1568   151.6069     6.8500   -24.9454  -999.2500
  454.5000     7.2162   149.4090     6.9191   -24.9575  -999.2500
  455.0000     7.2605   147.2111     6.9865   -24.9696  -999.2500
  455.5000     7.3047   145.7515     7.0573   -24.9817  -999.2500
  456.0000     7.3490   145.0642     7.1264   -24.9939  -999.2500
  456.5000     7.3632   145.1492     7.1954   -25.0061  -999.2500
  457.0000     7.3465   145.9724     7.1869   -25.0180  -999.2500
  457.5000     7.2393   147.5510     7.1801   -24.8777  -999.2500
  458.0000     7.1623   149.1295     6.9457   -24.8902  -999.2500
  458.5000     7.1308   151.4634     6.7872   -24.9024  -999.2500
  459.0000     7.1144   153.7972     6.6287   -25.0695  -999.2500
  459.5000     7.0981   157.6416     6.5460   -25.2340  -999.2500
  460.0000     6.9908   159.9755     6.4633   -25.2461  -999.2500
  460.5000     6.8987   163.0646     6.3807   -25.4107  -999.2500
  461.0000     6.8520   163.8878     6.3739   -25.4228  -999.2500
  461.5000     6.8966   163.9558     6.4446   -25.4349  -999.2500
  462.0000     6.8648   162.4962     6.4361   -25.4470  -999.2500
  462.5000     6.7727   161.0706     6.5069   -25.3036  -999.2500
  463.0000     6.7866   158.8727     6.6519   -25.1633  -999.2500
  463.5000     6.8611   155.1643     6.7951   -24.8705  -999.2500
  464.0000     6.9963   149.1900     6.9418   -24.7302  -999.2500
  464.5000     7.1618   144.7262     7.1609   -24.5898  -999.2500
  465.0000     7.3727   141.7730     7.3058   -24.6050  -999.2500
  465.5000     7.5230   139.5751     7.2991   -24.7695  -999.2500
  466.0000     7.6581   136.6220     7.3698   -25.0865  -999.2500
  466.5000     7.7781   135.9347     7.4389   -25.2510  -999.2500
  467.0000     7.8527   136.0027     7.4304   -25.5680  -999.2500
  467.5000     7.8969   137.5812     7.4236   -25.7326  -999.2500
  468.0000     7.8351   139.1597     7.4944   -25.7447  -999.2500
  468.5000     7.6976   141.4936     7.4100   -25.9092  -999.2500
  469.0000     7.5903   143.0721     7.3274   -25.9213  -999.2500
  469.5000     7.4679   148.4271     7.1688   -25.6280  -999.2500
  470.0000     7.3606   154.5374     7.0103   -25.4878  -999.2500
  470.5000     7.2377   159.8924     6.7759   -25.3476  -999.2500
  471.0000     7.0682   163.7368     6.5415   -25.2073  -999.2500
  471.5000     6.9161   166.8259     6.3829   -25.0671  -999.2500
  472.0000     6.7942   168.4044     6.3003   -24.9269  -999.2500
  472.5000     6.7334   166.9619     6.2935   -24.7865  -999.2500
  473.0000     6.7322   163.2534     6.3625   -24.7987  -999.2500
  473.5000     6.8102   158.7897     6.5076   -24.8109  -999.2500
  474.0000     6.9782   154.3259     6.6525   -24.6704  -999.2500
  474.5000     7.2376   151.3727     6.7974   -24.6825  -999.2500
  475.0000     7.4444   149.1748     7.0182   -24.5422  -999.2500
  475.5000     7.3692   146.9770     7.1632   -24.5573  -999.2500
  476.0000     7.4519   144.0238     7.2322   -24.5694  -999.2500
  476.5000     7.6779   141.0706     7.2253   -24.5815  -999.2500
  477.0000     7.7528   140.3663     7.3004   -24.5936  -999.2500
  477.5000     7.5998   141.2066     7.3636   -24.6057  -999.2500
  478.0000     7.4319   142.7851     7.3566   -24.6178  -999.2500
  478.5000     7.4307   143.6084     7.3500   -24.6299  -999.2500
  479.0000     7.5052   143.6764     7.4191   -24.4866  -999.2500
  479.5000     7.6404   143.7443     7.4120   -24.5017  -999.2500
  480.0000     7.6546   142.2847     7.4814   -24.5138  -999.2500
  480.5000     7.6531   140.1039     7.4729   -24.5259  -999.2500
  481.0000     7.6519   140.1718     7.4661   -24.3826  -999.2500
  481.5000     7.7113   139.4675     7.4593   -24.3977  -999.2500
  482.0000     7.7407   140.3078     7.4525   -24.4098  -999.2500
  482.5000     7.7547   141.8863     7.3698   -24.4219  -999.2500
  483.0000     7.7229   144.2202     7.3630   -24.4340  -999.2500
  483.5000     7.6156   145.7987     7.2804   -24.4461  -999.2500
  484.0000     7.4932   146.6220     7.1218   -24.6106  -999.2500
  484.5000     7.3405   148.2005     7.1150   -25.2325  -999.2500
  485.0000     7.2029   149.0238     7.0324   -25.5495  -999.2500
  485.5000     7.1411   149.8470     6.9497   -24.7994  -999.2500
  486.0000     7.1702   150.6703     6.9429   -24.3537  -999.2500
  486.5000     7.2296   151.4936     6.9361   -24.3663  -999.2500
  487.0000     7.2590   151.5616     6.9293   -24.3784  -999.2500
  487.5000     7.2120   152.3848     6.9225   -24.2378  -999.2500
  488.0000     7.1653   152.4528     6.9157   -24.2502  -999.2500
  488.5000     7.1493   153.2761     6.9089   -24.2623  -999.2500
  489.0000     7.1632   153.3440     6.9021   -24.1219  -999.2500
  489.5000     7.1923   153.4120     6.9729   -24.2866  -999.2500
  490.0000     7.2060   153.4800     6.9644   -24.3090  -999.2500
  490.5000     7.1896   152.7927     6.9576   -24.4634  -999.2500
  491.0000     7.1732   152.0884     6.9508   -24.6281  -999.2500
  491.5000     7.2023   149.9075     7.0216   -24.6403  -999.2500
  492.0000     7.3072   148.4649     7.0131   -24.6525  -999.2500
  492.5000     7.4575   148.5329     7.0822   -24.8194  -999.2500
  493.0000     7.6533   149.3561     7.0754   -24.8315  -999.2500
  493.5000     7.7433   150.1794     7.1462   -24.8437  -999.2500
  494.0000     7.4387   149.4751     7.1377   -24.7003  -999.2500
  494.5000     7.6648   147.2942     7.2826   -24.4075  -999.2500
  495.0000     7.9363   142.0751     7.2758   -24.2672  -999.2500
  495.5000     7.8593   139.8603     7.3452   -24.1268  -999.2500
  496.0000     7.6612   141.4558     7.3381   -23.9895  -999.2500
  496.5000     7.5691   145.3002     7.3313   -24.0016  -999.2500
  497.0000     7.5830   146.1235     7.2487   -24.1662  -999.2500
  497.5000     7.6424   145.4192     7.2419   -24.1783  -999.2500
  498.0000     7.6866   142.4830     7.2351   -24.1904  -999.2500
  498.5000     7.7006   138.7746     7.3042   -24.3549  -999.2500
  499.0000     7.7600   136.5597     7.5250   -24.6719  -999.2500
  499.5000     7.9254   135.1171     7.6699   -24.9889  -999.2500
  500.0000     8.0758   134.4297     7.8149   -25.4139  -999.2500
  500.5000     8.1803   133.7683     7.9610   -26.0848  -999.2500
  501.0000     8.2091   132.3013     7.7248   -26.4075  -999.2500
  501.5000     8.1914   130.8537     7.5663   -26.7180  -999.2500
  502.0000     8.1606   129.4842     7.5595   -26.7313  -999.2500
  502.5000     8.1743   128.8114     7.4768   -26.4203  -999.2500
  503.0000     8.1727   128.1387     7.3942   -26.1249  -999.2500
  503.5000     8.2016   126.7106     7.5394   -25.6774  -999.2500
  504.0000     8.2663   126.0585     7.6844   -25.1124  -999.2500
  504.5000     8.4406   125.3651     7.8290   -25.1261  -999.2500
  505.0000     8.6209   123.9371     7.9742   -25.2921  -999.2500
  505.5000     8.7255   122.5297     8.1191   -25.4582  -999.2500
  506.0000     8.8149   121.8363     8.1121   -25.6243  -999.2500
  506.5000     8.9497   121.1635     8.2571   -25.7903  -999.2500
  507.0000     9.0694   119.7355     8.3263   -25.6481  -999.2500
  507.5000     9.1441   118.3075     8.4711   -25.3569  -999.2500
  508.0000     9.1422   116.1448     8.6161   -24.9166  -999.2500
  508.5000     9.1407   113.9614     8.6851   -24.7744  -999.2500
  509.0000     9.2907   112.5334     8.6783   -24.7914  -999.2500
  509.5000     9.4710   110.3501     8.8268   -24.6492  -999.2500
  510.0000     9.6816   108.9220     8.9682   -24.5104  -999.2500
  510.5000     9.8615   106.7387     9.0373   -24.5274  -999.2500
