~VERSION INFORMATION
 VERS.                2.0:   CWLS LOG ASCII STANDARD - VERSION 2.0
 WRAP.                 NO:   ONE LINE PER DEPTH STEP
~WELL INFORMATION
#MNEM.UNIT      DATA TYPE    INFORMATION
#----------   ------------   ------------------------------
 STRT.F            2.0000:   START DEPTH
 STOP.F          670.5000:   STOP DEPTH
 STEP.F            0.5000:   STEP LENGTH
 NULL.          -999.2500:   NO VALUE
 COMP. BROWN JOHN E&C INC:   COMPANY
 WELL. 27-26 STX-11 #26-11:   WELL
 FLD .             TEAPOT:   FIELD
 LOC .      S11 T38N R78W:   LOCATION
 CNTY.            NATRONA:   COUNTY
 STAT.            WYOMING:   STATE
 CTRY. UNITED STATES OF AMERICA:   COUNTRY
 SRVC.           Gearhart:   SERVICE COMPANY
 DATE.        07-JUL-1987:   LOGDATE
 API .       490251114800:   API NUMBER
~CURVE INFORMATION
#MNEM.UNIT       API CODE    CURVE DESCRIPTION
#----------   ------------   ------------------------------
 DEPT.F                  :   
 GRR .GAPI   07 310 01 00:   GAMMA RAY FROM RES. LOG
 RILD.OHMM   07 120 46 00:   INDUCTION LOG DEEP RESISTIVITY
 RILM.OHMM   07 120 44 00:   INDUCTION LOG MEDIUM RESISTIVITY
~PARAMETER INFORMATION
#MNEM.UNIT          VALUE    DESCRIPTION
#----------   ------------   ------------------------------
 PD  .                 GL:   PERMANENT DATUM
 EPD .F              5199:   ELEVATION PERMANENT DATUM
 LMF .                 KB:   LOG MEASURED FROM
 DAPD.F                 8:   FEET ABOVE PERMANENT DATUM
 DMF .                 KB:   DRILLING MEASURED FROM
 EKB .F              5207:   KELLING BUSHING
 EDF .F              5205:   DRILLING FLOOR
 EGL .F              5199:   GROUND LEVEL
 DATE.             7-7-87:   RUN DATE
 RUN .                  1:   RUN NUMBER
 DD  .F               680:   DEPTH DRILLER
 DL  .F               679:   DEPTH LOGGER
 BLI .F               671:   BOTTOM LOG INTERVAL
 CS  .IN            8.625:   CASING SIZE
 CBD .F                50:   CASING BOTTOM DRILLER
 CBL .F                50:   CASING BOTTOM LOGGER
 BS  .IN             7.87:   BIT SIZE
 BSD .F               680:   BIT SIZE AT DEPTH
 DFT .                AIR:   DRILLING FLUID TYPE
 TCS .HRS            1800:   TIME CURCULATED STOPPED
 TLAB.HRS            1954:   TIME LOGGER AT BOTTOM
 LUN .               7597:   LOGGING UNIT NUMBER
 LUL .           GILLETTE:   LOGGING UNIT LOCATION
 ENGI. JOHNSTON/HUCKFELDT:   RECORDING ENGINEER
 WITN.             STRONG:   WITNESSED BY
 CLNT.            A2DTECH:   CLIENT CODE
 ORIG.       2", 5" PRINT:   ORIGIN OF DATA
 UWI .       490251114800:   UNIQUE WELL ID
 DICO. A2D Technologies, Inc.:   DIGITIZING COMPANY
~OTHER INFORMATION
~A    DEPT      GRR      RILD       RILM   
# ...
  548.0000    85.3684    20.3025    21.5454
  548.5000    86.8905    20.1581    21.4367
  549.0000    86.3981    20.0148    21.3388
  549.5000    85.1344    19.6258    21.1847
  550.0000    83.8456    19.2165    21.0450
  550.5000    82.5195    19.0954    20.9062
  551.0000    82.9902    19.0950    20.7684
  551.5000    83.6838    19.0957    20.6314
  552.0000    83.4422    19.0964    20.4954
  552.5000    83.1869    19.0954    20.3247
  553.0000    82.9260    18.6789    19.8326
  553.5000    82.7133    18.2268    19.3521
  554.0000    84.7968    17.7857    18.8835
  554.5000    87.9536    17.3551    18.4264
  555.0000    91.1362    16.9350    17.9804
  555.5000    94.3358    16.5251    17.5452
  556.0000    95.4706    16.1251    17.1205
  556.5000    93.5570    15.7346    16.7057
  557.0000    91.6204    15.3540    16.3017
  557.5000    89.6810    14.8766    15.8725
  558.0000    87.6964    14.9010    15.9071
  558.5000    87.3005    14.9413    15.9505
  559.0000    87.2927    14.9824    16.0114
  559.5000    87.3005    15.0070    15.9695
  560.0000    86.8463    14.8753    15.8711
  560.5000    86.0725    14.8909    15.8937
  561.0000    87.7898    14.9176    15.9220
  561.5000    89.9683    14.9443    15.9503
  562.0000    92.0761    14.9709    15.9788
  562.5000    91.9206    15.0083    16.0130
  563.0000    91.6261    14.9717    15.9501
  563.5000    91.3899    14.8937    15.8562
  564.0000    89.3096    14.8161    15.7631
  564.5000    86.8325    14.7389    15.6705
  565.0000    84.8405    14.6620    15.5784
  565.5000    84.5400    14.5856    15.4869
  566.0000    84.1416    14.5096    15.3960
  566.5000    84.3441    14.4340    15.3056
  567.0000    84.9874    14.3588    15.2157
  567.5000    85.6247    14.2839    15.1263
  568.0000    86.2771    14.2096    15.0375
  568.5000    86.1344    14.1355    14.9076
  569.0000    85.6047    14.0536    14.7613
  569.5000    85.0700    13.8977    14.6164
  570.0000    85.5220    13.7437    14.4729
  570.5000    86.9345    13.5914    14.3309
  571.0000    88.3402    13.4408    14.1902
  571.5000    89.7537    13.2919    14.0510
  572.0000    91.1553    13.1446    13.9130
  572.5000    91.4445    12.9990    13.7765
  573.0000    91.5720    12.8549    13.6413
  573.5000    91.6877    12.7124    13.5074
  574.0000    92.2737    12.5716    13.3748
  574.5000    92.9490    12.4751    13.3102
  575.0000    93.1999    12.4884    13.3268
  575.5000    92.4514    12.4997    13.3386
  576.0000    91.7465    12.5107    13.3505
  576.5000    91.0515    12.5218    13.3624
  577.0000    90.3538    12.5330    13.3743
  577.5000    89.6471    12.5441    13.3862
  578.0000    88.9594    12.5553    13.3982
  578.5000    90.1634    12.5666    13.4095
  579.0000    91.5370    12.5781    13.4218
  579.5000    92.9067    12.5881    13.4317
  580.0000    94.2732    12.4339    13.2551
  580.5000    95.6394    12.3779    13.1943
  581.0000    97.0089    12.3215    13.1344
  581.5000    98.3909    12.2656    13.0748
  582.0000    99.7151    12.2099    13.0154
  582.5000    98.3641    12.1545    12.9563
  583.0000    96.8301    12.0992    12.8974
  583.5000    95.3017    12.0443    12.8389
  584.0000    93.7923    11.9896    12.7806
  584.5000    95.1457    11.9351    12.7225
  585.0000    97.5670    11.8809    12.6647
  585.5000   100.0079    11.8269    12.6072
  586.0000   100.5693    11.7883    12.5087
  586.5000    99.4773    11.7650    12.3934
  587.0000    98.7336    11.7417    12.2792
  587.5000    99.7066    11.7184    12.2290
  588.0000   100.6514    11.6952    12.2058
  588.5000   101.5928    11.6720    12.1828
  589.0000   102.5288    11.6489    12.1599
  589.5000   103.4921    11.6258    12.1369
  590.0000   102.7679    11.6028    12.1140
  590.5000   101.1059    11.5798    12.0912
  591.0000    99.7709    11.5568    12.0684
  591.5000    99.7220    11.5339    12.0455
  592.0000    99.6366    11.5108    12.0227
  592.5000    99.5468    11.4887    11.9649
  593.0000    99.4686    11.4188    11.9037
  593.5000    99.6626    11.2254    11.8426
  594.0000   101.0982    11.0355    11.7388
  594.5000   102.5956    10.8489    11.5368
  595.0000   102.9172    10.7257    11.4305
  595.5000   100.5348    10.6637    11.3646
  596.0000    98.2371    10.6023    11.2990
  596.5000    96.6190    10.5412    11.2338
  597.0000    98.4126    10.4805    11.1690
  597.5000   100.1618    10.4199    11.1048
  598.0000   101.8119    10.3441    11.0089
  598.5000   103.3612    10.1295    10.8402
  599.0000   104.7882     9.9196    10.6742
  599.5000   106.2744     9.7137    10.5107
  600.0000   104.4847     9.5122    10.3416
  600.5000   101.8412     9.3149    10.1046
  601.0000   102.7151     9.1217     9.8730
  601.5000   103.7187     8.9326     9.6468
  602.0000   103.3621     8.7473     9.4263
  602.5000   102.8339     8.2082     9.2123
  603.0000   102.3028     7.5683     8.6941
  603.5000   101.7670     6.9784     7.9416
  604.0000   101.4115     6.4344     7.2541
  604.5000   103.7362     5.8935     6.6262
  605.0000   110.8896     5.5551     6.1234
  605.5000   119.7879     5.2086     5.8392
  606.0000   128.7578     4.8837     5.8998
  606.5000   137.5897     4.6760     5.9845
  607.0000   138.8375     5.0962     6.1217
  607.5000   128.6920     5.4974     6.6313
  608.0000   119.2959     6.0632     7.1833
  608.5000   109.9926     6.6863     7.7812
  609.0000   103.2556     7.3747     8.4290
  609.5000   102.9723     8.1327     9.1306
  610.0000   102.6283     9.0220     9.6765
  610.5000   103.7443     9.1586     9.8273
  611.0000   104.5432     9.3063     9.9804
  611.5000   104.1433     9.4563    10.1359
  612.0000   103.8534     9.6087    10.2938
  612.5000   107.2937     9.7636    10.4541
  613.0000   111.1674     9.8970    10.5595
  613.5000   112.5148    10.0336    10.7443
  614.0000   111.3334    10.2181    10.9418
  614.5000   110.3828    10.4059    11.1430
  615.0000   111.2467    10.5973    11.3478
  615.5000   112.1524    10.7921    11.5565
  616.0000   112.9955    10.9905    11.7690
  616.5000   109.9819    11.1926    11.9854
  617.0000   106.4446    11.3984    12.2057
  617.5000   105.6645    11.6081    12.4301
  618.0000   105.9453    11.8221    12.6587
  618.5000   106.2490    12.1315    12.9445
  619.0000   106.5497    12.1161    12.8724
  619.5000   106.8359    12.0832    12.7823
  620.0000   106.6329    12.0514    12.7076
  620.5000   106.0048    12.0205    12.8188
  621.0000   105.4238    12.1947    12.9142
  621.5000   104.8387    12.3746    13.0104
  622.0000   104.2525    12.5571    13.1073
  622.5000   103.6656    12.7071    13.1864
  623.0000   103.0851    12.5786    13.1058
  623.5000   103.3709    12.4716    13.0384
  624.0000   104.0700    12.3655    12.9714
  624.5000   104.7690    12.2603    12.9047
  625.0000   105.4705    12.1560    12.8384
  625.5000   106.1672    12.0526    12.7724
  626.0000   106.5179    11.9098    12.7071
  626.5000   105.1331    11.9613    12.6616
  627.0000   103.7378    12.0469    12.6165
  627.5000   102.3637    12.1323    12.5661
  628.0000   103.1222    12.0514    12.5080
  628.5000   104.9311    11.9719    12.4501
  629.0000   105.3402    11.8589    12.3925
  629.5000   103.5294    11.6255    12.2658
  630.0000   104.0380    11.3968    12.0457
  630.5000   106.0455    11.1725    11.8286
  631.0000   108.0630    10.9531    11.6147
  631.5000   110.1331    10.7338    11.4070
  632.0000   112.3349    10.5216    11.2029
  632.5000   114.5371    10.4237    11.1023
  633.0000   116.7514    10.3309    11.0026
  633.5000   118.9245    10.2381    10.9039
  634.0000   118.0690    10.1462    10.8060
  634.5000   115.2779    10.0552    10.7090
  635.0000   112.4685     9.9649    10.6138
  635.5000   109.6641     9.8567    10.4805
  636.0000   109.0702     9.6917    10.3060
  636.5000   110.9434     9.5298    10.1336
  637.0000   113.0705     9.3703     9.9642
  637.5000   115.2088     9.2134     9.8058
  638.0000   117.3253     9.1587     9.7640
  638.5000   117.2400     9.1215     9.7243
