~VERSION INFORMATION
 VERS.                2.0:   CWLS LOG ASCII STANDARD - VERSION 2.0
 WRAP.                 NO:   ONE LINE PER DEPTH STEP
~WELL INFORMATION
#MNEM.UNIT      DATA TYPE    INFORMATION
#----------   ------------   ------------------------------
 STRT.F           80.0000:   START DEPTH
 STOP.F          930.0000:   STOP DEPTH
 STEP.F            0.5000:   STEP LENGTH
 NULL.          -999.2500:   NO VALUE
 COMP. U S NAVY-INTEX OIL:   COMPANY
 WELL. RES 3 TEAPOT DOM #56-S-2:   WELL
 FLD .             TEAPOT:   FIELD
 LOC .       S2 T38N R78W:   LOCATION
 CNTY.            NATRONA:   COUNTY
 STAT.            WYOMING:   STATE
 CTRY. UNITED STATES OF AMERICA:   COUNTRY
 SRVC.       Schlumberger:   SERVICE COMPANY
 DATE.        24-JUN-1962:   LOGDATE
 API .       490250641900:   API NUMBER
~CURVE INFORMATION
#MNEM.UNIT       API CODE    CURVE DESCRIPTION
#----------   ------------   ------------------------------
 DEPT.F                  :   
 ASN .OHMM   05 041 16 00:   AMPLIFIED SHORT NORMAL 16"
 ILD .OHMM   05 120 46 00:   INDUCTION LOG DEEP
 CILD.MMHO   05 110 46 00:   CONDUCTIVITY INDUCTION LOG DEEP
 SPR .MV     05 010 01 00:   SPONTANEOUS POTENTIAL FROM RES.
 GR  .GAPI   30 310 01 00:   GAMMA RAY
~PARAMETER INFORMATION
#MNEM.UNIT          VALUE    DESCRIPTION
#----------   ------------   ------------------------------
 PD  .                 KB:   PERMANENT DATUM
 LMF .                 KB:   LOG MEASURED FROM
 DMF .                 KB:   DRILLING MEASURED FROM
 EKB .F              5179:   KELLING BUSHING
 EGL .F              5174:   GROUND LEVEL
 DATE.        24-JUN-1962:   RUN DATE
 RUN .                  1:   RUN NUMBER
 DD  .F               942:   DEPTH DRILLER
 DL  .F               931:   DEPTH LOGGER
 BLI .F               930:   BOTTOM LOG INTERVAL
 TLI .F                80:   TOP LOG INTERVAL
 BS  .IN             6.75:   BIT SIZE
 BSD .F               942:   BIT SIZE AT DEPTH
 DFT .       OIL EMULSION:   DRILLING FLUID TYPE
 DFD .                9.9:   DRILLING FLUID DENSITY
 DFV .                 55:   DRILLING FLUID VISCOSITY
 DFL .                3.7:   DRILLING FLUID LOSS
 RMS .OHMM            4.2:   RESISTIVITY MUD SAMPLE
 MST .F                79:   MUD SAMPLE TEMPERATURE
 RMF .OHMM            3.7:   RESISTIVITY MUD FILTRATE SAMPLE
 MFST.F                79:   MUD FILTRATE SAMPLE TEMPERATURE
 RMC .OHMM            4.0:   RESISTIVITY MUD CAKE
 MCST.F                79:   MUD CAKE SAMPLE TEMPERATURE
 TCS .HRS               1:   TIME CURCULATED STOPPED
 LUN .               2503:   LOGGING UNIT NUMBER
 LUL .               CSPR:   LOGGING UNIT LOCATION
 ENGI.             DANNER:   RECORDING ENGINEER
 WITN.          JORGENSEN:   WITNESSED BY
 CLNT.            A2DTECH:   CLIENT CODE
 ORIG.           5" PRINT:   ORIGIN OF DATA
 UWI .       490250641900:   UNIQUE WELL ID
 DICO. A2D Technologies, Inc.:   DIGITIZING COMPANY
~OTHER INFORMATION
~A   DEPT        ASN        ILD      CILD       SPR         GR   
   80.0000     0.0777     6.5767   167.1664   -60.1188  -999.2500
   80.5000     0.0481     6.5774   167.9160   -60.2649  -999.2500
   81.0000    -0.0263     6.5029   170.1649   -60.4100  -999.2500
   81.5000    -0.0260     6.4286   172.4138   -60.7045  -999.2500
   82.0000    -0.0108     6.2043   174.6627   -60.6989  -999.2500
   82.5000     0.9880     6.1298   177.6867   -60.5450  -999.2500
   83.0000     3.3381     6.1307   182.2137   -60.3911  -999.2500
   83.5000     1.0515     6.1314   185.9070   -60.3867  -999.2500
   84.0000     0.4239     6.1322   186.6567   -60.5328  -999.2500
   84.5000     3.6380     6.2080   185.9070   -60.6779  -999.2500
   85.0000     5.8057     6.2087   182.9085   -60.9724  -999.2500
   85.5000     5.4473     6.4347   179.1604   -61.2658  -999.2500
   86.0000     4.5507     6.5105   176.1619   -61.4119  -999.2500
   86.5000     1.4419     6.5863   174.6627   -61.4064  -999.2500
   87.0000     2.4287     6.6623   170.1649   -61.4020  -999.2500
   87.5000     5.9268     6.5878   167.1664   -61.2480  -999.2500
   88.0000     5.6730     6.3635   164.9175   -61.3931  -999.2500
   88.5000     4.2383     4.5624   161.9190   -61.3886  -999.2500
   89.0000     3.4298     4.4879   158.9205   -61.5337  -999.2500
   89.5000     6.2455     6.8912   157.4213   -61.5291  -999.2500
   90.0000     6.5560     7.1923   156.6717   -61.6743  -999.2500
   90.5000     6.5414     7.1178   157.4213   -62.3467  -999.2500
   91.0000     6.5267     7.1187   159.6702   -63.0107  -999.2500
   91.5000     6.5271     6.9693   164.1953   -63.0052  -999.2500
   92.0000     6.4527     6.7448   168.0559   -63.0007  -999.2500
   92.5000     6.1839     6.4452   171.7767   -62.8468  -999.2500
   93.0000     5.7208     6.1457   177.6612   -62.8424  -999.2500
   93.5000     5.7061     5.9963   180.6597   -62.8379  -999.2500
   94.0000     5.8410     5.9970   187.4063   -62.9830  -999.2500
   94.5000     5.7815     6.0728   189.6552   -63.1291  -999.2500
   95.0000     5.6772     6.1486   188.9055   -63.5720  -999.2500
   95.5000     5.6624     6.3113   185.1574   -63.8676  -999.2500
   96.0000     5.8422     6.6007   176.9115   -63.1147  -999.2500
   96.5000     6.0517     6.6766   169.4153   -62.8113  -999.2500
   97.0000     6.3958     6.6020   167.9160   -62.5079  -999.2500
   97.5000     6.6801     6.5279   169.4153   -62.5035  -999.2500
   98.0000     6.5459     6.5286   168.6657   -62.4991  -999.2500
   98.5000     6.5611     6.5294   166.4168   -62.1957  -999.2500
   99.0000     6.9230     6.7553   165.6672   -61.8923  -999.2500
   99.5000     6.6215     6.7561   165.6672   -61.8878  -999.2500
  100.0000     5.9941     6.5316   167.9160   -61.8834  -999.2500
  100.5000     5.9644     6.3071   173.2060   -61.8790  -999.2500
  101.0000     5.9648     6.3078   176.9966   -61.7121  -999.2500
  101.5000     5.9501     6.3086   177.6612   -61.4021  -999.2500
  102.0000     5.9354     6.3093   176.9115   -61.0922  -999.2500
  102.5000     5.8460     6.3851   176.1619   -60.6643  -999.2500
  103.0000     5.9361     6.3859   176.1619   -60.3609  -999.2500
  103.5000     5.9513     6.4617   175.4123   -59.9080  -999.2500
  104.0000     5.9366     6.3874   176.1619   -59.7541  -999.2500
  104.5000     5.9070     6.3881   179.1604   -59.7497  -999.2500
  105.0000     5.8177     6.2387   185.1574   -59.7453  -999.2500
  105.5000     5.6984     5.9393   189.6552   -59.4419  -999.2500
  106.0000     5.5193     5.7147   193.4033   -58.8395  -999.2500
  106.5000     5.3851     5.7907   194.1529   -57.7888  -999.2500
  107.0000     5.3256     5.7914   192.6537   -57.6348  -999.2500
  107.5000     5.2661     5.8672   191.9041   -57.6304  -999.2500
  108.0000     5.3136     5.8679   190.4048   -57.4765  -999.2500
  108.5000     5.4805     6.0188   188.9055   -57.6226  -999.2500
  109.0000     5.6855     6.2448   186.6415   -57.7677  -999.2500
  109.5000     5.8204     6.3957   184.3501   -58.5097  -999.2500
  110.0000     5.9402     6.4715   179.7104   -58.6546  -999.2500
  110.5000     5.9854     6.4722   172.4138   -58.6501  -999.2500
  111.0000     6.0006     6.4730   168.6657   -58.6457  -999.2500
  111.5000     5.9112     6.4737   167.9160   -58.6413  -999.2500
  112.0000     5.8218     6.3994   172.4138   -58.4813  -999.2500
  112.5000     5.8520     6.3251   174.6627   -58.3209  -999.2500
  113.0000     5.9121     6.3258   176.9115   -58.1794  -999.2500
  113.5000     5.9135     6.1766   177.6612   -58.1749  -999.2500
  114.0000     5.7931     6.1773   176.9115   -58.4696  -999.2500
  114.5000     5.7486     6.1781   174.6627   -58.4640  -999.2500
  115.0000     5.7638     6.1035   177.6612   -58.3101  -999.2500
  115.5000     5.7624     6.1045   180.6597   -58.4563  -999.2500
  116.0000     5.6299     6.1052   180.6597   -58.6013  -999.2500
  116.5000     5.7050     6.1059   179.9100   -58.7464  -999.2500
  117.0000     5.8847     6.1818   173.9130   -58.2924  -999.2500
  117.5000     5.9298     6.3326   166.4168   -57.9890  -999.2500
  118.0000     5.9749     6.5586   164.1679   -57.9846  -999.2500
  118.5000     6.1845     6.7846   163.3459   -57.9801  -999.2500
  119.0000     6.4240     7.0105   161.0545   -57.9757  -999.2500
  119.5000     6.4392     7.0864   158.1709   -57.9713  -999.2500
  120.0000     6.4096     7.0871   155.1724   -58.1174  -999.2500
  120.5000     6.3650     7.0128   154.4228   -58.2624  -999.2500
  121.0000     6.3355     6.9349   158.1709   -58.2569  -999.2500
  121.5000     6.2610     6.7890   162.6687   -58.2525  -999.2500
  122.0000     6.1268     6.6276   170.9145   -58.2480  -999.2500
  122.5000     5.9178     6.4153   175.4123   -58.5425  -999.2500
  123.0000     5.7387     6.0407   185.1574   -59.2855  -999.2500
  123.5000     5.5447     5.6659   191.1544   -59.2756  -999.2500
  124.0000     5.3656     5.5915   197.9010   -58.6786  -999.2500
  124.5000     5.1866     5.5924   200.1499   -58.8421  -999.2500
  125.0000     5.2018     5.6683   200.1499   -59.2924  -999.2500
  125.5000     5.2925     5.6690   199.4003   -59.1127  -999.2500
  126.0000     5.3682     5.7448   197.1514   -58.5104  -999.2500
  126.5000     5.4502     5.9708   191.8993   -58.5059  -999.2500
  127.0000     5.7439     6.1967   184.2728   -58.3520  -999.2500
  127.5000     5.7714     6.4978   176.6489   -58.0486  -999.2500
  128.0000     5.8015     6.5736   170.7844   -57.7453  -999.2500
  128.5000     5.8915     6.5743   167.9160   -57.5913  -999.2500
  129.0000     5.9965     6.5751   164.1679   -57.5869  -999.2500
  129.5000     6.0715     6.6509   161.1694   -57.7331  -999.2500
  130.0000     6.1465     6.7267   158.9205   -57.8781  -999.2500
  130.5000     6.2515     6.7275   155.9220   -57.8726  -999.2500
  131.0000     6.4162     6.9054   153.6732   -57.8681  -999.2500
  131.5000     6.5211     7.2546   153.6732   -58.6111  -999.2500
  132.0000     6.5214     7.1801   154.4228   -58.9067  -999.2500
  132.5000     6.4320     6.9558   155.9220   -59.0508  -999.2500
  133.0000     6.3127     6.8064   158.9205   -59.0462  -999.2500
  133.5000     6.2383     6.6570   162.6687   -59.0417  -999.2500
  134.0000     6.1339     6.5825   167.1664   -58.8878  -999.2500
  134.5000     5.9848     6.4333   173.4840   -58.2855  -999.2500
  135.0000     5.9253     6.2837   180.5341   -57.8326  -999.2500
  135.5000     5.8359     6.0594   188.9055   -57.8281  -999.2500
  136.0000     5.6108     5.9848   194.9025   -57.8236  -999.2500
  136.5000     5.4146     5.7604   197.9010   -57.8191  -999.2500
  137.0000     5.2239     5.6862   199.4003   -57.8138  -999.2500
  137.5000     5.2740     5.6870   198.6507   -57.8093  -999.2500
  138.0000     5.3591     5.7628   197.9010   -57.9555  -999.2500
  138.5000     5.3893     5.8386   194.1304   -58.2500  -999.2500
  139.0000     5.4344     5.9144   188.7754   -58.3950  -999.2500
  139.5000     5.4646     6.0010   184.3002   -58.6896  -999.2500
  140.0000     5.6144     6.2164   179.1604   -59.1324  -999.2500
  140.5000     5.7791     6.3673   173.9130   -59.4281  -999.2500
