~VERSION INFORMATION
 VERS.                2.0:   CWLS LOG ASCII STANDARD - VERSION 2.0
 WRAP.                 NO:   ONE LINE PER DEPTH STEP
~WELL INFORMATION
#MNEM.UNIT      DATA TYPE    INFORMATION
#----------   ------------   ------------------------------
 STRT.F          550.0000:   START DEPTH
 STOP.F         2078.5000:   STOP DEPTH
 STEP.F            0.5000:   STEP LENGTH
 NULL.          -999.2500:   NO VALUE
 COMP. BROWN JOHN E&C INC:   COMPANY
 WELL. 58-61 STX-10 #58-10:   WELL
 FLD .             TEAPOT:   FIELD
 LOC .      S10 T38N R78W:   LOCATION
 CNTY.            NATRONA:   COUNTY
 STAT.            WYOMING:   STATE
 CTRY. UNITED STATES OF AMERICA:   COUNTRY
 SRVC.            Unknown:   SERVICE COMPANY
 DATE.        07-SEP-1991:   LOGDATE
 API .       490251108000:   API NUMBER
~CURVE INFORMATION
#MNEM.UNIT       API CODE    CURVE DESCRIPTION
#----------   ------------   ------------------------------
 DEPT.F                  :   
 ROP .MIN/FT 91 810 01 00:   RAT OF DRILLING PENETRATION
 TGAS.UNITS  91 830 01 00:   TOTAL GAS FROM HOTWIRE
~PARAMETER INFORMATION
#MNEM.UNIT          VALUE    DESCRIPTION
#----------   ------------   ------------------------------
 EKB .F              5216:   KELLING BUSHING
 EGL .F              5206:   GROUND LEVEL
 DATE.             9-7-91:   RUN DATE
 DD  .F              2079:   DEPTH DRILLER
 TCS .HRS            1815:   TIME CURCULATED STOPPED
 TLAB.HRS            1930:   TIME LOGGER AT BOTTOM
 ENGI.         HUSK/TOWER:   RECORDING ENGINEER
 WITN.             HENDRY:   WITNESSED BY
 CLNT.            A2DTECH:   CLIENT CODE
 ORIG.           5" PRINT:   ORIGIN OF DATA
 UWI .       490251108000:   UNIQUE WELL ID
 DICO. A2D Technologies, Inc.:   DIGITIZING COMPANY
~OTHER INFORMATION
~A   DEPT        ROP       TGAS 
  550.0000     0.2782     2.1997
  550.5000     0.2791     2.1997
  551.0000     0.2808     2.1997
  551.5000     0.2822     2.1997
  552.0000     0.2839     2.1997
  552.5000     0.2855     2.1997
  553.0000     0.2873     2.1997
  553.5000     0.2890     2.1997
  554.0000     0.2907     2.1997
  554.5000     0.2898     2.1997
  555.0000     0.2885     2.1997
  555.5000     0.2872     2.1997
  556.0000     0.2858     2.1997
  556.5000     0.2845     2.1997
  557.0000     0.2831     2.1997
  557.5000     0.2818     2.1997
  558.0000     0.2805     2.1997
  558.5000     0.2791     2.1997
  559.0000     0.2782     2.1997
  559.5000     0.2781     2.1997
  560.0000     0.2858     2.1997
  560.5000     0.3279     2.1997
  561.0000     0.3962     2.1997
  561.5000     0.4647     2.1997
  562.0000     0.5331     2.1997
  562.5000     0.6016     2.1997
  563.0000     0.6699     2.1997
  563.5000     0.7398     2.1997
  564.0000     0.7671     2.1997
  564.5000     0.7672     2.1997
  565.0000     0.7668     2.1997
  565.5000     0.7663     2.1997
  566.0000     0.7659     2.1997
  566.5000     0.7655     2.1997
  567.0000     0.7651     2.1997
  567.5000     0.7647     2.1997
  568.0000     0.7642     2.1997
  568.5000     0.7638     2.1997
  569.0000     0.7634     2.1997
  569.5000     0.7630     2.1997
  570.0000     0.7626     2.1997
  570.5000     0.7622     2.1997
  571.0000     0.7618     2.1997
  571.5000     0.7613     2.1997
  572.0000     0.7609     2.1997
  572.5000     0.7605     2.1997
  573.0000     0.7601     2.1997
  573.5000     0.7597     2.1997
  574.0000     0.7593     2.1997
  574.5000     0.7589     2.1997
  575.0000     0.7584     2.1997
  575.5000     0.7580     2.1997
  576.0000     0.7576     2.1997
  576.5000     0.7572     2.1997
  577.0000     0.7568     2.1997
  577.5000     0.7564     2.1997
  578.0000     0.7560     2.1997
  578.5000     0.7550     2.1997
  579.0000     0.7539     2.1994
  579.5000     0.7632     2.2006
  580.0000     0.7910     2.1940
  580.5000     0.8478     2.6264
  581.0000     0.9050     3.2999
  581.5000     0.9621     3.9791
  582.0000     1.0078     4.6587
  582.5000     1.0095     5.3379
  583.0000     1.0120     6.0170
  583.5000     1.0145     6.6961
  584.0000     1.0171     7.3757
  584.5000     1.0196     8.0541
  585.0000     1.0222     8.7289
  585.5000     1.0247     9.1293
  586.0000     1.0273     9.4525
  586.5000     1.0298     9.7840
  587.0000     1.0323    10.1126
  587.5000     1.0349    10.4412
  588.0000     1.0375    10.7697
  588.5000     1.0402    11.0983
  589.0000     1.0424    11.4269
  589.5000     1.0315    11.7554
  590.0000     0.9737    12.0840
  590.5000     0.9177    12.4125
  591.0000     0.8618    12.7411
  591.5000     0.8059    13.0697
  592.0000     0.7500    13.3982
  592.5000     0.6941    13.7268
  593.0000     0.6381    14.0554
  593.5000     0.5825    14.3839
  594.0000     0.5419    14.7125
  594.5000     0.5465    15.0411
  595.0000     0.5505    15.3696
  595.5000     0.5538    15.6982
  596.0000     0.5368    16.0272
  596.5000     0.4610    16.3560
  597.0000     0.3881    16.6556
  597.5000     0.3153    16.7225
  598.0000     0.2783    16.7829
  598.5000     0.2787    16.8438
  599.0000     0.2790    16.9050
  599.5000     0.2793    16.9661
  600.0000     0.2797    17.0272
  600.5000     0.2800    17.0884
  601.0000     0.2803    17.1495
  601.5000     0.2806    17.2107
  602.0000     0.2809    17.2718
  602.5000     0.2812    17.3329
  603.0000     0.2815    17.3941
  603.5000     0.2818    17.4552
  604.0000     0.2822    17.5164
  604.5000     0.2825    17.5775
  605.0000     0.2828    17.6387
  605.5000     0.2831    17.6998
  606.0000     0.2834    17.7609
  606.5000     0.2837    17.8218
  607.0000     0.2840    17.8837
  607.5000     0.2844    17.9357
  608.0000     0.2847    18.0135
  608.5000     0.2850    18.0898
  609.0000     0.2853    18.1661
  609.5000     0.2856    18.2425
  610.0000     0.2859    18.3188
  610.5000     0.2862    18.3951
  611.0000     0.2865    18.4715
  611.5000     0.2869    18.5478
  612.0000     0.2872    18.6241
  612.5000     0.2875    18.7005
  613.0000     0.2878    18.7768
  613.5000     0.2881    18.8531
  614.0000     0.2884    18.9295
  614.5000     0.2887    19.0058
  615.0000     0.2891    19.0821
  615.5000     0.2894    19.1585
  616.0000     0.2897    19.2348
  616.5000     0.2900    19.3111
  617.0000     0.2903    19.3875
  617.5000     0.2906    19.4638
  618.0000     0.2909    19.5401
  618.5000     0.2912    19.6165
  619.0000     0.2916    19.6928
  619.5000     0.2919    19.7691
  620.0000     0.2922    19.8455
  620.5000     0.2925    19.9218
  621.0000     0.2928    19.9981
  621.5000     0.2931    20.0745
  622.0000     0.2934    20.1508
  622.5000     0.2937    20.2273
  623.0000     0.2941    20.3037
  623.5000     0.2944    20.3782
  624.0000     0.2947    20.3525
  624.5000     0.2950    20.1595
  625.0000     0.2953    19.9690
  625.5000     0.2956    19.7781
  626.0000     0.2959    19.5871
  626.5000     0.2962    19.3961
  627.0000     0.2966    19.2008
  627.5000     0.2969    19.2709
  628.0000     0.2972    19.4350
  628.5000     0.2975    19.6012
  629.0000     0.2978    19.7670
  629.5000     0.2981    19.9328
  630.0000     0.2984    20.0985
  630.5000     0.2988    20.2642
  631.0000     0.2991    20.4300
  631.5000     0.2994    20.5957
  632.0000     0.2997    20.7614
  632.5000     0.3000    20.9271
  633.0000     0.3003    21.0928
  633.5000     0.3006    21.2586
  634.0000     0.3009    21.4243
  634.5000     0.3013    21.5900
  635.0000     0.3016    21.7557
  635.5000     0.3019    21.9207
  636.0000     0.3022    22.0903
  636.5000     0.3025    22.2326
  637.0000     0.3028    23.7259
  637.5000     0.3031    25.8729
  638.0000     0.3031    28.0179
  638.5000     0.3026    32.8276
  639.0000     0.3020    41.7028
  639.5000     0.3014    93.6791
  640.0000     0.3008   132.2740
  640.5000     0.3002    37.2811
  641.0000     0.2997    33.0831
  641.5000     0.2991    29.3285
  642.0000     0.2985    26.0999
  642.5000     0.2979    25.4388
  643.0000     0.2973    24.8588
  643.5000     0.2968    24.2845
  644.0000     0.2962    23.6964
  644.5000     0.2956    23.1241
  645.0000     0.2950    22.5515
  645.5000     0.2944    21.9789
  646.0000     0.2939    21.6804
  646.5000     0.2933    21.6943
  647.0000     0.2927    21.9171
  647.5000     0.2921    22.1368
  648.0000     0.2915    22.3547
  648.5000     0.2910    22.5723
  649.0000     0.2904    22.7900
  649.5000     0.2898    23.0076
  650.0000     0.2892    23.2253
  650.5000     0.2886    23.4429
  651.0000     0.2880    23.6606
  651.5000     0.2875    23.8783
  652.0000     0.2869    24.0959
  652.5000     0.2863    24.3136
  653.0000     0.2857    24.5313
  653.5000     0.2851    24.7489
  654.0000     0.2846    24.9666
  654.5000     0.2840    25.1843
  655.0000     0.2834    25.4019
  655.5000     0.2828    25.6197
  656.0000     0.2822    25.8381
  656.5000     0.2817    26.0524
  657.0000     0.2811    26.0697
  657.5000     0.2805    26.1660
  658.0000     0.2799    27.9339
  658.5000     0.2793    29.7044
  659.0000     0.2788    31.6471
  659.5000     0.2783    90.0584
  660.0000     0.2795   136.4296
  660.5000     0.2807    28.8281
  661.0000     0.2819    30.7363
  661.5000     0.2830    26.0975
  662.0000     0.2842    24.4226
  662.5000     0.2853    22.8707
  663.0000     0.2865    22.3837
  663.5000     0.2877    22.4901
  664.0000     0.2888    22.6003
  664.5000     0.2900    22.7107
  665.0000     0.2911    22.8201
  665.5000     0.2923    22.9295
  666.0000     0.2935    23.0389
  666.5000     0.2946    23.1483
  667.0000     0.2958    23.2577
  667.5000     0.2970    23.3671
  668.0000     0.2981    23.4765
  668.5000     0.2993    23.5859
  669.0000     0.3004    23.6953
  669.5000     0.3016    23.8047
  670.0000     0.3028    23.9140
  670.5000     0.3032    24.0235
  671.0000     0.3031    24.1336
