~VERSION INFORMATION
 VERS.                2.0:   CWLS LOG ASCII STANDARD - VERSION 2.0
 WRAP.                 NO:   ONE LINE PER DEPTH STEP
~WELL INFORMATION
#MNEM.UNIT      DATA TYPE    INFORMATION
#----------   ------------   ------------------------------
 STRT.F            4.0000:   START DEPTH
 STOP.F          564.0000:   STOP DEPTH
 STEP.F            0.1000:   STEP LENGTH
 NULL.          -999.2500:   NO VALUE
 COMP.       F D SERV INC:   COMPANY
 WELL. NAVAL PETROLEUM RESERVE 3 SX-3 #88-4-3:   WELL
 FLD .             TEAPOT:   FIELD
 LOC .       S3 T38N R78W:   LOCATION
 CNTY.            NATRONA:   COUNTY
 STAT.            WYOMING:   STATE
 CTRY. UNITED STATES OF AMERICA:   COUNTRY
 SRVC.      Western Atlas:   SERVICE COMPANY
 DATE.        15-OCT-1992:   LOGDATE
 API .       490252255000:   API NUMBER
~CURVE INFORMATION
#MNEM.UNIT       API CODE    CURVE DESCRIPTION
#----------   ------------   ------------------------------
 DEPT.F                  :   
 GRR .GAPI   07 310 01 00:   GAMMA RAY
 RILD.OHMM   07 120 46 00:   INDUCTION LOG DEEP RESISTIVITY
 RILM.OHMM   07 120 44 00:   INDUCTION LOG MEDIUM RESISTIVITY
~PARAMETER INFORMATION
#MNEM.UNIT          VALUE    DESCRIPTION
#----------   ------------   ------------------------------
 PD  .                 GL:   PERMANENT DATUM
 EPD .F              5129:   ELEVATION PERMANENT DATUM
 LMF .                 KB:   LOG MEASURED FROM
 DAPD.F                10:   FEET ABOVE PERMANENT DATUM
 DMF .                 KB:   DRILLING MEASURED FROM
 EKB .F              5139:   KELLING BUSHING
 EGL .F              5129:   GROUND LEVEL
 DATE.        15-OCT-1992:   RUN DATE
 RUN .                  1:   RUN NUMBER
 DD  .F               570:   DEPTH DRILLER
 DL  .F               570:   DEPTH LOGGER
 BLI .F               564:   BOTTOM LOG INTERVAL
 TLI .F               564:   TOP LOG INTERVAL
 CS  .IN            8.625:   CASING SIZE
 CBL .F                94:   CASING BOTTOM LOGGER
 BS  .IN            7.875:   BIT SIZE
 BSD .F               570:   BIT SIZE AT DEPTH
 DFT .           AIR FOAM:   DRILLING FLUID TYPE
 TCS .HRS               4:   TIME CURCULATED STOPPED
 MRT .F                72:   MAXIMUM RECORDED TEMPERATURE
 LUN .            HL-6345:   LOGGING UNIT NUMBER
 LUL .          FT.MORGAN:   LOGGING UNIT LOCATION
 ENGI.             BURLEY:   RECORDING ENGINEER
 WITN.        DARY STRONG:   WITNESSED BY
 CLNT.            A2DTECH:   CLIENT CODE
 ORIG.           5" PRINT:   ORIGIN OF DATA
 UWI .       490252255000:   UNIQUE WELL ID
 DICO. A2D Technologies, Inc.:   DIGITIZING COMPANY
~OTHER INFORMATION
~A    DEPT      GRR      RILD       RILM   
# ...
  222.4000   114.4862     8.2877     8.3749
  222.5000   114.3358     8.2652     8.3749
  222.6000   114.5865     8.2292     8.3749
  222.7000   114.8371     8.2263     8.3634
  222.8000   115.4887     8.1711     8.3163
  222.9000   115.9398     8.1709     8.3163
  223.0000   116.3910     8.1707     8.3163
  223.1000   117.0426     8.1492     8.2554
  223.2000   117.2933     8.1015     8.1799
  223.3000   118.2957     8.0541     8.1430
  223.4000   119.0978     7.9993     8.1418
  223.5000   119.5489     7.9601     8.0861
  223.6000   119.7995     7.9429     7.9706
  223.7000   119.9499     7.9227     7.9176
  223.8000   119.6992     7.8555     7.8982
  223.9000   118.7970     7.7210     7.8423
  224.0000   118.5965     7.6679     7.7518
  224.1000   118.0451     7.6309     7.6983
  224.2000   117.4937     7.5590     7.6256
  224.3000   117.2932     7.4891     7.5371
  224.4000   117.2932     7.4268     7.4673
  224.5000   117.0426     7.2984     7.4059
  224.6000   116.9925     7.2476     7.2773
  224.7000   117.1429     7.1457     7.1764
  224.8000   117.3935     7.0710     7.1095
  224.9000   117.6942     7.0132     7.0024
  225.0000   118.1955     6.9396     6.8967
  225.1000   118.4461     6.8988     6.8088
  225.2000   118.4962     6.8188     6.6899
  225.3000   118.4962     6.7395     6.6126
  225.4000   118.4962     6.6157     6.5358
  225.5000   118.4962     6.5063     6.4599
  225.6000   118.4962     6.4543     6.3849
  225.7000   118.4962     6.3400     6.3038
  225.8000   118.4962     6.2675     6.1928
  225.9000   118.5714     6.1946     6.1218
  226.0000   118.6967     6.0818     6.0233
  226.1000   118.8221     5.9284     5.8988
  226.2000   118.9474     5.7686     5.7751
  226.3000   119.0977     5.6650     5.6806
  226.4000   119.2982     5.5384     5.6131
  226.5000   119.5489     5.4105     5.5179
  226.6000   119.8997     5.2855     5.3979
  226.7000   120.3509     5.1632     5.2907
  226.8000   120.6015     5.0391     5.2100
  226.9000   120.9023     4.8871     5.1394
  227.0000   120.9023     4.7795     5.0167
  227.1000   120.9023     4.6692     4.9049
  227.2000   120.8020     4.5757     4.7917
  227.3000   120.5514     4.4871     4.6811
  227.4000   120.3008     4.3832     4.5635
  227.5000   120.0000     4.2757     4.4359
  227.6000   119.7995     4.1603     4.3291
  227.7000   119.5489     4.0065     4.2100
  227.8000   119.1980     3.8695     4.0890
  227.9000   118.6968     3.7438     3.9463
  228.0000   118.1955     3.5985     3.7956
  228.1000   117.5940     3.4870     3.6615
  228.2000   117.1930     3.3762     3.5070
  228.3000   116.8421     3.2736     3.4115
  228.4000   116.5915     3.1605     3.2851
  228.5000   116.3910     3.0445     3.1634
  228.6000   116.3910     2.9566     3.0603
  228.7000   116.1404     2.8638     2.9792
  228.8000   116.0902     2.8037     2.9425
  228.9000   116.0902     2.7167     2.8946
  229.0000   116.0902     2.6382     2.8443
  229.1000   116.0902     2.5817     2.8036
  229.2000   116.0902     2.5367     2.7657
  229.3000   116.0902     2.4880     2.7197
  229.4000   115.8897     2.4621     2.6858
  229.5000   115.7895     2.4433     2.6569
  229.6000   115.7895     2.4359     2.6372
  229.7000   115.7394     2.4358     2.6138
  229.8000   115.4887     2.4358     2.5932
  229.9000   115.1880     2.4357     2.5914
  230.0000   114.9875     2.4356     2.5751
  230.1000   114.7368     2.4356     2.5751
  230.2000   114.2858     2.4423     2.5751
  230.3000   113.4337     2.4526     2.5751
  230.4000   112.1803     2.4536     2.5798
  230.5000   110.4261     2.4698     2.5932
  230.6000   109.2732     2.4822     2.5932
  230.7000   108.2707     2.4870     2.6210
  230.8000   107.1680     2.4937     2.6299
  230.9000   105.9147     2.5044     2.6377
  231.0000   104.6617     2.5060     2.6531
  231.1000   101.0526     2.5397     2.6703
  231.2000    99.6492     2.5524     2.7048
  231.3000    98.0452     2.5672     2.7479
  231.4000    96.7418     2.5958     2.7965
  231.5000    95.8396     2.6340     2.8459
  231.6000    95.3383     2.6507     2.9013
  231.7000    95.3383     2.7050     2.9681
  231.8000    95.7394     2.7183     3.0263
  231.9000    97.1428     2.7754     3.0740
  232.0000    99.0476     2.8576     3.1540
  232.1000   100.7019     2.9380     3.2380
  232.2000   101.9549     3.0067     3.3202
  232.3000   103.4586     3.0691     3.4166
  232.4000   105.1628     3.1139     3.5070
  232.5000   107.6689     3.1688     3.5802
  232.6000   110.8770     3.2408     3.6649
  232.7000   114.2357     3.3323     3.7521
  232.8000   116.9925     3.4111     3.8413
  232.9000   119.3985     3.5188     3.9342
  233.0000   121.2029     3.6264     4.0927
  233.1000   123.3081     3.7340     4.1987
  233.2000   124.8120     3.8417     4.3061
  233.3000   125.6642     3.9493     4.4079
  233.4000   126.9173     4.0569     4.5264
  233.5000   127.4185     4.1646     4.6837
  233.6000   127.9198     4.2722     4.8098
  233.7000   128.2707     4.3993     4.8832
  233.8000   128.6216     4.6111     4.9890
  233.9000   129.0727     4.8300     5.1209
  234.0000   129.3233     4.9913     5.2563
  234.1000   129.3233     5.1224     5.3491
  234.2000   129.3233     5.2436     5.4576
  234.3000   129.1729     5.3658     5.4849
  234.4000   128.7218     5.4955     5.5594
  234.5000   128.0200     5.5901     5.6278
  234.6000   127.5188     5.6376     5.6773
  234.7000   126.7669     5.7085     5.7744
  234.8000   126.0151     5.7842     5.8136
  234.9000   125.1128     5.8291     5.9004
  235.0000   124.4110     5.9360     5.9596
  235.1000   124.1103     5.9692     5.9945
  235.2000   123.6090     6.0576     6.0381
  235.3000   123.3584     6.1245     6.1077
  235.4000   123.5088     6.1475     6.1494
  235.5000   123.6090     6.1581     6.2097
  235.6000   123.8095     6.2342     6.2595
  235.7000   124.2607     6.2685     6.2961
  235.8000   124.5113     6.3051     6.3415
  235.9000   125.4135     6.3218     6.4159
  236.0000   125.6141     6.3467     6.5047
  236.1000   125.8647     6.4160     6.5047
  236.2000   126.0150     6.4559     6.5284
  236.3000   125.9649     6.4910     6.5828
  236.4000   125.7143     6.5011     6.6516
  236.5000   125.7143     6.5209     6.6899
  236.6000   125.5138     6.5589     6.6899
  236.7000   124.9624     6.5972     6.6899
  236.8000   124.4110     6.6388     6.6899
  236.9000   124.1604     6.6386     6.6899
  237.0000   123.9098     6.6385     6.6899
  237.1000   124.1604     6.6383     6.6899
  237.2000   124.2105     6.6381     6.6899
  237.3000   124.3609     6.6379     6.6899
  237.4000   124.7118     6.6377     6.6664
  237.5000   125.1629     6.6375     6.6431
  237.6000   125.4135     6.6373     6.6354
  237.7000   125.4135     6.6372     6.5966
  237.8000   125.2130     6.6144     6.5584
  237.9000   124.8120     6.5407     6.5202
  238.0000   124.4110     6.4982     6.5047
  238.1000   124.1103     6.4980     6.4899
  238.2000   123.6090     6.4719     6.4521
  238.3000   123.3584     6.4161     6.4140
  238.4000   123.1078     6.3516     6.3405
  238.5000   122.7068     6.3116     6.2669
  238.6000   122.3058     6.2289     6.1942
  238.7000   122.0552     6.1656     6.1088
  238.8000   121.8045     6.0468     6.0087
  238.9000   121.8045     5.9389     5.9373
  239.0000   121.8045     5.8608     5.8367
  239.1000   121.8045     5.7587     5.7097
  239.2000   121.9048     5.6445     5.6150
  239.3000   122.2055     5.5326     5.5498
  239.4000   122.7068     5.4048     5.4799
  239.5000   123.3083     5.2936     5.3816
  239.6000   123.5088     5.2089     5.3512
  239.7000   124.0602     5.1469     5.2729
  239.8000   124.6115     5.0435     5.1983
  239.9000   124.9123     4.9695     5.1272
  240.0000   125.4135     4.9013     5.0380
  240.1000   126.6165     4.8320     4.9468
  240.2000   127.2181     4.7478     4.8918
  240.3000   128.4211     4.6669     4.8138
  240.4000   129.6240     4.6349     4.7607
  240.5000   130.3258     4.6124     4.7234
