~VERSION INFORMATION
 VERS.                2.0:   CWLS LOG ASCII STANDARD - VERSION 2.0
 WRAP.                 NO:   ONE LINE PER DEPTH STEP
~WELL INFORMATION
#MNEM.UNIT      DATA TYPE    INFORMATION
#----------   ------------   ------------------------------
 STRT.F            2.0000:   START DEPTH
 STOP.F          482.0000:   STOP DEPTH
 STEP.F            0.5000:   STEP LENGTH
 NULL.          -999.2500:   NO VALUE
 COMP. LAWRENCE/ALLISON INC:   COMPANY
 WELL.  NPR 3 #67-65-SX-3:   WELL
 FLD .             TEAPOT:   FIELD
 LOC .       S3 T38N R78W:   LOCATION
 CNTY.            NATRONA:   COUNTY
 STAT.            WYOMING:   STATE
 CTRY. UNITED STATES OF AMERICA:   COUNTRY
 SRVC.           Gearhart:   SERVICE COMPANY
 DATE.        13-JUN-1988:   LOGDATE
 API .       490251121900:   API NUMBER
~CURVE INFORMATION
#MNEM.UNIT       API CODE    CURVE DESCRIPTION
#----------   ------------   ------------------------------
 DEPT.F                  :   
 GRR .GAPI   07 310 01 00:   GAMMA RAY FROM RES. LOG.
 ILD .OHMM   07 120 46 00:   INDUCTION LOG DEEP
 ILM .OHMM   07 120 44 00:   INDUCTION LOG MEDIUM
~PARAMETER INFORMATION
#MNEM.UNIT          VALUE    DESCRIPTION
#----------   ------------   ------------------------------
 PD  .                 GL:   PERMANENT DATUM
 EPD .F              5172:   ELEVATION PERMANENT DATUM
 LMF .                 KB:   LOG MEASURED FROM
 DAPD.F                 5:   FEET ABOVE PERMANENT DATUM
 DMF .                 KB:   DRILLING MEASURED FROM
 EKB .F              5177:   KELLING BUSHING
 EGL .F              5172:   GROUND LEVEL
 DATE.            6-13-88:   RUN DATE
 RUN .                  1:   RUN NUMBER
 DD  .F               490:   DEPTH DRILLER
 DL  .F               490:   DEPTH LOGGER
 BLI .F             481.5:   BOTTOM LOG INTERVAL
 TLI .F                40:   TOP LOG INTERVAL
 CS  .IN            8.625:   CASING SIZE
 CBD .F                40:   CASING BOTTOM DRILLER
 CBL .F                40:   CASING BOTTOM LOGGER
 BS  .IN            7.875:   BIT SIZE
 BSD .F               490:   BIT SIZE AT DEPTH
 DFT .                AIR:   DRILLING FLUID TYPE
 TLAB.HRS            2345:   TIME LOGGER AT BOTTOM
 MRT .F                70:   MAXIMUM RECORDED TEMPERATURE
 LUN .               7597:   LOGGING UNIT NUMBER
 LUL .           GILLETTE:   LOGGING UNIT LOCATION
 ENGI.          HUCKFELDT:   RECORDING ENGINEER
 WITN.             STRONG:   WITNESSED BY
 CLNT.            A2DTECH:   CLIENT CODE
 ORIG.       2", 5" PRINT:   ORIGIN OF DATA
 UWI .       490251121900:   UNIQUE WELL ID
 DICO. A2D Technologies, Inc.:   DIGITIZING COMPANY
~OTHER INFORMATION
~A    DEPT      GRR       ILD        ILM   
# ...
  366.0000    74.5768    33.1731    30.5785
  366.5000    73.6682    37.5173    35.6270
  367.0000    72.2297    42.4304    39.3463
  367.5000    71.0373    44.4747    41.0867
  368.0000    71.0464    46.2374    41.7228
  368.5000    72.1422    47.1358    41.7831
  369.0000    73.7870    45.1179    40.5894
  369.5000    75.4398    42.9772    39.3082
  370.0000    77.0904    40.9364    38.2417
  370.5000    78.7566    38.9980    37.6028
  371.0000    79.5511    37.6765    36.9746
  371.5000    79.9930    37.1844    36.3569
  372.0000    79.1343    36.6954    35.7496
  372.5000    77.7307    36.6954    35.6894
  373.0000    75.3171    36.6954    35.6894
  373.5000    73.0026    36.6954    35.5244
  374.0000    73.4972    36.5258    33.9161
  374.5000    76.0617    35.3602    33.5774
  375.0000    78.5680    34.2848    33.0783
  375.5000    79.2343    33.2420    31.8757
  376.0000    79.6725    32.2310    30.7707
  376.5000    80.1100    31.2025    30.3521
  377.0000    80.5501    30.9684    29.9034
  377.5000    80.9918    30.6710    29.4614
  378.0000    81.4323    30.3764    29.0259
  378.5000    82.3081    30.0846    28.5969
  379.0000    83.6198    29.7956    28.1742
  379.5000    84.9294    29.5094    28.0254
  380.0000    86.2424    29.2259    27.7945
  380.5000    86.8917    28.9450    27.5655
  381.0000    86.5609    28.6669    27.3384
  381.5000    85.4022    28.3912    27.1127
  382.0000    85.0531    28.2970    26.8890
  382.5000    84.9683    28.2548    26.7779
  383.0000    85.4025    28.2126    26.9692
  383.5000    86.5789    28.1705    27.1166
  384.0000    85.9882    28.1287    27.2796
  384.5000    84.7142    28.0868    27.0488
  385.0000    83.5770    28.0154    26.7204
  385.5000    83.2108    27.6782    26.3959
  386.0000    84.5160    27.3457    26.0764
  386.5000    84.6505    27.0172    25.9680
  387.0000    84.2028    26.6924    25.8588
  387.5000    84.4422    26.5320    25.7507
  388.0000    85.1703    26.3038    25.6433
  388.5000    85.6943    25.9804    25.3624
  389.0000    85.6855    25.6614    24.6878
  389.5000    85.0105    25.1375    24.0325
  390.0000    83.8425    24.5371    23.3946
  390.5000    85.0791    23.9511    22.7737
  391.0000    87.6514    23.3791    22.1692
  391.5000    90.2193    22.8760    21.6389
  392.0000    90.2105    22.7937    21.6389
  392.5000    89.2140    22.6767    21.6389
  393.0000    88.2129    22.5602    21.6389
  393.5000    88.2738    22.4444    21.6024
  394.0000    88.4670    22.3292    21.4774
  394.5000    88.6614    22.1934    21.1687
  395.0000    88.8379    21.6466    20.6353
  395.5000    89.8577    21.1133    20.1162
  396.0000    90.5256    20.5931    19.6101
  396.5000    90.4391    20.0857    19.1167
  397.0000    89.6413    19.5908    18.6357
  397.5000    88.8298    19.3233    18.1668
  398.0000    88.0209    18.9430    17.7098
  398.5000    87.2982    18.5702    17.3544
  399.0000    87.2993    18.2048    17.0958
  399.5000    88.0808    17.8463    16.8412
  400.0000    88.9507    17.4949    16.5902
  400.5000    89.4880    17.1530    16.3429
  401.0000    87.1605    16.8494    16.0993
  401.5000    84.8010    16.6686    15.8568
  402.0000    84.5409    16.4718    15.6880
  402.5000    86.1676    16.2773    15.4852
  403.0000    88.0088    16.0851    15.2865
  403.5000    90.2748    15.8952    15.0902
  404.0000    91.3104    15.7076    14.8965
  404.5000    91.3309    15.5221    14.7053
  405.0000    91.4253    15.3389    14.5165
  405.5000    92.0852    15.1578    14.3902
  406.0000    92.1378    15.0630    14.3654
  406.5000    90.9019    15.0246    14.3407
  407.0000    89.7038    14.9864    14.3160
  407.5000    89.0492    14.9482    14.2913
  408.0000    89.4964    14.9102    14.2667
  408.5000    89.9233    14.8722    14.2422
  409.0000    90.3534    14.8343    14.2177
  409.5000    90.7825    14.7966    14.1932
  410.0000    91.2106    14.7589    14.1688
  410.5000    91.6311    14.7213    14.1444
  411.0000    92.5993    14.6839    14.1200
  411.5000    93.7110    14.6465    14.0957
  412.0000    94.0909    14.6092    14.0715
  412.5000    94.0070    14.5720    14.0472
  413.0000    93.9126    14.5349    14.0230
  413.5000    93.8227    14.4632    13.9967
  414.0000    93.9497    14.3574    13.8879
  414.5000    95.0455    14.2523    13.7777
  415.0000    96.1221    14.1480    13.6687
  415.5000    97.2017    14.0445    13.5605
  416.0000    97.5336    13.9417    13.4533
  416.5000    97.7037    13.8394    13.3468
  417.0000    98.8071    13.7416    13.2413
  417.5000   100.3923    13.7558    13.1199
  418.0000   102.0047    13.7729    13.1405
  418.5000   103.6652    13.7899    13.1728
  419.0000   101.4901    13.8068    13.2050
  419.5000    98.7369    13.8237    13.2374
  420.0000    97.5255    13.8409    13.2699
  420.5000    98.2780    13.8574    13.3024
  421.0000    99.0002    13.8700    13.3350
  421.5000    99.7401    13.7537    13.3653
  422.0000    99.2731    13.6626    13.2577
  422.5000    96.5654    13.5721    13.1581
  423.0000    93.9087    13.4824    13.0592
  423.5000    93.0071    13.3932    12.9611
  424.0000    95.0156    13.3043    12.8637
  424.5000    96.9408    13.1199    12.7670
  425.0000    98.8354    12.9932    12.6711
  425.5000   100.0809    12.8786    12.4611
  426.0000    99.5372    12.7650    12.3330
  426.5000    99.0341    12.6524    12.2062
  427.0000    98.5779    12.5408    12.0806
  427.5000    98.8942    12.4302    11.9564
  428.0000    99.2324    12.3205    11.8333
  428.5000   100.0830    12.2118    11.7154
  429.0000   101.3985    12.0595    11.5202
  429.5000   102.7102    11.8308    11.3818
  430.0000   103.8466    11.6063    11.0544
  430.5000   102.8963    11.3691    10.6135
  431.0000   102.1999    11.0375    10.4348
  431.5000   102.2486    10.5992    10.3040
  432.0000   103.7972    10.6027    10.1800
  432.5000   105.4670    10.4203     9.9543
  433.0000   107.1447    10.2340     9.5019
  433.5000   108.0975    10.0497     9.0566
  434.0000   108.5372     9.5024     8.2985
  434.5000   108.9413     8.4246     7.5821
  435.0000   110.7040     7.4690     6.9275
  435.5000   114.2997     6.6091     6.3721
  436.0000   119.2363     6.4279     5.8898
  436.5000   124.4892     6.5236     5.4405
  437.0000   129.6796     6.6890     5.3903
  437.5000   132.7776     6.8587     5.8039
  438.0000   124.9801     7.0326     6.1848
  438.5000   118.3773     7.2110     6.5902
  439.0000   111.9790     7.6395     7.1470
  439.5000   109.1348     8.4814     7.7832
  440.0000   106.6644     9.4174     8.4766
  440.5000   105.8127    10.2529     9.2330
  441.0000   106.4841    10.3896    10.0277
  441.5000   107.5041    10.5338    10.1006
  442.0000   107.8549    10.6800    10.1713
  442.5000   107.5456    10.8282    10.2425
  443.0000   105.9611    10.9785    10.3111
  443.5000   105.4583    11.2203    10.4924
  444.0000   106.1825    11.4843    10.7796
  444.5000   109.4799    11.7545    11.0747
  445.0000   111.0297    12.0311    11.3779
  445.5000   111.5195    12.3142    11.6894
  446.0000   110.3278    12.6040    12.0094
  446.5000   109.0739    12.9005    12.3075
  447.0000   108.6369    13.2041    12.5776
  447.5000   108.2401    13.5151    12.8536
  448.0000   107.8109    13.8332    13.1358
  448.5000   106.6903    14.1302    13.4243
  449.0000   105.5879    14.1588    13.7187
  449.5000   105.0579    14.1851    13.8930
  450.0000   103.5896    14.2114    13.9375
  450.5000   101.8890    14.2381    13.9824
  451.0000   103.0490    14.2648    14.0277
  451.5000   104.1683    14.2916    14.0730
  452.0000   103.2960    14.3184    14.1292
  452.5000   102.2693    14.3454    14.0904
  453.0000   101.3805    14.3721    14.0397
  453.5000   101.7215    14.3929    13.9889
  454.0000   102.1634    14.3262    13.9384
  454.5000   102.6188    14.2701    13.8881
  455.0000   103.0689    14.2142    13.8379
  455.5000   103.3310    14.1586    13.7881
  456.0000   102.7491    14.1033    13.7417
  456.5000   102.2689    14.0481    13.6958
