~VERSION INFORMATION
 VERS.                2.0:   CWLS LOG ASCII STANDARD - VERSION 2.0
 WRAP.                 NO:   ONE LINE PER DEPTH STEP
~WELL INFORMATION
#MNEM.UNIT      DATA TYPE    INFORMATION
#----------   ------------   ------------------------------
 STRT.F           38.0000:   START DEPTH
 STOP.F          818.0000:   STOP DEPTH
 STEP.F            0.5000:   STEP LENGTH
 NULL.          -999.2500:   NO VALUE
 COMP. FENIX & SCISSON INC:   COMPANY
 WELL. NAVAL PETROLEUM RESERVE 3 SX-1 #32-14:   WELL
 FLD .             TEAPOT:   FIELD
 LOC .      S14 T38N R78W:   LOCATION
 CNTY.            NATRONA:   COUNTY
 STAT.            WYOMING:   STATE
 CTRY. UNITED STATES OF AMERICA:   COUNTRY
 SRVC.            Unknown:   SERVICE COMPANY
 DATE.        03-MAY-1978:   LOGDATE
 API .       490251061900:   API NUMBER
~CURVE INFORMATION
#MNEM.UNIT       API CODE    CURVE DESCRIPTION
#----------   ------------   ------------------------------
 DEPT.F                  :   
 SPR .MV     05 010 01 00:   SPONTANEOUS POTENTIAL FROM RES.
 ILD .OHMM   05 120 46 00:   INDUCTION LOG DEEP
 SN  .OHMM   05 040 16 00:   SHORT NORMAL 16"
 CALD.IN     45 280 60 00:   CALIPER
 GRD .GAPI   45 310 01 00:   GAMMA RAY FROM DENSITY LOG
 RHOB.G/C3   45 350 01 00:   BULK DENSITY
 DPHI.DEC    45 890 12 00:   DENSITY POROSITY SANDSTONE
 CORR.G/C3   45 356 01 00:   DENSITY CORRECTION
~PARAMETER INFORMATION
#MNEM.UNIT          VALUE    DESCRIPTION
#----------   ------------   ------------------------------
 PD  .                 GL:   PERMANENT DATUM
 EPD .F              5209:   ELEVATION PERMANENT DATUM
 LMF .                 KB:   LOG MEASURED FROM
 DAPD.F                 4:   FEET ABOVE PERMANENT DATUM
 DMF .                 KB:   DRILLING MEASURED FROM
 EKB .F              5213:   KELLING BUSHING
 EGL .F              5209:   GROUND LEVEL
 DATE.           5-3-1978:   RUN DATE
 RUN .                  1:   RUN NUMBER
 DD  .F               806:   DEPTH DRILLER
 DL  .F               824:   DEPTH LOGGER
 BLI .F               818:   BOTTOM LOG INTERVAL
 TLI .F                50:   TOP LOG INTERVAL
 CS  .IN            8.625:   CASING SIZE
 CBD .F                40:   CASING BOTTOM DRILLER
 BS  .IN            7.875:   BIT SIZE
 BSD .F               806:   BIT SIZE AT DEPTH
 DFT .                KCL:   DRILLING FLUID TYPE
 DFD .                8.6:   DRILLING FLUID DENSITY
 DFV .                 34:   DRILLING FLUID VISCOSITY
 DFPH.                  9:   DRILLING FLUID PH
 DFL .               16.4:   DRILLING FLUID LOSS
 MSS .           FLOWLINE:   MUD SAMPLE SOURCE
 RMS .OHMM            .75:   RESISTIVITY MUD SAMPLE
 MST .F                52:   MUD SAMPLE TEMPERATURE
 RMF .OHMM            .65:   RESISTIVITY MUD FILTRATE SAMPLE
 MFST.F                60:   MUD FILTRATE SAMPLE TEMPERATURE
 RMC .OHMM            1.2:   RESISTIVITY MUD CAKE
 MCST.F                62:   MUD CAKE SAMPLE TEMPERATURE
 MFSS.               MEAS:   MUD FILTRATE SAMPLE SOURCE
 RMB .OHMM            .54:   RESISTIVITY MUD AT BHT
 BHT .F                72:   BOTTOM HOLE TEMPERATURE
 TCS .HRS               1:   TIME CURCULATED STOPPED
 MRT .F                72:   MAXIMUM RECORDED TEMPERATURE
 LUN .               2958:   LOGGING UNIT NUMBER
 LUL .               CASP:   LOGGING UNIT LOCATION
 ENGI.             MILLER:   RECORDING ENGINEER
 WITN.           MCGINLEY:   WITNESSED BY
 CLNT.            A2DTECH:   CLIENT CODE
 ORIG.           5" PRINT:   ORIGIN OF DATA
 UWI .       490251061900:   UNIQUE WELL ID
 DICO. A2D Technologies, Inc.:   DIGITIZING COMPANY
~OTHER INFORMATION
~A   DEPT      SPR        ILD         SN         CALD      GRD       RHOB       DPHI       CORR   
# ...
   78.5000   -37.8265     3.5910     3.1398    11.0661    69.9900     2.3197     0.2005     0.0928
   79.0000   -37.7075     3.8559     3.3039    10.5811    76.9506     2.3634     0.1846     0.0515
   79.5000   -37.5809     4.1309     3.8521    10.0586    64.6084     2.3630     0.1849     0.0444
   80.0000   -37.8337     4.3957     4.0743     9.5382    63.7972     2.3920     0.1900     0.0444
   80.5000   -38.2497     4.9457     4.3086     9.2347    62.8026     2.3726     0.1979     0.0393
   81.0000   -38.3461     5.2545     4.5544     9.2257    60.3432     2.3648     0.1997     0.0333
   81.5000   -38.3494     5.5851     4.7756     9.2052    57.1506     2.3637     0.1995     0.0274
   82.0000   -38.3476     5.6572     4.9371     9.1094    53.9291     2.3735     0.1986     0.0215
   82.5000   -38.2482     5.7529     5.1110     8.9156    50.7086     2.3709     0.1979     0.0191
   83.0000   -37.6820     5.8483     5.2913     8.8588    48.6607     2.3684     0.1972     0.0206
   83.5000   -37.1618     6.0441     5.4682     8.9089    48.2561     2.3674     0.1962     0.0220
   84.0000   -37.1485     6.2425     5.6226     9.1904    49.2190     2.3654     0.1930     0.0234
   84.5000   -37.1509     6.4473     5.7806     9.2988    51.6927     2.3713     0.1877     0.0249
   85.0000   -37.1514     6.5846     5.9433     9.2984    55.2189     2.3846     0.1815     0.0263
   85.5000   -36.9448     6.6624     6.1239     9.3339    58.7429     2.3976     0.1762     0.0277
   86.0000   -36.5363     6.7147     6.1239     9.4451    64.2519     2.4050     0.1713     0.0292
   86.5000   -36.4322     6.6938     6.0738     9.5508    65.7303     2.4127     0.1690     0.0307
   87.0000   -36.5646     6.6781     6.0301     9.5074    66.8792     2.4142     0.1759     0.0327
   87.5000   -36.6968     6.6624     5.9866     9.4557    67.5995     2.4021     0.1774     0.0367
   88.0000   -37.1979     6.6015     5.9440     9.4553    67.5978     2.4026     0.1758     0.0530
   88.5000   -37.7745     6.4799     5.9019     9.5771    67.5878     2.4049     0.1803     0.0516
   89.0000   -37.8283     6.3529     5.7862     9.6961    65.9534     2.4029     0.1904     0.0431
   89.5000   -37.8915     6.2244     5.6756     9.7337    64.0081     2.3842     0.1994     0.0349
   90.0000   -37.9479     6.0975     5.5676     9.5987    58.3066     2.3643     0.2083     0.0313
   90.5000   -37.9485     5.9827     5.4616     9.3575    52.6073     2.3451     0.2120     0.0293
   91.0000   -37.9483     5.8898     5.2846     9.3368    49.2970     2.3434     0.2095     0.0274
   91.5000   -37.9478     5.7128     5.0853     9.3359    49.0303     2.3455     0.2069     0.0254
   92.0000   -37.9461     5.4740     4.8941     9.3591    49.5181     2.3549     0.2044     0.0235
   92.5000   -37.9588     5.2451     4.7101     9.5238    51.3284     2.3625     0.2019     0.0215
   93.0000   -38.2847     5.0259     4.5330     9.7083    54.8184     2.3623     0.2007     0.0195
   93.5000   -38.5326     4.8644     4.3624     9.8401    58.2881     2.3585     0.2001     0.0186
   94.0000   -38.4325     4.8644     4.1984     9.9061    61.6243     2.3496     0.1994     0.0342
   94.5000   -38.3395     4.8642     4.0827    10.2315    63.8427     2.3511     0.1975     0.0499
   95.0000   -38.2470     4.8642     4.0827    10.3812    65.4230     2.3610     0.1915     0.0502
   95.5000   -38.1546     4.8643     4.0824    10.0551    66.5206     2.3755     0.1858     0.0606
   96.0000   -38.0621     4.9145     4.2230     9.8960    66.8288     2.4090     0.1812     0.0734
   96.5000   -37.9672     5.0104     4.5012     9.9052    65.8670     2.4406     0.1765     0.0483
   97.0000   -37.9482     5.1083     4.7980     9.9163    64.9257     2.4283     0.1722     0.0226
   97.5000   -37.9479     5.2003     4.8644     9.6642    64.0631     2.4039     0.1793     0.0137
   98.0000   -37.9482     5.2848     4.8481     9.3266    63.4687     2.3967     0.1806     0.0116
   98.5000   -37.9482     5.2603     4.8319     9.3774    62.8783     2.4017     0.1742     0.0097
   99.0000   -37.9484     5.2214     4.8115     9.4700    62.3163     2.4061     0.1802     0.0078
   99.5000   -37.9481     5.1828     4.7779     9.5392    61.0019     2.4006     0.1849     0.0067
  100.0000   -37.9321     5.1408     4.7448     9.5898    60.0136     2.3829     0.1876     0.0077
  100.5000   -37.8637     5.1750     4.7119     9.6332    59.9949     2.3828     0.1893     0.0086
  101.0000   -37.8005     5.2140     4.6792     9.8542    59.5304     2.3837     0.1889     0.0095
  101.5000   -37.8819     5.2526     4.6455    10.0590    58.7967     2.3845     0.1929     0.0104
  102.0000   -38.7229     5.2848     4.5339     9.9248    57.4928     2.3791     0.1982     0.0094
  102.5000   -39.0050     5.1313     4.4207     9.6245    56.2739     2.3701     0.2035     0.0083
  103.0000   -39.2167     4.9185     4.2651     9.3265    56.2449     2.3581     0.2089     0.0072
  103.5000   -39.3606     4.5771     4.0535     9.0997    56.1343     2.3362     0.2329     0.0062
  104.0000   -39.7699     4.1328     3.8639     9.0773    55.1488     2.3155     0.2532     0.0051
  104.5000   -40.1371     3.7316     3.4656     9.0838    51.8492     2.2905     0.2735     0.0071
  105.0000   -40.1019     3.3694     3.1258     9.0930    49.5729     2.2578     0.2882     0.0131
  105.5000   -39.9674     2.9553     2.7998     9.1024    49.5840     2.2251     0.2828     0.0190
  106.0000   -39.8357     2.9561     2.7214     9.1120    50.7229     2.1907     0.2655     0.0249
  106.5000   -39.7043     3.0697     2.7282     9.1167    52.9763     2.1829     0.2482     0.0309
  107.0000   -39.5733     3.0692     2.7433     9.0561    56.1211     2.2087     0.2309     0.0344
  107.5000   -39.4417     3.0692     2.7585     8.9309    59.5734     2.2695     0.2127     0.0354
  108.0000   -39.2890     3.1263     2.7735     8.7046    63.5495     2.3304     0.1904     0.0362
  108.5000   -39.0440     3.4469     3.0647     8.4762    64.8788     2.3765     0.1802     0.0398
  109.0000   -38.8023     3.9685     3.5618     8.3871    65.6924     2.3931     0.1905     0.0452
  109.5000   -38.5574     4.3656     4.0628     8.5327    66.4921     2.3828     0.1901     0.0569
  110.0000   -38.5594     4.6943     4.2367     8.8403    66.8187     2.3851     0.1810     0.0696
  110.5000   -38.6100     4.9094     4.2322     9.1477    66.4303     2.3939     0.1774     0.0760
  111.0000   -38.6589     4.8891     4.2280     9.2039    65.5152     2.3995     0.1815     0.0694
  111.5000   -38.7074     4.8044     4.2239     9.2360    64.0503     2.3865     0.1875     0.0626
  112.0000   -38.7547     4.7166     4.2198     9.2587    61.9400     2.3832     0.1926     0.0525
  112.5000   -38.7992     4.6285     4.2156     9.2623    59.3316     2.3763     0.1978     0.0418
  113.0000   -38.8434     4.5601     4.2115     9.2663    55.8455     2.3690     0.2036     0.0312
  113.5000   -38.8877     4.5602     4.2073     9.2707    50.9169     2.3591     0.2073     0.0224
  114.0000   -38.9319     4.5606     4.2033     9.2739    49.1286     2.3524     0.2077     0.0203
  114.5000   -38.9762     4.5608     4.1992     9.2396    49.0910     2.3508     0.2078     0.0194
  115.0000   -39.0205     4.5609     4.1519     9.0755    50.0226     2.3498     0.2079     0.0184
  115.5000   -39.0652     4.5602     4.0597     8.9183    53.0105     2.3497     0.2081     0.0223
  116.0000   -39.1111     4.5637     3.9695     8.9188    56.2825     2.3508     0.2062     0.0253
  116.5000   -39.1339     4.3164     3.8813     9.0898    59.5476     2.3519     0.2070     0.0283
  117.0000   -38.8445     4.1133     3.7934     9.2930    62.4934     2.3502     0.2106     0.0312
  117.5000   -38.5560     3.9130     3.6005     9.4594    64.8069     2.3426     0.2142     0.0343
  118.0000   -38.5183     3.7219     3.4138     9.3905    66.3048     2.3371     0.2181     0.0376
  118.5000   -39.1008     3.6220     3.2436     9.2263    66.5972     2.3278     0.2235     0.0409
