~VERSION INFORMATION
 VERS.                2.0:   CWLS LOG ASCII STANDARD - VERSION 2.0
 WRAP.                 NO:   ONE LINE PER DEPTH STEP
~WELL INFORMATION
#MNEM.UNIT      DATA TYPE    INFORMATION
#----------   ------------   ------------------------------
 STRT.F           24.5000:   START DEPTH
 STOP.F          576.0000:   STOP DEPTH
 STEP.F            0.5000:   STEP LENGTH
 NULL.          -999.2500:   NO VALUE
 COMP. FENIX & SCISSON INC:   COMPANY
 WELL.    NPR-3 SX #61-15:   WELL
 FLD .             TEAPOT:   FIELD
 LOC .      S15 T38N R78W:   LOCATION
 CNTY.            NATRONA:   COUNTY
 STAT.            WYOMING:   STATE
 CTRY. UNITED STATES OF AMERICA:   COUNTRY
 SRVC.            Unknown:   SERVICE COMPANY
 DATE.        29-MAY-1978:   LOGDATE
 API .       490251062300:   API NUMBER
~CURVE INFORMATION
#MNEM.UNIT       API CODE    CURVE DESCRIPTION
#----------   ------------   ------------------------------
 DEPT.F                  :   
 GRD .GAPI   45 310 01 00:   GAMMA RAY FROM DENSITY LOG
 CALD.IN     45 280 60 00:   CALIPER FROM DENSITY LOG
 SN  .OHMM   05 040 16 00:   SHORT NORMAL 16'
 SPR .MV     05 010 01 00:   SPONTANEOUS POTENTIAL
 ILD .OHMM   05 120 46 00:   INDUCTION LOG DEEP
 RHOB.G/C3   45 350 01 00:   BULK DENSITY
 DPHI.DEC    45 890 12 00:   DENSITY POROSITY SANDSTONE
 CORR.G/C3   45 356 01 00:   DENSITY CORRECTION
~PARAMETER INFORMATION
#MNEM.UNIT          VALUE    DESCRIPTION
#----------   ------------   ------------------------------
 PD  .                 GL:   PERMANENT DATUM
 EPD .F              5221:   ELEVATION PERMANENT DATUM
 LMF .                 KB:   LOG MEASURED FROM
 DAPD.F                 4:   FEET ABOVE PERMANENT DATUM
 DMF .                 KB:   DRILLING MEASURED FROM
 EKB .F              5225:   KELLING BUSHING
 EGL .F              5221:   GROUND LEVEL
 DATE.          5-29-1978:   RUN DATE
 RUN .                  1:   RUN NUMBER
 DD  .F               565:   DEPTH DRILLER
 DL  .F               578:   DEPTH LOGGER
 BLI .F               570:   BOTTOM LOG INTERVAL
 TLI .F                40:   TOP LOG INTERVAL
 CS  .IN            8.625:   CASING SIZE
 CBD .F                40:   CASING BOTTOM DRILLER
 CBL .F                40:   CASING BOTTOM LOGGER
 BS  .IN            7.875:   BIT SIZE
 BSD .F               565:   BIT SIZE AT DEPTH
 DFT .                KCL:   DRILLING FLUID TYPE
 DFD .                8.7:   DRILLING FLUID DENSITY
 DFV .                 34:   DRILLING FLUID VISCOSITY
 DFPH.                9.5:   DRILLING FLUID PH
 DFL .               10.4:   DRILLING FLUID LOSS
 BHT .F                76:   BOTTOM HOLE TEMPERATURE
 TCS .HRS               3:   TIME CURCULATED STOPPED
 MRT .F                76:   MAXIMUM RECORDED TEMPERATURE
 LUN .               2958:   LOGGING UNIT NUMBER
 LUL .              CASP.:   LOGGING UNIT LOCATION
 ENGI.             MILLER:   RECORDING ENGINEER
 WITN.           MCGINLEY:   WITNESSED BY
 CLNT.            A2DTECH:   CLIENT CODE
 ORIG.      2" , 5" PRINT:   ORIGIN OF DATA
 UWI .       490251062300:   UNIQUE WELL ID
 DICO. A2D Technologies, Inc.:   DIGITIZING COMPANY
~OTHER INFORMATION
~A   DEPT       GRD      CALD         SN        SPR        ILD       RHOB       DPHI       CORR   
# ...
  389.0000    44.3145     8.0063    16.9474   -20.8381    29.1057     2.3838     0.1651     0.2543
  389.5000    48.4953     8.0577    16.9474   -20.7850    28.7250     2.3851     0.1608     0.2732
  390.0000    52.9846     8.0200    17.0506   -20.6002    28.3712     2.3969     0.1576     0.2684
  390.5000    57.2960     7.9806    17.2117   -20.4177    26.8474     2.4110     0.1411     0.2561
  391.0000    57.3783     7.9405    17.3743   -20.2356    24.6422     2.4253     0.1260     0.2439
  391.5000    57.2548     7.8794    17.4217   -20.0532    22.7626     2.4397     0.1381     0.2282
  392.0000    58.0982     7.8091    17.4217   -19.8642    20.9416     2.4478     0.1652     0.1898
  392.5000    59.4342     7.7403    17.4216   -19.7777    20.7498     2.4195     0.1923     0.1363
  393.0000    60.8022     7.7063    17.4217   -19.6956    20.7498     2.3842     0.2069     0.0833
  393.5000    60.9464     7.6746    17.4217   -19.6144    21.4538     2.3490     0.2146     0.0533
  394.0000    59.5265     7.5926    17.4217   -19.5329    22.2616     2.3145     0.2229     0.0434
  394.5000    57.7241     7.5156    17.4217   -19.4503    23.0994     2.3044     0.2297     0.0329
  395.0000    58.3726     7.4809    17.4216   -19.4393    23.3910     2.2932     0.2298     0.0331
  395.5000    60.1184     7.4793    17.4215   -19.4641    23.2481     2.2897     0.2192     0.0377
  396.0000    61.8637     7.4452    17.4428   -19.4897    23.1721     2.2958     0.2030     0.0424
  396.5000    61.5897     7.4087    17.4727   -19.5152    23.4131     2.3065     0.1781     0.0402
  397.0000    57.3547     7.3852    17.5026   -19.5407    23.8713     2.3128     0.1637     0.0361
  397.5000    52.7465     7.4075    17.5325   -19.5662    24.3360     2.3189     0.1546     0.0346
  398.0000    53.6025     7.4299    17.5625   -19.5918    24.7114     2.3245     0.1496     0.0358
  398.5000    54.8350     7.4524    17.5926   -19.6176    24.1576     2.3019     0.1485     0.0349
  399.0000    55.1331     7.4749    17.6227   -19.6216    23.7087     2.2859     0.1518     0.0269
  399.5000    54.9898     7.4975    17.6529   -19.6216    23.3863     2.2825     0.1551     0.0245
  400.0000    54.8364     7.5201    17.6831   -19.6215    23.8149     2.2967     0.1583     0.0315
  400.5000    54.6734     7.5417    17.7132   -19.6215    24.2551     2.3047     0.1587     0.0474
  401.0000    54.8396     7.4729    17.7507   -19.6215    24.7035     2.3007     0.1509     0.0464
  401.5000    55.1117     7.3816    17.7594   -19.6215    25.1727     2.3000     0.1521     0.0464
  402.0000    55.7373     7.3336    17.5827   -19.6215    25.1727     2.3232     0.1529     0.0524
  402.5000    56.6487     7.4306    17.2407   -19.6215    24.3212     2.3733     0.1416     0.0949
  403.0000    57.1504     7.5260    16.9040   -19.6215    23.4953     2.3978     0.1299     0.1384
  403.5000    56.5747     7.6223    16.5739   -19.6215    22.7496     2.3454     0.1244     0.1387
  404.0000    55.4810     7.6591    16.2503   -19.6215    22.5693     2.3069     0.1277     0.1349
  404.5000    54.5893     7.6504    15.9330   -19.6215    22.3050     2.2693     0.1386     0.1408
  405.0000    54.0606     7.6391    15.6216   -19.6215    22.0439     2.2607     0.1495     0.1564
  405.5000    54.5451     7.6286    15.3160   -19.6215    21.7858     2.2687     0.1601     0.1724
  406.0000    56.3421     7.6127    15.0183   -19.6215    21.5307     2.3182     0.1633     0.2057
  406.5000    58.6617     7.7150    14.8990   -19.6215    21.2786     2.3900     0.1594     0.2585
  407.0000    61.9436     7.7866    14.9308   -19.6216    20.7155     2.4625     0.1535     0.2362
  407.5000    66.0029     7.6795    14.9535   -19.6215    19.7622     2.4710     0.1477     0.2086
  408.0000    64.4328     7.5694    14.9763   -19.6158    18.8528     2.4495     0.1418     0.1770
  408.5000    61.9881     7.4582    14.9990   -19.5886    17.9093     2.4379     0.1372     0.1019
  409.0000    59.5304     7.3443    15.0219   -19.5621    17.5827     2.4362     0.1388     0.0903
  409.5000    59.0977     7.3207    15.0516   -19.5357    17.5827     2.4345     0.1448     0.0823
  410.0000    58.7092     7.3204    15.0947   -19.5092    17.4217     2.4310     0.1500     0.0805
  410.5000    58.2966     7.3208    15.1379   -19.4828    17.4217     2.4219     0.1444     0.0859
  411.0000    58.4344     7.3207    15.1812   -19.4564    17.2621     2.4118     0.1385     0.0962
  411.5000    60.6662     7.3136    15.2246   -19.4299    17.2621     2.3912     0.1325     0.1064
  412.0000    63.1949     7.2758    15.2681   -19.4035    17.4217     2.3692     0.1295     0.1106
  412.5000    65.7225     7.2418    15.3160   -19.3770    17.5827     2.3378     0.1330     0.1099
  413.0000    67.8397     7.2400    15.4576   -19.3506    18.5558     2.3069     0.1356     0.1089
  413.5000    67.9355     7.2943    15.6921   -19.3242    20.1617     2.2865     0.1438     0.1081
  414.0000    64.4802     7.3720    16.0189   -19.2978    21.9066     2.2938     0.1519     0.1172
  414.5000    60.6193     7.4507    16.3524   -19.2734    23.8025     2.5360     0.1549     0.1902
  415.0000    60.9800     7.5294    16.6930   -19.2591    25.4054     2.5911     0.1226     0.2648
  415.5000    62.1620     7.6070    17.0406   -19.1443    25.8772     2.5646     0.0968     0.2894
  416.0000    63.3770     7.6602    17.3954   -18.2550    25.5613     2.5495     0.0872     0.2643
  416.5000    62.3813     7.6592    17.5827    -5.9889    25.2620     2.4948     0.0908     0.2462
  417.0000    60.5306     7.6548    17.4217     0.1932    24.9663     2.4306     0.1020     0.2643
  417.5000    58.6689     7.6499    17.2621     0.3153    24.6740     2.4130     0.1136     0.2839
  418.0000    56.8615     7.6451    16.8088     0.3210    24.0409     2.4049     0.1236     0.3037
  418.5000    58.6322     7.6403    16.3404     0.3196    21.8723     2.4106     0.1236     0.3099
  419.0000    61.5618     7.6355    15.8850     0.3308    19.8121     2.4367     0.0748     0.3057
  419.5000    64.5128     7.6307    15.4422     0.3419    17.9459     2.4397     0.0459     0.3008
  420.0000    67.4654     7.6257    15.0119     0.3530    16.2555     2.4744     0.1076     0.2904
  420.5000    70.1486     7.6202    14.5935     0.3642    16.0306     2.6029     0.1396     0.1830
  421.0000    70.1943     7.5973    14.1868     0.3753    16.1031     2.5079     0.1363     0.0690
  421.5000    70.1820     7.6285    13.7149     0.3864    16.1683     2.4362     0.1371     0.0421
  422.0000    70.1801     7.6620    13.5893     0.3975    16.2323     2.4334     0.1384     0.0400
  422.5000    70.1847     7.6951    13.5893     0.4087    16.2962     2.4323     0.1384     0.0447
  423.0000    70.1746     7.7282    13.5589     0.4198    16.3604     2.4311     0.1396     0.0499
  423.5000    69.5076     7.7612    13.5203     0.4309    16.4246     2.4300     0.1462     0.0459
  424.0000    67.7245     7.7943    13.4817     0.4420    16.4859     2.4286     0.1524     0.0406
  424.5000    65.9000     7.8273    13.4433     0.4532    16.4078     2.4208     0.1565     0.0366
  425.0000    65.6628     7.8604    13.4049     0.4643    16.2902     2.4133     0.1561     0.0346
  425.5000    69.7945     7.8935    13.3667     0.4754    16.1733     2.4075     0.1529     0.0353
  426.0000    72.7221     7.9265    13.3286     0.4865    16.0573     2.4071     0.1446     0.0414
  426.5000    73.3326     7.9569    13.2906     0.4977    15.9422     2.4186     0.1382     0.0477
  427.0000    73.1740     7.9370    13.2527     0.5088    15.8278     2.4316     0.1394     0.0489
  427.5000    71.5612     7.9380    13.2149     0.5199    15.7143     2.4332     0.1404     0.0441
  428.0000    68.8861     7.9383    13.1773     0.5311    15.6016     2.4307     0.1428     0.0392
  428.5000    66.2948     7.9382    13.1397     0.5422    15.4897     2.4283     0.1452     0.0344
  429.0000    64.9143     7.9382    13.1022     0.5533    15.3787     2.4259     0.1452     0.0304
