~VERSION INFORMATION
 VERS.                2.0:   CWLS LOG ASCII STANDARD - VERSION 2.0
 WRAP.                 NO:   ONE LINE PER DEPTH STEP
~WELL INFORMATION
#MNEM.UNIT      DATA TYPE    INFORMATION
#----------   ------------   ------------------------------
 STRT.F           32.5000:   START DEPTH
 STOP.F          654.0000:   STOP DEPTH
 STEP.F            0.5000:   STEP LENGTH
 NULL.          -999.2500:   NO VALUE
 COMP. FENIX & SCISSON INC:   COMPANY
 WELL.          NPR #13-2:   WELL
 FLD .             TEAPOT:   FIELD
 LOC .       S2 T38N R78W:   LOCATION
 CNTY.            NATRONA:   COUNTY
 STAT.            WYOMING:   STATE
 CTRY. UNITED STATES OF AMERICA:   COUNTRY
 SRVC.           BIRDWELL:   SERVICE COMPANY
 DATE.        16-JAN-1978:   LOGDATE
 API .       490251055100:   API NUMBER
~CURVE INFORMATION
#MNEM.UNIT       API CODE    CURVE DESCRIPTION
#----------   ------------   ------------------------------
 DEPT.F                  :   
 ILD .OHMM   05 120 46 00:   INDUCTION LOG DEEP
 SN  .OHMM   05 040 16 00:   SHORT NORMAL 16"
 SPR .MV     05 010 01 00:   SPONTANEOUS POTENTIAL FROM RES.
 CALD.IN     45 280 60 00:   CALIPER FROM DENSITY LOG
 CORR.G/C3   45 356 01 00:   DENSITY CORRECTION
 DPHI.DEC    45 890 12 00:   DENSITY POROSITY SANDSTONE
 GRD .GAPI   45 310 01 00:   GAMMA RAY FROM DENSITY LOG
 RHOB.G/C3   45 350 01 00:   BULK DENSITY
~PARAMETER INFORMATION
#MNEM.UNIT          VALUE    DESCRIPTION
#----------   ------------   ------------------------------
 PD  .                 GL:   PERMANENT DATUM
 EPD .F              5091:   ELEVATION PERMANENT DATUM
 LMF .                 KB:   LOG MEASURED FROM
 DAPD.F                 4:   FEET ABOVE PERMANENT DATUM
 DMF .                 KB:   DRILLING MEASURED FROM
 EKB .F              5095:   KELLING BUSHING
 EGL .F              5091:   GROUND LEVEL
 DATE.        16-JAN-1978:   RUN DATE
 RUN .                  1:   RUN NUMBER
 DD  .F               652:   DEPTH DRILLER
 DL  .F               654:   DEPTH LOGGER
 BLI .F               649:   BOTTOM LOG INTERVAL
 TLI .F                30:   TOP LOG INTERVAL
 CS  .IN            8.625:   CASING SIZE
 CBD .F                20:   CASING BOTTOM DRILLER
 CBL .F                34:   CASING BOTTOM LOGGER
 BS  .IN            7.875:   BIT SIZE
 BSD .F               652:   BIT SIZE AT DEPTH
 DFT .                KCL:   DRILLING FLUID TYPE
 DFD .                8.7:   DRILLING FLUID DENSITY
 DFV .                 34:   DRILLING FLUID VISCOSITY
 DFPH.                 10:   DRILLING FLUID PH
 MSS .           FLOWLINE:   MUD SAMPLE SOURCE
 RMS .OHMM            0.3:   RESISTIVITY MUD SAMPLE
 MST .F                62:   MUD SAMPLE TEMPERATURE
 RMF .OHMM           0.26:   RESISTIVITY MUD FILTRATE SAMPLE
 MFST.F                66:   MUD FILTRATE SAMPLE TEMPERATURE
 RMC .OHMM           0.48:   RESISTIVITY MUD CAKE
 MCST.F                66:   MUD CAKE SAMPLE TEMPERATURE
 MFSS.               MEAS:   MUD FILTRATE SAMPLE SOURCE
 MCSS.               MEAS:   MUD CAKE SAMPLE SOURCE
 RMB .OHMM           0.26:   RESISTIVITY MUD AT BHT
 BHT .F                72:   BOTTOM HOLE TEMPERATURE
 TCS .HRS               3:   TIME CURCULATED STOPPED
 MRT .F                72:   MAXIMUM RECORDED TEMPERATURE
 LUN .               3027:   LOGGING UNIT NUMBER
 LUL .                GJT:   LOGGING UNIT LOCATION
 ENGI.           MARTINEZ:   RECORDING ENGINEER
 WITN.         HARRINGTON:   WITNESSED BY
 CLNT.            A2DTECH:   CLIENT CODE
 ORIG.           5" PRINT:   ORIGIN OF DATA
 UWI .       490251055100:   UNIQUE WELL ID
 DICO. A2D Technologies, Inc.:   DIGITIZING COMPANY
~OTHER INFORMATION
~A   DEPT      ILD         SN        SPR       CALD       CORR       DPHI         GRD      RHOB   
# ...
  113.5000     9.7986    10.9465   -32.7609     8.6879     0.0991     0.1191    85.1838     2.4593
  114.0000    10.0060    11.0997   -32.3061     8.7036     0.1006     0.1164    85.9398     2.4653
  114.5000    10.2178    11.1005   -32.0014     8.7043     0.1036     0.1129    90.7679     2.4698
  115.0000    10.2198    11.1782   -31.6967     8.7052     0.1081     0.1111    93.4843     2.4742
  115.5000    10.2219    11.1789   -31.2117     8.7060     0.1141     0.1105    92.5808     2.4742
  116.0000    10.0835    11.2572   -30.7859     8.6915     0.1216     0.1123    90.1690     2.4712
  116.5000    10.0108    11.1035   -30.7815     8.6775     0.1246     0.1111    87.4555     2.4750
  117.0000     9.7453    10.9518   -30.6270     8.6782     0.1184     0.1087    84.8366     2.4803
  117.5000     9.5472    10.8022   -30.6226     8.6488     0.1156     0.1072    81.2142     2.4862
  118.0000     9.4175    10.5008   -30.6182     8.6198     0.1186     0.1078    79.6172     2.4832
  118.5000     9.2905    10.0608   -30.4636     8.6056     0.1141     0.1111    79.1658     2.4712
  119.0000     9.1643     9.9447   -30.3091     8.5913     0.1006     0.1180    79.9218     2.4622
  119.5000     9.0402     9.9455   -30.1545     8.5771     0.0856     0.1198    83.9957     2.4652
  120.0000     9.1053     9.9462   -30.1502     8.5778     0.0811     0.1222    85.0530     2.4697
  120.5000     9.2339    10.0159   -29.9955     8.5636     0.0796     0.1159    85.0544     2.4592
  121.0000     9.3648    10.1559   -29.9901     8.5645     0.0826     0.1279    85.0559     2.4516
  121.5000     9.5627    10.2979   -29.6854     8.5652     0.0826     0.1321    85.0574     2.4471
  122.0000     9.7655    10.4419   -29.5309     8.5660     0.0766     0.1315    85.6622     2.4426
  122.5000     9.9722    10.6613   -29.3763     8.5817     0.0661     0.1312    86.5687     2.4411
  123.0000    10.0435    10.8854   -29.0716     8.5824     0.0661     0.1309    86.5661     2.4418
  123.5000    10.1152    10.9618   -28.9171     8.5831     0.0676     0.1309    85.3369     2.4418
  124.0000    10.2581    11.0385   -28.7625     8.5988     0.0676     0.1357    84.2846     2.4394
  124.5000    10.2602    11.1158   -28.4578     8.5996     0.0661     0.1384    83.5583     2.4366
  125.0000    10.2623    11.1165   -28.1532     8.6003     0.0646     0.1303    82.6548     2.4358
  125.5000    10.2644    11.1173   -28.1486     8.6310     0.0646     0.1219    82.2035     2.4456
  126.0000    10.2665    11.1180   -28.1433     8.6343     0.0676     0.1183    82.8086     2.4561
  126.5000    10.2686    11.1959   -27.9887     8.6626     0.0646     0.1201    82.9609     2.4613
  127.0000    10.1998    11.1966   -27.9843     8.6932     0.0586     0.1194    83.8674     2.4621
  127.5000    10.1321    11.1974   -27.9799     8.6940     0.0480     0.1171    84.4722     2.4620
  128.0000    10.1341    11.1982   -27.9755     8.7097     0.0375     0.1159    83.8704     2.4590
  128.5000    10.1362    11.1991   -27.8210     8.7254     0.0283     0.1237    81.0061     2.4545
  129.0000    10.1382    11.1998   -27.8166     8.7560     0.0193     0.1285    80.5510     2.4485
  129.5000    10.2106    11.2006   -27.9624     8.7537     0.0120     0.1291    81.3348     2.4463
  130.0000    10.2127    11.1242   -27.9580     8.7499     0.0165     0.1231    84.1277     2.4511
  130.5000    10.2148    11.1250   -27.9535     8.7461     0.0255     0.1183    85.9897     2.4613
  131.0000    10.2878    11.1257   -27.9481     8.7423     0.0375     0.1165    86.5945     2.4650
  131.5000    10.2189    11.1265   -27.7935     8.7385     0.0480     0.1171    86.5960     2.4657
  132.0000    10.0811    11.1272   -28.0894     8.7347     0.0601     0.1201    85.3909     2.4642
  132.5000    10.0132    11.1280   -28.2363     8.7310     0.0736     0.1195    83.2807     2.4635
  133.0000    10.0157    11.1287   -28.3809     8.7272     0.0826     0.1128    81.4722     2.4665
  133.5000    10.0177    11.2068   -28.5278     8.7234     0.0901     0.1084    82.6804     2.4717
  134.0000    10.0197    11.2076   -28.6736     8.7196     0.0961     0.1072    89.6200     2.4785
  134.5000    10.0218    11.2860   -28.8183     8.7158     0.0960     0.1051    89.0182     2.4845
  135.0000    10.0933    11.2868   -28.9640     8.7120     0.0931     0.1072    85.8522     2.4875
  135.5000    10.0954    11.2876   -28.9444     8.7083     0.0976     0.1099    80.2690     2.4799
  136.0000    10.1675    11.2883   -28.8039     8.7066     0.0946     0.1129    79.9728     2.4685
  136.5000    10.1000    11.3674   -28.6494     8.7073     0.0826     0.1135    83.0492     2.4664
  137.0000    10.1721    11.4469   -28.3447     8.7231     0.0811     0.1063    86.0093     2.4724
  137.5000    10.1742    11.3689   -28.0400     8.7235     0.0826     0.1048    86.0108     2.4799
  138.0000    10.2468    11.3698   -27.7353     8.7234     0.0841     0.1021    82.8449     2.4874
  138.5000    10.3200    11.4495   -27.7309     8.7232     0.0886     0.0967    86.6171     2.4949
  139.0000    10.3937    11.4502   -27.7265     8.7230     0.0886     0.0958    87.8252     2.5009
  139.5000    10.4680    11.6103   -27.7221     8.7229     0.0886     0.0988    87.8267     2.5047
  140.0000    10.5427    11.6111   -27.7177     8.7227     0.0856     0.0997    88.5823     2.5032
  140.5000    10.6181    11.6119   -27.7132     8.7226     0.0826     0.0985    89.0363     2.5031
  141.0000    10.6939    11.6127   -27.5577     8.7224     0.0826     0.0991    89.0377     2.5024
  141.5000    10.7708    11.6940   -27.5533     8.7222     0.0841     0.1012    89.6425     2.5009
  142.0000    10.8477    11.7759   -27.5489     8.7221     0.0856     0.1039    91.0095     2.4955
  142.5000    10.9252    11.7767   -27.5445     8.7219     0.0841     0.1063    91.4555     2.4807
  143.0000    11.0032    11.8593   -27.5401     8.7217     0.0796     0.1051    88.5915     2.4686
  143.5000    11.1587    12.1085   -27.5357     8.7216     0.0766     0.1012    88.8947     2.4746
  144.0000    11.2384    12.1933   -27.3812     8.7214     0.0781     0.0961    90.8569     2.4858
  144.5000    11.3972    12.3638   -27.3768     8.7212     0.0796     0.0934    91.4617     2.4963
  145.0000    11.4786    12.5367   -27.5225     8.7211     0.0826     0.0928    90.8595     2.5023
  145.5000    11.5663    12.6244   -27.3680     8.7209     0.0826     0.0931    91.3139     2.5038
  146.0000    11.6573    12.8010   -27.5137     8.6915     0.0826     0.0940    91.4662     2.5068
  146.5000    11.8083    12.8018   -27.3581     8.6924     0.0826     0.0943    92.6743     2.5106
  147.0000    11.8926    12.8027   -27.3537     8.6931     0.0826     0.0937    93.8824     2.5113
  147.5000    11.8950    12.8924   -27.1992     8.6939     0.0826     0.0949    92.9789     2.5068
  148.0000    11.9800    12.8934   -27.0446     8.6946     0.0826     0.0937    90.4163     2.5060
  148.5000    12.0656    12.9837   -27.0402     8.6804     0.0826     0.0859    92.0910     2.5069
  149.0000    12.1517    13.1652   -27.0358     8.6811     0.0826     0.0865    92.7683     2.5129
  149.5000    12.1542    13.2574   -27.0314     8.6820     0.0826     0.0868    92.3176     2.5158
  150.0000    12.1566    13.2582   -27.0270     8.6675     0.0826     0.0847    93.2230     2.5158
  150.5000    12.2418    13.2591   -26.8694     8.6662     0.0796     0.0811    93.8269     2.5180
  151.0000    12.2428    13.2601   -26.7103     8.6649     0.0781     0.0739    93.3766     2.5248
  151.5000    12.2437    13.2610   -26.5529     8.6636     0.0736     0.0685    92.6250     2.5315
  152.0000    12.3294    13.3538   -26.3954     8.6623     0.0736     0.0943    91.4217     2.5398
  152.5000    12.3303    13.3549   -26.2380     8.6610     0.0719     0.1003    88.4990     2.5277
  153.0000    12.4167    13.2636   -26.2307     8.6597     0.0463     0.1009    84.1707     2.4992
  153.5000    12.5904    13.4493   -25.7729     8.6583     0.0225     0.1033    78.7759     2.4879
