~VERSION INFORMATION
 VERS.                2.0:   CWLS LOG ASCII STANDARD - VERSION 2.0
 WRAP.                 NO:   ONE LINE PER DEPTH STEP
~WELL INFORMATION
#MNEM.UNIT      DATA TYPE    INFORMATION
#----------   ------------   ------------------------------
 STRT.F           20.0000:   START DEPTH
 STOP.F          600.0000:   STOP DEPTH
 STEP.F            0.5000:   STEP LENGTH
 NULL.          -999.2500:   NO VALUE
 COMP. FENIX & SCISSON INC:   COMPANY
 WELL. TEAPOT DOME #23 SX 3-4:   WELL
 FLD .             TEAPOT:   FIELD
 LOC .       S4 T38N R78W:   LOCATION
 CNTY.            NATRONA:   COUNTY
 STAT.            WYOMING:   STATE
 CTRY. UNITED STATES OF AMERICA:   COUNTRY
 SRVC.            Unknown:   SERVICE COMPANY
 DATE.        31-JUL-1978:   LOGDATE
 API .       490251067600:   API NUMBER
~CURVE INFORMATION
#MNEM.UNIT       API CODE    CURVE DESCRIPTION
#----------   ------------   ------------------------------
 DEPT.F                  :   
 CALD.IN     45 280 60 00:   CALIPER FROM DENSITY LOG
 GRD .GAPI   45 310 01 00:   GAMMA RAY FROM DENSITY LOG
 CORR.G/C3   45 356 01 00:   DENSITY CORRECTION
 DPHI.DEC    45 890 12 00:   DENSITY POROSITY SANDSTONE
 RHOB.G/C3   45 350 01 00:   BULK DENSITY
 SPR .MV     07 010 01 00:   SPONTANEOUS POTENTIAL
 ILD .OHMM   07 120 46 00:   INDUCTION LOG DEEP
 SN  .OHMM   07 040 16 00:   SHORT NORMAL 16"
 CILD.MMHO   07 110 46 00:   CONDUCTIVITY INDUCTION LOG DEEP
~PARAMETER INFORMATION
#MNEM.UNIT          VALUE    DESCRIPTION
#----------   ------------   ------------------------------
 PD  .                 GL:   PERMANENT DATUM
 EPD .F              5181:   ELEVATION PERMANENT DATUM
 LMF .                 KB:   LOG MEASURED FROM
 DAPD.F                 4:   FEET ABOVE PERMANENT DATUM
 DMF .                 KB:   DRILLING MEASURED FROM
 EKB .F              5185:   KELLING BUSHING
 EGL .F              5181:   GROUND LEVEL
 DATE.        31-JUL-1978:   RUN DATE
 RUN .                  1:   RUN NUMBER
 DD  .F               595:   DEPTH DRILLER
 DL  .F               606:   DEPTH LOGGER
 BLI .F               600:   BOTTOM LOG INTERVAL
 TLI .F                40:   TOP LOG INTERVAL
 CBL .F                45:   CASING BOTTOM LOGGER
 BS  .IN            7.875:   BIT SIZE
 BSD .F               595:   BIT SIZE AT DEPTH
 DFT .                KCL:   DRILLING FLUID TYPE
 DFD .                9.0:   DRILLING FLUID DENSITY
 DFV .                 36:   DRILLING FLUID VISCOSITY
 DFPH.                9.0:   DRILLING FLUID PH
 DFL .                8.0:   DRILLING FLUID LOSS
 MSS .           FLOWLINE:   MUD SAMPLE SOURCE
 BHT .F                74:   BOTTOM HOLE TEMPERATURE
 TCS .HRS            0500:   TIME CURCULATED STOPPED
 MRT .F                74:   MAXIMUM RECORDED TEMPERATURE
 LUN .               2958:   LOGGING UNIT NUMBER
 LUL .               CASP:   LOGGING UNIT LOCATION
 ENGI.            POINTER:   RECORDING ENGINEER
 WITN.              AMEND:   WITNESSED BY
 CLNT.            A2DTECH:   CLIENT CODE
 ORIG.           5" PRINT:   ORIGIN OF DATA
 UWI .       490251067600:   UNIQUE WELL ID
 DICO. A2D Technologies, Inc.:   DIGITIZING COMPANY
~OTHER INFORMATION
~A   DEPT     CALD        GRD       CORR       DPHI       RHOB        SPR        ILD         SN       CILD   
# ...
  567.5000     7.4214   107.1245     0.0384     0.0526     2.5840   -29.5532     6.1650     8.1602   150.8866
  568.0000     7.7078   103.2853     0.0505     0.0834     2.5787   -29.5441     6.2088     8.3940   148.5533
  568.5000     7.5145   102.5615     0.0340     0.0858     2.5122   -29.6859     6.6995     8.7546   139.4658
  569.0000     7.4407   104.2379     0.0198     0.0824     2.5123   -29.6746     7.6953     9.2576   112.4007
  569.5000     7.4576   105.9034     0.0138     0.0809     2.5116   -29.8164     8.9620     9.9256   101.8150
  570.0000     7.4437   104.2657     0.0139     0.0890     2.5109   -29.8068     9.8764    10.2100    96.4728
  570.5000     7.4453   103.0749     0.0140     0.0926     2.5095   -29.9468    10.1579    10.2152    92.6287
  571.0000     7.4468   106.6924     0.0148     0.0845     2.5186   -29.7890    10.2333    10.0735    89.5337
  571.5000     7.4483   102.2052     0.0149     0.0856     2.5209   -29.4829    10.2384     9.9492    87.9368
  572.0000     7.4345    98.7622     0.0150     0.0760     2.5209   -29.0281    10.3144    10.0245    87.8380
  572.5000     7.4364   101.0435     0.0150     0.0832     2.5217   -28.2760    10.4630    10.3117    88.4883
  573.0000     7.4380   102.3936     0.0151     0.0818     2.5218   -28.1184    10.6137    10.5342    88.3895
  573.5000     7.4395   106.6117     0.0152     0.0789     2.5211   -28.1093    10.7665    10.6139    87.5417
  574.0000     7.4410   107.0726     0.0145     0.0813     2.5152   -28.2511    10.8453    10.8429    85.1957
  574.5000     7.4272   104.3872     0.0146     0.0855     2.5071   -28.2397    10.9258    10.8498    82.8497
  575.0000     7.4288   101.3981     0.0147     0.0912     2.5064   -28.2307    11.0068    10.9319    80.5244
  575.5000     7.4303    98.4090     0.0147     0.0947     2.5042   -28.0730    11.1653    11.0146    78.1798
  576.0000     7.4318    99.0235     0.0140     0.0950     2.5147   -27.9153    11.2482    11.1748    77.2933
  576.5000     7.4483    98.9580     0.0141     0.0950     2.5125   -27.6091    11.4893    11.2594    75.7377
  577.0000     7.4649    97.6965     0.0150     0.0911     2.5203   -27.6000    11.6547    11.2651    75.6390
  577.5000     7.4814    99.6623     0.0181     0.0864     2.5329   -27.4443    12.0701    11.2721    74.7911
  578.0000     7.5279    95.9225     0.0189     0.0712     2.5367   -27.4353    12.2439    11.3572    74.6923
  578.5000     7.4994    95.0320     0.0212     0.0685     2.5330   -27.4265    12.2499    11.3644    74.5936
  579.0000     7.4410    95.9503     0.0213     0.0885     2.5136   -27.4174    12.1701    11.4504    74.4948
  579.5000     7.4272    97.3155     0.0183     0.0867     2.5092   -27.5572    12.1776    11.4576    74.3960
  580.0000     7.3958    95.9781     0.0139     0.0813     2.5070   -27.5478    12.0998    11.4649    75.0710
  580.5000     7.3853    93.7397     0.0147     0.0975     2.5056   -27.5388    12.1046    11.5516    74.9475
  581.0000     7.4619    95.1141     0.0156     0.0995     2.5094   -27.3811    12.1104    11.6390    74.8488
  581.5000     7.5083    97.9896     0.0164     0.0991     2.5102   -27.3720    12.0328    11.6464    75.5237
  582.0000     7.4798    94.9791     0.0165     0.0970     2.5133   -27.3630    12.0388    11.6538    76.1740
  582.5000     7.4060    96.6447     0.0166     0.0848     2.5171   -27.3539    11.9617    11.6612    76.8243
  583.0000     7.4079   100.4123     0.0166     0.0778     2.5164   -27.3448    11.8851    11.6686    78.2237
  583.5000     7.4095   101.3271     0.0167     0.0847     2.5128   -27.1871    11.8094    11.5784    78.8739
  584.0000     7.4110    99.6894     0.0168     0.0850     2.5113   -27.1781    11.7325    11.4328    79.5242
  584.5000     7.4126    95.6492     0.0168     0.0882     2.5174   -27.1709    11.5773    11.3705    80.1745
  585.0000     7.3991    94.6120     0.0169     0.0858     2.5257   -27.1620    11.5033    11.2994    80.0757
  585.5000     7.4003    90.1180     0.0178     0.0765     2.5320   -27.3017    11.3511    11.3066    81.4751
  586.0000     7.4018    95.3871     0.0186     0.0725     2.5355   -27.2926    11.2786    11.3137    81.3763
  586.5000     7.4183    93.1488     0.0164     0.0745     2.5199   -27.4324    11.3637    11.3209    81.2775
  587.0000     7.4198    92.4119     0.0135     0.0821     2.5110   -27.2745    11.4481    11.4066    81.1787
  587.5000     7.4364    91.3747     0.0087     0.0875     2.5021   -27.4140    11.5319    11.3335    81.8537
  588.0000     7.4379    94.9922     0.0046     0.0905     2.4969   -27.9993    11.5373    11.1869    81.7303
  588.5000     7.4395    96.0537     0.0077     0.0736     2.5299   -27.9902    11.3847    11.0405    82.3805
  589.0000     7.4560    98.4735     0.0115     0.0748     2.5314   -27.9811    11.2341    10.8210    83.0555
  589.5000     7.4421   101.7907     0.0168     0.0772     2.5203   -27.9721    11.0092    10.7517    84.4302
  590.0000     7.4441   100.9310     0.0154     0.0882     2.5141   -28.4087    10.9386    10.5967    85.1052
  590.5000     7.4453   101.1320     0.0117     0.0898     2.5114   -28.6968    10.7928    10.5359    85.7554
  591.0000     7.4467   103.4806     0.0110     0.0900     2.5145   -29.1335    10.6514    10.4787    85.6320
  591.5000     7.4483   108.2992     0.0141     0.0834     2.5266   -29.3031    10.5820    10.4131    86.3070
  592.0000     7.4348   103.8086     0.0150     0.0737     2.5333   -29.4148    10.4420    10.3481    88.4307
  592.5000     7.4738    99.9152     0.0158     0.0773     2.5297   -29.5543    10.3753    10.3547    90.8745
  593.0000     7.4588   107.1397     0.0166     0.0749     2.5313   -29.5453    10.3090    10.3612    93.5013
  593.5000     7.4738   107.6041     0.0167     0.0728     2.5321   -29.6850    10.3153    10.2948    93.4008
  594.0000     7.4888   122.7797     0.0168     0.0799     2.5291   -29.9729    10.2481    10.3030    94.8018
  594.5000     7.4138  -999.2500     0.0169     0.0787     2.5309   -30.1147    10.2533    10.2369    96.2012
  595.0000     7.3988  -999.2500     0.0177     0.0764     2.5315   -30.1033    10.1876    10.1746    98.3496
  595.5000     7.3838  -999.2500     0.0178     0.0724     2.5286   -30.2451    10.1926    10.1094   100.4980
  596.0000     7.4438  -999.2500     0.0156     0.0807     2.5242   -30.2338    10.1977     9.9786   101.1730
  596.5000     7.4738  -999.2500     0.0139     0.0826     2.5272   -30.2247    10.1323     9.8330   101.8233
  597.0000     7.4738  -999.2500     0.0097     0.0795     2.5325   -30.2156    10.0665     9.6507   101.6998
  597.5000     7.4588  -999.2500     0.0098     0.0731     2.5393   -30.2065    10.0021     9.5904   101.6010
  598.0000     7.4588  -999.2500     0.0114     0.0662     2.5387   -30.3483     9.9382     9.6630   101.5022
  598.5000     7.4738  -999.2500     0.0122     0.0758     2.5283   -30.1902     9.9443     9.6691   101.4035
  599.0000     7.4738  -999.2500     0.0130     0.0806     2.5276   -30.1813     9.9492     9.7422   101.3047
  599.5000     7.4130  -999.2500     0.0123     0.0805     2.5260   -30.1725     9.9541     9.8159   101.2059
  600.0000     7.3388  -999.2500     0.0124     0.0775     2.5262   -30.6092     9.9582    10.0272   100.8738
