~VERSION INFORMATION
 VERS.                2.0:   CWLS LOG ASCII STANDARD - VERSION 2.0
 WRAP.                 NO:   ONE LINE PER DEPTH STEP
~WELL INFORMATION
#MNEM.UNIT      DATA TYPE    INFORMATION
#----------   ------------   ------------------------------
 STRT.F           28.0000:   START DEPTH
 STOP.F          636.0000:   STOP DEPTH
 STEP.F            0.5000:   STEP LENGTH
 NULL.          -999.2500:   NO VALUE
 COMP. FENIX & SCISSON INC:   COMPANY
 WELL.    NPR-3 #12S14-14:   WELL
 FLD .             TEAPOT:   FIELD
 LOC .      S14 T38N R78W:   LOCATION
 CNTY.            NATRONA:   COUNTY
 STAT.            WYOMING:   STATE
 CTRY. UNITED STATES OF AMERICA:   COUNTRY
 SRVC.           BIRDWELL:   SERVICE COMPANY
 DATE.        21-JUN-1978:   LOGDATE
 API .       490251065000:   API NUMBER
~CURVE INFORMATION
#MNEM.UNIT       API CODE    CURVE DESCRIPTION
#----------   ------------   ------------------------------
 DEPT.F                  :   
 SPR .MV     07 010 01 00:   SPONTANEOUS POTENTIAL
 ILD .OHMM   07 120 46 00:   INDUCTION LOG DEEP
 SN  .OHMM   07 040 16 00:   SHORT NORMAL 16"
 GRD .GAPI   45 310 01 00:   GAMMA RAY FROM DENSITY LOG
 CORR.G/C3   45 356 01 00:   DENSITY CORRECTION
 DEN .G/C3   45 350 01 00:   COMPENSATED BULK DENSTIY
 DPHI.DEC    45 890 12 00:   DENSITY POROSITY SANDSTONE
~PARAMETER INFORMATION
#MNEM.UNIT          VALUE    DESCRIPTION
#----------   ------------   ------------------------------
 PD  .                 GL:   PERMANENT DATUM
 EPD .F              5237:   ELEVATION PERMANENT DATUM
 LMF .                 KB:   LOG MEASURED FROM
 DMF .                 KB:   DRILLING MEASURED FROM
 EKB .F              5241:   KELLING BUSHING
 EGL .F              5237:   GROUND LEVEL
 DATE.        21-JUN-1978:   RUN DATE
 RUN .                  1:   RUN NUMBER
 DD  .F               637:   DEPTH DRILLER
 DL  .F               642:   DEPTH LOGGER
 BLI .F               636:   BOTTOM LOG INTERVAL
 TLI .F                40:   TOP LOG INTERVAL
 CS  .IN            8.625:   CASING SIZE
 CBD .F                40:   CASING BOTTOM DRILLER
 CBL .F                40:   CASING BOTTOM LOGGER
 BS  .IN            7.875:   BIT SIZE
 BSD .F               637:   BIT SIZE AT DEPTH
 DFT .                KCL:   DRILLING FLUID TYPE
 DFD .                8.7:   DRILLING FLUID DENSITY
 DFV .                 32:   DRILLING FLUID VISCOSITY
 DFPH.                 10:   DRILLING FLUID PH
 MSS .           FLOWLINE:   MUD SAMPLE SOURCE
 RMS .OHMM            .18:   RESISTIVITY MUD SAMPLE
 MST .F                84:   MUD SAMPLE TEMPERATURE
 RMF .OHMM            .17:   RESISTIVITY MUD FILTRATE SAMPLE
 MFST.F                72:   MUD FILTRATE SAMPLE TEMPERATURE
 RMC .OHMM            .28:   RESISTIVITY MUD CAKE
 MCST.F                82:   MUD CAKE SAMPLE TEMPERATURE
 MFSS.               MEAS:   MUD FILTRATE SAMPLE SOURCE
 MCSS.               MEAS:   MUD CAKE SAMPLE SOURCE
 BHT .F                72:   BOTTOM HOLE TEMPERATURE
 TCS .HRS            0230:   TIME CURCULATED STOPPED
 MRT .F                72:   MAXIMUM RECORDED TEMPERATURE
 LUN .               2958:   LOGGING UNIT NUMBER
 LUL .               CASP:   LOGGING UNIT LOCATION
 ENGI.             MILLER:   RECORDING ENGINEER
 WITN.           MCGINLEY:   WITNESSED BY
 CLNT.            A2DTECH:   CLIENT CODE
 ORIG.           5" PRINT:   ORIGIN OF DATA
 UWI .       490251065000:   UNIQUE WELL ID
 DICO. A2D Technologies, Inc.:   DIGITIZING COMPANY
~OTHER INFORMATION
~A   DEPT      SPR        ILD         SN        GRD       CORR        DEN       DPHI   
# ...
  437.5000   -50.7086     5.2001     6.4493    87.7406    -0.0007     2.4279     0.1413
  438.0000   -50.6954     5.0961     6.3287    89.1291     0.0006     2.4301     0.1465
  438.5000   -50.6822     4.9597     6.2446    92.7237     0.0004     2.4353     0.1394
  439.0000   -50.6690     4.7903     6.0788    96.2459     0.0003     2.4247     0.1412
  439.5000   -50.6558     4.5977     5.8761    95.6290     0.0016     2.4186     0.1471
  440.0000   -50.6425     4.2679     5.6023    95.6126     0.0045     2.3991     0.1511
  440.5000   -49.7314     4.1824     5.4528    96.0467     0.0074     2.3773     0.1619
  441.0000   -49.4201     4.2134     5.3441    97.0814     0.0132     2.3735     0.1716
  441.5000   -49.2571     4.2739     5.3095    98.5665     0.0190     2.4063     0.1767
  442.0000   -49.0916     4.3354     5.3869    99.6053     0.0159     2.4414     0.1393
  442.5000   -48.9289     4.3675     5.4647    97.6329     0.0112     2.4511     0.1339
  443.0000   -48.9156     4.3998     5.5054    96.2652     0.0096     2.4540     0.1310
  443.5000   -48.9024     4.4939     5.7429    94.8974     0.0110     2.4569     0.1292
  444.0000   -48.7397     4.6219     6.0750    93.3796     0.0093     2.4628     0.1257
  444.5000   -48.8793     4.8528     6.5075    97.7176     0.0091     2.4680     0.1188
  445.0000   -48.8628     5.2019     6.7860    99.6532     0.0090     2.4634     0.1176
  445.5000   -48.7001     5.5764     6.9315    98.2854     0.0058     2.4483     0.1335
  446.0000   -48.6868     5.6175     7.0316    96.1670     0.0057     2.4468     0.1351
  446.5000   -48.8231     5.5814     7.1331    95.3998     0.0175     2.4534     0.1335
  447.0000   -48.8099     5.5457     7.2360    97.0351     0.0234     2.4563     0.1286
  447.5000   -48.7967     5.5874     7.2399    99.5713     0.0292     2.4555     0.1232
  448.0000   -48.9329     5.5900     7.2940    97.7532     0.0410     2.4921     0.1280
  448.5000   -49.0692     5.5927     7.3992    95.9350     0.0633     2.5055     0.1023
  449.0000   -49.0526     5.5953     7.4032    94.5673     0.0272     2.4425     0.1161
  449.5000   -48.8899     5.6367     7.4073    95.3017     0.0046     2.4395     0.1239
  450.0000   -48.8789     5.6002     7.3095    97.0871     0.0030     2.4686     0.1201
  450.5000   -48.8625     5.5647     7.3644    97.5253     0.0046     2.4680     0.1180
  451.0000   -48.8460     5.5685     7.4189    97.5085     0.0057     2.4674     0.1195
  451.5000   -48.8264     5.5324     7.4224    97.9456     0.0055     2.4669     0.1199
  452.0000   -48.8102     5.6131     7.3741    98.3827     0.0053     2.4660     0.1202
  452.5000   -48.9476     5.6162     7.3785    99.1201     0.0052     2.4652     0.1211
  453.0000   -48.9274     5.6192     7.3304    99.4070     0.0050     2.4644     0.1214
  453.5000   -48.7658     5.5829     7.2835    99.0933     0.0048     2.4636     0.1218
  454.0000   -48.8991     5.5867     7.2878    98.4793     0.0002     2.4553     0.1224
  454.5000   -48.8789     5.5131     7.2411    99.6671    -0.0030     2.4552     0.1239
  455.0000   -48.8628     5.5161     7.2447   101.1553    -0.0061     2.4544     0.1258
  455.5000   -48.8466     5.5191     7.2481   100.2410    -0.0093     2.4491     0.1291
  456.0000   -48.8304     5.5221     7.2516    99.6270    -0.0096     2.4460     0.1360
  456.5000   -48.8143     5.5252     7.2052    98.7127    -0.0081     2.4430     0.1363
  457.0000   -48.7981     5.5282     7.1552    97.3480    -0.0038     2.4447     0.1355
  457.5000   -48.7818     5.4938     7.1133    96.1334     0.0020     2.4518     0.1337
  458.0000   -48.7653     5.4968     7.1168    95.6696     0.0049     2.4540     0.1271
  458.5000   -48.7456     5.4998     7.1209    95.9625     0.0062     2.4524     0.1310
  459.0000   -48.7294     5.3530     7.0745    99.1041     0.0090     2.4516     0.1308
  459.5000   -48.7133     5.2455     6.9818    99.0826     0.0103     2.4516     0.1290
  460.0000   -48.6971     5.1772     6.9851    99.2392     0.0102     2.4523     0.1272
  460.5000   -48.6810     5.1800     6.9396   100.2107     0.0100     2.4529     0.1285
  461.0000   -48.5153     5.1828     6.9438   104.4448     0.0054     2.4529     0.1285
  461.5000   -48.4992     5.1856     6.8985   105.9329     0.0007     2.4460     0.1297
  462.0000   -48.4830     5.1166     6.8544   105.0187    -0.0040     2.4340     0.1319
  462.5000   -48.4669     4.9806     6.7181   102.0023    -0.0086     2.4265     0.1402
  463.0000   -48.6002     4.8478     6.5837    97.3342    -0.0103     2.4226     0.1446
  463.5000   -48.5840     4.8504     6.5408    95.8227    -0.0060     2.4106     0.1507
  464.0000   -48.5679     4.8193     6.4107   100.1603    -0.0001     2.4060     0.1558
  464.5000   -48.7012     4.7236     6.3259   104.3512     0.0057     2.4097     0.1590
  465.0000   -48.6846     4.7262     6.2423   105.6891     0.0116     2.4254     0.1500
  465.5000   -48.6681     4.7293     6.2453   103.1232     0.0113     2.4650     0.1339
  466.0000   -48.8022     4.7319     6.2500    95.3020     0.0112     2.4739     0.1171
  466.5000   -48.9355     4.7345     6.3861    90.1835     0.0110     2.4746     0.1109
  467.0000   -49.0688     4.8029     6.5702    94.0741     0.0079     2.4745     0.1109
  467.5000   -49.0486     4.9060     6.8447    96.6132     0.0047     2.4699     0.1119
  468.0000   -49.0324     5.0460     6.9430    97.0536    -0.0015     2.4587     0.1213
  468.5000   -48.8668     5.1900     6.9944    97.0369    -0.0046     2.4518     0.1285
  469.0000   -48.8506     5.3014     6.9977    97.0235    -0.0048     2.4488     0.1305
  469.5000   -48.8345     5.4527     7.0010    96.4096    -0.0049     2.4472     0.1338
  470.0000   -48.8183     5.3072     6.9085    93.8436    -0.0051     2.4457     0.1279
  470.5000   -48.6527     5.0597     6.6776    91.7281    -0.0068     2.4411     0.1237
  471.0000   -48.4871     4.8238     6.4990    90.6617    -0.0069     2.4313     0.1381
  471.5000   -48.4709     4.5989     6.2818    90.3499    -0.0071     2.4133     0.1459
  472.0000   -48.3050     4.3845     5.9887    91.6919    -0.0057     2.3915     0.1741
  472.5000   -48.2885     4.3257     5.7879    95.5079     0.0105     2.3780     0.1762
  473.0000   -47.9699     4.3292     5.6728    96.7663     0.0179     2.4213     0.1518
  473.5000   -47.8043     4.2677     5.6364    93.7466     0.0087     2.4250     0.1481
  474.0000   -47.7881     4.2158     5.7968    92.0816     0.0041     2.4496     0.1429
  474.5000   -47.6225     4.2773     5.9208    93.7199     0.0039     2.4608     0.1287
  475.0000   -47.6063     4.3994     6.1314    96.1089     0.0037     2.4659     0.1284
  475.5000   -47.5902     4.6196     6.3105    95.0444     0.0021     2.4711     0.1231
  476.0000   -47.4246     4.9522     6.6257    93.2293     0.0019     2.4763     0.1174
  476.5000   -47.4084     5.2361     6.7699    93.2159     0.0017     2.4807     0.1139
  477.0000   -47.5417     5.4981     6.9555    94.1034     0.0016     2.4821     0.1133
  477.5000   -47.5038     5.7336     7.1042    94.3937    -0.0001     2.4813     0.1070
  478.0000   -47.5097     5.8567     7.2063    94.8274    -0.0018     2.4790     0.1083
  478.5000   -47.4932     5.9825     7.3098    95.2645    -0.0034     2.4760     0.1116
  479.0000   -47.4769     5.9857     7.4148    94.3502    -0.0051     2.4744     0.1134
  479.5000   -47.4604     6.0304     7.4697    90.2828    -0.0052     2.4743     0.1164
  480.0000   -47.4407     6.0755     7.5770    88.6177    -0.0039     2.4742     0.1147
  480.5000   -47.4246     6.0788     7.6859    88.9046    -0.0026     2.4749     0.1129
  481.0000   -47.4084     6.0821     7.7427    90.8432    -0.0028     2.4749     0.1138
  481.5000   -47.3922     6.1276     7.8539    92.4815     0.0001     2.4718     0.1157
  482.0000   -47.3761     6.1237     7.8577    94.2699    -0.0001     2.4702     0.1220
  482.5000   -47.3599     6.0920     7.9149    94.2565     0.0013     2.4694     0.1160
