~VERSION INFORMATION
 VERS.                2.0:   CWLS LOG ASCII STANDARD - VERSION 2.0
 WRAP.                 NO:   ONE LINE PER DEPTH STEP
~WELL INFORMATION
#MNEM.UNIT      DATA TYPE    INFORMATION
#----------   ------------   ------------------------------
 STRT.F            0.0000:   START DEPTH
 STOP.F          537.0000:   STOP DEPTH
 STEP.F            0.5000:   STEP LENGTH
 NULL.          -999.2500:   NO VALUE
 COMP.   FLUOR DANIEL INC:   COMPANY
 WELL. NAVAL PETROLEUM RESERVE 3 X 83 #6-10:   WELL
 FLD .             TEAPOT:   FIELD
 LOC .      S10 T38N R78W:   LOCATION
 CNTY.            NATRONA:   COUNTY
 STAT.            WYOMING:   STATE
 CTRY. UNITED STATES OF AMERICA:   COUNTRY
 SRVC.      Western Atlas:   SERVICE COMPANY
 DATE.        30-APR-1996:   LOGDATE
 API .       490252278500:   API NUMBER
~CURVE INFORMATION
#MNEM.UNIT       API CODE    CURVE DESCRIPTION
#----------   ------------   ------------------------------
 DEPT.F                  :   
 GRR .GAPI   07 310 01 00:   GAMMA RAY FROM RES. LOG.
 RILD.OHMM   07 120 46 00:   INDUCTION LOG DEEP RESISTIVITY
 RILM.OHMM   07 120 44 00:   INDUCTION LOG MEDIUM RESISTIVITY
~PARAMETER INFORMATION
#MNEM.UNIT          VALUE    DESCRIPTION
#----------   ------------   ------------------------------
 PD  .                 GL:   PERMANENT DATUM
 EPD .F              5178:   ELEVATION PERMANENT DATUM
 LMF .                 KB:   LOG MEASURED FROM
 DAPD.F                10:   FEET ABOVE PERMANENT DATUM
 DMF .                 KB:   DRILLING MEASURED FROM
 EKB .F              5188:   KELLING BUSHING
 EDF .F              5187:   DRILLING FLOOR
 EGL .F              5178:   GROUND LEVEL
 DATE.            4-30-96:   RUN DATE
 RUN .                  1:   RUN NUMBER
 DD  .F               545:   DEPTH DRILLER
 DL  .F               545:   DEPTH LOGGER
 BLI .F               537:   BOTTOM LOG INTERVAL
 CS  .IN            9.625:   CASING SIZE
 CBD .F                96:   CASING BOTTOM DRILLER
 CBL .F                96:   CASING BOTTOM LOGGER
 BS  .IN             8.75:   BIT SIZE
 BSD .F               545:   BIT SIZE AT DEPTH
 DFT .                AIR:   DRILLING FLUID TYPE
 BHT .F                82:   BOTTOM HOLE TEMPERATURE
 MRT .F                82:   MAXIMUM RECORDED TEMPERATURE
 LUN .            ML 4116:   LOGGING UNIT NUMBER
 LUL .             CASPER:   LOGGING UNIT LOCATION
 ENGI.        VERN RAUTIO:   RECORDING ENGINEER
 WITN.         JAY LEBERU:   WITNESSED BY
 CLNT.            A2DTECH:   CLIENT CODE
 ORIG.        2" 5" PRINT:   ORIGIN OF DATA
 UWI .       490252278500:   UNIQUE WELL ID
 DICO. A2D Technologies, Inc.:   DIGITIZING COMPANY
~OTHER INFORMATION
~A    DEPT       GRR     RILD       RILM   
# ...
  273.0000   111.7235     2.7027     2.8125
  273.5000   109.6359     2.5202     2.6163
  274.0000   110.6441     2.4445     2.5377
  274.5000   109.6491     2.4169     2.5090
  275.0000   104.9664     2.4846     2.5865
  275.5000   101.1956     2.5744     2.8615
  276.0000   108.5223     2.8983     3.2652
  276.5000   115.7894     3.2631     3.7258
  277.0000   120.1564     3.6738     4.2514
  277.5000   119.2594     4.1361     4.8479
  278.0000   116.4945     4.6566     5.3371
  278.5000   116.6000     5.1261     5.6781
  279.0000   119.8160     5.6060     6.0455
  279.5000   123.0117     5.9308     6.1568
  280.0000   126.2123     6.0040     6.2329
  280.5000   127.8300     6.0236     6.2532
  281.0000   124.7140     6.0427     6.2752
  281.5000   121.2301     5.9072     6.1340
  282.0000   117.7649     5.7025     5.9199
  282.5000   118.8308     5.5051     5.7148
  283.0000   124.6562     5.3143     5.5169
  283.5000   131.2596     5.1302     5.3258
  284.0000   137.6079     4.9526     5.1413
  284.5000   141.2260     4.7810     4.9632
  285.0000   137.6621     4.6530     4.8303
  285.5000   130.4780     4.6075     4.7831
  286.0000   123.4154     4.6488     4.9560
  286.5000   120.5390     4.6945     5.1740
  287.0000   121.6376     4.8214     5.4056
  287.5000   123.1882     4.9809     5.6477
  288.0000   125.1838     5.2112     5.9006
  288.5000   127.1872     5.5510     6.1648
  289.0000   127.8406     5.9129     6.4409
  289.5000   126.7624     6.2146     6.7294
  290.0000   124.6326     6.4446     7.0305
  290.5000   122.5524     6.6888     7.1920
  291.0000   121.1196     6.9422     7.3248
  291.5000   120.4717     7.2176     7.4584
  292.0000   123.0550     7.3876     7.7086
  292.5000   125.7760     7.4926     7.6712
  293.0000   127.1574     7.3555     7.5921
  293.5000   127.4681     7.2459     7.5131
  294.0000   125.8867     7.1471     7.4170
  294.5000   124.2382     7.0204     7.2810
  295.0000   124.1793     6.8958     7.1474
  295.5000   124.3148     6.7735     7.0163
  296.0000   121.6316     6.6534     6.8876
  296.5000   119.9765     6.5353     6.7603
  297.0000   119.2387     6.2329     6.4132
  297.5000   122.0816     5.9009     6.0814
  298.0000   125.4287     5.5867     5.7668
  298.5000   128.4292     5.2892     5.4685
  299.0000   129.0112     5.0075     5.1856
  299.5000   129.6848     4.7408     4.9173
  300.0000   128.8474     4.5646     4.7386
  300.5000   127.3500     4.5758     4.8193
  301.0000   125.4504     4.5977     4.9814
  301.5000   123.1887     4.7386     5.1546
  302.0000   121.0248     4.9767     5.5320
  302.5000   122.2763     5.2997     5.9513
  303.0000   125.8214     5.6463     6.4034
  303.5000   129.3495     6.0146     6.7481
  304.0000   128.9192     6.4065     7.0306
  304.5000   126.8622     6.8241     7.3243
  305.0000   124.7863     7.0838     7.4736
  305.5000   125.2043     7.1320     7.6079
  306.0000   130.5071     7.1846     7.7502
  306.5000   135.7878     7.2176     7.8556
  307.0000   134.8286     7.2016     7.8222
  307.5000   132.7308     7.1881     7.7964
  308.0000   130.6443     7.1747     7.7710
  308.5000   129.0797     7.1612     7.7460
  309.0000   128.5994     7.1478     7.7210
  309.5000   130.8577     7.1344     7.6961
  310.0000   133.3723     7.1211     7.6713
  310.5000   134.5587     7.1077     7.6466
  311.0000   132.3699     7.0945     7.6219
  311.5000   130.6042     7.0839     7.5974
  312.0000   130.6677     7.0741     7.5729
  312.5000   130.9478     7.0519     7.5485
  313.0000   132.0054     7.0296     7.5242
  313.5000   133.4847     7.0180     7.4999
  314.0000   134.9799     7.0179     7.4691
  314.5000   134.5930     7.0185     7.4227
  315.0000   132.5513     7.0191     7.3766
  315.5000   130.2758     6.8248     7.3307
  316.0000   127.9423     6.6654     7.2854
  316.5000   127.2687     6.5080     6.9896
  317.0000   129.0716     6.3537     6.7054
  317.5000   131.6260     6.2170     6.4492
  318.0000   136.9224     6.0991     6.3719
  318.5000   139.0701     5.9811     6.3314
  319.0000   138.9287     5.8653     6.2912
  319.5000   137.2787     5.7518     6.1655
  320.0000   134.1519     5.6599     5.9726
  320.5000   131.2558     5.4008     5.7833
  321.0000   130.4510     5.1487     5.4287
  321.5000   131.1161     4.8720     4.9932
  322.0000   133.0970     4.8736     4.6945
  322.5000   134.7135     4.9133     4.8285
  323.0000   134.4695     4.9510     5.0340
  323.5000   132.8644     4.9890     5.2483
  324.0000   131.3004     5.0273     5.4716
  324.5000   129.9310     5.1067     5.7045
  325.0000   132.2678     5.4070     5.9473
  325.5000   134.8308     5.7321     6.2005
  326.0000   133.2901     6.0768     6.4648
  326.5000   130.5257     6.3320     6.7382
  327.0000   128.0208     6.5458     7.0506
  327.5000   127.0272     6.6350     7.0838
  328.0000   126.2581     6.5354     6.9098
  328.5000   126.5949     6.2755     6.5874
  329.0000   126.9012     5.8618     6.2974
  329.5000   127.2192     5.4734     5.8970
  330.0000   128.0034     5.2483     5.5220
  330.5000   130.3120     5.1067     5.2462
  331.0000   132.5451     5.1265     5.1591
  331.5000   132.5267     5.1546     5.3463
  332.0000   130.7608     5.2312     5.4854
  332.5000   128.9448     5.3258     5.7674
  333.0000   128.7279     5.4221     6.0651
  333.5000   129.4624     5.5541     6.3799
  334.0000   129.3923     5.8686     6.6258
  334.5000   127.0597     6.2001     6.9356
  335.0000   124.8318     6.5506     7.2602
  335.5000   123.3860     6.9079     7.5991
  336.0000   123.9485     7.2460     7.9268
  336.5000   123.7919     7.6006     8.1135
  337.0000   123.0969     7.7782     8.3043
  337.5000   123.5527     7.8673     8.3351
  338.0000   126.8532     7.9145     8.3684
  338.5000   127.8898     7.9619     8.4018
  339.0000   125.9849     7.9995     8.4353
  339.5000   124.8523     8.0127     8.4611
  340.0000   123.6420     8.0340     8.4300
  340.5000   122.4506     8.0553     8.4049
  341.0000   121.2524     8.0747     8.3823
  341.5000   120.0717     8.0595     8.3577
  342.0000   119.4277     8.0298     8.3099
  342.5000   119.6382     8.0003     8.2621
  343.0000   119.1319     7.9710     8.2146
  343.5000   118.6412     7.9417     8.1671
  344.0000   118.1384     7.9250     8.1497
  344.5000   118.6411     8.0720     8.8130
  345.0000   119.2669     8.1934     8.9308
  345.5000   119.2860     8.3043     9.0501
  346.0000   117.3011     8.3043     9.2039
  346.5000   115.1030     7.5278     8.5566
  347.0000   112.8873     6.9871     7.7431
  347.5000   111.0215     6.4852     7.0066
  348.0000   109.9828     6.0194     6.3387
  348.5000   119.3485     5.3987     5.9056
  349.0000   128.5218     5.0560     5.7658
  349.5000   137.7070     5.3070     5.7636
  350.0000   140.8844     5.5552     6.1391
  350.5000   126.2505     5.8140     6.6428
  351.0000   116.5069     6.1499     7.2412
  351.5000   113.6050     6.7805     8.1810
  352.0000   112.8314     7.5270     8.8793
  352.5000   113.8218     8.3667     9.4291
  353.0000   114.8317     8.9058     9.9188
  353.5000   116.4473     9.1641     9.9457
  354.0000   118.1367     9.4677     9.9804
  354.5000   119.5414     9.4643    10.0120
  355.0000   118.0605     9.6319    10.0812
  355.5000   116.6354     9.7606    10.2163
  356.0000   114.0783     9.9014    10.7564
  356.5000   110.7709    10.5732    11.9651
  357.0000   106.7277    11.7003    13.4954
  357.5000   101.8861    12.9372    15.7153
  358.0000    91.9661    14.5776    18.3004
  358.5000    78.4103    16.9249    21.3182
  359.0000    65.7462    19.6502    24.7916
  359.5000    53.8140    23.0114    28.5010
  360.0000    54.8604    25.2211    32.2589
  360.5000    58.3097    28.4920    31.9279
  361.0000    61.7291    30.4763    31.6280
  361.5000    65.2269    29.6535    31.4318
  362.0000    66.1691    28.7533    30.5918
  362.5000    65.1562    27.8804    29.2532
  363.0000    64.0052    27.2295    28.0887
  363.5000    67.4863    26.9711    27.3372
