~VERSION INFORMATION
 VERS.                2.0:   CWLS LOG ASCII STANDARD - VERSION 2.0
 WRAP.                 NO:   ONE LINE PER DEPTH STEP
~WELL INFORMATION
#MNEM.UNIT      DATA TYPE    INFORMATION
#----------   ------------   ------------------------------
 STRT.F            8.0000:   START DEPTH
 STOP.F          508.0000:   STOP DEPTH
 STEP.F            0.1000:   STEP LENGTH
 NULL.          -999.2500:   NO VALUE
 COMP. LAWRENCE/ALLISON INC:   COMPANY
 WELL. NPR 3 47-12 SX #3-3:   WELL
 FLD .             TEAPOT:   FIELD
 LOC .       S3 T38N R78W:   LOCATION
 CNTY.            NATRONA:   COUNTY
 STAT.            WYOMING:   STATE
 CTRY. UNITED STATES OF AMERICA:   COUNTRY
 SRVC.           Gearhart:   SERVICE COMPANY
 DATE.        12-AUG-1988:   LOGDATE
 API .       490251124100:   API NUMBER
~CURVE INFORMATION
#MNEM.UNIT       API CODE    CURVE DESCRIPTION
#----------   ------------   ------------------------------
 DEPT.F                  :   
 GRR .GAPI   07 310 01 00:   GAMMA RAY
 RILD.OHMM   07 120 46 00:   INDUCTION LOG DEEP RESISTIVITY
 RILM.OHMM   07 120 44 00:   INDUCTION LOG MEDIUM RESISTIVITY
~PARAMETER INFORMATION
#MNEM.UNIT          VALUE    DESCRIPTION
#----------   ------------   ------------------------------
 PD  .                 GL:   PERMANENT DATUM
 EPD .F              5208:   ELEVATION PERMANENT DATUM
 LMF .                 KB:   LOG MEASURED FROM
 DAPD.F                10:   FEET ABOVE PERMANENT DATUM
 DMF .                 KB:   DRILLING MEASURED FROM
 EKB .F              5218:   KELLING BUSHING
 EDF .F              5216:   DRILLING FLOOR
 EGL .F              5208:   GROUND LEVEL
 DATE.        12-AUG-1988:   RUN DATE
 RUN .                  1:   RUN NUMBER
 DD  .F               515:   DEPTH DRILLER
 DL  .F               516:   DEPTH LOGGER
 BLI .F               508:   BOTTOM LOG INTERVAL
 TLI .F                50:   TOP LOG INTERVAL
 CS  .IN            9.625:   CASING SIZE
 CBD .F                50:   CASING BOTTOM DRILLER
 CBL .F                50:   CASING BOTTOM LOGGER
 BS  .IN             8.75:   BIT SIZE
 BSD .F               515:   BIT SIZE AT DEPTH
 DFT .                AIR:   DRILLING FLUID TYPE
 TCS .HRS            1500:   TIME CURCULATED STOPPED
 TLAB.HRS            1640:   TIME LOGGER AT BOTTOM
 MRT .F                70:   MAXIMUM RECORDED TEMPERATURE
 LUN .               7597:   LOGGING UNIT NUMBER
 LUL .           GILLETTE:   LOGGING UNIT LOCATION
 ENGI.         WEATHERMON:   RECORDING ENGINEER
 WITN.             STRONG:   WITNESSED BY
 CLNT.            A2DTECH:   CLIENT CODE
 ORIG.       2", 5" PRINT:   ORIGIN OF DATA
 UWI .       490251124100:   UNIQUE WELL ID
 DICO. A2D Technologies, Inc.:   DIGITIZING COMPANY
~OTHER INFORMATION
~A    DEPT      GRR      RILD       RILM   
# ...
   44.4000    69.9159  -999.2500  -999.2500
   44.5000    70.1695  -999.2500  -999.2500
   44.6000    70.4667  -999.2500  -999.2500
   44.7000    70.4672  -999.2500  -999.2500
   44.8000    70.7873  -999.2500  -999.2500
   44.9000    71.1836  -999.2500  -999.2500
   45.0000    71.4372  -999.2500  -999.2500
   45.1000    71.6799  -999.2500  -999.2500
   45.2000    71.6806  -999.2500  -999.2500
   45.3000    71.8954  -999.2500  -999.2500
   45.4000    72.1490  -999.2500  -999.2500
   45.5000    72.4025  -999.2500  -999.2500
   45.6000    72.5907  -999.2500  -999.2500
   45.7000    72.5756  -999.2500  -999.2500
   45.8000    72.2893  -999.2500  -999.2500
   45.9000    72.0708  -999.2500  -999.2500
   46.0000    71.8184  -999.2500  -999.2500
   46.1000    71.5660  -999.2500  -999.2500
   46.2000    71.3137  -999.2500  -999.2500
   46.3000    71.0615  -999.2500  -999.2500
   46.4000    70.7801  -999.2500  -999.2500
   46.5000    70.5568  -999.2500  -999.2500
   46.6000    70.4787  -999.2500  -999.2500
   46.7000    70.4793  -999.2500  -999.2500
   46.8000    70.4048  -999.2500  -999.2500
   46.9000    70.1778  -999.2500  -999.2500
   47.0000    70.1786  -999.2500  -999.2500
   47.1000    69.9504  -999.2500  -999.2500
   47.2000    69.8771  -999.2500  -999.2500
   47.3000    69.8777  -999.2500  -999.2500
   47.4000    69.8784  -999.2500  -999.2500
   47.5000    69.8790  -999.2500  -999.2500
   47.6000    69.8796  -999.2500  -999.2500
   47.7000    69.8801  -999.2500  -999.2500
   47.8000    70.0647  -999.2500  -999.2500
   47.9000    70.3183  -999.2500  -999.2500
   48.0000    70.6566  -999.2500  -999.2500
   48.1000    71.1632  -999.2500  -999.2500
   48.2000    71.6987  -999.2500  -999.2500
   48.3000    72.6527  -999.2500  -999.2500
   48.4000    73.6651  -999.2500  -999.2500
   48.5000    75.2342  -999.2500  -999.2500
   48.6000    77.6169  -999.2500  -999.2500
   48.7000    80.6134  -999.2500  -999.2500
   48.8000    83.5026  -999.2500  -999.2500
   48.9000    85.2068  -999.2500  -999.2500
   49.0000    86.9772  -999.2500  -999.2500
   49.1000    88.7481  -999.2500  -999.2500
   49.2000    90.4252  -999.2500  -999.2500
   49.3000    92.0332  -999.2500  -999.2500
   49.4000    94.0962  -999.2500  -999.2500
   49.5000    96.3304  -999.2500  -999.2500
   49.6000    99.4023  -999.2500  -999.2500
   49.7000   103.7323  -999.2500  -999.2500
   49.8000   108.3934  -999.2500  -999.2500
   49.9000   112.1938  -999.2500  -999.2500
   50.0000   114.9773     7.9401   385.0865
   50.1000   117.3986     5.2042   387.7726
   50.2000   118.8229     4.4232   288.1736
   50.3000   120.4398     3.7767   181.6286
   50.4000   122.0616     3.1284   113.7011
   50.5000   123.8331     2.7815    83.9801
   50.6000   125.5950     2.5842    47.1908
   50.7000   127.0845     2.4288    28.4680
   50.8000   127.9178     2.3484    20.1296
   50.9000   129.0890     2.3029    15.7629
   51.0000   130.2451     2.2896    12.4210
   51.1000   131.1386     2.2739     9.5670
   51.2000   131.6452     2.2847     8.0177
   51.3000   132.2319     2.3146     6.1565
   51.4000   132.8714     2.3729     5.3840
   51.5000   133.3041     2.4567     4.4445
   51.6000   133.4439     2.5446     3.7791
   51.7000   133.4445     2.7049     3.5348
   51.8000   133.4595     2.8253     3.4336
   51.9000   133.7483     2.9993     3.3627
   52.0000   133.7489     3.1636     3.3941
   52.1000   133.7495     3.3883     3.4578
   52.2000   133.7501     3.9947     3.5389
   52.3000   133.7507     6.8602     3.6304
   52.4000   133.7513     8.7104     3.7583
   52.5000   133.7520    10.6401     3.9605
   52.6000   133.7525    12.9232     4.1534
   52.7000   134.0557    15.9609     4.3978
   52.8000   134.0563    19.2835     4.6868
   52.9000   134.2316    22.0336     4.9817
   53.0000   134.3601    22.2513     5.2468
   53.1000   134.4361    22.1745     5.6245
   53.2000   134.6639    21.6404     5.8115
   53.3000   134.6645    20.7683     6.1396
   53.4000   134.8943    19.8963     6.5114
   53.5000   135.1479    19.0242     6.8927
   53.6000   135.2714    18.1521     7.4275
   53.7000   135.2720    17.1570     7.9659
   53.8000   135.3032    15.7866     8.4611
   53.9000   135.5759    14.1547     9.0313
   54.0000   135.8104    12.6970     9.6805
   54.1000   135.8796    11.5160    10.4803
   54.2000   135.8802    10.5066    11.7513
   54.3000   135.9660     9.7737    13.3176
   54.4000   136.2194     9.3904    13.8908
   54.5000   136.4872     9.1738    14.4793
   54.6000   136.7266     9.0926    14.8850
   54.7000   137.1694     9.0256    15.0927
   54.8000   137.6759     8.9214    15.0927
   54.9000   138.2724     8.8059    14.8843
   55.0000   139.0314     8.8058    14.4790
   55.1000   139.8191     8.8057    13.6596
   55.2000   140.0633     8.8056    12.6671
   55.3000   140.1228     8.8055    11.7824
   55.4000   140.1234     8.8098    11.1157
   55.5000   140.1241     8.8666    10.6146
   55.6000   140.0795     8.9123    10.2749
   55.7000   139.8227     9.0001    10.0160
   55.8000   139.5749     9.1577     9.7643
   55.9000   138.9248     9.3560     9.4958
   56.0000   138.1665     9.5197     9.2778
   56.1000   137.4081     9.7037     8.8988
   56.2000   136.6998     9.8567     8.6961
   56.3000   136.1949     9.9887     8.3907
   56.4000   135.8936    10.0755     8.1118
   56.5000   135.8941    10.1339     7.9257
   56.6000   135.7406    10.1927     7.7438
   56.7000   135.5927    10.2573     7.6547
   56.8000   135.6482    10.2571     7.5666
   56.9000   135.9018    10.2993     7.5054
   57.0000   136.1998    10.2979     7.4793
   57.1000   136.6174    10.2567     7.4793
   57.2000   136.9650    10.2566     7.4793
   57.3000   137.1093    10.2564     7.4275
   57.4000   137.1098    10.2020     7.4275
   57.5000   137.1003    10.1429     7.4275
   57.6000   136.8086    10.0841     7.4275
   57.7000   136.5956     9.9885     7.4275
   57.8000   136.5071     9.8090     7.4275
   57.9000   136.2795     9.5674     7.4275
   58.0000   135.9032     9.3646     7.4620
   58.1000   135.8739     9.1501     7.4793
   58.2000   135.2993     8.9402     7.4793
   58.3000   134.8632     8.7681     7.4793
   58.4000   134.5266     8.6669     7.4793
   58.5000   134.2743     8.5604     7.4793
   58.6000   134.0914     8.5602     7.5141
   58.7000   134.1314     8.5601     7.5315
   58.8000   134.6978     8.5333     7.5315
   58.9000   135.1446     8.4672     7.5402
   59.0000   135.6512     8.3625     7.5840
   59.1000   136.1575     8.2103     7.5840
   59.2000   136.5897     8.0765     7.6193
   59.3000   136.8433     7.9715     7.6635
   59.4000   137.1220     7.9045     7.7081
   59.5000   137.5785     7.8587     7.7528
   59.6000   137.7283     7.8201     7.7978
   59.7000   137.6001     7.8200     7.7978
   59.8000   137.3478     7.8198     7.8341
   59.9000   137.0956     7.8542     7.8250
   60.0000   136.8230     7.9255     7.7978
   60.1000   136.1253     8.0348     7.7978
   60.2000   135.5501     8.1755     7.7978
   60.3000   135.0448     8.3237     7.7438
   60.4000   134.4554     8.4174     7.7438
   60.5000   133.7659     8.5155     7.7438
   60.6000   133.4984     8.5863     7.7438
   60.7000   132.7863     8.6361     7.7528
   60.8000   132.4039     8.6774     7.7978
   60.9000   132.0131     8.6772     7.7978
   61.0000   131.5077     8.7263     7.7978
   61.1000   131.0416     8.7375     7.7978
   61.2000   130.7788     8.7667     7.8159
   61.3000   130.2946     8.8176     7.8705
   61.4000   129.9821     8.8877     7.9621
   61.5000   129.5866     9.0458     7.9621
   61.6000   129.0812     9.0975     8.0364
   61.7000   128.5758     9.2344     8.1301
   61.8000   128.0593     9.3321     8.2056
   61.9000   127.5651     9.4076     8.2629
   62.0000   126.8624     9.5064     8.3591
   62.1000   126.1043     9.5618     8.4175
   62.2000   125.3459     9.6726     8.4175
   62.3000   124.5387     9.7854     8.4468
   62.4000   123.5244     9.8650     8.4959
   62.5000   122.6174     9.9222     8.5452
