~VERSION INFORMATION
 VERS.                2.0:   CWLS LOG ASCII STANDARD - VERSION 2.0
 WRAP.                 NO:   ONE LINE PER DEPTH STEP
~WELL INFORMATION
#MNEM.UNIT      DATA TYPE    INFORMATION
#----------   ------------   ------------------------------
 STRT.F           12.0000:   START DEPTH
 STOP.F          448.0000:   STOP DEPTH
 STEP.F            0.5000:   STEP LENGTH
 NULL.          -999.2500:   NO VALUE
 COMP. LAWRENCE/ALLISON INC:   COMPANY
 WELL. LI2 -52-61 SX10 #10-10:   WELL
 FLD .             TEAPOT:   FIELD
 LOC .      S10 T38N R78W:   LOCATION
 CNTY.            NATRONA:   COUNTY
 STAT.            WYOMING:   STATE
 CTRY. UNITED STATES OF AMERICA:   COUNTRY
 SRVC.      Dresser Atlas:   SERVICE COMPANY
 DATE.        13-JAN-1985:   LOGDATE
 API .       490251100400:   API NUMBER
~CURVE INFORMATION
#MNEM.UNIT       API CODE    CURVE DESCRIPTION
#----------   ------------   ------------------------------
 DEPT.F                  :   
 AC  .US/F   60 520 00 00:   ACCOUSTIC
 SPR .MV     11 010 01 00:   SPONTANEOUS POTENTIAL FROM RES.
 RD  .OHMM   11 220 10 00:   RESISTIVITY DEEP
 RS  .OHMM   11 220 09 00:   RESISTIVITY SHALLOW
 RMLL.OHMM   11 270 04 00:   MICRO LATEROLOG
 GRD .GAPI   45 310 01 00:   GAMMA RAY FROM DENSITY LOG
 CALD.IN     45 280 60 00:   CALIPER FROM DENSITY LOG
 CORR.G/C3   45 356 01 00:   DENSITY CORRECTION
 DEN .G/C3   45 350 01 00:   COMPENSATED BULK DENSTIY
 PORD.DEC    45 890 12 00:   POROSITY DENSITY SANDSTONE
 CNC .DEC    42 890 03 00:   NEUTRON POROSITY SANDSTONE
~PARAMETER INFORMATION
#MNEM.UNIT          VALUE    DESCRIPTION
#----------   ------------   ------------------------------
 PD  .                 GL:   PERMANENT DATUM
 EPD .F              5156:   ELEVATION PERMANENT DATUM
 LMF .                 GL:   LOG MEASURED FROM
 DMF .                 GL:   DRILLING MEASURED FROM
 EGL .F              5156:   GROUND LEVEL
 DATE.        13-JAN-1985:   RUN DATE
 RUN .                  1:   RUN NUMBER
 DD  .F               450:   DEPTH DRILLER
 DL  .F               450:   DEPTH LOGGER
 BLI .F               448:   BOTTOM LOG INTERVAL
 TLI .F                20:   TOP LOG INTERVAL
 CS  .IN            8.625:   CASING SIZE
 CBD .F                20:   CASING BOTTOM DRILLER
 CBL .F                20:   CASING BOTTOM LOGGER
 BS  .IN            7.875:   BIT SIZE
 BSD .F               450:   BIT SIZE AT DEPTH
 DFT .            KCL-H2O:   DRILLING FLUID TYPE
 MSS .               TANK:   MUD SAMPLE SOURCE
 RMS .OHMM           0.16:   RESISTIVITY MUD SAMPLE
 MST .F                20:   MUD SAMPLE TEMPERATURE
 RMF .OHMM           0.12:   RESISTIVITY MUD FILTRATE SAMPLE
 MFST.F                20:   MUD FILTRATE SAMPLE TEMPERATURE
 RMC .OHMM            0.2:   RESISTIVITY MUD CAKE
 MCST.F                20:   MUD CAKE SAMPLE TEMPERATURE
 MFSS.               CALC:   MUD FILTRATE SAMPLE SOURCE
 MCSS.               CALC:   MUD CAKE SAMPLE SOURCE
 BHT .F               100:   BOTTOM HOLE TEMPERATURE
 TCS .HRS               2:   TIME CURCULATED STOPPED
 MRT .F               100:   MAXIMUM RECORDED TEMPERATURE
 LUN .               6270:   LOGGING UNIT NUMBER
 LUL .                 FM:   LOGGING UNIT LOCATION
 ENGI.          E. GOVETT:   RECORDING ENGINEER
 WITN.             GROOMS:   WITNESSED BY
 CLNT.            A2DTECH:   CLIENT CODE
 ORIG.        2" 5" PRINT:   ORIGIN OF DATA
 UWI .       490251100400:   UNIQUE WELL ID
 DICO. A2D Technologies, Inc.:   DIGITIZING COMPANY
 R1  . POROSITY WITH SANDSTONE:   REMARKS 1
~OTHER INFORMATION
~A   DEPT       AC        SPR         RD         RS       RMLL         GRD      CALD       CORR        DEN       PORD        CNC   
# ...
  378.0000    90.1721   -39.9465    16.5832    14.6312    12.2125    96.7092     7.9277     0.0426     2.4627     0.1223     0.2640
  378.5000    89.8011   -39.9523    16.4606    14.5230    12.1208    97.0090     7.9120     0.0682     2.4695     0.1211     0.2646
  379.0000    89.6544   -40.1086    16.4529    14.5163    12.1150    94.5971     7.9112     0.0832     2.4732     0.1224     0.2610
  379.5000    89.7333   -40.1190    16.4452    14.5095    12.0241    93.0441     7.9105     0.0862     2.4762     0.1255     0.2577
  380.0000    90.1127   -40.4228    16.3159    14.4022    11.8525    93.2377     7.9078     0.0801     2.4706     0.1281     0.2501
  380.5000    90.4170   -40.4286    16.0887    14.1964    11.8470    95.0431     7.8939     0.0533     2.4640     0.1276     0.2438
  381.0000    90.5710   -40.5850    15.7490    14.0899    11.6778    96.0955     7.8931     0.0134     2.4677     0.1240     0.2444
  381.5000    90.6506   -40.5908    15.5242    13.7925    11.5111    95.9431     7.8924     0.0224     2.4730     0.1228     0.2464
  382.0000    90.9548   -40.5966    15.3026    13.5956    11.3467    97.0156     7.8917     0.0359     2.4752     0.1225     0.2533
  382.5000    91.1839   -40.6024    15.0841    13.4015    11.2615    95.9390     7.8910     0.0480     2.4751     0.1240     0.2633
  383.0000    91.4130   -40.6096    14.9612    13.3024    11.1782    93.9794     7.8901     0.0539     2.4691     0.1298     0.2690
  383.5000    91.6421   -40.6153    14.7571    13.1110    11.0186    92.7728     7.8894     0.0448     2.4615     0.1343     0.2597
  384.0000    91.7961   -40.7717    14.5464    13.0140    10.8613    92.6204     7.8886     0.0402     2.4561     0.1374     0.2570
  384.5000    91.8749   -40.9281    14.3387    12.8282    10.7810    92.9198     7.8729     0.0386     2.4516     0.1359     0.2582
  385.0000    91.9537   -41.0845    14.1340    12.6451    10.6269    94.1224     7.8722     0.0340     2.4500     0.1347     0.2615
  385.5000    91.9574   -41.3916    13.9322    12.3781    10.6209    96.6808     7.8697     0.0279     2.4522     0.1344     0.2658
  386.0000    92.1114   -41.5493    13.6241    12.1968    10.5423    99.3899     7.8555     0.0278     2.4537     0.1389     0.2737
  386.5000    92.2653   -41.8563    13.2561    11.8597    10.3918   100.5929     7.8548     0.0262     2.4529     0.1420     0.2671
  387.0000    92.4944   -42.1633    12.7970    11.6093    10.2435    99.5369     7.8541     0.0277     2.4460     0.1444     0.2589
  387.5000    93.0992   -42.4702    12.4400    11.4436    10.0972    99.7109     7.8534     0.0276     2.4400     0.1419     0.2580
  388.0000    93.7942   -42.6266    12.0091    11.2020     9.6788   100.8882     7.8376     0.0260     2.4399     0.1411     0.2611
  388.5000    94.7796   -42.9473    11.5107    10.9655     9.1506   101.0375     7.8367     0.0229     2.4436     0.1457     0.2611
  389.0000    99.7979   -43.3926    10.8833    10.5040     8.7116   101.1863     7.8360     0.0168     2.4398     0.1475     0.2617
  389.5000   104.2343   -43.8502    10.1472     9.8686     8.0661   102.3888     7.8353     0.0121     2.4345     0.1472     0.2811
  390.0000   107.3184   -44.1572     8.4057     7.7324     7.1135   104.9473     7.8345     0.0136     2.4322     0.1509     0.3183
  390.5000   107.0216   -44.4642     6.7250     6.2730     5.4314   110.2161     7.8338     0.0271     2.4314     0.1671     0.3156
  391.0000   103.7195   -44.7712     6.0558     5.8488     3.7210   116.5396     7.8331     0.0225     2.4182     0.2002     0.3003
  391.5000    97.5624   -44.9443     5.9693     5.7653     3.9595   121.3571     7.8322     0.0194     2.3754     0.2023     0.2954
  392.0000    92.6074   -45.3866     6.3073     6.3956     5.1550   122.5606     7.8465     0.0269     2.3406     0.1966     0.2706
  392.5000    90.7328   -45.6936     7.6601     7.4498     8.3851   114.4258     7.8458     0.0283     2.3451     0.1631     0.2613
  393.0000    90.1355   -46.0005    11.5419     9.7671     9.9732   104.0017     7.8451     0.0146     2.3941     0.1428     0.2661
  393.5000    89.7635   -46.3075    13.4444    11.6981    10.3934    99.5121     7.8444     0.0100     2.4243     0.1362     0.2713
  394.0000    89.5418   -46.6145    13.6264    12.3618    10.3885    98.1549     7.8435     0.0098     2.4507     0.1305     0.2734
  394.5000    89.5455   -46.3191    13.6199    12.7047    10.3117    98.4543     7.8427     0.0115     2.4642     0.1184     0.2686
  395.0000    89.7746   -46.0251    13.6120    12.1782    10.8200   100.1091     7.8420     0.0279     2.4717     0.1121     0.2674
  395.5000    90.5497   -45.8788    13.6057    12.0896    11.2772   100.0971     7.8565     0.0535     2.4936     0.1072     0.2674
  396.0000    91.2296   -45.7340    13.6959    12.3373    10.6605    98.7496     7.8707     0.0610     2.4989     0.1079     0.2675
  396.5000    91.5146   -45.5892    13.6879    12.4191    10.5083   102.9647     7.8699     0.0579     2.4988     0.1103     0.2669
  397.0000    91.3681   -45.5964    13.8732    12.6737    10.5034   105.8243     7.8690     0.0473     2.4957     0.1118     0.2660
  397.5000    90.9961   -45.6250    14.0739    13.0355    10.8147   107.1780     7.8683     0.0363     2.4919     0.1125     0.2563
  398.0000    90.4739   -45.7600    14.5502    13.5724    11.4059   102.9593     7.8676     0.0260     2.4896     0.1107     0.2527
  398.5000    89.9517   -45.7532    15.0581    13.9488    11.8864   100.5128     7.8669     0.0259     2.4956     0.1092     0.2512
  399.0000    89.4294   -45.7644    15.6926    14.4358    12.0474   100.2449     7.8662     0.0470     2.4978     0.1077     0.2470
  399.5000    88.9072   -45.7737    16.1279    14.9398    12.1258   102.6523     7.8805     0.0590     2.4985     0.1086     0.2463
  400.0000    88.4201   -45.7846    16.5752    15.1420    12.4621   100.4926     7.8798     0.0574     2.4927     0.1138     0.2558
  400.5000    88.1633   -45.7936    16.9182    15.2705    12.8349    96.4728     7.8856     0.0407     2.4871     0.1131     0.2532
  401.0000    88.0168   -45.8026    17.1495    15.4530    13.2078    96.9297     7.8911     0.0422     2.4916     0.1108     0.2456
  401.5000    87.7951   -45.6608    17.2648    15.5579    13.5369   100.9843     7.8930     0.0422     2.4954     0.1093     0.2411
  402.0000    87.5735   -45.5193    17.4994    15.7709    13.0701   102.4875     7.8772     0.0376     2.4969     0.1081     0.2444
  402.5000    87.4270   -45.5305    17.4934    15.8930    13.1588   102.6359     7.8767     0.0345     2.4991     0.1075     0.2481
  403.0000    87.2053   -45.5395    17.6098    16.0954    13.4321   100.9757     7.8761     0.0103     2.5006     0.1073     0.2454
  403.5000    87.1337   -45.5485    17.7268    16.2037    13.6298    98.7138     7.8605     0.0025     2.4983     0.1080     0.2383
  404.0000    87.2128   -45.5575    17.8431    16.1987    13.9967    96.4437     7.8597     0.0300     2.4899     0.1209     0.2367
  404.5000    87.5170   -45.5664    17.8371    16.0823    13.9932    97.8036     7.8592     0.0358     2.4748     0.1249     0.2554
  405.0000    88.0467   -45.4248    17.8312    16.0783    13.7008    99.9092     7.8436     0.0388     2.4702     0.1222     0.2594
  405.5000    88.4261   -45.4360    17.9496    16.0742    13.5081    99.0027     7.8430     0.0478     2.4838     0.1171     0.2522
  406.0000    88.7304   -45.4450    17.9421    16.1824    13.5047    97.1926     7.8424     0.0599     2.4913     0.1126     0.2401
  406.5000    88.6589   -45.3031    18.0629    16.5185    13.8931    95.8343     7.8418     0.0644     2.4943     0.1114     0.2334
  407.0000    88.5875   -45.3125    18.3083    16.8626    14.5704    94.7630     7.8411     0.0566     2.4928     0.1169     0.2329
  407.5000    88.5913   -45.3235    18.3021    17.0946    14.7718    94.1711     7.8557     0.0401     2.4836     0.1217     0.2401
  408.0000    88.7453   -45.3325    18.4238    16.6213    14.2624    94.4702     7.8550     0.0355     2.4693     0.1308     0.2465
