~VERSION INFORMATION
 VERS.                2.0:   CWLS LOG ASCII STANDARD - VERSION 2.0
 WRAP.                 NO:   ONE LINE PER DEPTH STEP
~WELL INFORMATION
#MNEM.UNIT      DATA TYPE    INFORMATION
#----------   ------------   ------------------------------
 STRT.F            0.0000:   START DEPTH
 STOP.F          530.0000:   STOP DEPTH
 STEP.F            0.5000:   STEP LENGTH
 NULL.          -999.2500:   NO VALUE
 COMP.   LAWRENCE-ALLISON:   COMPANY
 WELL. NPR 3 #51-56SX10 OB3:   WELL
 FLD .             TEAPOT:   FIELD
 LOC .      S10 T38N R78W:   LOCATION
 CNTY.            NATRONA:   COUNTY
 STAT.            WYOMING:   STATE
 CTRY. UNITED STATES OF AMERICA:   COUNTRY
 SRVC.           Gearhart:   SERVICE COMPANY
 DATE.        28-JUN-1987:   LOGDATE
 API .       490251100800:   API NUMBER
~CURVE INFORMATION
#MNEM.UNIT       API CODE    CURVE DESCRIPTION
#----------   ------------   ------------------------------
 DEPT.F                  :   
 CALD.IN     45 280 60 00:   CALIPER ROM DENSITY LOG
 CNC .DEC    45 890 03 00:   NEUTRON POROSITY SANDSTONE
 CORR.G/C3   45 356 01 00:   DENSITY CORRECTION
 DEN .G/C3   45 350 01 00:   COMPENSATED BULK DENSTIY
 PORD.DEC    45 890 12 00:   POROSITY DENSITY SANDSTONE
 GRR .GAPI   07 310 01 00:   GAMMA RAY
 ILD .OHMM   07 120 46 00:   INDUCTION LOG DEEP
 ILM .OHMM   07 120 44 00:   INDUCTION LOG MEDIUM
 LL  .OHMM   07 220 00 00:   LATEROLOG RESISTIVITY
 SPR .MV     07 010 01 00:   SPONTANEOUS POTENTIAL
 DT  .US/F   60 520 00 00:   INTERVAL TRANSIT TIME
~PARAMETER INFORMATION
#MNEM.UNIT          VALUE    DESCRIPTION
#----------   ------------   ------------------------------
 PD  .                 GL:   PERMANENT DATUM
 EPD .F              5198:   ELEVATION PERMANENT DATUM
 LMF .                 KB:   LOG MEASURED FROM
 DAPD.F                 8:   FEET ABOVE PERMANENT DATUM
 DMF .                 KB:   DRILLING MEASURED FROM
 EKB .F              5206:   KELLING BUSHING
 EDF .F              5204:   DRILLING FLOOR
 EGL .F              5198:   GROUND LEVEL
 DATE.        28-JUN-1987:   RUN DATE
 RUN .                  1:   RUN NUMBER
 DD  .F               535:   DEPTH DRILLER
 DL  .F               536:   DEPTH LOGGER
 BLI .F               533:   BOTTOM LOG INTERVAL
 BS  .IN             7.87:   BIT SIZE
 BSD .F               535:   BIT SIZE AT DEPTH
 DFT .                MUD:   DRILLING FLUID TYPE
 RMS .OHMM           0.84:   RESISTIVITY MUD SAMPLE
 MST .F                57:   MUD SAMPLE TEMPERATURE
 RMF .OHMM           0.63:   RESISTIVITY MUD FILTRATE SAMPLE
 MFST.F                57:   MUD FILTRATE SAMPLE TEMPERATURE
 RMC .OHMM           1.05:   RESISTIVITY MUD CAKE
 MCST.F                57:   MUD CAKE SAMPLE TEMPERATURE
 MFSS.               CALC:   MUD FILTRATE SAMPLE SOURCE
 MCSS.               CALC:   MUD CAKE SAMPLE SOURCE
 RMB .OHMM           0.59:   RESISTIVITY MUD AT BHT
 BHT .F                80:   BOTTOM HOLE TEMPERATURE
 TCS .HRS            1200:   TIME CURCULATED STOPPED
 TLAB.HRS            1322:   TIME LOGGER AT BOTTOM
 LUN .               7650:   LOGGING UNIT NUMBER
 LUL .           GILLETTE:   LOGGING UNIT LOCATION
 ENGI. JOHNSTON/HUCKFELDT:   RECORDING ENGINEER
 WITN.             STRONG:   WITNESSED BY
 CLNT.            A2DTECH:   CLIENT CODE
 ORIG.      2.5" 5" PRINT:   ORIGIN OF DATA
 UWI .       490251100800:   UNIQUE WELL ID
 DICO. A2D Technologies, Inc.:   DIGITIZING COMPANY
~OTHER INFORMATION
~A    DEPT    CALD        CNC       CORR        DEN       PORD         GRR         ILD        ILM       LL        SPR         DT   
# ...
  366.0000     6.3807     0.2435     0.0086     2.4290     0.1450    63.4598    19.7661    20.3904    20.9063   -32.9366    90.0324
  366.5000     6.3816     0.2402     0.0117     2.4449     0.1372    61.6609    20.8439    22.2096    22.4569   -32.6334    90.1881
  367.0000     6.3825     0.2401     0.0404     2.4630     0.1287    61.0631    22.9606    24.4254    23.3855   -32.6116    90.3438
  367.5000     6.3834     0.2413     0.0360     2.4660     0.1281    62.8679    25.6433    25.5650    23.3886   -32.9279    90.4994
  368.0000     6.3844     0.2440     0.0345     2.4608     0.1346    67.1951    27.1027    26.4817    23.0710   -32.9489    90.5795
  368.5000     6.3702     0.2467     0.0391     2.4518     0.1349    68.8799    28.6452    26.6184    22.7582   -33.2678    89.9037
  369.0000     6.3713     0.2509     0.0392     2.4518     0.1346    68.6427    29.4520    27.3922    22.7615   -33.5198    89.6804
  369.5000     6.3722     0.2457     0.0408     2.4571     0.1285    66.1632    29.4724    27.9962    22.7646   -33.5165    89.7616
  370.0000     6.3433     0.2408     0.0439     2.4677     0.1273    64.0836    29.8732    29.4703    23.0837   -33.5135    89.6893
  370.5000     6.3293     0.2465     0.0455     2.4685     0.1272    64.0871    30.2942    32.1432    27.6705   -33.5105    89.6183
  371.0000     6.3302     0.2543     0.0366     2.4670     0.1266    64.0901    30.4953    32.5938    31.6321   -33.5075    89.2459
  371.5000     6.3311     0.2555     0.0397     2.4686     0.1236    64.4134    32.8743    32.5981    36.6025   -33.5045    88.9481
  372.0000     6.3319     0.2528     0.0428     2.4723     0.1229    64.6973    33.3845    32.6024    37.4219   -33.2007    88.6491
  372.5000     6.3328     0.2503     0.0233     2.4669     0.1271    64.7002    32.9342    32.1603    35.7579   -32.5972    88.6548
  373.0000     6.3487     0.2515     0.0143     2.4663     0.1280    65.3037    32.5020    30.8613    32.3542   -31.9937    88.6593
  373.5000     6.3345     0.2521     0.0114     2.4664     0.1246    65.3066    31.5678    30.0075    26.4995   -31.9908    88.8149
  374.0000     6.3356     0.2464     0.0341     2.4785     0.1189    65.3095    29.5140    29.5729    24.7585   -31.6876    88.8194
  374.5000     6.3364     0.2321     0.0372     2.4800     0.1204    61.7088    29.1148    28.7456    25.1064   -31.3809    88.8239
  375.0000     6.3373     0.2318     0.0343     2.4763     0.1215    60.5105    28.7221    28.1385    25.1097   -30.7557    88.7528
  375.5000     6.3382     0.2338     0.0329     2.4755     0.1221    62.9959    28.3346    26.7877    25.1131   -30.4775    88.6817
  376.0000     6.3391     0.2507     0.0420     2.4786     0.1172    64.1201    28.3408    25.9014    24.7722   -30.4745    88.6863
  376.5000     6.3400     0.2552     0.0647     2.4824     0.1172    64.1231    28.3465    25.3096    22.4963   -30.4715    88.6984
  377.0000     6.3409     0.2557     0.0648     2.4832     0.1175    64.4464    27.9601    24.6014    21.2921   -30.4685    88.9977
  377.5000     6.3418     0.2554     0.0619     2.4817     0.1190    67.7327    27.2088    24.1084    21.2949   -30.4655    89.1660
  378.0000     6.3279     0.2545     0.0529     2.4757     0.1246    67.7357    26.7905    23.4564    21.3175   -30.4625    89.3100
  378.5000     6.3140     0.2502     0.0244     2.4712     0.1255    67.4585    25.6874    22.8215    21.5965   -31.0604    89.3145
  379.0000     6.3147     0.2468     0.0184     2.4697     0.1231    67.1411    24.8801    22.8245    21.5995   -31.1541    89.0167
  379.5000     6.3157     0.2498     0.0215     2.4738     0.1159    67.7453    24.2757    22.8275    21.1521   -31.3549    88.7189
  380.0000     6.3166     0.2546     0.0292     2.4926     0.1122    68.9494    23.7282    22.5180    20.3528   -31.0511    88.7234
  380.5000     6.3024     0.2558     0.0443     2.4909     0.1173    70.1535    23.5829    22.5210    19.5129   -30.8864    88.7279
  381.0000     6.3034     0.2549     0.0565     2.4857     0.1205    73.7600    23.4139    21.6113    19.2307   -30.4439    88.7323
  381.5000     6.3043     0.2473     0.0581     2.4774     0.1229    71.3606    23.0990    21.2780    19.0920   -30.3459    88.8124
  382.0000     6.3062     0.2443     0.0491     2.4692     0.1289    68.3605    23.1036    21.0291    19.0951   -30.4384    88.8925
  382.5000     6.3358     0.2475     0.0176     2.4601     0.1322    68.3634    23.1082    21.0323    19.0976   -31.9367    88.8964
  383.0000     6.3369     0.2484     0.0056     2.4594     0.1325    68.3664    23.1129    21.0352    19.1002   -32.2342    88.9015
  383.5000     6.3227     0.2447     0.0027     2.4594     0.1303    68.4494    23.1175    21.0381    19.1027   -32.5315    88.9060
  384.0000     6.3385     0.2378     0.0292     2.4625     0.1275    68.9730    23.1221    21.3331    19.1053   -32.5285    89.0617
  384.5000     6.3395     0.2381     0.0496     2.4678     0.1254    70.8179    23.1267    21.6323    19.1078   -32.2252    89.1418
  385.0000     6.3404     0.2380     0.0406     2.4701     0.1275    72.7828    23.1315    21.6358    19.1104   -32.5228    89.1463
  385.5000     6.3561     0.2353     0.0241     2.4641     0.1326    73.1862    23.4575    21.6387    19.0956   -32.0660    89.1508
  386.0000     6.3570     0.2362     0.0137     2.4588     0.1347    72.5886    23.4623    21.6416    18.8537   -29.6237    89.1553
  386.5000     6.3727     0.2385     0.0213     2.4551     0.1337    70.4695    23.4672    21.6444    18.8565   -27.5304    89.1598
  387.0000     6.3736     0.2397     0.0154     2.4574     0.1346    68.3904    23.4720    21.6473    18.6005   -23.7869    89.2398
  387.5000     6.3745     0.2430     0.0139     2.4528     0.1358    68.9945    23.4769    21.6502    18.5185   -22.8353    89.6978
  388.0000     6.3753     0.2538     0.0140     2.4514     0.1360    69.5980    23.4818    21.6531    18.3507   -32.2036    89.8535
  388.5000     6.3762     0.2676     0.0186     2.4522     0.1321    70.8021    23.4866    21.3595    18.3537   -30.3989    89.9336
  389.0000     6.3622     0.2666     0.0263     2.4613     0.1284    71.4056    23.4915    21.3147    18.3563   -29.7954    90.0137
  389.5000     6.3632     0.2642     0.0354     2.4673     0.1266    70.2072    22.8581    20.7184    18.3593   -30.0931    90.0182
  390.0000     6.3491     0.2582     0.0370     2.4719     0.1254    70.8108    21.3396    20.3353    18.3617   -30.3902    89.8715
  390.5000     6.3502     0.2485     0.0341     2.4749     0.1235    73.8168    20.4790    19.5753    18.1124   -30.3873    89.9541
  391.0000     6.3360     0.2452     0.0294     2.4750     0.1214    74.4204    19.9260    18.6557    17.3809   -30.3974    90.1124
  391.5000     6.3519     0.2467     0.0218     2.4742     0.1213    74.4234    19.3879    17.9921    17.3515   -30.6818    90.4293
  392.0000     6.3528     0.2496     0.0178     2.4735     0.1240    75.1872    19.1262    17.4887    17.1477   -26.9712    91.1192
  392.5000     6.3537     0.2520     0.0179     2.4728     0.1237    77.8329    18.6098    16.9155    16.6835   -19.8652    91.5823
  393.0000     6.3545     0.2574     0.0285     2.4766     0.1228    80.0781    18.5907    16.6858    15.5460   -28.2707    92.4695
  393.5000     6.3554     0.2628     0.0482     2.4827     0.1173    81.0420    18.1109    16.6884    14.5122   -27.6672    93.2299
  394.0000     6.3563     0.2648     0.0649     2.4857     0.1155    80.1241    18.0603    16.4620    14.3414   -29.8919    93.6123
  394.5000     6.3574     0.2711     0.0559     2.4842     0.1172    79.2468    17.8008    16.4642    14.3436   -30.3634    93.7680
  395.0000     6.3582     0.2780     0.0515     2.4835     0.1172    78.6487    17.6289    16.6950    14.3456   -30.0595    93.9237
  395.5000     6.3591     0.2888     0.0531     2.4843     0.1184    77.4504    17.6331    16.6973    14.3476   -30.3569    95.0619
  396.0000     6.3600     0.2997     0.0441     2.4817     0.1256    75.0513    17.7543    16.7274    14.2578   -30.6543    99.0725
