~VERSION INFORMATION
 VERS.                2.0:   CWLS LOG ASCII STANDARD - VERSION 2.0
 WRAP.                 NO:   ONE LINE PER DEPTH STEP
~WELL INFORMATION
#MNEM.UNIT      DATA TYPE    INFORMATION
#----------   ------------   ------------------------------
 STRT.F           48.0000:   START DEPTH
 STOP.F          484.0000:   STOP DEPTH
 STEP.F            0.5000:   STEP LENGTH
 NULL.          -999.2500:   NO VALUE
 COMP. BROWN JOHN E&C INC:   COMPANY
 WELL.    SX 10 #55-11-10:   WELL
 FLD .             TEAPOT:   FIELD
 LOC .      S10 T38N R78W:   LOCATION
 CNTY.            NATRONA:   COUNTY
 STAT.            WYOMING:   STATE
 CTRY. UNITED STATES OF AMERICA:   COUNTRY
 SRVC.       Schlumberger:   SERVICE COMPANY
 DATE.        29-SEP-1990:   LOGDATE
 API .       490251131800:   API NUMBER
~CURVE INFORMATION
#MNEM.UNIT       API CODE    CURVE DESCRIPTION
#----------   ------------   ------------------------------
 DEPT.F                  :   
 ILD .OHMM   07 120 46 00:   INDUCTION LOG DEEP
 ILM .OHMM   07 120 44 00:   INDUCTION LOG MEDIUM
 GRR .GAPI   07 310 01 00:   GAMMA RAY FROM RES. LOG.
~PARAMETER INFORMATION
#MNEM.UNIT          VALUE    DESCRIPTION
#----------   ------------   ------------------------------
 PD  .                 GL:   PERMANENT DATUM
 EPD .F              5216:   ELEVATION PERMANENT DATUM
 LMF .                 KB:   LOG MEASURED FROM
 DAPD.F                10:   FEET ABOVE PERMANENT DATUM
 DMF .                 KB:   DRILLING MEASURED FROM
 EKB .F              5226:   KELLING BUSHING
 EDF .F              5225:   DRILLING FLOOR
 EGL .F              5216:   GROUND LEVEL
 DATE.          9-29-1990:   RUN DATE
 RUN .                  1:   RUN NUMBER
 DD  .F               490:   DEPTH DRILLER
 DL  .F               490:   DEPTH LOGGER
 BLI .F               484:   BOTTOM LOG INTERVAL
 TLI .F                48:   TOP LOG INTERVAL
 CS  .IN            8.625:   CASING SIZE
 CBD .F                53:   CASING BOTTOM DRILLER
 CBL .F                53:   CASING BOTTOM LOGGER
 BS  .IN            7.875:   BIT SIZE
 BSD .F               490:   BIT SIZE AT DEPTH
 DFT .                AIR:   DRILLING FLUID TYPE
 TLAB.HRS            1855:   TIME LOGGER AT BOTTOM
 LUN .               6887:   LOGGING UNIT NUMBER
 LUL .               CODY:   LOGGING UNIT LOCATION
 ENGI.        MIKE FISHER:   RECORDING ENGINEER
 WITN.       GARRY STRONG:   WITNESSED BY
 CLNT.            A2DTECH:   CLIENT CODE
 ORIG.      2" & 5" PRINT:   ORIGIN OF DATA
 UWI .       490251131800:   UNIQUE WELL ID
 DICO. A2D Technologies, Inc.:   DIGITIZING COMPANY
~OTHER INFORMATION
~A   DEPT      ILD        ILM         GRR  
# ...
  321.0000    21.9793    21.2082    97.8587
  321.5000    21.9171    21.0208    97.3418
  322.0000    21.8550    20.8350    97.6354
  322.5000    21.7352    20.6508    99.1505
  323.0000    21.5119    20.4683    98.5937
  323.5000    21.2908    20.2874    98.0242
  324.0000    21.2468    20.1076    98.9185
  324.5000    21.0511    19.9304   103.0678
  325.0000    20.6208    19.6999   104.2932
  325.5000    20.1993    19.4640   102.4363
  326.0000    19.7864    19.2307   100.1315
  326.5000    19.5402    19.0006    99.4762
  327.0000    19.5402    18.8251   100.1688
  327.5000    19.5399    18.8261   100.7820
  328.0000    19.5402    18.8262   100.3332
  328.5000    19.5401    18.8588    99.8792
  329.0000    19.5396    19.0883    99.4850
  329.5000    19.5406    19.3197    99.1600
  330.0000    19.6772    19.4189    98.2383
  330.5000    19.8143    19.4910    97.7236
  331.0000    19.9807    19.5634    98.5838
  331.5000    20.4706    19.6361    99.9360
  332.0000    21.1353    19.7008    99.3779
  332.5000    21.8438    20.6569    97.1823
  333.0000    22.5761    21.8654    96.1545
  333.5000    23.0836    23.1469    94.9021
  334.0000    22.8622    25.1200    92.4643
  334.5000    22.6793    24.5133    88.2517
  335.0000    22.4979    23.4728    86.1688
  335.5000    21.8252    22.1362    86.7586
  336.0000    21.0735    20.6920    90.6207
  336.5000    20.2462    19.3420    94.8294
  337.0000    19.3179    18.3752    98.8082
  337.5000    17.9707    17.5576   100.6183
  338.0000    17.1502    16.7764   102.0305
  338.5000    16.6322    16.0724   103.5517
  339.0000    16.3227    15.9623   101.7084
  339.5000    16.2182    15.8601    99.8423
  340.0000    16.0724    15.7761    97.9078
  340.5000    16.1143    15.7761    98.5196
  341.0000    16.1851    15.7761    99.7414
  341.5000    16.2562    15.7761   100.9726
  342.0000    16.3288    15.7761   101.7421
  342.5000    16.3739    15.7760    99.0265
  343.0000    16.1484    15.7761    96.3958
  343.5000    15.9852    15.7761    97.1972
  344.0000    15.7302    15.4156    99.3320
  344.5000    15.2030    15.0590   100.7027
  345.0000    15.3539    14.9361    99.0784
  345.5000    15.4825    14.8017    96.0982
  346.0000    15.1974    14.6446    94.6974
  346.5000    14.9896    14.7897    95.5486
  347.0000    14.5875    14.9196    97.5420
  347.5000    14.1697    14.1992   100.9178
  348.0000    13.9789    14.0630   103.5554
  348.5000    14.6446    14.5090   103.5027
  349.0000    14.5789    14.2795   101.8825
  349.5000    14.4712    14.0520   102.0231
  350.0000    14.3746    13.9336   103.9636
  350.5000    14.4220    13.8668   107.2029
  351.0000    14.4653    13.8495   108.6115
  351.5000    14.5090    14.1525   109.2941
  352.0000    14.6742    14.3746   108.9130
  352.5000    14.8829    14.5288   106.6740
  353.0000    15.0945    14.7160   103.7776
  353.5000    15.2493    14.9196   102.4613
  354.0000    15.3476    14.9196   102.4574
  354.5000    15.4453    14.9196   103.8309
  355.0000    15.4873    14.8838   103.3161
  355.5000    15.2932    14.8244   102.0517
  356.0000    15.1367    14.7084   100.3575
  356.5000    14.8993    14.4460    99.7829
  357.0000    14.5847    14.1883   101.7304
  357.5000    14.2769    13.9250   103.4723
  358.0000    13.9789    13.6199   104.5227
  358.5000    13.7711    13.3205   104.6558
  359.0000    13.5706    13.0899   104.3500
  359.5000    13.3867    12.8919   104.0330
  360.0000    13.2200    12.6985   103.7096
  360.5000    13.0976    12.5023   103.6521
  361.0000    13.6685    12.6787   103.6419
  361.5000    14.4704    12.8561   104.3619
  362.0000    15.3192    13.9990   105.4758
  362.5000    16.6721    15.8743   103.6355
  363.0000    18.8264    18.3752    97.7895
  363.5000    20.9030    21.2701    86.9883
  364.0000    23.3806    24.6211    80.0170
  364.5000    25.2970    26.7686    79.8989
  365.0000    27.3205    27.2730    83.2930
  365.5000    28.8749    27.7869    85.5962
  366.0000    30.2761    28.3495    86.8376
  366.5000    30.2717    28.3495    87.9921
  367.0000    30.2615    28.3495    88.6792
  367.5000    28.8955    28.3474    87.4965
  368.0000    29.1887    28.4499    86.1107
  368.5000    29.2968    28.6768    85.8071
  369.0000    29.3978    28.9083    86.1270
  369.5000    29.6125    29.1519    86.4877
  370.0000    29.9700    29.3742    86.8404
  370.5000    30.2572    29.6102    87.9241
  371.0000    29.8638    29.6994    88.9767
  371.5000    29.4243    29.6994    89.6336
  372.0000    30.4249    30.0129    88.8232
  372.5000    30.8254    30.8320    87.0549
  373.0000    30.8254    30.8237    85.4240
  373.5000    30.8254    30.8282    85.1265
  374.0000    30.0257    30.5422    85.4359
  374.5000    29.1519    28.7041    87.5007
  375.0000    29.4119    27.3105    89.8946
  375.5000    29.7995    27.3139    92.2617
  376.0000    29.9770    27.6838    93.0938
  376.5000    28.8850    28.0870    91.0803
  377.0000    28.1034    27.6204    89.1109
  377.5000    27.3430    27.3580    87.6233
  378.0000    26.7013    26.5120    86.8293
  378.5000    26.3195    25.6262    87.3044
  379.0000    26.0724    24.7840    88.9674
  379.5000    26.0724    24.1482    91.5096
  380.0000    26.0724    23.5362    93.1346
  380.5000    24.6652    23.3597    92.3286
  381.0000    24.1433    23.1878    90.2038
  381.5000    23.8144    23.0520    90.1728
  382.0000    23.5362    22.9516    91.2111
  382.5000    23.6983    22.8884    92.3469
  383.0000    23.8409    22.8884    93.4802
  383.5000    23.9783    22.8882    94.6155
  384.0000    24.0450    22.8875    95.8034
  384.5000    24.1092    22.8855    94.2786
  385.0000    24.1736    23.0769    91.8095
  385.5000    24.2024    23.2855    89.2068
  386.0000    24.4286    23.4960    89.2650
  386.5000    24.6609    23.8433    89.8493
  387.0000    24.6601    24.2024    89.2552
  387.5000    24.0627    23.7392    88.6346
  388.0000    23.7562    23.3912    88.0096
  388.5000    24.2024    22.8884    88.7866
  389.0000    23.6425    22.4907    90.6850
  389.5000    23.0526    22.2584    92.4404
  390.0000    22.4775    21.8507    93.8831
  390.5000    21.6458    21.4608    93.8949
  391.0000    22.0451    20.8551    91.9569
  391.5000    22.8884    21.2319    90.0395
  392.0000    23.0568    21.9494    88.1114
  392.5000    23.3153    22.6765    86.1725
  393.0000    22.8550    22.5185    84.8491
  393.5000    22.4587    22.1923    84.4192
  394.0000    23.0154    21.6187    85.0470
  394.5000    21.9144    21.2468    88.5579
  395.0000    21.1639    20.2999    93.5707
  395.5000    20.5247    19.3484    98.6297
  396.0000    19.7397    18.6639   101.9174
  396.5000    19.0035    18.1340   101.5809
  397.0000    18.2637    17.6966   100.8636
  397.5000    17.6016    17.3046   100.1103
  398.0000    17.2789    16.9212    99.3994
  398.5000    17.2152    16.7805    96.7454
  399.0000    17.1539    16.7075    95.0785
  399.5000    16.9246    16.5015    94.2883
  400.0000    16.6818    16.2269    93.3563
  400.5000    16.4331    15.9568    91.4310
  401.0000    16.2097    15.6912    89.8206
  401.5000    16.0276    15.5584    90.2896
  402.0000    15.9093    15.4658    91.9260
  402.5000    15.7943    15.3719    94.7495
  403.0000    15.6148    15.1924    97.7681
  403.5000    15.4296    14.9647   100.7522
  404.0000    15.2458    14.7438   103.3891
  404.5000    15.1363    14.5879   101.5982
  405.0000    15.0222    14.4897    98.8534
  405.5000    14.9090    14.3908    98.1894
  406.0000    14.7966    14.2927    97.7312
  406.5000    14.6990    14.2250    96.8046
  407.0000    14.5740    14.1911    95.6628
  407.5000    14.4506    14.1572    95.5321
  408.0000    14.3746    14.1237    95.5171
  408.5000    14.3746    14.1093    96.3123
  409.0000    14.3746    14.1107    97.2494
  409.5000    14.4301    14.0459    99.4920
  410.0000    14.5177    13.9789   100.6618
  410.5000    14.6441    14.0583   100.3049
  411.0000    14.6192    14.1710    99.9862
  411.5000    14.5725    14.2415   100.0162
