~VERSION INFORMATION
 VERS.                2.0:   CWLS LOG ASCII STANDARD - VERSION 2.0
 WRAP.                 NO:   ONE LINE PER DEPTH STEP
~WELL INFORMATION
#MNEM.UNIT      DATA TYPE    INFORMATION
#----------   ------------   ------------------------------
 STRT.F            0.0000:   START DEPTH
 STOP.F          795.0000:   STOP DEPTH
 STEP.F            0.5000:   STEP LENGTH
 NULL.          -999.2500:   NO VALUE
 COMP. BROWN JOHN E&C INC:   COMPANY
 WELL. NPR 3 SX-11 #41-11:   WELL
 FLD .             TEAPOT:   FIELD
 LOC .      S11 T38N R78W:   LOCATION
 CNTY.            NATRONA:   COUNTY
 STAT.            WYOMING:   STATE
 CTRY. UNITED STATES OF AMERICA:   COUNTRY
 SRVC.           Gearhart:   SERVICE COMPANY
 DATE.        19-AUG-1988:   LOGDATE
 API .       490251125300:   API NUMBER
~CURVE INFORMATION
#MNEM.UNIT       API CODE    CURVE DESCRIPTION
#----------   ------------   ------------------------------
 DEPT.F                  :   
 ILD .OHMM   07 120 46 00:   INDUCTION LOG DEEP
 ILM .OHMM   07 120 44 00:   INDUCTION LOG MEDIUM
 GRR .GAPI   07 310 01 00:   GAMMA RAY FROM RES. LOG.
~PARAMETER INFORMATION
#MNEM.UNIT          VALUE    DESCRIPTION
#----------   ------------   ------------------------------
 PD  .                 GL:   PERMANENT DATUM
 EPD .F              5093:   ELEVATION PERMANENT DATUM
 LMF .                 KB:   LOG MEASURED FROM
 DAPD.F                10:   FEET ABOVE PERMANENT DATUM
 DMF .                 KB:   DRILLING MEASURED FROM
 EKB .F              5103:   KELLING BUSHING
 EGL .F              5093:   GROUND LEVEL
 DATE.            8-19-88:   RUN DATE
 RUN .                  1:   RUN NUMBER
 DD  .F               800:   DEPTH DRILLER
 DL  .F             802.5:   DEPTH LOGGER
 BLI .F               794:   BOTTOM LOG INTERVAL
 CS  .IN            9.625:   CASING SIZE
 CBD .F                48:   CASING BOTTOM DRILLER
 CBL .F                48:   CASING BOTTOM LOGGER
 BS  .IN             8.75:   BIT SIZE
 BSD .F               800:   BIT SIZE AT DEPTH
 DFT .                AIR:   DRILLING FLUID TYPE
 TCS .HRS            1900:   TIME CURCULATED STOPPED
 TLAB.HRS            2000:   TIME LOGGER AT BOTTOM
 MRT .F                70:   MAXIMUM RECORDED TEMPERATURE
 LUN .               7597:   LOGGING UNIT NUMBER
 LUL .           GILLETTE:   LOGGING UNIT LOCATION
 ENGI.          HUCKFELDT:   RECORDING ENGINEER
 WITN.             STRONG:   WITNESSED BY
 CLNT.            A2DTECH:   CLIENT CODE
 ORIG.        2" 5" PRINT:   ORIGIN OF DATA
 UWI .       490251125300:   UNIQUE WELL ID
 DICO. A2D Technologies, Inc.:   DIGITIZING COMPANY
~OTHER INFORMATION
~A    DEPT     ILD        ILM         GRR  
# ...
  455.0000     9.0802     8.6686   108.3854
  455.5000     9.0680     8.6686   110.3997
  456.0000     9.0553     8.6975   108.5526
  456.5000     9.0428     8.7332   106.2376
  457.0000     9.0303     8.7695   103.9205
  457.5000     9.0172     8.8052   102.2209
  458.0000     9.0070     8.8320   102.5320
  458.5000     8.9056     8.4577   103.5574
  459.0000     8.5663     8.1189   104.8619
  459.5000     8.2399     7.8221   106.2080
  460.0000     7.9259     7.5749   108.0768
  460.5000     7.8453     7.3475   111.9692
  461.0000     7.7900     7.1201   112.4330
  461.5000     7.7351     6.9276   111.0460
  462.0000     7.6773     6.9276   109.6256
  462.5000     7.6773     6.9763   110.8604
  463.0000     7.7060     7.0424   112.5718
  463.5000     7.7444     7.1092   113.9692
  464.0000     7.7829     7.2068   113.3959
  464.5000     7.8217     7.3152   112.5166
  465.0000     7.8606     7.4253   111.6420
  465.5000     7.8998     7.5352   112.2086
  466.0000     7.9391     7.5352   114.2095
  466.5000     7.9808     7.5352   115.6477
  467.0000     8.0300     7.5352   115.0227
  467.5000     8.0796     7.5352   114.5873
  468.0000     8.1294     7.6331   115.1086
  468.5000     8.1965     7.7497   115.6077
  469.0000     8.1955     7.8681   116.1066
  469.5000     8.2837     7.9883   116.6020
  470.0000     8.3529     8.1117   117.1017
  470.5000     8.4299     8.1976   116.8497
  471.0000     8.4286     8.1767   115.8766
  471.5000     8.3888     8.1377   114.8978
  472.0000     8.3528     8.0994   113.8215
  472.5000     8.3170     8.0613   116.4964
  473.0000     8.2814     8.0234   118.2642
  473.5000     8.2460     7.9856   118.5836
  474.0000     8.2107     7.9480   119.5098
  474.5000     8.1842     7.9106   120.4949
  475.0000     8.1639     7.8906   121.2995
  475.5000     8.1437     7.8823   117.9489
  476.0000     8.1204     7.8741   114.3828
  476.5000     8.1289     7.8658   113.9624
  477.0000     8.1399     7.8576   114.6600
  477.5000     8.1508     7.8493   114.1511
  478.0000     8.1618     7.8411   113.0575
  478.5000     8.1727     7.8329   113.0698
  479.0000     8.1838     7.8238   115.8827
  479.5000     8.1964     7.7764   118.5924
  480.0000     8.1275     7.7100   120.9715
  480.5000     8.0511     7.6441   120.3746
  481.0000     7.9755     7.5788   116.7561
  481.5000     7.9003     7.5197   113.2380
  482.0000     7.8225     7.4726   111.2076
  482.5000     7.7833     7.4257   112.2144
  483.0000     7.7429     7.3792   113.9775
  483.5000     7.7024     7.3329   115.7786
  484.0000     7.6622     7.2870   116.5241
  484.5000     7.6221     7.2302   116.5344
  485.0000     7.5187     7.1564   116.1636
  485.5000     7.3740     7.0834   114.0606
  486.0000     7.2322     7.0111   111.9827
  486.5000     7.0796     6.9396   111.7120
  487.0000     6.8859     6.7229   114.1372
  487.5000     6.6974     6.4847   116.5462
  488.0000     6.5141     6.2549   117.3380
  488.5000     6.3741     6.0286   117.3499
  489.0000     6.2511     5.8054   117.3656
  489.5000     6.2508     5.6936   116.7303
  490.0000     6.2612     5.8238   115.4965
  490.5000     6.3677     5.9460   112.9651
  491.0000     6.4762     6.0707   112.4603
  491.5000     6.5862     6.1980   113.5050
  492.0000     6.6981     6.3341   114.6750
  492.5000     6.8119     6.5123   115.8732
  493.0000     6.9233     6.6956   116.1244
  493.5000     7.0330     6.8840   116.1273
  494.0000     7.1445     6.9698   115.9650
  494.5000     7.2577     7.0248   114.9821
  495.0000     7.3727     7.0803   114.0066
  495.5000     7.3957     7.1245   113.0143
  496.0000     7.3580     7.1245   112.7936
  496.5000     7.2680     7.0633   115.2041
  497.0000     7.1791     6.9898   118.0576
  497.5000     7.0913     6.9169   120.1924
  498.0000     6.9926     6.8447   118.6718
  498.5000     7.0582     6.7733   117.1869
  499.0000     6.9208     6.7027   116.1018
  499.5000     6.8427     6.6311   116.4684
  500.0000     6.6595     6.4362   117.9536
  500.5000     6.3857     6.1840   119.3782
  501.0000     6.0430     5.9075   120.6372
  501.5000     5.6888     5.5642   119.5286
  502.0000     5.3554     5.2409   116.1059
  502.5000     5.0791     4.9407   112.8899
  503.0000     5.0109     4.6629   111.3213
  503.5000     4.9957     4.4662   111.6871
  504.0000     5.0268     4.3818   114.3667
  504.5000     5.1682     4.5951   117.1740
  505.0000     5.3843     4.8739   119.9915
  505.5000     5.6095     5.1501   121.0350
  506.0000     5.8528     5.4110   119.0252
  506.5000     6.1120     5.6851   115.9264
  507.0000     6.3826     5.9730   113.0395
  507.5000     6.6652     6.2511   113.0145
  508.0000     6.9604     6.5226   115.7529
  508.5000     7.0758     6.7846   118.3419
  509.0000     7.1701     6.9239   120.5091
  509.5000     7.2656     7.0138   118.9504
  510.0000     7.3624     7.1031   117.3142
  510.5000     7.4651     7.1936   116.9470
  511.0000     7.5402     7.2854   116.9038
  511.5000     7.6198     7.3784   115.5645
  512.0000     7.7003     7.4726   114.1447
  512.5000     7.7816     7.5679   113.5222
  513.0000     7.8637     7.6544   114.2274
  513.5000     7.9468     7.7352   114.9079
  514.0000     8.0308     7.8169   115.5557
  514.5000     8.1156     7.8994   117.6925
  515.0000     8.1962     7.9828   120.0561
  515.5000     8.2218     8.0444   122.2139
  516.0000     8.2461     8.0444   122.3761
  516.5000     8.2705     8.0444   122.5313
  517.0000     8.2730     8.0444   120.3072
  517.5000     8.2730     8.0443   118.1192
  518.0000     8.2030     8.0444   115.9543
  518.5000     8.1277     8.0158   113.8290
  519.0000     8.0531     7.9770   112.7633
  519.5000     7.9792     7.9384   112.4288
  520.0000     7.9059     7.9000   113.9056
  520.5000     7.8334     7.8618   115.7869
  521.0000     7.7614     7.8238   117.0758
  521.5000     7.6908     7.7860   117.3800
  522.0000     7.5865     7.7494   117.6827
  522.5000     7.4770     7.5311   118.6121
  523.0000     7.2894     7.3246   119.6502
  523.5000     6.8774     7.1237   120.6624
  524.0000     6.4887     6.8269   121.2245
  524.5000     6.1429     6.4946   120.1977
  525.0000     5.8555     6.1786   119.2454
  525.5000     5.3053     5.8591   118.5670
  526.0000     4.8216     5.3833   119.3533
  526.5000     4.2040     4.8897   120.2231
  527.0000     3.6693     4.3833   119.6651
  527.5000     3.2220     3.6790   117.9481
  528.0000     2.8866     3.0557   116.4796
  528.5000     2.7206     2.6551   117.2320
  529.0000     2.6313     2.4113   117.3296
  529.5000     2.5446     2.3008   115.8413
  530.0000     2.4784     2.3008   111.9986
  530.5000     2.5663     2.3263   108.4242
  531.0000     2.7129     2.3892   109.8506
  531.5000     2.9501     2.5516   115.0619
  532.0000     3.3079     2.8162   119.8212
  532.5000     3.7127     3.2216   121.6584
  533.0000     4.1259     3.6795   121.3925
  533.5000     4.4769     4.2044   120.8674
  534.0000     4.8577     4.6870   120.8653
  534.5000     5.2709     5.1031   122.7756
  535.0000     5.7471     5.5852   125.2161
  535.5000     5.8882     5.6994   127.0050
  536.0000     6.0420     5.8450   128.3033
  536.5000     6.0784     5.9118   129.5683
  537.0000     6.0392     5.8910   128.7952
  537.5000     5.9390     5.7875   127.7316
  538.0000     5.8379     5.6376   128.1441
  538.5000     5.6192     5.3833   129.1061
  539.0000     5.3334     5.1706   130.0769
  539.5000     5.1646     4.9709   131.0116
  540.0000     5.0573     4.8158   132.1171
  540.5000     4.9521     4.6849   134.2525
  541.0000     4.8576     4.5853   134.2068
  541.5000     4.8576     4.5583   132.4962
  542.0000     4.8842     4.5502   128.9742
  542.5000     4.9738     4.5502   126.2732
  543.0000     5.0654     4.7251   123.5816
  543.5000     5.2628     4.9227   123.3835
  544.0000     5.5087     5.1377   126.3262
  544.5000     5.7657     5.4296   130.1382
  545.0000     6.0346     5.7525   133.6715
  545.5000     6.3159     6.0946   132.1681
