~VERSION INFORMATION
 VERS.                2.0:   CWLS LOG ASCII STANDARD - VERSION 2.0
 WRAP.                 NO:   ONE LINE PER DEPTH STEP
~WELL INFORMATION
#MNEM.UNIT      DATA TYPE    INFORMATION
#----------   ------------   ------------------------------
 STRT.F            0.0000:   START DEPTH
 STOP.F          614.0000:   STOP DEPTH
 STEP.F            0.5000:   STEP LENGTH
 NULL.          -999.2500:   NO VALUE
 COMP. BROWN JOHN E&C INC:   COMPANY
 WELL. NAVAL PET  RESERVE 3 SHX-2 #12-15-2:   WELL
 FLD .                NPR:   FIELD
 LOC .       S2 T38N R78W:   LOCATION
 CNTY.            NATRONA:   COUNTY
 STAT.            WYOMING:   STATE
 CTRY. UNITED STATES OF AMERICA:   COUNTRY
 SRVC.           Gearhart:   SERVICE COMPANY
 DATE.        17-AUG-1988:   LOGDATE
 API .       490251124000:   API NUMBER
~CURVE INFORMATION
#MNEM.UNIT       API CODE    CURVE DESCRIPTION
#----------   ------------   ------------------------------
 DEPT.F                  :   
 GRR .GAPI   07 310 01 00:   GAMMA RAY
 RILD.OHMM   07 120 46 00:   INDUCTION LOG DEEP RESISTIVITY
 RILM.OHMM   07 120 44 00:   INDUCTION LOG MEDIUM RESISTIVITY
~PARAMETER INFORMATION
#MNEM.UNIT          VALUE    DESCRIPTION
#----------   ------------   ------------------------------
 PD  .                 GL:   PERMANENT DATUM
 EPD .F              5093:   ELEVATION PERMANENT DATUM
 LMF .                 KB:   LOG MEASURED FROM
 DAPD.F                10:   FEET ABOVE PERMANENT DATUM
 DMF .                 KB:   DRILLING MEASURED FROM
 EKB .F              5103:   KELLING BUSHING
 EDF .F              5101:   DRILLING FLOOR
 EGL .F              5093:   GROUND LEVEL
 DATE.        17-AUG-1988:   RUN DATE
 RUN .                  1:   RUN NUMBER
 DD  .F               620:   DEPTH DRILLER
 DL  .F               623:   DEPTH LOGGER
 BLI .F               614:   BOTTOM LOG INTERVAL
 TLI .F                50:   TOP LOG INTERVAL
 CS  .IN            9.625:   CASING SIZE
 CBD .F                50:   CASING BOTTOM DRILLER
 CBL .F                50:   CASING BOTTOM LOGGER
 BS  .IN             8.75:   BIT SIZE
 BSD .F               620:   BIT SIZE AT DEPTH
 DFT .                AIR:   DRILLING FLUID TYPE
 TCS .HRS            0500:   TIME CURCULATED STOPPED
 TLAB.HRS            0625:   TIME LOGGER AT BOTTOM
 MRT .F                70:   MAXIMUM RECORDED TEMPERATURE
 LUN .               7597:   LOGGING UNIT NUMBER
 LUL .           GILLETTE:   LOGGING UNIT LOCATION
 ENGI.           JOHNSTON:   RECORDING ENGINEER
 WITN.             STRONG:   WITNESSED BY
 CLNT.            A2DTECH:   CLIENT CODE
 ORIG.           5" PRINT:   ORIGIN OF DATA
 UWI .       490251124000:   UNIQUE WELL ID
 DICO. A2D Technologies, Inc.:   DIGITIZING COMPANY
~OTHER INFORMATION
~A    DEPT      GRR      RILD       RILM   
# ...
  546.0000    82.7526    12.8967    12.5550
  546.5000    83.3674    12.7202    12.4681
  547.0000    85.1999    12.6330    12.3821
  547.5000    86.7280    12.5487    12.3832
  548.0000    87.3428    12.5514    12.2975
  548.5000    86.4353    12.4514    12.2986
  549.0000    86.1370    12.2101    12.1286
  549.5000    86.1432    12.1275    12.0449
  550.0000    85.8447    12.1357    12.0457
  550.5000    84.9348    12.2164    12.1321
  551.0000    84.0246    12.2172    12.2189
  551.5000    83.7225    12.3902    12.2206
  552.0000    85.8571    12.4780    12.1368
  552.5000    87.6867    12.4789    12.1389
  553.0000    88.6029    12.3925    12.1406
  553.5000    88.9104    12.2215    12.0572
  554.0000    90.7399    12.3081    12.1440
  554.5000    96.8312    12.3090    12.1457
  555.0000    95.9210    12.3098    12.0627
  555.5000    93.7932    12.3971    12.0644
  556.0000    93.4910    12.3113    12.0661
  556.5000    95.3213    12.2264    12.0678
  557.0000    96.8464    12.2274    11.9849
  557.5000    96.5449    12.2283    11.9870
  558.0000    95.3304    12.1437    11.9887
  558.5000    93.5070    12.0601    11.8238
  559.0000    93.8144    11.8934    11.8255
  559.5000    95.3395    11.8943    11.8272
  560.0000    96.9053    11.8951    11.8288
  560.5000    95.3456    11.8959    11.8305
  561.0000    94.1310    11.8968    11.8321
  561.5000    93.5251    11.8976    11.8338
  562.0000    96.2680    11.8155    11.9185
  562.5000    99.0107    11.8163    12.0038
  563.0000    99.3404    11.9836    12.0897
  563.5000    97.1903    12.1532    12.1763
  564.0000    95.9757    12.2394    12.1780
  564.5000    97.8052    12.2402    12.0944
  565.0000    99.6347    11.9034    11.8449
  565.5000    99.3334    11.8213    11.7640
  566.0000    98.7276    11.6579    11.6841
  566.5000    97.5129    11.5774    11.5230
  567.0000    96.6027    11.4976    11.4447
  567.5000    96.6109    11.4984    11.3666
  568.0000    98.1470    11.4190    11.3681
  568.5000   100.2872    11.3402    11.2114
  569.0000   102.3987    11.2620    11.1348
  569.5000   102.3846    11.1843    10.9817
  570.0000   100.8219    11.0297    10.9067
  570.5000    97.8183    10.9523    10.8322
  571.0000    96.9314    10.7997    10.7582
  571.5000   100.9800    10.6492    10.6107
  572.0000   103.6672    10.5008    10.6122
  572.5000   104.5510    10.3605    10.4659
  573.0000   103.6022    10.2890    10.3219
  573.5000   102.0386    10.1386    10.2514
  574.0000   101.8203    10.0066    10.1105
  574.5000   104.6107     9.7995     9.9718
  575.0000   105.7838     9.6529     9.6980
  575.5000   105.7869     9.5305     9.4977
  576.0000   105.1242     9.2684     9.4328
  576.5000   104.8200     9.0133     9.2383
  577.0000   104.5782     8.5235     8.9850
  577.5000   105.1909     8.1169     8.7997
  578.0000   106.1071     7.6757     8.6182
  578.5000   109.7631     7.0092     8.3232
  579.0000   115.8545     6.1375     6.9891
  579.5000   120.7281     5.7635     5.5495
  580.0000   128.6459     5.7237     4.9976
  580.5000   135.6505     5.7241     4.8265
  581.0000   136.5668     5.7245     4.7600
  581.5000   131.6992     5.8873     5.1415
  582.0000   123.4830     6.1401     5.7914
  582.5000   113.1360     6.6315     6.2118
  583.0000   107.9640     7.1124     6.8039
  583.5000   106.7486     7.8445     7.4006
  584.0000   107.0568     8.4724     7.9935
  584.5000   107.0598     8.8360     8.7555
  585.0000   107.3673     9.1511     9.1961
  585.5000   108.2836     9.2807     9.3923
  586.0000   107.6778     9.4120     9.5928
  586.5000   107.0712     9.5453     9.8663
  587.0000   106.1610     9.6804     9.9370
  587.5000   106.1648     9.8174    10.0783
  588.0000   107.9943     9.9564    10.1505
  588.5000   110.1283    10.0973    10.2949
  589.0000   111.0446    10.3121    10.3686
  589.5000   111.0476    10.4581    10.5161
  590.0000   110.7455    10.6806    10.6657
  590.5000   109.2272    10.9078    10.8934
  591.0000   108.0126    11.1398    10.9714
  591.5000   106.4935    11.2975    11.2055
  592.0000   105.8877    11.5379    11.4447
  592.5000   105.2820    11.6196    11.6075
  593.0000   104.3717    11.6205    11.6906
  593.5000   102.8527    11.6213    11.8570
  594.0000   101.9417    11.7858    11.8724
  594.5000   101.6404    11.8693    11.9075
  595.0000   102.2530    11.8701    11.9426
  595.5000   104.0825    11.9543    11.9777
  596.0000   106.2164    11.9551    12.0127
  596.5000   107.1327    12.0398    12.1185
  597.0000   107.1358    12.1252    12.2053
  597.5000   107.1388    12.2111    12.2070
  598.0000   105.3154    12.2120    12.2944
  598.5000   103.7963    12.2128    12.2961
  599.0000   102.5817    12.1286    12.2117
  599.5000  -999.2500    12.0449    12.1287
  600.0000  -999.2500    12.0457    12.0459
  600.5000  -999.2500    11.8784    11.9636
  601.0000  -999.2500    11.7956    11.9653
  601.5000  -999.2500    11.7956    11.8831
  602.0000  -999.2500    11.8784    11.8852
  602.5000  -999.2500    11.8784    11.8869
  603.0000  -999.2500    11.8784    11.8885
  603.5000  -999.2500    11.8784    11.8069
  604.0000  -999.2500    11.6318    11.6445
  604.5000  -999.2500    11.3903    11.5650
  605.0000  -999.2500    11.1538    11.3265
  605.5000  -999.2500    10.9222    10.9392
  606.0000  -999.2500    10.6955    10.7132
  606.5000  -999.2500    10.5469    10.6400
  607.0000  -999.2500    10.3279    10.7166
  607.5000  -999.2500    10.1833    10.6434
  608.0000  -999.2500    10.1135    10.3512
  608.5000  -999.2500    10.0386    10.2085
  609.0000  -999.2500     9.8345    10.1388
  609.5000  -999.2500     9.8345    10.2117
  610.0000  -999.2500     9.7660    10.2848
  610.5000  -999.2500     9.6979    10.2142
  611.0000  -999.2500     9.5632    10.0738
  611.5000  -999.2500  -999.2500     9.8660
  612.0000  -999.2500  -999.2500     9.5955
  612.5000  -999.2500  -999.2500     9.4635
  613.0000  -999.2500  -999.2500     9.3331
  613.5000  -999.2500  -999.2500     9.2693
  614.0000  -999.2500  -999.2500     9.5340
