~VERSION INFORMATION
 VERS.                2.0:   CWLS LOG ASCII STANDARD - VERSION 2.0
 WRAP.                 NO:   ONE LINE PER DEPTH STEP
~WELL INFORMATION
#MNEM.UNIT      DATA TYPE    INFORMATION
#----------   ------------   ------------------------------
 STRT.M         1049.9000:   START DEPTH
 STOP.M         2123.5000:   STOP DEPTH
 STEP.M            0.1000:   STEP LENGTH
 NULL.          -999.2500:   NO VALUE
 COMP. BROWN JOHN E&C INC:   COMPANY
 WELL. NAVAL PETROLEUM RESERVE 3 STX- #34-3:   WELL
 FLD .            WILDCAT:   FIELD
 LOC .       S3 T38N R78W:   LOCATION
 CNTY.            NATRONA:   COUNTY
 STAT.            WYOMING:   STATE
 CTRY. UNITED STATES OF AMERICA:   COUNTRY
 SRVC.            Unknown:   SERVICE COMPANY
 DATE.        04-SEP-1991:   LOGDATE
 API .       490251090400:   API NUMBER
~CURVE INFORMATION
#MNEM.UNIT       API CODE    CURVE DESCRIPTION
#----------   ------------   ------------------------------
 DEPT.M                  :   
 ROP .MIN/FT 91 810 01 00:   RAT OF DRILLING PENETRATION
 TGAS.UNITS  91 830 01 00:   TOTAL GAS FROM HOTWIRE
~PARAMETER INFORMATION
#MNEM.UNIT          VALUE    DESCRIPTION
#----------   ------------   ------------------------------
 EKB .F              5189:   KELLING BUSHING
 EGL .F              5179:   GROUND LEVEL
 DATE.             9-4-91:   RUN DATE
 DD  .F              2123:   DEPTH DRILLER
 CS  .IN            9.625:   CASING SIZE
 BS  .IN             8.75:   BIT SIZE
 BSD .F              2123:   BIT SIZE AT DEPTH
 ENGI.              TOWER:   RECORDING ENGINEER
 WITN.               HUSK:   WITNESSED BY
 CLNT.            A2DTECH:   CLIENT CODE
 ORIG.           5" PRINT:   ORIGIN OF DATA
 UWI .       490251090400:   UNIQUE WELL ID
 DICO. A2D Technologies, Inc.:   DIGITIZING COMPANY
~OTHER INFORMATION
~A  DEPT       ROP         TGAS 
# ...
 1754.6000     0.3463    20.9228
 1754.7000     0.3418    20.9211
 1754.8000     0.3385    20.9194
 1754.9000     0.3384    20.9177
 1755.0000     0.3383    20.9161
 1755.1000     0.3382    20.9144
 1755.2000     0.3382    20.9127
 1755.3000     0.3381    20.9110
 1755.4000     0.3380    20.9093
 1755.5000     0.3379    20.9077
 1755.6000     0.3378    20.9060
 1755.7000     0.3377    20.9043
 1755.8000     0.3413    20.9026
 1755.9000     0.3479    20.9009
 1756.0000     0.3544    20.8993
 1756.1000     0.3609    20.8976
 1756.2000     0.3675    20.8959
 1756.3000     0.3771    20.8942
 1756.4000     0.3880    20.8926
 1756.5000     0.3990    20.8909
 1756.6000     0.4099    20.8892
 1756.7000     0.4225    20.8875
 1756.8000     0.4318    20.8858
 1756.9000     0.4427    20.8842
 1757.0000     0.4537    20.8825
 1757.1000     0.4646    20.8808
 1757.2000     0.4756    20.8791
 1757.3000     0.4777    20.8774
 1757.4000     0.4799    20.8758
 1757.5000     0.4820    20.8741
 1757.6000     0.4841    20.8724
 1757.7000     0.4859    20.8707
 1757.8000     0.4858    20.8691
 1757.9000     0.4857    20.8674
 1758.0000     0.4857    20.8657
 1758.1000     0.4856    20.8640
 1758.2000     0.4849    20.8623
 1758.3000     0.4826    20.8607
 1758.4000     0.4803    20.8590
 1758.5000     0.4780    20.8573
 1758.6000     0.4757    20.8556
 1758.7000     0.4734    20.8539
 1758.8000     0.4711    20.8523
 1758.9000     0.4688    20.8506
 1759.0000     0.4665    20.8489
 1759.1000     0.4642    20.8472
 1759.2000     0.4607    20.8455
 1759.3000     0.4562    20.8439
 1759.4000     0.4517    20.8422
 1759.5000     0.4472    20.8405
 1759.6000     0.4427    20.8388
 1759.7000     0.4414    20.8372
 1759.8000     0.4413    20.8355
 1759.9000     0.4412    20.8338
 1760.0000     0.4411    20.8321
 1760.1000     0.4410    20.8304
 1760.2000     0.4389    20.8288
 1760.3000     0.4366    20.8271
 1760.4000     0.4341    20.8254
 1760.5000     0.4361    20.8237
 1760.6000     0.4381    20.8220
 1760.7000     0.4402    20.8204
 1760.8000     0.4423    20.8187
 1760.9000     0.4443    20.8170
 1761.0000     0.4464    20.8153
 1761.1000     0.4485    20.8136
 1761.2000     0.4505    20.8120
 1761.3000     0.4526    20.8103
 1761.4000     0.4546    20.8086
 1761.5000     0.4567    20.8069
 1761.6000     0.4588    20.8053
 1761.7000     0.4608    20.8036
 1761.8000     0.4629    20.8019
 1761.9000     0.4680    20.8002
 1762.0000     0.4767    20.7985
 1762.1000     0.4854    20.7969
 1762.2000     0.4941    20.7952
 1762.3000     0.5028    20.7935
 1762.4000     0.5115    20.7918
 1762.5000     0.5202    20.7901
 1762.6000     0.5289    20.7885
 1762.7000     0.5376    20.7868
 1762.8000     0.5463    20.7851
 1762.9000     0.5550    20.7834
 1763.0000     0.5637    20.7817
 1763.1000     0.5724    20.7801
 1763.2000     0.5811    20.7784
 1763.3000     0.5903    20.7767
 1763.4000     0.5985    20.7750
 1763.5000     0.6072    20.7734
 1763.6000     0.6159    20.7717
 1763.7000     0.6246    20.7700
 1763.8000     0.6328    20.7683
 1763.9000     0.6371    20.7666
 1764.0000     0.6414    20.7650
 1764.1000     0.6457    20.7633
 1764.2000     0.6500    20.7616
 1764.3000     0.6514    20.7599
 1764.4000     0.6446    20.7582
 1764.5000     0.6378    20.7566
 1764.6000     0.6310    20.7549
 1764.7000     0.6242    20.7532
 1764.8000     0.6165    20.7515
 1764.9000     0.6075    20.7499
 1765.0000     0.5985    20.7482
 1765.1000     0.5895    20.7465
 1765.2000     0.5805    20.7448
 1765.3000     0.5728    20.7431
 1765.4000     0.5660    20.7415
 1765.5000     0.5592    20.7398
 1765.6000     0.5524    20.7381
 1765.7000     0.5456    20.7364
 1765.8000     0.5421    20.7347
 1765.9000     0.5398    20.7331
 1766.0000     0.5374    20.7314
 1766.1000     0.5350    20.7297
 1766.2000     0.5324    20.7280
 1766.3000     0.5323    20.7263
 1766.4000     0.5322    20.7247
 1766.5000     0.5320    20.7230
 1766.6000     0.5319    20.7213
 1766.7000     0.5317    20.7196
 1766.8000     0.5316    20.7180
 1766.9000     0.5314    20.7163
 1767.0000     0.5313    20.7146
 1767.1000     0.5311    20.7129
 1767.2000     0.5310    20.7112
 1767.3000     0.5308    20.7096
 1767.4000     0.5307    20.7079
 1767.5000     0.5305    20.7062
 1767.6000     0.5304    20.7045
 1767.7000     0.5302    20.7028
 1767.8000     0.5301    20.7012
 1767.9000     0.5299    20.6995
 1768.0000     0.5298    20.6978
 1768.1000     0.5296    20.6961
 1768.2000     0.5295    20.6945
 1768.3000     0.5178    20.6928
 1768.4000     0.5022    20.6911
 1768.5000     0.4865    20.6894
 1768.6000     0.4709    20.6877
 1768.7000     0.4538    20.6861
 1768.8000     0.4496    20.6844
 1768.9000     0.4450    20.6827
 1769.0000     0.4405    20.6810
 1769.1000     0.4359    20.6793
 1769.2000     0.4316    20.6777
 1769.3000     0.4315    20.6760
 1769.4000     0.4313    20.6743
 1769.5000     0.4312    20.6726
 1769.6000     0.4310    20.6709
 1769.7000     0.4333    20.6693
 1769.8000     0.4443    20.6676
 1769.9000     0.4552    20.6659
 1770.0000     0.4661    20.6642
 1770.1000     0.4770    20.6626
 1770.2000     0.4896    20.6609
 1770.3000     0.5050    20.6592
 1770.4000     0.5203    20.6575
 1770.5000     0.5357    20.6558
 1770.6000     0.5510    20.6542
 1770.7000     0.5639    20.6525
 1770.8000     0.5748    20.6508
 1770.9000     0.5857    20.6491
 1771.0000     0.5966    20.6474
 1771.1000     0.6076    20.6458
 1771.2000     0.6169    20.6441
 1771.3000     0.6256    20.6424
 1771.4000     0.6343    20.6407
 1771.5000     0.6430    20.6390
 1771.6000     0.6528    20.6374
 1771.7000     0.6604    20.6357
 1771.8000     0.6691    20.6340
 1771.9000     0.6778    20.6323
 1772.0000     0.6865    20.6307
 1772.1000     0.6951    20.6290
 1772.2000     0.7016    20.6273
 1772.3000     0.7081    20.6256
 1772.4000     0.7146    20.6239
 1772.5000     0.7211    20.6223
 1772.6000     0.7267    20.6206
 1772.7000     0.7288    20.6189
 1772.8000     0.7308    20.6172
 1772.9000     0.7329    20.6155
 1773.0000     0.7350    20.6139
 1773.1000     0.7370    20.6122
 1773.2000     0.7391    20.6105
 1773.3000     0.7412    20.6088
 1773.4000     0.7432    20.6072
 1773.5000     0.7453    20.6055
 1773.6000     0.7451    20.6038
 1773.7000     0.7427    20.6021
 1773.8000     0.7403    20.6004
 1773.9000     0.7380    20.5988
 1774.0000     0.7356    20.5971
 1774.1000     0.7333    20.5954
 1774.2000     0.7309    20.5937
 1774.3000     0.7285    20.5920
 1774.4000     0.7262    20.5904
 1774.5000     0.7234    20.5887
 1774.6000     0.7177    20.5870
 1774.7000     0.7109    20.5853
 1774.8000     0.7042    20.5836
 1774.9000     0.6974    20.5820
 1775.0000     0.6906    20.5803
 1775.1000     0.6816    20.5786
 1775.2000     0.6726    20.5769
 1775.3000     0.6636    20.5753
 1775.4000     0.6546    20.5736
 1775.5000     0.6456    20.5719
 1775.6000     0.6366    20.5702
 1775.7000     0.6276    20.5685
 1775.8000     0.6186    20.5669
 1775.9000     0.6096    20.5652
 1776.0000     0.6034    20.5635
 1776.1000     0.6033    20.5618
 1776.2000     0.6031    20.5601
 1776.3000     0.6030    20.5585
 1776.4000     0.6028    20.5568
 1776.5000     0.6027    20.5551
 1776.6000     0.6025    20.5534
 1776.7000     0.6024    20.5517
 1776.8000     0.6022    20.5501
 1776.9000     0.6021    20.5484
 1777.0000     0.6019    20.5467
 1777.1000     0.6018    20.5450
 1777.2000     0.6016    20.5434
 1777.3000     0.6015    20.5417
 1777.4000     0.6013    20.5400
 1777.5000     0.6012    20.5383
 1777.6000     0.6010    20.5366
 1777.7000     0.6009    20.5350
 1777.8000     0.6007    20.5333
 1777.9000     0.6006    20.5316
 1778.0000     0.6004    20.5299
 1778.1000     0.6003    20.5282
 1778.2000     0.6001    20.5266
 1778.3000     0.6000    20.5249
 1778.4000     0.5998    20.5232
 1778.5000     0.5997    20.5215
 1778.6000     0.5995    20.5198
 1778.7000     0.5994    20.5182
 1778.8000     0.5992    20.5165
