~VERSION INFORMATION
 VERS.                2.0:   CWLS LOG ASCII STANDARD - VERSION 2.0
 WRAP.                 NO:   ONE LINE PER DEPTH STEP
~WELL INFORMATION
#MNEM.UNIT      DATA TYPE    INFORMATION
#----------   ------------   ------------------------------
 STRT.F            7.0000:   START DEPTH
 STOP.F          587.0000:   STOP DEPTH
 STEP.F            0.5000:   STEP LENGTH
 NULL.          -999.2500:   NO VALUE
 COMP. FENIX & SCISSON INC:   COMPANY
 WELL.        NPR-3 #63-3:   WELL
 FLD .             TEAPOT:   FIELD
 LOC .       S3 T38N R78W:   LOCATION
 CNTY.            NATRONA:   COUNTY
 STAT.            WYOMING:   STATE
 CTRY. UNITED STATES OF AMERICA:   COUNTRY
 SRVC.     Wedge Wireline:   SERVICE COMPANY
 DATE.        06-JAN-1978:   LOGDATE
 API .       490251044700:   API NUMBER
~CURVE INFORMATION
#MNEM.UNIT       API CODE    CURVE DESCRIPTION
#----------   ------------   ------------------------------
 DEPT.F                  :   
 ILD .OHMM   05 120 46 00:   INDUCTION LOG DEEP
 SN  .OHMM   05 040 16 00:   SHORT NORMAL
 SPR .MV     05 010 01 00:   SPONTANEOUS POTENTIAL FROM RES.
 CALD.IN     45 280 60 00:   CALIPER FROM DENSITY LOG
 CORR.G/C3   45 356 01 00:   DENSITY CORRECTION
 DPHI.DEC    45 890 12 00:   DENSITY POROSITY SANDSTONE
 GRD .GAPI   45 310 01 00:   GAMMA RAY FROM DENSITY LOG
 RHOB.G/C3   45 350 01 00:   BULK DENSITY
~PARAMETER INFORMATION
#MNEM.UNIT          VALUE    DESCRIPTION
#----------   ------------   ------------------------------
 PD  .                 GL:   PERMANENT DATUM
 EPD .F              5177:   ELEVATION PERMANENT DATUM
 LMF .                 KB:   LOG MEASURED FROM
 DMF .                 KB:   DRILLING MEASURED FROM
 EKB .F              5181:   KELLING BUSHING
 EGL .F              5177:   GROUND LEVEL
 DATE.        06-JAN-1978:   RUN DATE
 RUN .                  1:   RUN NUMBER
 DD  .F               590:   DEPTH DRILLER
 DL  .F               581:   DEPTH LOGGER
 BLI .F               576:   BOTTOM LOG INTERVAL
 TLI .F                20:   TOP LOG INTERVAL
 CS  .IN            9.625:   CASING SIZE
 CBD .F                19:   CASING BOTTOM DRILLER
 CBL .F                19:   CASING BOTTOM LOGGER
 BS  .IN            7.875:   BIT SIZE
 BSD .F               590:   BIT SIZE AT DEPTH
 DFT .                KCL:   DRILLING FLUID TYPE
 DFD .                8.5:   DRILLING FLUID DENSITY
 DFV .                 34:   DRILLING FLUID VISCOSITY
 DFPH.                9.0:   DRILLING FLUID PH
 DFL .                7.8:   DRILLING FLUID LOSS
 MSS .           FLOWLINE:   MUD SAMPLE SOURCE
 RMS .OHMM           0.22:   RESISTIVITY MUD SAMPLE
 MST .F                63:   MUD SAMPLE TEMPERATURE
 RMF .OHMM           0.24:   RESISTIVITY MUD FILTRATE SAMPLE
 MFST.F                63:   MUD FILTRATE SAMPLE TEMPERATURE
 RMC .OHMM           0.48:   RESISTIVITY MUD CAKE
 MCST.F                64:   MUD CAKE SAMPLE TEMPERATURE
 MFSS.               MEAS:   MUD FILTRATE SAMPLE SOURCE
 MCSS.               MEAS:   MUD CAKE SAMPLE SOURCE
 RMB .OHMM           0.19:   RESISTIVITY MUD AT BHT
 BHT .F                71:   BOTTOM HOLE TEMPERATURE
 TCS .HRS               3:   TIME CURCULATED STOPPED
 MRT .F                71:   MAXIMUM RECORDED TEMPERATURE
 LUN .               2958:   LOGGING UNIT NUMBER
 LUL .             CASPER:   LOGGING UNIT LOCATION
 ENGI.             MILLER:   RECORDING ENGINEER
 WITN.         HARRINGTON:   WITNESSED BY
 CLNT.            A2DTECH:   CLIENT CODE
 ORIG.           5" PRINT:   ORIGIN OF DATA
 UWI .       490251044700:   UNIQUE WELL ID
 DICO. A2D Technologies, Inc.:   DIGITIZING COMPANY
~OTHER INFORMATION
~A    DEPT     ILD         SN        SPR       CALD       CORR       DPHI         GRD      RHOB   
    7.0000  -999.2500  -999.2500  -999.2500  -999.2500  -999.2500  -999.2500    99.9963  -999.2500
    7.5000  -999.2500  -999.2500  -999.2500  -999.2500  -999.2500  -999.2500   100.2035  -999.2500
    8.0000  -999.2500  -999.2500  -999.2500  -999.2500  -999.2500  -999.2500   102.5740  -999.2500
    8.5000  -999.2500  -999.2500  -999.2500  -999.2500  -999.2500  -999.2500   105.9081  -999.2500
    9.0000  -999.2500  -999.2500  -999.2500  -999.2500  -999.2500  -999.2500   104.3781  -999.2500
    9.5000  -999.2500  -999.2500  -999.2500  -999.2500  -999.2500  -999.2500    97.3369  -999.2500
   10.0000  -999.2500  -999.2500  -999.2500  -999.2500  -999.2500  -999.2500    91.1779  -999.2500
   10.5000  -999.2500  -999.2500  -999.2500  -999.2500  -999.2500  -999.2500    89.7249  -999.2500
   11.0000  -999.2500  -999.2500  -999.2500  -999.2500  -999.2500  -999.2500    90.0368  -999.2500
   11.5000  -999.2500  -999.2500  -999.2500  -999.2500  -999.2500  -999.2500    90.3526  -999.2500
   12.0000  -999.2500  -999.2500  -999.2500  -999.2500  -999.2500  -999.2500    90.6642  -999.2500
   12.5000  -999.2500  -999.2500  -999.2500  -999.2500  -999.2500  -999.2500    90.3877  -999.2500
   13.0000  -999.2500  -999.2500  -999.2500  -999.2500  -999.2500  -999.2500    88.9346  -999.2500
   13.5000  -999.2500  -999.2500  -999.2500  -999.2500  -999.2500  -999.2500    86.0012  -999.2500
   14.0000  -999.2500  -999.2500  -999.2500  -999.2500  -999.2500  -999.2500    81.9153  -999.2500
   14.5000  -999.2500  -999.2500  -999.2500  -999.2500  -999.2500  -999.2500    81.0461  -999.2500
   15.0000  -999.2500  -999.2500  -999.2500  -999.2500  -999.2500  -999.2500    83.4209  -999.2500
   15.5000  -999.2500  -999.2500  -999.2500  -999.2500  -999.2500  -999.2500    85.4973  -999.2500
   16.0000  -999.2500  -999.2500  -999.2500  -999.2500  -999.2500  -999.2500    86.9854  -999.2500
   16.5000  -999.2500  -999.2500  -999.2500  -999.2500  -999.2500  -999.2500    87.2971  -999.2500
   17.0000  -999.2500  -999.2500  -999.2500  -999.2500  -999.2500  -999.2500    85.5543  -999.2500
   17.5000  -999.2500  -999.2500  -999.2500  -999.2500  -999.2500  -999.2500    83.5130  -999.2500
   18.0000  -999.2500  -999.2500  -999.2500  -999.2500  -999.2500  -999.2500    81.7659  -999.2500
   18.5000  -999.2500  -999.2500  -999.2500  -999.2500  -999.2500  -999.2500    81.7834  -999.2500
   19.0000  -999.2500  -999.2500  -999.2500  -999.2500  -999.2500  -999.2500    83.3407  -999.2500
   19.5000  -999.2500  -999.2500  -999.2500  -999.2500  -999.2500  -999.2500    85.0582  -999.2500
   20.0000  -999.2500  -999.2500  -999.2500     8.9913  -999.2500  -999.2500    85.9581  -999.2500
   20.5000  -999.2500  -999.2500  -999.2500     8.9771  -999.2500  -999.2500    87.1521  -999.2500
   21.0000  -999.2500  -999.2500  -999.2500     8.9778  -999.2500     0.2948    88.6402  -999.2500
   21.5000  -999.2500  -999.2500  -999.2500     8.9637  -999.2500     0.2851    87.9816     2.1859
   22.0000  -999.2500  -999.2500  -999.2500     8.9497  -999.2500     0.2754    82.2091     2.2177
   22.5000  -999.2500  -999.2500  -999.2500     8.9211  -999.2500     0.2475    77.5208     2.2547
   23.0000  -999.2500  -999.2500  -999.2500     8.8925    -0.7718     0.2227    73.7148     2.2819
   23.5000  -999.2500  -999.2500  -999.2500     8.8636    -0.5880     0.1897    70.7911     2.3250
   24.0000  -999.2500  -999.2500  -999.2500     8.8205    -0.4047     0.1533    68.7402     2.3855
   24.5000  -999.2500  -999.2500   -40.1727     8.7772    -0.2996     0.1185    69.4890     2.4664
   25.0000  -999.2500  -999.2500   -37.2419     8.7486    -0.2476     0.0976    72.0343     2.5268
   25.5000  -999.2500   484.1671   -32.4638     8.7346    -0.2975     0.0468    74.9089     2.5427
   26.0000  -999.2500     1.4781   -30.2340     8.7204    -0.3050     0.0380    78.2362     2.5624
   26.5000  -999.2500   246.8383   -28.0041     8.7064    -0.2488     0.0488    81.1949     2.5889
   27.0000  1974.7500     0.8821   -26.5117     8.7070    -0.2120     0.0727    84.1580     2.5693
   27.5000    93.8209     6.9234   -24.8675     8.6929    -0.2273     0.0881    85.3520     2.5346
   28.0000    73.2197     1.3916   -23.5226     8.6936    -0.2516     0.1008    84.4872     2.4908
   28.5000    63.6510     1.3927   -22.9152     8.6796    -0.2652     0.1226    84.2062     2.4363
   29.0000    47.1265     2.1070   -22.6027     8.6655    -0.2817     0.1676    84.5223     2.3836
   29.5000    34.3284     4.3459   -22.2898     8.6661    -0.2940     0.1809    83.3223     2.3678
   30.0000    30.3301     3.1895   -23.0059     8.6668    -0.3118     0.1845    80.7382     2.3625
   30.5000    29.5128     1.9842   -28.2982     8.6526    -0.3223     0.1857    79.5793     2.3603
   31.0000    29.5224     2.5800   -16.4814     8.6679    -0.3298     0.1866    79.5968     2.3580
   31.5000    29.7344     2.7279   -29.0241     8.6684    -0.3343     0.1878    80.2026     2.3551
   32.0000    29.9478     2.7486   -23.8167     8.6690    -0.3372     0.1896    82.0441     2.3521
   32.5000    30.3716     2.8785   -28.6665     8.6989    -0.3386     0.1914    84.9480     2.3506
   33.0000    29.9653     3.7789   -22.1594     8.6995    -0.3385     0.1928    86.7302     2.3492
   33.5000    29.9731     5.2632   -11.5225     8.7001    -0.3384     0.1913    88.5125     2.3515
   34.0000    29.5685     8.7083   -10.1776     8.7006    -0.3399     0.1861    90.8829     2.3595
   34.5000    28.3718    12.5890   -11.4832     8.7012    -0.3382     0.1794    94.7414     2.3704
   35.0000    26.4976    14.2227   -13.2356     8.6725    -0.3351     0.1770    93.8636     2.3765
   35.5000    24.7388    14.3303   -14.9881     8.6438    -0.3320     0.1711    92.9988     2.3796
   36.0000    22.4686    13.8541   -16.9076     8.6006    -0.3259     0.1476    94.4869     2.3940
   36.5000    18.2642    12.3839   -19.2261     8.5864    -0.3212     0.1439    98.3280     2.4112
   37.0000    14.6623    10.1063   -20.5361     8.5579    -0.3257     0.1418   102.4877     2.4205
   37.5000    13.6891     8.4545   -21.5511     8.5438    -0.3301     0.1342   110.1321     2.4266
   38.0000    12.9579     7.6295   -22.2711     8.5298    -0.3300     0.1262   104.8556     2.4364
   38.5000    12.4361     7.3725   -23.1342     8.5305    -0.3300     0.1248    98.9908     2.4463
   39.0000    11.7726     7.2309   -23.4161     8.5310    -0.3299     0.1257    98.1216     2.4525
   39.5000    11.2985     7.1859   -23.8412     8.5316    -0.3313     0.1265    99.0258     2.4546
   40.0000    10.7690     7.1412   -24.1143     8.5322    -0.3342     0.1274    97.8713     2.4538
   40.5000    10.4788     7.0968   -24.3918     8.5328    -0.3357     0.1286    94.9477     2.4525
   41.0000    10.2676     7.0527   -24.5206     8.5333    -0.3341     0.1295    92.9064     2.4520
   41.5000    10.1991     7.0088   -24.6519     8.5193    -0.3325     0.1307    92.6287     2.4506
   42.0000    10.1317     7.0145   -24.7776     8.5199    -0.3301     0.1319    92.3532     2.4494
   42.5000    10.2051     7.1165   -24.6126     8.5058    -0.3292     0.1318    91.9118     2.4487
   43.0000    10.2790     7.2709   -24.5908     8.5065    -0.3291     0.1318    91.2162     2.4466
   43.5000    10.3528     7.4276   -24.4259     8.5070    -0.3321     0.1330    90.6412     2.4459
   44.0000    10.4271     7.5355   -24.2609     8.5076    -0.3329     0.1342    91.2513     2.4452
   44.5000    10.4298     7.6450   -24.2435     8.5083    -0.3364     0.1348    93.3277     2.4444
   45.0000    10.4332     7.6512   -24.0782     8.4942    -0.3409     0.1341    96.3358     2.4452
   45.5000    10.4359     7.7091   -24.2042     8.4948    -0.3453     0.1313    98.9554     2.4460
   46.0000    10.4386     7.7675   -24.3342     8.4954    -0.3468     0.1288    99.8509     2.4468
   46.5000    10.4413     7.7725   -24.6118     8.4959    -0.3437     0.1271    95.7552     2.4484
   47.0000    10.4447     7.7788   -24.7418     8.4965    -0.3375     0.1268    90.7727     2.4507
