~VERSION INFORMATION
 VERS.                2.0:   CWLS LOG ASCII STANDARD - VERSION 2.0
 WRAP.                 NO:   ONE LINE PER DEPTH STEP
~WELL INFORMATION
#MNEM.UNIT      DATA TYPE    INFORMATION
#----------   ------------   ------------------------------
 STRT.F           16.0000:   START DEPTH
 STOP.F         2438.0000:   STOP DEPTH
 STEP.F            0.5000:   STEP LENGTH
 NULL.          -999.2500:   NO VALUE
 COMP. FENIX & SCISSON INC:   COMPANY
 WELL.      15 SHX #27-27:   WELL
 FLD .             TEAPOT:   FIELD
 LOC .      S27 T39N R78W:   LOCATION
 CNTY.            NATRONA:   COUNTY
 STAT.            WYOMING:   STATE
 CTRY. UNITED STATES OF AMERICA:   COUNTRY
 SRVC.            Unknown:   SERVICE COMPANY
 DATE.        09-JUN-1978:   LOGDATE
 API .       490251064100:   API NUMBER
~CURVE INFORMATION
#MNEM.UNIT       API CODE    CURVE DESCRIPTION
#----------   ------------   ------------------------------
 DEPT.F                  :   
 CALD.IN     45 280 60 00:   CALIPER FROM DENSITY LOG
 GRD .GAPI   45 310 01 00:   GAMMA RAY FROM DENSITY LOG
 CORR.G/C3   45 356 01 00:   DENSITY CORRECTION
 RHOB.G/C3   45 350 01 00:   BULK DENSITY
 DPHI.DEC    45 890 10 00:   DENSITY POROSITY LIMESTONE
~PARAMETER INFORMATION
#MNEM.UNIT          VALUE    DESCRIPTION
#----------   ------------   ------------------------------
 PD  .                 GL:   PERMANENT DATUM
 EPD .F              5062:   ELEVATION PERMANENT DATUM
 LMF .                 KB:   LOG MEASURED FROM
 DAPD.F                10:   FEET ABOVE PERMANENT DATUM
 DMF .                 KB:   DRILLING MEASURED FROM
 EKB .F              5072:   KELLING BUSHING
 EGL .F              5062:   GROUND LEVEL
 DATE.        09-JUN-1978:   RUN DATE
 RUN .                  1:   RUN NUMBER
 DD  .F              2450:   DEPTH DRILLER
 DL  .F              2445:   DEPTH LOGGER
 BLI .F              2438:   BOTTOM LOG INTERVAL
 TLI .F                10:   TOP LOG INTERVAL
 CS  .IN            9.625:   CASING SIZE
 CBD .F               688:   CASING BOTTOM DRILLER
 CBL .F               694:   CASING BOTTOM LOGGER
 BS  .IN             8.75:   BIT SIZE
 BSD .F              2450:   BIT SIZE AT DEPTH
 DFT .           AIR MIST:   DRILLING FLUID TYPE
 TCS .HRS               1:   TIME CURCULATED STOPPED
 LUN .               2958:   LOGGING UNIT NUMBER
 LUL .                CPR:   LOGGING UNIT LOCATION
 ENGI.             MILLER:   RECORDING ENGINEER
 WITN.           MCGINLEY:   WITNESSED BY
 CLNT.            A2DTECH:   CLIENT CODE
 ORIG.           5" PRINT:   ORIGIN OF DATA
 UWI .       490251064100:   UNIQUE WELL ID
 DICO. A2D Technologies, Inc.:   DIGITIZING COMPANY
~OTHER INFORMATION
~A   DEPT     CALD         GRD      CORR       RHOB       DPHI   
# ...
 1724.0000    10.2039    93.6930  -999.2500     2.5499     0.0152
 1724.5000    10.1595    90.3356  -999.2500     2.5500     0.0022
 1725.0000    10.0384    88.5100  -999.2500     2.5401    -0.0025
 1725.5000    10.1321    88.9929  -999.2500     2.5409    -0.0003
 1726.0000    10.2108    93.0044  -999.2500     2.5318     0.0024
 1726.5000    10.2584    96.2479  -999.2500     2.5295     0.0058
 1727.0000    10.2753   100.2594  -999.2500     2.5304     0.0085
 1727.5000    10.1543   100.5843  -999.2500     2.5288     0.0118
 1728.0000    10.0638    97.9358  -999.2500     2.5121     0.0146
 1728.5000    10.0501    94.6333  -999.2500     2.5114     0.0149
 1729.0000    10.0522    92.3468  -999.2500     2.5308     0.0148
 1729.5000    10.0384    90.5167  -999.2500     2.5301     0.0148
 1730.0000    10.0094    92.3821  -999.2500     2.5287     0.0129
 1730.5000     9.8576    93.7823  -999.2500     2.5288     0.0068
 1731.0000     9.7672   100.2766  -999.2500     2.5296     0.0017
 1731.5000     9.7075    99.3520  -999.2500     2.5390     0.0008
 1732.0000     9.6631    96.4511  -999.2500     2.5514     0.0008
 1732.5000     9.6651    96.4687  -999.2500     2.5453     0.0016
 1733.0000     9.6510   100.6339  -999.2500     2.5223     0.0044
 1733.5000     9.6530   102.6485  -999.2500     2.5193     0.0093
 1734.0000     9.6700   100.9460  -999.2500     2.5286     0.0117
 1734.5000     9.7186    89.1706  -999.2500     2.5357     0.0120
 1735.0000     9.7503    85.6552  -999.2500     2.5396     0.0129
 1735.5000     9.7362    83.6759  -999.2500     2.5389     0.0042
 1736.0000     9.6308    82.3111  -999.2500     2.5320     0.0023
 1736.5000     9.5707    83.0968  -999.2500     2.5314     0.0014
 1737.0000     9.5727    86.7220  -999.2500     2.5500     0.0007
 1737.5000     9.5744    87.8985  -999.2500     2.5601     0.0001
 1738.0000     9.5764    86.6873  -999.2500     2.5648    -0.0046
 1738.5000     9.6087    85.0152  -999.2500     2.5657    -0.0092
 1739.0000     9.7330    84.8786  -999.2500     2.5650    -0.0111
 1739.5000     9.8420    88.1392  -999.2500     2.5582    -0.0121
 1740.0000     9.9356    92.2923  -999.2500     2.5521    -0.0072
 1740.5000     9.9679    93.3853  -999.2500     2.5406    -0.0023
 1741.0000     9.9546    95.5535  -999.2500     2.5299     0.0063
 1741.5000     9.8642   101.5619  -999.2500     2.5131     0.0109
 1742.0000     9.5437   102.1940  -999.2500     2.5101     0.0133
 1742.5000     9.5143   103.7888  -999.2500     2.5179     0.0158
 1743.0000     9.6543   101.0049  -999.2500     2.5257     0.0173
 1743.5000     9.8457    94.8782  -999.2500     2.5227     0.0142
 1744.0000     9.9187    92.7453  -999.2500     2.5174     0.0123
 1744.5000     9.9046    91.6833  -999.2500     2.5175     0.0116
 1745.0000     9.8606    88.3259  -999.2500     2.5184     0.0119
 1745.5000     9.8158    83.4508  -999.2500     2.5161     0.0122
 1746.0000     9.8025    68.8573  -999.2500     2.5077     0.0143
 1746.5000     9.8195    66.8736  -999.2500     2.4986     0.0180
 1747.0000     9.8828    67.5101  -999.2500     2.4894     0.0306
 1747.5000     9.8997    71.2144  -999.2500     2.4879     0.0339
 1748.0000     9.9167    82.5992  -999.2500     2.4873     0.0348
 1748.5000     9.9183    85.8884  -999.2500     2.5483     0.0224
 1749.0000     9.7666    91.2411  -999.2500     2.5661     0.0190
 1749.5000     9.6252    97.4032  -999.2500     2.5515     0.0168
 1750.0000     9.5188    98.7989  -999.2500     2.5316    -0.0106
 1750.5000     9.5266    98.3582  -999.2500     2.5286    -0.0100
 1751.0000     9.6208    96.8369  -999.2500     2.5240    -0.0017
 1751.5000     9.6843    95.7727  -999.2500     2.5217     0.0140
 1752.0000     9.7169    96.0984  -999.2500     2.5264     0.0158
 1752.5000     9.7188    93.6664  -999.2500     2.5311     0.0136
 1753.0000     9.7207    90.2945  -999.2500     2.5343     0.0151
 1753.5000     9.7226    94.8984  -999.2500     2.5336     0.0160
 1754.0000     9.7245   100.3050  -999.2500     2.5159     0.0163
 1754.5000     9.7269    96.4832  -999.2500     2.5083     0.0169
 1755.0000     9.7288    96.3441  -999.2500     2.5207     0.0200
 1755.5000     9.6996    97.9674  -999.2500     2.5300     0.0233
 1756.0000     9.6862    99.9106  -999.2500     2.5525     0.0270
 1756.5000     9.6579    94.2418  -999.2500     2.5663     0.0285
 1757.0000     9.6445    89.0338  -999.2500     2.5679     0.0285
 1757.5000     9.6310    87.9733  -999.2500     2.5564     0.0248
 1758.0000     9.6176    87.8341  -999.2500     2.5464    -0.0020
 1758.5000     9.5893    88.8361  -999.2500     2.5435    -0.0027
 1759.0000     9.5912    92.9369  -999.2500     2.5404    -0.0024
 1759.5000     9.5778    95.5630  -999.2500     2.5412     0.0047
 1760.0000     9.5798    97.7283  -999.2500     2.5413     0.0188
 1760.5000     9.5821   102.3514  -999.2500     2.5406     0.0176
 1761.0000     9.5840   102.4106  -999.2500     2.5399     0.0139
 1761.5000     9.5859    94.9915  -999.2500     2.5384     0.0126
 1762.0000     9.5879    91.1859  -999.2500     2.5383     0.0133
 1762.5000     9.5898    97.1914  -999.2500     2.5385     0.0147
 1763.0000     9.5917    99.1994  -999.2500     2.5401     0.0135
 1763.5000     9.5941    96.1457  -999.2500     2.5433     0.0125
 1764.0000     9.5960    95.8495  -999.2500     2.5433     0.0125
 1764.5000     9.6132    96.1752  -999.2500     2.5442     0.0125
 1765.0000     9.6151    98.0860  -999.2500     2.5465     0.0124
 1765.5000     9.6171   100.9704  -999.2500     2.5505     0.0127
 1766.0000     9.5714   100.6742  -999.2500     2.5528     0.0124
 1766.5000     9.5289    99.9246  -999.2500     2.5529     0.0118
 1767.0000     9.4699    97.4816  -999.2500     2.5506     0.0105
 1767.5000     9.4407    96.5747  -999.2500     2.5374     0.0055
 1768.0000     9.4430    91.3529  -999.2500     2.5261     0.0025
 1768.5000     9.4756    90.1527  -999.2500     2.5323     0.0055
 1769.0000     9.5562    97.6980  -999.2500     2.5316     0.0098
 1769.5000     9.6026   104.3180  -999.2500     2.5232     0.0116
 1770.0000     9.6045   103.5647  -999.2500     2.5194     0.0116
 1770.5000     9.6065    93.1340  -999.2500     2.5314     0.0148
 1771.0000     9.6084    89.0822  -999.2500     2.5396     0.0177
 1771.5000     9.6716    86.7120  -999.2500     2.5296     0.0183
 1772.0000     9.7503    89.6490  -999.2500     2.5227     0.0177
 1772.5000     9.7986   101.3381  -999.2500     2.5243     0.0192
 1773.0000     9.8159   103.5034  -999.2500     2.5267     0.0213
 1773.5000     9.7104    99.9852  -999.2500     2.5260     0.0268
 1774.0000     9.3291    95.6989  -999.2500     2.5261     0.0299
 1774.5000     9.2078    96.0246  -999.2500     2.5246     0.0321
 1775.0000     9.4096    94.5032  -999.2500     2.5116     0.0357
 1775.5000     9.5650    90.3705  -999.2500     2.4970     0.0376
 1776.0000     9.6593    89.9208  -999.2500     2.4924     0.0406
 1776.5000     9.6459    89.6320  -999.2500     2.4863     0.0551
 1777.0000     9.5864    84.8849  -999.2500     2.4710     0.0651
 1777.5000     9.5270    83.6708  -999.2500     2.4379     0.0947
 1778.0000     9.4982    85.9934  -999.2500     2.3925     0.1244
 1778.5000     9.5002    88.4659  -999.2500     2.3479     0.1419
 1779.0000     9.5025    94.9323  -999.2500     2.3302     0.1387
 1779.5000     9.4886    93.4110  -999.2500     2.3326    -0.0085
 1780.0000     9.4752    91.7155  -999.2500     2.6756    -0.0144
 1780.5000     9.4618    92.6728  -999.2500     2.6594     0.0192
 1781.0000     9.4642    91.9229  -999.2500     2.5832     0.0263
 1781.5000     9.4661    88.5582  -999.2500     2.5432     0.0299
 1782.0000     9.4838    87.1868  -999.2500     2.5255     0.0324
 1782.5000     9.5011    89.8167  -999.2500     2.5179     0.0317
 1783.0000     9.5490    91.0603  -999.2500     2.5182     0.0302
 1783.5000     9.5969    90.6142  -999.2500     2.5273     0.0298
 1784.0000     9.6295    92.4760  -999.2500     2.5358     0.0314
 1784.5000     9.6314    95.8702  -999.2500     2.5412     0.0332
