~VERSION INFORMATION
 VERS.                2.0:   CWLS LOG ASCII STANDARD - VERSION 2.0
 WRAP.                 NO:   ONE LINE PER DEPTH STEP
~WELL INFORMATION
#MNEM.UNIT      DATA TYPE    INFORMATION
#----------   ------------   ------------------------------
 STRT.F           90.0000:   START DEPTH
 STOP.F         1032.5000:   STOP DEPTH
 STEP.F            0.5000:   STEP LENGTH
 NULL.          -999.2500:   NO VALUE
 COMP. U S NAVY/INTEX OIL CO:   COMPANY
 WELL. NAVAL PETROLEUM RESERVE 3  #62-S-14:   WELL
 FLD .        TEAPOT DOME:   FIELD
 LOC .      S14 T38N R78W:   LOCATION
 CNTY.            NATRONA:   COUNTY
 STAT.            WYOMING:   STATE
 CTRY. UNITED STATES OF AMERICA:   COUNTRY
 SRVC.       Schlumberger:   SERVICE COMPANY
 DATE.        04-JUL-1962:   LOGDATE
 API .       490250631700:   API NUMBER
~CURVE INFORMATION
#MNEM.UNIT       API CODE    CURVE DESCRIPTION
#----------   ------------   ------------------------------
 DEPT.F                  :   
 GR  .GAPI   30 310 01 00:   GAMMA RAY
 CALM.IN     15 280 01 00:   CALIPER FROM MICRO LOG
 SPR .MV     06 010 01 00:   SPONTANEOUS POTENTIAL FROM RES.
 ASN .OHMM   06 041 16 00:   AMPLIFIED SHORT NORMAL 16"
 ILD .OHMM   06 120 46 00:   INDUCTION LOG DEEP
 CILD.MMHO   06 110 46 00:   CONDUCTIVITY INDUCTION LOG DEEP
~PARAMETER INFORMATION
#MNEM.UNIT          VALUE    DESCRIPTION
#----------   ------------   ------------------------------
 PD  .                 GL:   PERMANENT DATUM
 EPD .F              5246:   ELEVATION PERMANENT DATUM
 LMF .                 KB:   LOG MEASURED FROM
 DAPD.F                 5:   FEET ABOVE PERMANENT DATUM
 DMF .                 KB:   DRILLING MEASURED FROM
 EKB .F              5251:   KELLING BUSHING
 EGL .F              5246:   GROUND LEVEL
 DATE.             7-4-62:   RUN DATE
 RUN .                  1:   RUN NUMBER
 DD  .F              1036:   DEPTH DRILLER
 DL  .F              1033:   DEPTH LOGGER
 BLI .F              1032:   BOTTOM LOG INTERVAL
 TLI .F                90:   TOP LOG INTERVAL
 CBD .F                10:   CASING BOTTOM DRILLER
 BS  .IN             6.75:   BIT SIZE
 BSD .F              1036:   BIT SIZE AT DEPTH
 DFT .                GEL:   DRILLING FLUID TYPE
 DFD .               10.2:   DRILLING FLUID DENSITY
 DFV .                 48:   DRILLING FLUID VISCOSITY
 DFL .                4.8:   DRILLING FLUID LOSS
 MSS .          FLOW LINE:   MUD SAMPLE SOURCE
 RMS .OHMM            5.6:   RESISTIVITY MUD SAMPLE
 MST .F                70:   MUD SAMPLE TEMPERATURE
 RMF .OHMM           5.57:   RESISTIVITY MUD FILTRATE SAMPLE
 MFST.F                70:   MUD FILTRATE SAMPLE TEMPERATURE
 RMC .OHMM           5.32:   RESISTIVITY MUD CAKE
 MCST.F                70:   MUD CAKE SAMPLE TEMPERATURE
 MFSS.                  M:   MUD FILTRATE SAMPLE SOURCE
 MCSS.                  M:   MUD CAKE SAMPLE SOURCE
 RMB .OHMM            4.3:   RESISTIVITY MUD AT BHT
 BHT .F                90:   BOTTOM HOLE TEMPERATURE
 TCS .HRS               1:   TIME CURCULATED STOPPED
 MRT .F                90:   MAXIMUM RECORDED TEMPERATURE
 LUN .               2503:   LOGGING UNIT NUMBER
 LUL .               CSPR:   LOGGING UNIT LOCATION
 ENGI.             KNOBEL:   RECORDING ENGINEER
 WITN.          JORGENSEN:   WITNESSED BY
 CLNT.            A2DTECH:   CLIENT CODE
 ORIG.   1", 2", 5" PRINT:   ORIGIN OF DATA
 UWI .       490250631700:   UNIQUE WELL ID
 DICO. A2D Technologies, Inc.:   DIGITIZING COMPANY
~OTHER INFORMATION
~A   DEPT       GR       CALM        SPR          ASN        ILD      CILD  
# ...
  818.0000    85.3959     6.6175   -36.3994     5.4444     5.0038   189.1743
  818.5000    93.9149     6.6154   -36.1161     5.5182     4.9173   196.7950
  819.0000    89.0767     6.6660   -35.8241     5.4910     4.8307   205.0728
  819.5000    87.1542     6.7074   -35.9132     5.3771     4.7441   215.4905
  820.0000   100.2808     6.7011   -36.0969     5.1187     4.6576   224.5408
  820.5000    91.9120     6.6957   -36.0531     4.8688     4.5710   232.4891
  821.0000    87.3020     6.6905   -35.8556     4.8603     4.4843   240.4375
  821.5000    83.2836     6.6852   -35.6522     4.7602     4.3977   248.3829
  822.0000    86.1048     6.6800   -35.7239     4.6191     4.3130   256.4333
  822.5000    85.2881     6.6747   -35.9567     4.6932     4.3217   254.4375
  823.0000    92.9055     6.6694   -35.7536     4.9175     4.4905   250.0099
  823.5000    81.3535     6.6705   -35.5943     4.9695     4.6571   238.2881
  824.0000    88.1183     6.6757   -35.7541     5.0268     4.8211   224.7726
  824.5000    82.2519     6.6810   -35.9125     5.2974     5.1677   211.7150
  825.0000    83.2127     6.6864   -35.8354     5.5915     5.5111   200.5164
  825.5000    79.7054     6.6847   -35.6111     5.8848     5.8537   189.3179
  826.0000    76.4414     6.6815   -35.5712     6.1782     6.1985   180.5198
  826.5000    81.0443     6.6782   -35.5699     6.4714     6.4052   173.3035
  827.0000    79.6028     6.6750   -35.5748     6.7427     6.5827   166.0872
  827.5000    90.2267     6.6718   -35.6904     6.9280     6.7585   159.1826
  828.0000    85.7451     6.6685   -35.8102     7.0266     6.8649   152.8056
  828.5000    86.9040     6.6688   -35.9295     7.0961     6.8636   150.2655
  829.0000    91.8147     6.6712   -36.0486     7.0838     6.8641   147.7956
  829.5000    90.4032     6.6735   -36.1677     7.0542     6.8637   149.2957
  830.0000    89.6937     6.6759   -36.2868     7.0031     6.8412   150.7721
  830.5000    89.1138     6.6783   -36.4059     6.9521     6.7225   152.2486
  831.0000    98.6723     6.6807   -36.5251     6.8679     6.6072   155.5641
  831.5000   102.8045     6.6831   -36.6442     6.7324     6.4483   159.9935
  832.0000    96.2318     6.6854   -36.7636     6.6393     6.2661   164.4230
  832.5000    90.0871     6.6873   -36.8823     6.5197     6.0855   167.8357
  833.0000    87.6619     6.6873   -36.9697     6.4042     5.9057   174.0401
  833.5000    87.0676     6.6873   -36.9356     6.2602     5.7278   180.0641
  834.0000    92.9236     6.6873   -36.9040     6.1134     5.4814   186.0882
  834.5000    91.6826     6.6873   -36.8726     5.9698     5.2019   191.8838
  835.0000   103.1836     6.6873   -36.8412     5.7333     4.9207   209.1604
  835.5000   100.5921     6.6873   -36.8106     5.4845     4.6396   225.8058
  836.0000    96.3990     6.6873   -36.7840     5.2351     4.3552   242.4512
  836.5000    92.3507     6.6873   -36.5619     4.9852     4.2392   254.4300
  837.0000    94.5987     6.6873   -36.3110     4.7341     4.1925   252.0677
  837.5000   105.5398     6.6873   -36.0588     4.6986     4.1937   249.7053
  838.0000    89.0959     6.6873   -35.8079     4.9057     4.3663   247.3429
  838.5000    92.1888     6.6873   -35.8341     4.9424     4.5269   240.8818
  839.0000    92.6913     6.6873   -35.9749     5.0340     4.8804   232.4048
  839.5000    90.1665     6.6873   -36.1151     5.5753     5.2565   220.9419
  840.0000    89.3361     6.6873   -36.2553     5.9764     5.6341   202.1133
  840.5000    80.5689     6.6873   -36.3954     6.3420     6.0114   184.3150
  841.0000    80.1801     6.6873   -36.5355     6.4611     6.3826   167.1463
  841.5000    82.5539     6.6873   -36.6754     6.5707     6.5961   160.9731
  842.0000    80.6689     6.6873   -36.8197     6.6807     6.6061   156.8136
  842.5000    82.7270     6.6873   -36.9705     6.7861     6.6491   155.8389
  843.0000    77.6813     6.6873   -36.7178     6.8719     6.6914   154.9262
  843.5000    78.1960     6.6873   -36.6224     6.9549     6.7332   154.4344
  844.0000    84.2025     6.6873   -36.5214     7.0375     6.7751   153.8766
  844.5000    85.1145     6.6872   -36.4128     7.1157     6.8169   153.3189
  845.0000    74.0208     6.6851   -36.3045     7.1902     6.8588   152.7611
  845.5000    79.1832     6.6807   -36.1960     7.2488     6.9005   152.2033
  846.0000    79.0344     6.6763   -36.0874     7.2618     6.9418   151.8036
  846.5000    87.2960     6.6718   -35.9786     7.2751     6.9305   152.6152
  847.0000    91.9855     6.6674   -35.8695     7.2846     6.8609   154.2886
  847.5000    92.6737     6.6630   -35.7756     7.2747     6.7919   155.9619
  848.0000    95.1172     6.6585   -35.8390     7.2329     6.7226   157.6373
  848.5000    91.1490     6.6541   -35.9022     7.1926     6.6534   157.6281
  849.0000    91.8400     6.6497   -35.9693     7.1482     6.5826   156.9470
  849.5000    88.6863     6.6484   -35.7526     7.0845     6.5946   156.2806
  850.0000    95.1183     6.6504   -35.4469     7.0206     6.6378   156.3725
  850.5000    92.8174     6.6524   -35.1830     7.0651     6.6820   158.2458
  851.0000    91.7094     6.6544   -35.3860     7.1340     6.7261   157.7776
  851.5000   104.0187     6.6564   -35.5890     7.1616     6.7703   156.2806
  852.0000   103.9352     6.6584   -35.7892     7.1148     6.8150   154.7836
  852.5000    92.4024     6.6604   -35.9670     7.0680     6.8615   153.2576
  853.0000    88.4510     6.6624   -35.8052     7.0305     6.7577   154.0295
  853.5000    91.1844     6.6644   -35.4503     7.0016     6.6368   157.1920
  854.0000    96.9057     6.6664   -35.0986     6.9749     6.5154   162.5289
  854.5000    92.7876     6.6673   -34.7695     6.8515     6.3944   167.7910
  855.0000    96.5195     6.6673   -34.6568     6.6907     6.2736   173.0340
  855.5000    83.7209     6.6673   -34.5519     6.4919     6.1525   176.0251
  856.0000    87.5548     6.6673   -34.4464     6.2935     6.0327   178.4847
  856.5000    93.6204     6.6673   -34.3753     6.1850     5.9059   180.9358
  857.0000   100.9166     6.6673   -34.5762     6.0601     5.7815   184.6264
  857.5000    82.4624     6.6673   -34.7779     5.9121     5.6561   190.6814
  858.0000    89.6590     6.6673   -34.9796     6.0038     5.5014   197.6186
  858.5000    82.8797     6.6673   -35.1570     6.1370     5.2184   208.4302
  859.0000    87.7424     6.6673   -34.9444     5.9585     4.9409   219.2367
  859.5000    82.4296     6.6673   -34.7825     5.5712     4.6625   230.1535
  860.0000    71.7130     6.6688   -34.8722     5.1850     4.4957   228.4106
  860.5000    82.4483     6.6799   -34.9647     5.1135     4.5530   225.4888
  861.0000    92.6583     6.6910   -34.6054     5.3063     4.7008   224.3799
  861.5000    95.0804     6.7022   -34.1776     5.2737     4.8510   223.2710
  862.0000    83.8822     6.7010   -34.3354     5.1009     4.9990   222.1621
  862.5000    82.2342     6.6900   -34.5473     5.5020     5.2873   213.9279
  863.0000    77.2699     6.6789   -34.7598     5.9146     5.6600   200.8983
  863.5000    86.4841     6.6678   -34.9660     6.1474     6.0309   187.1024
  864.0000    82.8900     6.6567   -34.8636     6.3098     6.2353   173.3066
  864.5000    83.3461     6.6456   -34.7268     6.3900     6.1527   164.6453
  865.0000    90.0298     6.6348   -34.5902     6.4058     6.0748   163.7869
  865.5000    80.6908     6.6362   -34.4540     6.4230     5.9936   169.4771
  866.0000    84.9762     6.6617   -34.2976     6.4410     5.8671   180.2866
  866.5000    91.1053     6.6863   -34.1052     6.3707     5.6027   192.4939
  867.0000    93.6458     6.6874   -33.9132     6.0994     5.3410   204.6916
  867.5000    89.3261     6.6873   -33.7206     5.7743     5.0804   215.4977
  868.0000    95.9483     6.6873   -33.5289     5.4542     4.8516   219.0322
  868.5000    95.9155     6.6873   -33.3744     5.2732     4.7531   222.5668
  869.0000    92.9933     6.6873   -33.4633     5.3484     4.6424   226.1014
  869.5000   100.6768     6.6873   -33.5487     5.2457     4.5349   229.6359
