~VERSION INFORMATION
 VERS.                2.0:   CWLS LOG ASCII STANDARD - VERSION 2.0
 WRAP.                 NO:   ONE LINE PER DEPTH STEP
~WELL INFORMATION
#MNEM.UNIT      DATA TYPE    INFORMATION
#----------   ------------   ------------------------------
 STRT.F           18.0000:   START DEPTH
 STOP.F         2312.0000:   STOP DEPTH
 STEP.F            0.5000:   STEP LENGTH
 NULL.          -999.2500:   NO VALUE
 COMP. FENIX & SCISSON INC:   COMPANY
 WELL.  NPR 3 #51 SHX -15:   WELL
 FLD .             TEAPOT:   FIELD
 LOC .      S15 T38N R78W:   LOCATION
 CNTY.            NATRONA:   COUNTY
 STAT.            WYOMING:   STATE
 CTRY. UNITED STATES OF AMERICA:   COUNTRY
 SRVC.            Unknown:   SERVICE COMPANY
 DATE.        14-MAR-1978:   LOGDATE
 API .       490251060000:   API NUMBER
~CURVE INFORMATION
#MNEM.UNIT       API CODE    CURVE DESCRIPTION
#----------   ------------   ------------------------------
 DEPT.F                  :   
 ILD .OHMM   05 120 46 00:   INDUCTION LOG DEEP
 CILD.MMHO   05 110 46 00:   CONDUCTIVITY INDUCTION LOG DEEP
 CALD.IN     45 280 60 00:   CALIPER FROM DENSITY LOG
 GRD .GAPI   45 310 01 00:   GAMMA RAY FROM DENSITY LOG
 CORR.G/C3   45 356 01 00:   DENSITY CORRECTION
 RHOB.G/C3   45 350 01 00:   BULK DENSITY
 DPHI.DEC    45 890 12 00:   DENSITY POROSITY SANDSTONE
~PARAMETER INFORMATION
#MNEM.UNIT          VALUE    DESCRIPTION
#----------   ------------   ------------------------------
 PD  .                 GL:   PERMANENT DATUM
 EPD .F              5223:   ELEVATION PERMANENT DATUM
 LMF .                 KB:   LOG MEASURED FROM
 DAPD.F                10:   FEET ABOVE PERMANENT DATUM
 DMF .                 KB:   DRILLING MEASURED FROM
 EKB .F              5233:   KELLING BUSHING
 EGL .F              5223:   GROUND LEVEL
 DATE.            3-14-78:   RUN DATE
 RUN .                  1:   RUN NUMBER
 DD  .F              2323:   DEPTH DRILLER
 DL  .F              2314:   DEPTH LOGGER
 BLI .F              2312:   BOTTOM LOG INTERVAL
 TLI .F                20:   TOP LOG INTERVAL
 CS  .IN                9:   CASING SIZE
 CBD .F               680:   CASING BOTTOM DRILLER
 CBL .F               682:   CASING BOTTOM LOGGER
 BS  .IN            7.875:   BIT SIZE
 BSD .F              2323:   BIT SIZE AT DEPTH
 DFT .           AIR MIST:   DRILLING FLUID TYPE
 TCS .HRS               2:   TIME CURCULATED STOPPED
 LUN .               2958:   LOGGING UNIT NUMBER
 LUL .               CASP:   LOGGING UNIT LOCATION
 ENGI.             MILLER:   RECORDING ENGINEER
 WITN.           MCGINLEY:   WITNESSED BY
 CLNT.            A2DTECH:   CLIENT CODE
 ORIG.       2", 5" PRINT:   ORIGIN OF DATA
 UWI .       490251060000:   UNIQUE WELL ID
 DICO. A2D Technologies, Inc.:   DIGITIZING COMPANY
~OTHER INFORMATION
~A   DEPT      ILD       CILD       CALD         GRD      CORR       RHOB       DPHI   
# ...
  791.5000  -999.2500  -999.2500    11.1067    92.2464     0.0155     2.4604     0.1202
  792.0000  -999.2500  -999.2500    11.1056    90.5562     0.0214     2.4642     0.1172
  792.5000  -999.2500  -999.2500    11.1045    91.3741     0.0265     2.4659     0.1160
  793.0000  -999.2500  -999.2500    11.1034    94.7705     0.0265     2.4658     0.1174
  793.5000  -999.2500  -999.2500    11.1023    96.9947     0.0265     2.4614     0.1228
  794.0000  -999.2500  -999.2500    11.1012    92.5304     0.0265     2.4563     0.1232
  794.5000  -999.2500  -999.2500    11.1001    89.7405     0.0265     2.4490     0.1314
  795.0000  -999.2500  -999.2500    11.0990    91.0218     0.0266     2.4350     0.1358
  795.5000  -999.2500  -999.2500    11.0979    92.8917     0.0281     2.4345     0.1384
  796.0000  -999.2500  -999.2500    11.0968    96.9985     0.0316     2.4427     0.1287
  796.5000  -999.2500  -999.2500    11.0957   101.0276     0.0352     2.4506     0.1271
  797.0000  -999.2500  -999.2500    11.0946   104.6650     0.0293     2.4615     0.1208
  797.5000  -999.2500  -999.2500    11.0934   106.3838     0.0175     2.4551     0.1244
  798.0000  -999.2500  -999.2500    11.0923   111.3945     0.0137     2.4514     0.1236
  798.5000  -999.2500  -999.2500    11.0912   112.1903     0.0156     2.4490     0.1276
  799.0000  -999.2500  -999.2500    11.0901   105.0596     0.0176     2.4468     0.1256
  799.5000  -999.2500  -999.2500    11.0890    96.4398     0.0196     2.4558     0.1214
  800.0000  -999.2500  -999.2500    11.0879    98.3117     0.0216     2.4704     0.1169
  800.5000  -999.2500  -999.2500    11.0868   100.8384     0.0235     2.4789     0.1123
  801.0000  -999.2500  -999.2500    11.0857   103.3130     0.0255     2.4767     0.1107
  801.5000  -999.2500  -999.2500    11.0846   104.9579     0.0244     2.4825     0.1129
  802.0000  -999.2500  -999.2500    11.0835    99.0029     0.0198     2.4802     0.1126
  802.5000  -999.2500  -999.2500    11.0824    90.5998     0.0186     2.4749     0.1136
  803.0000  -999.2500  -999.2500    11.0813    85.3854     0.0189     2.4698     0.1154
  803.5000  -999.2500  -999.2500    11.0802    91.2525     0.0196     2.4679     0.1153
  804.0000  -999.2500  -999.2500    11.0791   100.0762     0.0204     2.4711     0.1145
  804.5000  -999.2500  -999.2500    11.0779    98.8266     0.0191     2.4742     0.1137
  805.0000  -999.2500  -999.2500    11.0768   101.2610     0.0174     2.4746     0.1154
  805.5000  -999.2500  -999.2500    11.0749   107.5259     0.0159     2.4685     0.1176
  806.0000  -999.2500  -999.2500    11.0717   114.1051     0.0170     2.4631     0.1153
  806.5000  -999.2500  -999.2500    11.0686   112.5060     0.0272     2.4631     0.1077
  807.0000  -999.2500  -999.2500    11.0654   108.0652     0.0283     2.4692     0.1060
  807.5000  -999.2500  -999.2500    11.0622   107.8875     0.0230     2.4747     0.1097
  808.0000  -999.2500  -999.2500    11.0590   103.7183     0.0185     2.4708     0.1142
  808.5000  -999.2500  -999.2500    11.0559    98.8981     0.0191     2.4666     0.1187
  809.0000  -999.2500  -999.2500    11.0527    97.4274     0.0196     2.4625     0.1196
  809.5000  -999.2500  -999.2500    11.0495    96.8874     0.0201     2.4615     0.1125
  810.0000  -999.2500  -999.2500    11.0464    98.7918     0.0201     2.4705     0.1085
  810.5000  -999.2500  -999.2500    11.0432    99.3682     0.0172     2.4793     0.1064
  811.0000  -999.2500  -999.2500    11.0401    99.9245     0.0145     2.4855     0.1064
  811.5000  -999.2500  -999.2500    11.0368   104.3062     0.0118     2.4917     0.1064
  812.0000  -999.2500  -999.2500    11.0002   106.9614     0.0143     2.4902     0.1047
  812.5000  -999.2500  -999.2500    10.9585   104.1783     0.0209     2.4883     0.1044
  813.0000  -999.2500  -999.2500    10.9168   102.1621     0.0275     2.4864     0.1058
  813.5000  -999.2500  -999.2500    10.8750   102.6310     0.0265     2.4845     0.1073
  814.0000  -999.2500  -999.2500    10.8331   100.0121     0.0141     2.4806     0.1094
  814.5000  -999.2500  -999.2500    10.7918    99.8557     0.0009     2.4760     0.1140
  815.0000  -999.2500  -999.2500    10.7614   100.4343    -0.0051     2.4622     0.1250
  815.5000  -999.2500  -999.2500    10.7851   101.0936    -0.0022     2.4427     0.1316
  816.0000  -999.2500  -999.2500    10.8075   101.8524     0.0005     2.4413     0.1349
  816.5000  -999.2500  -999.2500    10.8298   107.2075     0.0089     2.4409     0.1277
  817.0000  -999.2500  -999.2500    10.8522   106.2092     0.0181     2.4430     0.1239
  817.5000  -999.2500  -999.2500    10.8745   104.7795     0.0264     2.4527     0.1216
  818.0000  -999.2500  -999.2500    10.8969   101.5683     0.0248     2.4618     0.1200
  818.5000  -999.2500  -999.2500    10.9192    97.8620     0.0228     2.4611     0.1216
  819.0000  -999.2500  -999.2500    10.9416    94.0642     0.0237     2.4601     0.1232
  819.5000  -999.2500  -999.2500    10.9621    91.4136     0.0237     2.4599     0.1117
  820.0000  -999.2500  -999.2500    10.9796    83.1708     0.0221     2.4764     0.1104
  820.5000  -999.2500  -999.2500    10.9968    82.5645     0.0206     2.4817     0.1134
  821.0000  -999.2500  -999.2500    11.0140    83.5355     0.0226     2.4692     0.1164
  821.5000  -999.2500  -999.2500    11.0312    86.4260     0.0243     2.4701     0.1159
  822.0000  -999.2500  -999.2500    11.0484    90.5202     0.0197     2.4729     0.1136
  822.5000  -999.2500  -999.2500    11.0657    93.8013     0.0150     2.4731     0.1220
  823.0000  -999.2500  -999.2500    11.0830    94.1858     0.0106     2.4628     0.1272
  823.5000  -999.2500  -999.2500    11.0956    94.5517     0.0120     2.4471     0.1284
  824.0000  -999.2500  -999.2500    11.0686    93.2498     0.0196     2.4521     0.1242
  824.5000  -999.2500  -999.2500    11.0416    91.9984     0.0271     2.4586     0.1200
  825.0000  -999.2500  -999.2500    11.0148    85.6677     0.0285     2.4650     0.1205
  825.5000  -999.2500  -999.2500    10.9878    80.0255     0.0300     2.4562     0.1227
  826.0000  -999.2500  -999.2500    10.9819    82.1611     0.0376     2.4523     0.1244
  826.5000  -999.2500  -999.2500    10.9900    87.2620     0.0453     2.4592     0.1204
  827.0000  -999.2500  -999.2500    10.9982    92.9063     0.0447     2.4721     0.1132
  827.5000  -999.2500  -999.2500    11.0065    98.5963     0.0416     2.4688     0.1150
  828.0000  -999.2500  -999.2500    11.0148    99.2057     0.0445     2.4715     0.1175
  828.5000  -999.2500  -999.2500    11.0230    94.0164     0.0369     2.4908     0.1097
  829.0000  -999.2500  -999.2500    11.0313    88.5195     0.0095     2.4777     0.1147
  829.5000  -999.2500  -999.2500    11.0396    85.9158     0.0110     2.4617     0.1140
  830.0000  -999.2500  -999.2500    11.0478    89.8251     0.0293     2.4815     0.1110
  830.5000  -999.2500  -999.2500    11.0561    95.2877     0.0371     2.4815     0.1107
  831.0000  -999.2500  -999.2500    11.0644    89.0400     0.0413     2.4832     0.1112
  831.5000  -999.2500  -999.2500    11.0727    83.8068     0.0472     2.4864     0.1008
  832.0000  -999.2500  -999.2500    11.0809    84.5919     0.0459     2.4889     0.1008
  832.5000  -999.2500  -999.2500    11.0892    89.2372     0.0424     2.4950     0.1288
  833.0000  -999.2500  -999.2500    11.0975    92.2362     0.0388     2.4583     0.1233
  833.5000  -999.2500  -999.2500    11.1058    88.9596     0.0486     2.4395     0.1156
  834.0000  -999.2500  -999.2500    11.1140    84.1782     0.0588     2.4765     0.1236
  834.5000  -999.2500  -999.2500    11.1223    82.4118     0.0348     2.4932     0.1146
  835.0000  -999.2500  -999.2500    11.1306    87.1782     0.0283     2.4714     0.1124
  835.5000  -999.2500  -999.2500    11.1388    89.7162     0.0514     2.4732     0.1169
  836.0000  -999.2500  -999.2500    11.1472    86.8684     0.0718     2.4645     0.1253
  836.5000  -999.2500  -999.2500    11.1554    83.3607     0.1024     2.4521     0.1359
