~VERSION INFORMATION
 VERS.                2.0:   CWLS LOG ASCII STANDARD - VERSION 2.0
 WRAP.                 NO:   ONE LINE PER DEPTH STEP
~WELL INFORMATION
#MNEM.UNIT      DATA TYPE    INFORMATION
#----------   ------------   ------------------------------
 STRT.F            8.0000:   START DEPTH
 STOP.F          420.0000:   STOP DEPTH
 STEP.F            0.5000:   STEP LENGTH
 NULL.          -999.2500:   NO VALUE
 COMP.    FENIX & SCISSON:   COMPANY
 WELL.    NPR 3 SX #61-10:   WELL
 FLD .             TEAPOT:   FIELD
 LOC .      S10 T38N R78W:   LOCATION
 CNTY.            NATRONA:   COUNTY
 STAT.            WYOMING:   STATE
 CTRY. UNITED STATES OF AMERICA:   COUNTRY
 SRVC.            Unknown:   SERVICE COMPANY
 DATE.        20-NOV-1978:   LOGDATE
 API .       490251074900:   API NUMBER
~CURVE INFORMATION
#MNEM.UNIT       API CODE    CURVE DESCRIPTION
#----------   ------------   ------------------------------
 DEPT.F                  :   
 ILD .OHMM   01 120 46 00:   LOG INDUCTION
 SN  .OHMM   01 040 00 00:   SHORT NORMAL
 SPR .MV     01 010 01 00:   SPONTANEOUS POTENSIAL
 CALD.IN     45 280 60 00:   CALIPER
 GRD .GAPI   45 310 01 00:   GAMMA RAY FROM DENSITY LOG
 DPHI.DEC    45 890 12 00:   DENSITY POROSITY SANDSTONE
 RHOB.G/C3   45 350 01 00:   BULK DENSITY
 CORR.G/C3   45 356 01 00:   DENSITY CORRECTION
~PARAMETER INFORMATION
#MNEM.UNIT          VALUE    DESCRIPTION
#----------   ------------   ------------------------------
 PD  .                 GL:   PERMANENT DATUM
 EPD .F              5145:   ELEVATION PERMANENT DATUM
 LMF .                 KB:   LOG MEASURED FROM
 DAPD.F                 4:   FEET ABOVE PERMANENT DATUM
 DMF .                 KB:   DRILLING MEASURED FROM
 EKB .F              5149:   KELLING BUSHING
 EGL .F              5145:   GROUND LEVEL
 DATE.        20-NOV-1978:   RUN DATE
 RUN .                  1:   RUN NUMBER
 DD  .F               435:   DEPTH DRILLER
 DL  .F               426:   DEPTH LOGGER
 BLI .F               420:   BOTTOM LOG INTERVAL
 TLI .F                48:   TOP LOG INTERVAL
 CS  .IN            8.625:   CASING SIZE
 CBD .F                40:   CASING BOTTOM DRILLER
 CBL .F                42:   CASING BOTTOM LOGGER
 BS  .IN            7.875:   BIT SIZE
 BSD .F               435:   BIT SIZE AT DEPTH
 DFT .                KCL:   DRILLING FLUID TYPE
 DFD .                8.6:   DRILLING FLUID DENSITY
 DFV .                 38:   DRILLING FLUID VISCOSITY
 DFPH.                9.8:   DRILLING FLUID PH
 DFL .                 10:   DRILLING FLUID LOSS
 MSS .           FLOWLINE:   MUD SAMPLE SOURCE
 RMS .OHMM            .39:   RESISTIVITY MUD SAMPLE
 MST .F                54:   MUD SAMPLE TEMPERATURE
 RMF .OHMM            .26:   RESISTIVITY MUD FILTRATE SAMPLE
 MFST.F                72:   MUD FILTRATE SAMPLE TEMPERATURE
 RMC .OHMM            .34:   RESISTIVITY MUD CAKE
 MCST.F                74:   MUD CAKE SAMPLE TEMPERATURE
 MFSS.           MEASURED:   MUD FILTRATE SAMPLE SOURCE
 RMB .OHMM            .33:   RESISTIVITY MUD AT BHT
 BHT .F                63:   BOTTOM HOLE TEMPERATURE
 TCS .HRS               1:   TIME CURCULATED STOPPED
 MRT .F                63:   MAXIMUM RECORDED TEMPERATURE
 LUN .               2958:   LOGGING UNIT NUMBER
 LUL .               CASP:   LOGGING UNIT LOCATION
 ENGI.             MILLER:   RECORDING ENGINEER
 WITN.              AMEND:   WITNESSED BY
 CLNT.            A2DTECH:   CLIENT CODE
 ORIG.        2" 5" PRINT:   ORIGIN OF DATA
 UWI .       490251074900:   UNIQUE WELL ID
 DICO. A2D Technologies, Inc.:   DIGITIZING COMPANY
~OTHER INFORMATION
~A    DEPT     ILD         SN        SPR       CALD         GRD      DPHI       RHOB       CORR   
# ...
  291.5000    26.2241    21.0151   -10.0275     7.5087    78.9857     0.1814     2.3623     0.0241
  292.0000    25.8878    21.0351    -9.8592     7.4945    80.1849     0.1787     2.3702     0.0242
  292.5000    25.7387    21.0551    -9.6908     7.4656    81.1012     0.1778     2.3835     0.0244
  293.0000    25.2340    21.0751    -9.6718     7.4667    80.3512     0.1775     2.3850     0.0230
  293.5000    24.9103    21.0952    -9.6527     7.4676    80.0624     0.1777     2.3859     0.0216
  294.0000    24.7619    20.8246    -9.6336     7.4685    80.0893     0.1801     2.3822     0.0218
  294.5000    24.5885    20.7005    -9.7685     7.4694    81.2726     0.1891     2.3740     0.0219
  295.0000    24.1365    20.4350    -9.8987     7.4553    81.5790     0.1861     2.3680     0.0220
  295.5000    23.8269    20.3129   -10.0241     7.4711    81.4368     0.1857     2.3718     0.0222
  296.0000    23.8496    20.3325    -9.8605     7.4720    82.0430     0.1876     2.3704     0.0223
  296.5000    23.8723    20.2113    -9.9866     7.4880    79.9662     0.1935     2.3674     0.0224
  297.0000    23.8951    20.2353    -9.9668     7.4888    80.4236     0.2004     2.3682     0.0226
  297.5000    23.7470    20.2546   -10.2463     7.4600    78.7954     0.2028     2.3556     0.0212
  298.0000    23.9406    20.1291   -10.5353     7.4457    77.4649     0.2060     2.3391     0.0213
  298.5000    23.9634    20.1530   -10.6559     7.4317    77.4737     0.1976     2.3399     0.0230
  299.0000    23.9862    20.1722   -10.6320     7.4475    78.5241     0.1922     2.3512     0.0276
  299.5000    24.0091    20.1914   -10.4637     7.4486    80.0210     0.1888     2.3573     0.0323
  300.0000    24.0320    20.2106   -10.2953     7.4495    82.8571     0.1837     2.3679     0.0339
  300.5000    24.0553    20.2298   -10.2762     7.4204    82.9422     0.1819     2.3740     0.0310
  301.0000    24.2506    20.2491   -10.2572     7.4215    83.0256     0.1824     2.3747     0.0265
  301.5000    24.1059    19.9997   -10.2381     7.4521    83.0343     0.1809     2.3758     0.0220
  302.0000    23.3069    20.0284   -10.2245     7.4530    82.5966     0.1791     2.3816     0.0194
  302.5000    22.6911    19.9130   -10.0590     7.4836    82.4543     0.1760     2.3854     0.0180
  303.0000    22.2452    19.6615   -10.3400     7.4845    82.4652     0.1760     2.3878     0.0182
  303.5000    22.1125    19.2790   -10.9195     7.4854    81.8787     0.1818     2.3901     0.0183
  304.0000    21.6780    18.7735   -11.2006     7.5186    80.3994     0.1904     2.3781     0.0169
  304.5000    21.3998    18.5364   -11.1787     7.5469    80.4081     0.1961     2.3639     0.0155
  305.0000    21.5693    18.4295   -11.1613     7.5478    80.2679     0.1894     2.3564     0.0187
  305.5000    21.4403    18.4513   -10.9945     7.5487    80.4296     0.1774     2.3620     0.0219
  306.0000    21.3123    18.4773   -10.9771     7.5344    82.8512     0.1668     2.3819     0.0265
  306.5000    21.3375    18.3655   -11.1132     7.5395    83.2726     0.1608     2.4020     0.0342
  307.0000    21.0637    18.1335   -11.0914     7.5555    83.4301     0.1596     2.4141     0.0389
  307.5000    20.9331    17.9096   -11.0739     7.5567    83.8852     0.1574     2.4157     0.0435
  308.0000    20.8082    17.8013   -11.8027     7.5876    81.3642     0.1595     2.4165     0.0467
  308.5000    20.6840    17.6987   -12.3822     7.5739    81.5196     0.1589     2.4158     0.0498
  309.0000    20.2823    17.4801   -12.3642     7.5601    81.3795     0.1634     2.4122     0.0424
  309.5000    19.1961    17.3789   -12.4965     7.5464    81.2394     0.1664     2.4047     0.0364
  310.0000    17.9216    17.2792   -12.6240     7.5625    80.8039     0.1669     2.4033     0.0319
  310.5000    17.4636    17.1796   -12.7557     7.5637    79.7709     0.1669     2.4019     0.0295
  311.0000    17.2395    16.9675   -13.0368     7.5649    78.1112     0.1603     2.4012     0.0303
  311.5000    17.2599    16.9870   -13.4671     7.5065    74.6637     0.1543     2.4052     0.0314
  312.0000    17.2762    17.0065   -13.7525     7.5079    73.5471     0.1516     2.4235     0.0315
  312.5000    17.2925    17.0261   -13.7306     7.5537    73.8556     0.1494     2.4285     0.0317
  313.0000    17.4293    17.0457   -13.8627     7.5695    74.3108     0.1470     2.4323     0.0303
  313.5000    17.5671    17.0653   -13.8448     7.5558    76.5516     0.1466     2.4339     0.0305
  314.0000    17.5837    17.0849   -13.6776     7.5572    79.6854     0.1488     2.4348     0.0276
  314.5000    17.7231    16.9859   -13.8056     7.5432    81.4798     0.1529     2.4326     0.0262
  315.0000    17.6211    17.0060   -14.2359     7.5149    82.0838     0.1560     2.4282     0.0219
  315.5000    17.2748    16.9613   -14.5213     7.5161    83.1342     0.1571     2.4230     0.0220
  316.0000    17.1677    16.9274   -14.4995     7.5619    88.6488     0.1547     2.4223     0.0267
  316.5000    16.8343    16.8298   -14.1835     7.6077    90.3184     0.1522     2.4224     0.0284
  317.0000    16.3896    16.3932   -14.0167     7.6238    90.7496     0.1465     2.4248     0.0361
  317.5000    16.1754    15.9633   -13.8500     7.6401    87.9332     0.1390     2.4367     0.0392
  318.0000    16.0821    15.7617   -14.1311     7.6261    85.5609     0.1341     2.4482     0.0439
  318.5000    15.9865    15.6664   -14.5662     7.6127    84.6768     0.1305     2.4543     0.0516
  319.0000    16.0020    15.7980   -14.9916     7.5838    84.5345     0.1305     2.4596     0.0593
  319.5000    15.9063    15.8162   -15.4175     7.6448    84.3966     0.1365     2.4604     0.0624
  320.0000    15.9251    15.8344   -15.6986     7.8096    83.8101     0.1425     2.4530     0.0430
  320.5000    15.8264    15.8530   -15.9840     7.8703    82.4795     0.1466     2.4433     0.0296
  321.0000    15.8451    15.7657   -16.1158     7.7227    82.0417     0.1485     2.4382     0.0251
  321.5000    15.8601    15.7838   -16.0939     7.5453    82.2034     0.1549     2.4337     0.0238
  322.0000    15.9855    15.9092   -16.0764     7.5167    83.7282     0.1592     2.4301     0.0240
  322.5000    16.0006    15.8156   -16.0590     7.5179    84.6000     0.1610     2.4240     0.0226
  323.0000    16.2392    15.8384   -15.8922     7.5190    83.7151     0.1619     2.4188     0.0213
  323.5000    16.4830    15.8566   -15.8746     7.5205    83.4240     0.1591     2.4153     0.0214
  324.0000    16.7278    15.8748   -16.0066     7.5216    83.5837     0.1561     2.4161     0.0231
  324.5000    16.9808    15.8931   -15.8355     7.5076    84.0389     0.1543     2.4200     0.0217
  325.0000    16.9969    15.9114   -15.8180     7.5240    84.1964     0.1518     2.4253     0.0234
  325.5000    17.1272    15.8092   -15.6513     7.5099    82.3226     0.1497     2.4299     0.0250
  326.0000    16.9114    15.6198   -15.6338     7.5114    77.8172     0.1467     2.4345     0.0252
  326.5000    16.5791    15.5150   -15.6163     7.4976    78.1236     0.1470     2.4376     0.0253
  327.0000    16.3663    15.4403   -15.7525     7.4839    78.5788     0.1451     2.4399     0.0255
  327.5000    16.1563    15.4625   -15.7306     7.5002    82.6053     0.1482     2.4377     0.0241
  328.0000    15.9490    15.4803   -15.8627     7.5163    86.1855     0.1487     2.4355     0.0228
  328.5000    15.8454    15.4981   -15.9942     7.5323    89.0216     0.1363     2.4349     0.0214
  329.0000    15.7592    15.4043   -16.1260     7.5335    89.7744     0.1258     2.4500     0.0261
  329.5000    15.5570    15.4264   -16.4026     7.5346    89.6343     0.1195     2.4621     0.0323
  330.0000    15.3610    15.4442   -16.5388     7.5209    87.5597     0.1291     2.4787     0.0355
  330.5000    14.9551    15.4732   -16.5169     7.5221    86.2291     0.1426     2.4803     0.0296
  331.0000    14.7597    16.0301   -16.4995     7.5233    87.1666     0.1467     2.4556     0.0237
  331.5000    14.5738    16.2726   -16.7805     7.5095    87.5880     0.1485     2.4346     0.0208
