~VERSION INFORMATION
 VERS.                2.0:   CWLS LOG ASCII STANDARD - VERSION 2.0
 WRAP.                 NO:   ONE LINE PER DEPTH STEP
~WELL INFORMATION
#MNEM.UNIT      DATA TYPE    INFORMATION
#----------   ------------   ------------------------------
 STRT.F            0.0000:   START DEPTH
 STOP.F          652.0000:   STOP DEPTH
 STEP.F            0.5000:   STEP LENGTH
 NULL.          -999.2500:   NO VALUE
 COMP. US DEPTMNT OF ENRGY:   COMPANY
 WELL. NPR ##3 14-14-SX-11:   WELL
 FLD .   TEAPOT NAVAL RES:   FIELD
 LOC .      S11 T38N R78W:   LOCATION
 CNTY.            NATRONA:   COUNTY
 STAT.            WYOMING:   STATE
 CTRY. UNITED STATES OF AMERICA:   COUNTRY
 SRVC.            Unknown:   SERVICE COMPANY
 DATE.        03-JAN-1985:   LOGDATE
 API .       490251102400:   API NUMBER
~CURVE INFORMATION
#MNEM.UNIT       API CODE    CURVE DESCRIPTION
#----------   ------------   ------------------------------
 DEPT.F                  :   
 CALD.IN     45 280 60 00:   CALIPER
 CORR.G/C3   45 356 01 00:   DENSITY CORRECTION
 PORD.DEC    45 890 12 00:   DENSITY POROSITY SANDSTONE
 CNC .DEC    42 890 03 00:   NEUTRON POROSITY SANDSTONE
 SPR .MV     11 010 01 00:   SPONTANEOUS POTENTIAL FROM RES.
 GRR .GAPI   11 310 01 00:   GAMMA RAY FROM RES.
 RS  .OHMM   11 220 09 00:   RESISTIVITY SHALLOW
 RD  .OHMM   11 220 10 00:   RESISTIVITY DEEP
 DEN .G/C3   45 350 01 00:   COMPENSATED BULK DENSTIY
~PARAMETER INFORMATION
#MNEM.UNIT          VALUE    DESCRIPTION
#----------   ------------   ------------------------------
 PD  .                 GL:   PERMANENT DATUM
 EPD .F            5197.3:   ELEVATION PERMANENT DATUM
 LMF .                 KB:   LOG MEASURED FROM
 DMF .                 KB:   DRILLING MEASURED FROM
 EKB .F            5197.3:   KELLING BUSHING
 EGL .F            5197.3:   GROUND LEVEL
 DATE.         3-JAN-1985:   RUN DATE
 RUN .                  1:   RUN NUMBER
 DD  .F               650:   DEPTH DRILLER
 DL  .F               653:   DEPTH LOGGER
 BLI .F               651:   BOTTOM LOG INTERVAL
 CS  .IN            8.625:   CASING SIZE
 CBD .F                20:   CASING BOTTOM DRILLER
 CBL .F                20:   CASING BOTTOM LOGGER
 BS  .IN             6.25:   BIT SIZE
 BSD .F               650:   BIT SIZE AT DEPTH
 DFT .                KCL:   DRILLING FLUID TYPE
 RMS .OHMM            .12:   RESISTIVITY MUD SAMPLE
 MST .F                70:   MUD SAMPLE TEMPERATURE
 RMF .OHMM            .09:   RESISTIVITY MUD FILTRATE SAMPLE
 MFST.F                70:   MUD FILTRATE SAMPLE TEMPERATURE
 RMC .OHMM            .15:   RESISTIVITY MUD CAKE
 MCST.F                70:   MUD CAKE SAMPLE TEMPERATURE
 MFSS.               CALC:   MUD FILTRATE SAMPLE SOURCE
 MCSS.               CALC:   MUD CAKE SAMPLE SOURCE
 RMB .OHMM             .1:   RESISTIVITY MUD AT BHT
 BHT .F                80:   BOTTOM HOLE TEMPERATURE
 TCS .HRS               3:   TIME CURCULATED STOPPED
 MRT .F                80:   MAXIMUM RECORDED TEMPERATURE
 LUN .               6274:   LOGGING UNIT NUMBER
 LUL .               GLTE:   LOGGING UNIT LOCATION
 ENGI.               MACK:   RECORDING ENGINEER
 WITN.               PAGE:   WITNESSED BY
 CLNT.            A2DTECH:   CLIENT CODE
 ORIG.       2", 5" PRINT:   ORIGIN OF DATA
 UWI .       490251102400:   UNIQUE WELL ID
 DICO. A2D Technologies, Inc.:   DIGITIZING COMPANY
~OTHER INFORMATION
~A    DEPT    CALD       CORR       PORD        CNC        SPR         GRR        RS         RD        DEN   
# ...
  365.0000     6.3463     0.0365     0.1266     0.3043   -52.4329   125.4597     7.5944     9.9380     2.4658
  365.5000     6.3443     0.0284     0.1358     0.3104   -52.7632   124.2515     7.6668    10.1096     2.4521
  366.0000     6.3424     0.0239     0.1463     0.3166   -53.0901   123.5907     7.5964     9.5191     2.4302
  366.5000     6.3404     0.0284     0.1567     0.3217   -53.4150   125.8231     6.4861     8.4118     2.4119
  367.0000     6.3384     0.0330     0.1585     0.3257   -53.7384   128.9069     5.6103     7.3593     2.4230
  367.5000     6.3364     0.0376     0.1409     0.3277   -54.0617   130.4373     4.9144     6.4385     2.4429
  368.0000     6.3353     0.0422     0.1290     0.3113   -54.0934   128.9988     4.8800     6.0327     2.4676
  368.5000     6.3404     0.0464     0.1215     0.3002   -53.6788   127.2392     5.0168     6.7526     2.4733
  369.0000     6.3455     0.0514     0.1186     0.2878   -53.2666   127.6485     5.5687     7.3575     2.4754
  369.5000     6.3506     0.0570     0.1117     0.2924   -52.8531   128.0096     6.1914     8.0166     2.4878
  370.0000     6.3551     0.0626     0.1042     0.2950   -52.4266   126.9597     6.9274     8.6288     2.5013
  370.5000     6.3567     0.0645     0.1029     0.2887   -51.8892   123.6127     7.1968     9.0684     2.5036
  371.0000     6.3584     0.0599     0.1059     0.2798   -51.3299   120.2864     7.5101     9.5303     2.4999
  371.5000     6.3601     0.0518     0.1067     0.2755   -50.7696   117.5557     7.8666     9.9206     2.4969
  372.0000     6.3618     0.0434     0.1044     0.2790   -50.2098   115.5365     8.2536    10.4334     2.4974
  372.5000     6.3635     0.0469     0.1019     0.2827   -49.6492   115.4359     8.3549    10.9172     2.5052
  373.0000     6.3651     0.0541     0.1008     0.2864   -49.0731   115.3071     8.4621    11.0933     2.5078
  373.5000     6.3668     0.0615     0.1008     0.2906   -48.4810   115.5113     8.5267    11.2769     2.5064
  374.0000     6.3685     0.0687     0.1023     0.2975   -47.9798   116.3148     8.5811    11.4639     2.5047
  374.5000     6.3702     0.0729     0.1035     0.3018   -48.2792   116.5286     8.6355    11.5518     2.5007
  375.0000     6.3719     0.0676     0.1020     0.3082   -48.4191   115.7299     8.6902    11.6153     2.5039
  375.5000     6.3736     0.0625     0.1017     0.3034   -48.5556   116.1527     8.7422    11.6788     2.5048
  376.0000     6.3743     0.0529     0.1028     0.2990   -48.6901   120.4848     8.8363    11.7427     2.5018
  376.5000     6.3727     0.0387     0.1059     0.2687   -48.8261   124.5140     8.9313    11.8069     2.4974
  377.0000     6.3712     0.0314     0.1089     0.2716   -48.9468   123.8802     9.0274    11.8715     2.4931
  377.5000     6.3697     0.0295     0.1119     0.2735   -49.2145   120.9449     9.1249    11.9345     2.4887
  378.0000     6.3682     0.0292     0.1149     0.2728   -49.1635   120.2017     9.2198    12.0774     2.4844
  378.5000     6.3667     0.0320     0.1179     0.2780   -49.1290   121.4600     9.1870    12.1589     2.4799
  379.0000     6.3651     0.0347     0.1162     0.2831   -49.0931   122.0092     9.1481    11.8528     2.4806
  379.5000     6.3636     0.0402     0.1128     0.2881   -49.0571   119.8797     9.0080    11.6134     2.4864
  380.0000     6.3621     0.0505     0.1092     0.2887   -49.0211   117.6071     8.7338    11.3788     2.4930
  380.5000     6.3606     0.0484     0.1056     0.2799   -48.9851   119.3311     8.4851    11.1490     2.4997
  381.0000     6.3590     0.0406     0.1020     0.2732   -48.9491   121.1842     8.4851    10.9810     2.5063
  381.5000     6.3575     0.0464     0.0985     0.2660   -48.9131   122.3258     8.8640    11.2168     2.5118
  382.0000     6.3560     0.0526     0.0978     0.2665   -48.8766   121.0771     9.1680    11.5795     2.5141
  382.5000     6.3545     0.0578     0.0995     0.2715   -48.8393   117.3986     9.4825    11.9506     2.5098
  383.0000     6.3530     0.0566     0.1012     0.2756   -48.8189   113.8113     9.8078    12.3335     2.5057
  383.5000     6.3514     0.0435     0.1044     0.2826   -49.0189   110.1080    10.1334    12.7286     2.4982
  384.0000     6.3499     0.0292     0.1104     0.2948   -49.2146   108.2504    10.2977    12.8481     2.4762
  384.5000     6.3484     0.0156     0.1554     0.3272   -49.4091   114.3884     9.8245    12.5274     2.4040
  385.0000     6.3469     0.0555     0.1983     0.3388   -49.6041   122.7115     8.0899    10.0230     2.3304
  385.5000     6.3454     0.1002     0.2374     0.3142   -49.8024   130.5263     6.3959     8.0192     2.2803
  386.0000     6.3438     0.1111     0.2386     0.2896   -49.5984   131.2878     5.0566     6.4160     2.2798
  386.5000     6.3423     0.0694     0.1600     0.2688   -49.1945   126.9488     4.3288     5.0633     2.3956
  387.0000     6.3408     0.0442     0.1274     0.2607   -48.7911   121.4756     4.3288     5.3022     2.4483
  387.5000     6.3393     0.0481     0.0983     0.2708   -48.3875   116.3789     5.4066     6.9824     2.4983
  388.0000     6.3378     0.0633     0.0938     0.2720   -47.9840   114.3163     7.4534     9.3640     2.5194
  388.5000     6.3362     0.0777     0.0896     0.2709   -47.5820   112.1904    10.2751    13.5788     2.5275
  389.0000     6.3347     0.0792     0.0857     0.2698   -47.1779   110.4525    11.2923    13.5465     2.5311
  389.5000     6.3332     0.0799     0.0853     0.2687   -46.9982   111.7014    11.2240    13.4895     2.5307
  390.0000     6.3317     0.0683     0.0914     0.2676   -46.6221   114.2252    11.1539    13.4328     2.5254
  390.5000     6.3302     0.0474     0.0982     0.2665   -46.2261   116.7777    11.0842    13.3766     2.5130
  391.0000     6.3286     0.0293     0.1051     0.2654   -45.8314   119.3603    11.0149    13.3301     2.5007
  391.5000     6.3271     0.0273     0.1095     0.2643   -45.4341   121.9663    10.9461    13.2630     2.4941
  392.0000     6.3256     0.0620     0.1097     0.2677   -44.8882   121.8602    10.8777    13.1946     2.4951
  392.5000     6.3241     0.0764     0.1099     0.2719   -44.1009   118.6975    10.7836    13.1268     2.4962
  393.0000     6.3225     0.0373     0.1119     0.2612   -43.3183   113.9388    10.8414    13.0872     2.4960
  393.5000     6.3210     0.0170     0.1159     0.2519   -42.5462   107.8940    10.9436    13.4782     2.4876
  394.0000     6.3195     0.0121     0.1276     0.2426   -41.4690    93.9648    11.8681    14.5856     2.4792
  394.5000     6.3180     0.0172     0.1485     0.2369   -40.3452    79.9199    13.6428    16.8859     2.4418
  395.0000     6.3165     0.0222     0.1759     0.2365   -39.2194    65.2648    15.6792    19.5490     2.4014
  395.5000     6.3149     0.0272     0.1924     0.2546   -38.0937    56.7996    18.0196    22.6322     2.3615
  396.0000     6.3157     0.0351     0.1965     0.2767   -36.9668    55.2719    20.7093    24.7242     2.3463
  396.5000     6.3170     0.0437     0.1950     0.2715   -36.0508    62.1186    21.3333    24.9673     2.3514
  397.0000     6.3183     0.0521     0.2037     0.2587   -35.2468    69.3561    19.7351    23.1782     2.3446
  397.5000     6.3196     0.0677     0.2122     0.2462   -34.4405    70.5576    18.7069    22.9537     2.3283
  398.0000     6.3210     0.0838     0.2130     0.2365   -33.6339    67.5616    18.5780    23.1623     2.3220
  398.5000     6.3223     0.0944     0.1843     0.2472   -32.8272    63.6198    20.3608    23.4571     2.3606
  399.0000     6.3236     0.0605     0.1641     0.2564   -32.0194    61.3162    22.3909    24.9348     2.3979
  399.5000     6.3249     0.0325     0.1673     0.2564   -31.2077    60.2991    24.6298    29.2158     2.4044
  400.0000     6.3262     0.0146     0.1868     0.2476   -30.7060    63.9550    27.0876    34.7752     2.3606
  400.5000     6.3275     0.0219     0.2048     0.2552   -30.3524    70.6820    28.9363    32.3597     2.3259
  401.0000     6.3289     0.0289     0.2230     0.2627   -29.6653    73.6348    26.1676    29.8736     2.3000
