~VERSION INFORMATION
 VERS.                2.0:   CWLS LOG ASCII STANDARD - VERSION 2.0
 WRAP.                 NO:   ONE LINE PER DEPTH STEP
~WELL INFORMATION
#MNEM.UNIT      DATA TYPE    INFORMATION
#----------   ------------   ------------------------------
 STRT.F           34.0000:   START DEPTH
 STOP.F          445.0000:   STOP DEPTH
 STEP.F            0.5000:   STEP LENGTH
 NULL.          -999.2500:   NO VALUE
 COMP. FENIX & SCISSON U.S. NAVY:   COMPANY
 WELL.       NPR #64-S-10:   WELL
 FLD .             TEAPOT:   FIELD
 LOC .      S10 T38N R78W:   LOCATION
 CNTY.            NATRONA:   COUNTY
 STAT.            WYOMING:   STATE
 CTRY. UNITED STATES OF AMERICA:   COUNTRY
 SRVC.              Welex:   SERVICE COMPANY
 DATE.        08-APR-1977:   LOGDATE
 API .       490251033400:   API NUMBER
~CURVE INFORMATION
#MNEM.UNIT       API CODE    CURVE DESCRIPTION
#----------   ------------   ------------------------------
 DEPT.F                  :   
 SPR .MV     07 010 01 00:   SPONTANEOUS POTENTIAL
 ILD .OHMM   07 120 46 00:   INDUCTION LOG DEEP
 ILM .OHMM   07 120 44 00:   INDUCTION LOG MEDIUM
 SGRD.OHMM   07 221 05 00:   SHALLOW SHORT GUARD RESISTIVITY
 CALD.IN     45 280 60 00:   CALIPER FROM DENSITY LOG
 GRD .GAPI   45 310 01 00:   GAMMA RAY FROM DENSITY LOG
 CORR.G/C3   45 356 01 00:   DENSITY CORRECTION
 RHOB.G/C3   45 350 01 00:   BULK DENSITY
 DPHI.DEC    45 890 12 00:   DENSITY POROSITY SANDSTONE
~PARAMETER INFORMATION
#MNEM.UNIT          VALUE    DESCRIPTION
#----------   ------------   ------------------------------
 PD  .                 GL:   PERMANENT DATUM
 EPD .F              5183:   ELEVATION PERMANENT DATUM
 LMF .                 GL:   LOG MEASURED FROM
 DMF .                 GL:   DRILLING MEASURED FROM
 EGL .F              5183:   GROUND LEVEL
 DATE.        08-APR-1977:   RUN DATE
 RUN .                  1:   RUN NUMBER
 DD  .F               455:   DEPTH DRILLER
 DL  .F               447:   DEPTH LOGGER
 BLI .F               445:   BOTTOM LOG INTERVAL
 TLI .F                34:   TOP LOG INTERVAL
 CS  .IN            8.625:   CASING SIZE
 BS  .IN            7.875:   BIT SIZE
 BSD .F               455:   BIT SIZE AT DEPTH
 DFT .           KCL- GEL:   DRILLING FLUID TYPE
 DFD .                8.3:   DRILLING FLUID DENSITY
 TCS .HRS            0100:   TIME CURCULATED STOPPED
 MRT .F                62:   MAXIMUM RECORDED TEMPERATURE
 ENGI.        E. CALLAHAN:   RECORDING ENGINEER
 WITN.            R. LYON:   WITNESSED BY
 CLNT.            A2DTECH:   CLIENT CODE
 ORIG.           5" PRINT:   ORIGIN OF DATA
 UWI .       490251033400:   UNIQUE WELL ID
 DICO. A2D Technologies, Inc.:   DIGITIZING COMPANY
~OTHER INFORMATION
~A   DEPT      SPR        ILD        ILM       SGRD       CALD        GRD        CORR        RHOB     DPHI   
   34.0000  -999.2500  -999.2500  -999.2500  -999.2500  -999.2500  -999.2500    -0.5499     2.0562  -999.2500
   34.5000  -999.2500  -999.2500  -999.2500  -999.2500     8.0115   123.1360    -0.5393     2.0443  -999.2500
   35.0000  -999.2500  -999.2500  -999.2500  -999.2500     7.9388   123.4529    -0.5122     2.0331  -999.2500
   35.5000  -999.2500  -999.2500  -999.2500  -999.2500     7.9101   123.9193    -0.4654     2.0039  -999.2500
   36.0000  -999.2500  -999.2500  -999.2500  -999.2500     7.8823   124.3857    -0.4067     1.9761  -999.2500
   36.5000  -999.2500  -999.2500  -999.2500  -999.2500     7.8686   125.0015    -0.3209     1.9552  -999.2500
   37.0000  -999.2500  -999.2500  -999.2500  -999.2500     7.8707   126.0658    -0.2471     1.9425  -999.2500
   37.5000  -999.2500  -999.2500  -999.2500  -999.2500     7.8569   127.7279    -0.1718     1.9493  -999.2500
   38.0000  -999.2500  -999.2500  -999.2500  -999.2500     7.8739   130.7354    -0.0679     1.9899  -999.2500
   38.5000  -999.2500  -999.2500  -999.2500  -999.2500     7.8905   134.6398     0.0570     2.0073  -999.2500
   39.0000  -999.2500  -999.2500  -999.2500  -999.2500     7.9520   136.3019     0.0992     2.0848  -999.2500
   39.5000  -999.2500  -999.2500  -999.2500  -999.2500     8.0134   136.4694     0.1128     2.0923  -999.2500
   40.0000  -999.2500     2.9086  -999.2500  -999.2500     8.0748   137.0852     0.1190     2.0804  -999.2500
   40.5000  -999.2500     1.4740  -999.2500    44.2977     8.1363   137.7010     0.1311     2.0940  -999.2500
   41.0000  -999.2500     1.0241  -999.2500    90.8088     8.2575   138.9148     0.1462     2.1166  -999.2500
   41.5000  -999.2500     0.8244     1.6915   203.1431     8.3787   140.4275     0.1584     2.1400  -999.2500
   42.0000  -999.2500     0.6248     2.1856   132.6259     8.4701   142.2392     0.1675     2.1506     0.2994
   42.5000  -999.2500     0.4251     2.4753    24.3674     8.5315   143.6024     0.1646     2.1634     0.2985
   43.0000  -999.2500     0.2888     2.5093    19.1015     8.5481   144.9656     0.1527     2.1793     0.2909
   43.5000  -999.2500     0.4029     2.5609    17.9137     8.4003   146.3288     0.1483     2.1869     0.2828
   44.0000  -999.2500     0.6060     2.6139    16.3020     7.9086   147.3931     0.1438     2.1922     0.2771
   44.5000  -999.2500     1.0507     2.6495    15.1055     7.6861   146.2152     0.1424     2.1960     0.2731
   45.0000  -999.2500     1.7776     2.6486    14.1921     7.5677   144.4395     0.1396     2.2014     0.2713
   45.5000  -999.2500     2.6212     2.6884    19.1191     7.5544   144.0090     0.1397     2.2082     0.2695
   46.0000  -999.2500     2.7707     2.7593    29.3563     7.6910   139.8416     0.1382     2.2030     0.2641
   46.5000  -999.2500     2.8487     2.9155    55.5869     7.9318   138.5142     0.1368     2.2046     0.2680
   47.0000  -999.2500     2.8885     3.0173    42.7170     8.0680   139.8774     0.1354     2.2242     0.2649
   47.5000  -999.2500     3.0533     3.1664    16.0776     8.0991   141.8386     0.1325     2.2385     0.2526
   48.0000  -999.2500     3.3183     3.3926    18.3404     7.9069   137.5217     0.1281     2.2799     0.2355
   48.5000  -999.2500     3.5813     3.5602    30.2073     7.8035   135.5964     0.1493     2.3274     0.2114
   49.0000  -999.2500     3.7856     3.8411    43.0141     7.6411   137.2586     0.1554     2.3485     0.1876
   49.5000  -999.2500     4.0295     4.1156    25.4020     7.5975   139.3692     0.1255     2.3395     0.1807
   50.0000  -999.2500     4.3339     4.4096    56.3612     7.5842   141.0314     0.1045     2.3411     0.1861
   50.5000  -999.2500     4.7067     4.7679   217.6358     7.6759   142.9925     0.1091     2.3652     0.1735
   51.0000  -999.2500     5.0956     5.1262   226.8004     7.7822   143.4589     0.1198     2.3938     0.1533
   51.5000  -999.2500     5.2365     5.4845   233.0975     7.9184   141.8326     0.1379     2.4217     0.1338
   52.0000  -999.2500     5.6883     5.8486   234.6418     7.8901   139.9073     0.1576     2.4436     0.1238
   52.5000  -999.2500     6.0100     6.1437   232.8602     7.8320   139.3274     0.1697     2.4512     0.1181
   53.0000  -999.2500     6.3053     6.5735   209.8547     7.8033   140.8401     0.1879     2.4557     0.1163
   53.5000  -999.2500     6.7083     6.9936   104.1803     7.8951   139.6622     0.2015     2.4461     0.1214
   54.0000  -999.2500     7.0877     7.3381   116.6903     7.9864   137.5874     0.2121     2.4401     0.1237
   54.5000  -999.2500     7.5407     7.8614   217.0541     8.1076   138.8012     0.2243     2.4364     0.1261
   55.0000  -999.2500     8.0226     8.1916   188.8821     8.2289   140.0149     0.2349     2.4245     0.1327
   55.5000  -999.2500     8.3596     8.5357    84.8726     8.3202   140.4813     0.2455     2.4005     0.1399
   56.0000  -999.2500     8.7713     8.9107    22.5371     8.3368   137.6592     0.2516     2.3848     0.1546
   56.5000  -999.2500     9.2022     9.1402    26.3597     8.3530   137.9761     0.2352     2.3564     0.1717
   57.0000  -999.2500     9.2641     9.1995    48.4918     8.2952   139.3393     0.2098     2.3309     0.1879
   57.5000  -999.2500     9.2576     9.1941   111.4988     8.1773   139.3573     0.1798     2.3077     0.1987
   58.0000  -999.2500     9.2533     9.1898   153.1007     8.0594   139.9731     0.1633     2.3032     0.2092
   58.5000  -999.2500     9.1850     9.1855   191.6202     7.9713   141.0374     0.1589     2.3108     0.2053
   59.0000  -999.2500     9.1807     9.1812   238.0604     7.9431   143.7459     0.1530     2.3079     0.2041
   59.5000  -999.2500     9.1130     9.1124   268.1302     8.0194   144.2122     0.1246     2.2869     0.2185
   60.0000  -999.2500     8.9201     9.1081   253.5630     8.0360   141.9881     0.0540     2.2104     0.2293
   60.5000  -999.2500     8.7323     9.0410   251.7276     8.0078   140.2122     0.0616     2.3637     0.1722
   61.0000  -999.2500     8.6679     8.9743   253.4146     7.9941   137.9240     0.0632     2.4021     0.1499
   61.5000  -999.2500     8.4268     9.0336   256.8441     7.9808   135.6143     0.0618     2.3992     0.1520
   62.0000  -999.2500     8.1358     8.9659   260.3418     7.9828   133.8386     0.0619     2.4030     0.1463
   62.5000  -999.2500     7.8548     8.8331   258.4574     7.9994   133.4081     0.0665     2.4083     0.1475
   63.0000  -999.2500     7.7430     8.5914   186.9814     8.0310   134.9208     0.0727     2.4144     0.1411
   63.5000  -999.2500     7.6850     8.5874   104.1849     8.0476   135.8356     0.0803     2.4250     0.1357
   64.0000  -999.2500     7.5232     8.5834   147.5867     8.0492   136.4514     0.0894     2.4469     0.1225
   64.5000  -999.2500     6.1071     8.7002   268.3781     8.0658   136.0209     0.0955     2.4447     0.1207
   65.0000  -999.2500     7.8355     8.8165   280.3699     8.0521   135.1450     0.0956     2.4358     0.1248
   65.5000  -999.2500     8.1091     8.9355   280.2762     8.0242   134.2661     0.0882     2.4231     0.1338
   66.0000  -999.2500     6.7672     9.1191   276.3257     7.9661   133.6816     0.0823     2.4314     0.1353
   66.5000  -999.2500     5.8879     9.1138   261.3351     7.9225   133.2556     0.0839     2.4390     0.1260
   67.0000  -999.2500     8.6773     9.1095   238.7401     7.9395   135.2167     0.0840     2.4413     0.1245
   67.5000  -999.2500     8.7356     9.0423   157.0698     7.9411   135.3797     0.0856     2.4361     0.1254
   68.0000  -999.2500     8.7295     9.0381    39.9116     7.9428   134.6547     0.0873     2.4325     0.1298
   68.5000  -999.2500     8.6052     8.9714   119.2579     7.9444   134.3692     0.0919     2.4295     0.1325
   69.0000  -999.2500     8.5417     8.9032   277.6740     7.9158   135.5874     0.1010     2.4281     0.1328
   69.5000  -999.2500     8.5975     8.7774   279.6624     7.8879   137.1002     0.1071     2.4334     0.1271
   70.0000  -999.2500     8.5924     8.8959   267.6683     7.8742   136.0717     0.1193     2.4418     0.1220
