~VERSION INFORMATION
 VERS.                2.0:   CWLS LOG ASCII STANDARD - VERSION 2.0
 WRAP.                 NO:   ONE LINE PER DEPTH STEP
~WELL INFORMATION
#MNEM.UNIT      DATA TYPE    INFORMATION
#----------   ------------   ------------------------------
 STRT.F           70.0000:   START DEPTH
 STOP.F          960.0000:   STOP DEPTH
 STEP.F            0.5000:   STEP LENGTH
 NULL.          -999.2500:   NO VALUE
 COMP. U S NAVY/INTEX OIL CO:   COMPANY
 WELL.      NPR 3 #26S-35:   WELL
 FLD .             TEAPOT:   FIELD
 LOC .      S35 T39N R78W:   LOCATION
 CNTY.            NATRONA:   COUNTY
 STAT.            WYOMING:   STATE
 CTRY. UNITED STATES OF AMERICA:   COUNTRY
 SRVC.         Lane Wells:   SERVICE COMPANY
 DATE.        19-MAR-1960:   LOGDATE
 API .       490250651600:   API NUMBER
~CURVE INFORMATION
#MNEM.UNIT       API CODE    CURVE DESCRIPTION
#----------   ------------   ------------------------------
 DEPT.F                  :   
 ASN .OHMM   05 041 16 00:   AMPLIFIED SHORT NORMAL 16"
 ILD .OHMM   05 120 46 00:   INDUCTION LOG DEEP
 CILD.MMHO   05 110 00 00:   CONDUCTIVITY INDUCTION LOG
 SPR .MV     05 010 01 00:   SPONTANEOUS POTENTIAL FROM RES.
~PARAMETER INFORMATION
#MNEM.UNIT          VALUE    DESCRIPTION
#----------   ------------   ------------------------------
 PD  .                 GL:   PERMANENT DATUM
 EPD .F              5095:   ELEVATION PERMANENT DATUM
 LMF .                 KB:   LOG MEASURED FROM
 DAPD.F                 5:   FEET ABOVE PERMANENT DATUM
 DMF .                 KB:   DRILLING MEASURED FROM
 EKB .F              5101:   KELLING BUSHING
 EGL .F              9096:   GROUND LEVEL
 DATE.          3-19-1960:   RUN DATE
 RUN .                  1:   RUN NUMBER
 DD  .F               977:   DEPTH DRILLER
 DL  .F               959:   DEPTH LOGGER
 BLI .F               957:   BOTTOM LOG INTERVAL
 TLI .F                70:   TOP LOG INTERVAL
 CS  .IN            8.625:   CASING SIZE
 CBD .F                12:   CASING BOTTOM DRILLER
 BS  .IN            7.875:   BIT SIZE
 BSD .F               977:   BIT SIZE AT DEPTH
 DFT .   GEL-OIL EMULSION:   DRILLING FLUID TYPE
 DFD .                9.4:   DRILLING FLUID DENSITY
 DFV .                 40:   DRILLING FLUID VISCOSITY
 DFPH.                7.5:   DRILLING FLUID PH
 DFL .                8.2:   DRILLING FLUID LOSS
 MSS .           FLOWLINE:   MUD SAMPLE SOURCE
 RMS .OHMM            2.2:   RESISTIVITY MUD SAMPLE
 MST .F                64:   MUD SAMPLE TEMPERATURE
 RMF .OHMM            1.5:   RESISTIVITY MUD FILTRATE SAMPLE
 MFST.F                64:   MUD FILTRATE SAMPLE TEMPERATURE
 RMC .OHMM            3.1:   RESISTIVITY MUD CAKE
 MCST.F                64:   MUD CAKE SAMPLE TEMPERATURE
 MFSS.                MUD:   MUD FILTRATE SAMPLE SOURCE
 MCSS.              PRESS:   MUD CAKE SAMPLE SOURCE
 RMB .OHMM            2.0:   RESISTIVITY MUD AT BHT
 BHT .F                71:   BOTTOM HOLE TEMPERATURE
 MRT .F                71:   MAXIMUM RECORDED TEMPERATURE
 LUN .             L-4474:   LOGGING UNIT NUMBER
 LUL .             CASPER:   LOGGING UNIT LOCATION
 ENGI.             NELSON:   RECORDING ENGINEER
 WITN.          JORGENSBN:   WITNESSED BY
 CLNT.            A2DTECH:   CLIENT CODE
 ORIG.      2" & 5" PRINT:   ORIGIN OF DATA
 UWI .       490250651600:   UNIQUE WELL ID
 DICO. A2D Technologies, Inc.:   DIGITIZING COMPANY
~OTHER INFORMATION
~A   DEPT        ASN        ILD      CILD       SPR   
# ...
  727.0000     6.2982     4.7759   248.4579   -37.1249
  727.5000     6.0063     4.5422   260.1628   -36.9006
  728.0000     5.6770     4.2837   277.4970   -36.6781
  728.5000     5.3130     4.0278   297.2439   -36.4480
  729.0000     4.9542     3.7708   318.9655   -36.2561
  729.5000     4.5479     3.5140   342.1522   -36.3115
  730.0000     4.0914     3.2578   365.3389   -36.3966
  730.5000     3.6369     2.9991   403.0687   -36.2689
  731.0000     3.1816     2.7416   437.3685   -36.0838
  731.5000     2.7776     2.6379   471.2396   -35.9028
  732.0000     2.5822     2.5640   508.0262   -35.7230
  732.5000     2.3994     2.4697   518.7277   -35.6306
  733.0000     2.3503     2.5083   529.4293   -35.5255
  733.5000     2.3614     2.6238   522.5624   -35.4094
  734.0000     2.3948     2.7157   516.9441   -35.3713
  734.5000     2.4386     2.8201   481.3192   -35.6446
  735.0000     2.6108     2.9148   448.9330   -35.8632
  735.5000     3.0723     3.0201   416.5467   -35.9998
  736.0000     3.5271     3.1088   383.1748   -36.0918
  736.5000     3.9740     3.2873   351.9619   -36.2441
  737.0000     4.4350     3.5573   331.1534   -35.9596
  737.5000     4.9091     3.8090   310.5572   -35.7491
  738.0000     5.2844     4.0681   292.2116   -35.6983
  738.5000     5.3977     4.1750   277.9429   -35.5652
  739.0000     5.4529     4.1995   275.0764   -35.5638
  739.5000     5.4711     4.2356   271.8914   -35.7525
  740.0000     5.5047     4.2644   269.0250   -35.9308
  740.5000     5.5396     4.2995   269.0250   -36.1260
  741.0000     5.5851     4.3190   269.0250   -36.2973
  741.5000     5.6421     4.2720   269.0250   -36.5124
  742.0000     5.6680     4.2217   272.7979   -36.4752
  742.5000     5.6247     4.1723   276.2279   -36.1384
  743.0000     5.4697     4.1223   283.3574   -36.0854
  743.5000     5.1930     4.0731   294.1863   -36.1642
  744.0000     4.8527     4.0223   305.0153   -36.2210
  744.5000     4.4617     3.9672   313.9863   -36.2906
  745.0000     4.2090     3.8322   322.1611   -36.3467
  745.5000     4.0957     3.6913   328.6479   -36.4416
  746.0000     3.9345     3.5179   331.4507   -36.8010
  746.5000     3.9973     3.4663   324.0934   -37.1200
  747.0000     4.1657     3.6215   315.9185   -37.2551
  747.5000     4.3017     3.7555   307.7438   -37.3745
  748.0000     4.4648     3.9018   299.5690   -37.4852
  748.5000     4.6892     4.0520   292.2116   -37.6165
  749.0000     4.9936     4.2369   281.0005   -37.6263
  749.5000     5.3230     4.4377   270.8086   -37.5121
  750.0000     5.6488     4.6392   260.7118   -37.4194
  750.5000     5.9725     4.8373   250.8369   -37.3073
  751.0000     6.3116     5.0432   240.9621   -37.1738
  751.5000     6.5272     5.2059   231.0872   -37.0205
  752.0000     6.6141     5.2028   225.3951   -36.8702
  752.5000     6.7043     5.1865   223.7704   -36.6268
  753.0000     6.7484     5.1718   223.0909   -36.6005
  753.5000     6.7216     5.1567   224.5018   -36.6334
  754.0000     6.6874     5.1417   225.9128   -36.6485
  754.5000     6.5610     5.1272   227.3237   -36.6735
  755.0000     6.4348     5.0911   230.8179   -36.6914
  755.5000     6.3149     5.0514   236.2432   -36.7157
  756.0000     6.1694     5.0078   241.6685   -36.7318
  756.5000     6.0068     4.9739   247.0938   -36.7622
  757.0000     5.8356     4.8818   252.5191   -36.7145
  757.5000     5.6550     4.7335   258.3169   -36.5246
  758.0000     5.4390     4.5982   265.4715   -36.3606
  758.5000     5.2398     4.4545   273.1761   -36.1506
  759.0000     5.0049     4.3191   280.8913   -36.0941
  759.5000     4.7211     4.1711   288.6132   -36.2659
  760.0000     4.5496     4.0752   288.1798   -36.4095
  760.5000     4.6237     4.1797   284.8448   -36.5730
  761.0000     4.7624     4.2896   281.4881   -36.7189
  761.5000     4.9802     4.3985   274.2222   -36.8870
  762.0000     5.2965     4.5081   264.1209   -36.9270
  762.5000     5.7383     4.6167   254.0195   -36.8549
  763.0000     6.0297     4.7269   243.9182   -36.8047
  763.5000     6.2451     4.8340   233.3531   -36.7408
  764.0000     6.3597     4.9571   229.0904   -36.6889
  764.5000     6.4569     5.1802   224.6225   -36.6203
  765.0000     6.5361     5.4530   220.8473   -36.6074
  765.5000     6.6181     5.5311   218.7578   -36.6683
  766.0000     6.7021     5.5776   216.9676   -36.7229
  766.5000     6.7841     5.6348   215.1873   -36.7685
  767.0000     6.8668     5.6862   213.4117   -36.7685
  767.5000     6.9506     5.7450   211.6387   -36.7716
  768.0000     7.0196     5.7218   209.8622   -36.7677
  768.5000     7.0810     5.6745   208.0849   -36.7552
  769.0000     7.0970     5.6323   206.5993   -36.4194
  769.5000     7.0532     5.5877   208.2155   -36.2279
  770.0000     7.0171     5.5445   209.5902   -36.3007
  770.5000     6.9766     5.5007   210.9650   -36.3283
  771.0000     6.9391     5.4569   212.3397   -36.3792
  771.5000     6.8985     5.4144   213.7144   -36.4175
  772.0000     6.8556     5.3747   215.0892   -36.4616
  772.5000     6.8028     5.3364   216.4639   -36.5048
  773.0000     6.7573     5.3002   217.8387   -36.5464
  773.5000     6.7403     5.2615   219.2134   -36.5823
  774.0000     6.7450     5.2208   220.8680   -36.4548
  774.5000     6.6705     5.1342   227.7108   -36.4940
  775.0000     6.5614     5.0372   236.3029   -36.6952
  775.5000     6.4174     4.9159   244.8950   -36.8455
  776.0000     6.0187     4.6490   253.4872   -37.0446
  776.5000     5.6167     4.3692   262.0793   -37.0969
  777.0000     5.3494     4.2270   266.3615   -36.9776
  777.5000     5.2826     4.2594   267.8508   -36.8838
  778.0000     5.1562     4.2629   269.3401   -36.7725
  778.5000     5.2404     4.2804   270.8086   -36.6785
  779.0000     5.4720     4.2916   267.5726   -36.5573
  779.5000     5.6908     4.3036   264.3813   -36.2823
  780.0000     5.7281     4.3207   261.8906   -36.0131
  780.5000     5.6526     4.3029   274.2623   -35.8169
  781.0000     5.4181     4.2456   284.1683   -35.7478
  781.5000     5.0928     4.1879   294.0453   -35.5621
  782.0000     4.7854     4.1370   297.2624   -35.3651
  782.5000     4.5710     4.0698   291.5668   -35.6068
  783.0000     4.7009     4.1296   287.2098   -35.6331
  783.5000     4.7790     4.2829   285.8427   -35.4775
  784.0000     5.0670     4.4109   276.4760   -35.3674
  784.5000     5.5050     4.5511   265.2690   -35.5770
  785.0000     5.8633     4.6841   254.7562   -35.8882
  785.5000     6.0347     4.8225   244.2435   -36.1921
  786.0000     6.1439     4.9427   239.2113   -36.4057
  786.5000     6.2216     4.9489   236.9203   -36.3801
  787.0000     6.2769     4.9564   238.8466   -36.3526
  787.5000     6.2516     4.8871   243.8986   -36.3218
  788.0000     6.1630     4.7328   251.4940   -36.2907
  788.5000     6.0239     4.5822   259.0895   -36.2637
  789.0000     5.7219     4.4402   266.6849   -36.2142
  789.5000     5.3639     4.2749   271.3191   -36.0076
  790.0000     5.0110     4.3351   272.5922   -35.7919
  790.5000     5.0642     4.5487   266.1861   -35.5771
  791.0000     5.2481     4.7213   258.7396   -35.3807
  791.5000     5.5258     4.9125   251.2931   -35.7112
  792.0000     5.9890     5.0946   242.1205   -36.1771
  792.5000     6.5086     5.2798   227.9440   -36.6228
  793.0000     6.8537     5.4668   218.0913   -37.0744
  793.5000     7.0180     5.6468   212.6441   -37.1467
  794.0000     7.2076     5.8428   207.0337   -37.0121
  794.5000     7.3433     5.9539   201.4150   -36.8001
  795.0000     7.4808     5.9751   195.7699   -36.6222
  795.5000     7.5550     6.0121   190.5654   -36.7258
  796.0000     7.5789     6.0410   191.0558   -36.9017
  796.5000     7.6126     6.0745   191.5261   -37.0580
  797.0000     7.6677     6.1060   191.9964   -37.2263
  797.5000     7.7247     6.1166   192.1094   -37.3838
  798.0000     7.7806     6.1234   191.3454   -37.5611
  798.5000     7.7972     6.1315   190.5813   -37.6873
  799.0000     7.8084     6.1392   189.8173   -37.6083
  799.5000     7.8152     6.1471   189.0532   -37.1928
