~VERSION INFORMATION
 VERS.                2.0:   CWLS LOG ASCII STANDARD - VERSION 2.0
 WRAP.                 NO:   ONE LINE PER DEPTH STEP
~WELL INFORMATION
#MNEM.UNIT      DATA TYPE    INFORMATION
#----------   ------------   ------------------------------
 STRT.F           42.0000:   START DEPTH
 STOP.F          533.0000:   STOP DEPTH
 STEP.F            0.5000:   STEP LENGTH
 NULL.          -999.2500:   NO VALUE
 COMP.    FENIX & SCISSON:   COMPANY
 WELL.      NPR-3 #38S3-3:   WELL
 FLD .             TEAPOT:   FIELD
 LOC .       S3 T38N R78W:   LOCATION
 CNTY.            NATRONA:   COUNTY
 STAT.            WYOMING:   STATE
 CTRY. UNITED STATES OF AMERICA:   COUNTRY
 SRVC.           BIRDWELL:   SERVICE COMPANY
 DATE.        29-JUN-1978:   LOGDATE
 API .       490251066300:   API NUMBER
~CURVE INFORMATION
#MNEM.UNIT       API CODE    CURVE DESCRIPTION
#----------   ------------   ------------------------------
 DEPT.F                  :   
 ILD .OHMM   05 120 46 00:   INDUCTION LOG DEEP
 SN  .OHMM   05 040 16 00:   SHORT NORMAL 16"
 SPR .MV     05 010 01 00:   SPONTANEOUS POTENTIAL FROM RES.
 CALD.IN     45 280 60 00:   CALIPER FROM DENSITY LOG
 CORR.G/C3   45 356 01 00:   DENSITY CORRECTION
 DPHI.DEC    45 890 12 00:   DENSITY POROSITY SANDSTONE
 GRD .GAPI   45 310 01 00:   GAMMA RAY FROM DENSITY LOG
 RHOB.G/C3   45 350 01 00:   BULK DENSITY
~PARAMETER INFORMATION
#MNEM.UNIT          VALUE    DESCRIPTION
#----------   ------------   ------------------------------
 PD  .                 GL:   PERMANENT DATUM
 EPD .F              5238:   ELEVATION PERMANENT DATUM
 LMF .                 KB:   LOG MEASURED FROM
 DAPD.F                 4:   FEET ABOVE PERMANENT DATUM
 DMF .                 KB:   DRILLING MEASURED FROM
 EKB .F              5242:   KELLING BUSHING
 EGL .F              5238:   GROUND LEVEL
 DATE.        29-JUN-1978:   RUN DATE
 RUN .                  1:   RUN NUMBER
 DD  .F               530:   DEPTH DRILLER
 DL  .F               540:   DEPTH LOGGER
 BLI .F               533:   BOTTOM LOG INTERVAL
 TLI .F                40:   TOP LOG INTERVAL
 CS  .IN            8.625:   CASING SIZE
 CBD .F                40:   CASING BOTTOM DRILLER
 BS  .IN            7.875:   BIT SIZE
 BSD .F               530:   BIT SIZE AT DEPTH
 DFT .                KCL:   DRILLING FLUID TYPE
 DFD .                8.7:   DRILLING FLUID DENSITY
 DFV .                 34:   DRILLING FLUID VISCOSITY
 DFPH.                9.5:   DRILLING FLUID PH
 MSS .           FLOWLINE:   MUD SAMPLE SOURCE
 RMS .OHMM            0.2:   RESISTIVITY MUD SAMPLE
 MST .F                82:   MUD SAMPLE TEMPERATURE
 RMF .OHMM           0.18:   RESISTIVITY MUD FILTRATE SAMPLE
 MFST.F                82:   MUD FILTRATE SAMPLE TEMPERATURE
 RMC .OHMM           0.14:   RESISTIVITY MUD CAKE
 MCST.F                82:   MUD CAKE SAMPLE TEMPERATURE
 MFSS.               MEAS:   MUD FILTRATE SAMPLE SOURCE
 TCS .HRS               1:   TIME CURCULATED STOPPED
 LUN .               2958:   LOGGING UNIT NUMBER
 LUL .             CASPER:   LOGGING UNIT LOCATION
 ENGI.             MILLER:   RECORDING ENGINEER
 WITN.         ZARGARNIAN:   WITNESSED BY
 CLNT.            A2DTECH:   CLIENT CODE
 ORIG.           5" PRINT:   ORIGIN OF DATA
 UWI .       490251066300:   UNIQUE WELL ID
 DICO. A2D Technologies, Inc.:   DIGITIZING COMPANY
~OTHER INFORMATION
~A   DEPT      ILD         SN        SPR       CALD       CORR       DPHI         GRD      RHOB   
# ...
  163.5000     7.9441     8.0952   -14.3669     7.5561     0.0134     0.1372    80.7503     2.4661
  164.0000     7.9446     8.0993   -14.2195     7.5557     0.0224     0.1347    77.9102     2.4690
  164.5000     7.9451     8.1513   -14.2230     7.5552     0.0284     0.1304    81.2089     2.4735
  165.0000     7.9458     8.2077   -14.0748     7.5696     0.0266     0.1197    82.7090     2.4827
  165.5000     7.9463     8.2077   -13.9273     7.5541     0.0149     0.1293    80.9179     2.4937
  166.0000     7.9468     8.2077   -14.0812     7.5536     0.0075     0.1347    79.7245     2.4787
  166.5000     7.9473     8.3219   -14.2351     7.5531     0.0090     0.1350    81.8255     2.4734
  167.0000     7.9480     8.3795   -14.0869     7.5525     0.0104     0.1350    83.9255     2.4711
  167.5000     8.0590     8.4376   -13.9393     7.5371     0.0119     0.1350    83.3308     2.4719
  168.0000     8.1154     8.5604   -13.6421     7.5365     0.0119     0.1251    83.7853     2.4823
  168.5000     8.1721     8.6738   -13.6457     7.5360     0.0134     0.1328    85.4362     2.4846
  169.0000     8.2932     8.7944   -13.6485     7.5355     0.0134     0.1295    85.8895     2.4785
  169.5000     8.4022     8.7944   -13.8018     7.5350     0.0134     0.1271    85.7440     2.4755
  170.0000     8.5196     8.8881   -13.9550     7.5343     0.0134     0.1244    85.1505     2.4845
  170.5000     8.6386     8.9167   -13.6571     7.5339     0.0118     0.1229    81.2625     2.4912
  171.0000     8.8249     9.0407   -13.2095     7.5334     0.0104     0.1325    76.6259     2.4859
  171.5000     8.9433     9.1033   -12.9109     7.5329     0.0119     0.1370    75.8816     2.4739
  172.0000     9.0059     9.1994   -12.3129     7.5323     0.0134     0.1244    76.4857     2.4679
  172.5000     9.1317     9.2939   -11.8646     7.5318     0.0149     0.1225    75.5907     2.4829
  173.0000     9.1348     9.4231   -11.8682     7.5163     0.0149     0.1228    75.8953     2.4941
  173.5000     9.2600     9.6203   -11.8710     7.5158     0.0164     0.1159    75.9006     2.5038
  174.0000     9.2606     9.6879   -11.8739     7.5153     0.0164     0.1237    72.9108     2.4983
  174.5000     9.2612     9.8216   -11.8767     7.5298     0.0175     0.1252    73.2144     2.4903
  175.0000     9.2618     9.8642   -11.7168     7.5291     0.0149     0.1252    73.9671     2.4895
  175.5000     9.2626     9.9582   -11.5817     7.5286     0.0149     0.1243    74.1210     2.4910
  176.0000     9.2632     9.9922   -11.5852     7.5281     0.0149     0.1225    72.7789     2.4880
  176.5000     9.2638    10.0967   -11.5881     7.5385     0.0149     0.1302    71.7352     2.4842
  177.0000     9.3286    10.0967   -11.6040     7.5421     0.0144     0.1290    70.9770     2.4819
  177.5000     9.3940    10.0967   -11.8952     7.5565     0.0119     0.1260    70.2466     2.4865
  178.0000     9.3946    10.0967   -11.8981     7.5619     0.0090     0.1227    70.7010     2.4946
  178.5000     9.3952    10.0272   -11.9009     7.5705     0.0075     0.1260    71.9028     2.4976
  179.0000     9.5265     9.9582   -12.2045     7.5848     0.0060     0.1293    74.7524     2.4893
  179.5000     9.5272     9.8897   -12.3584     7.5844     0.0052     0.1332    73.8584     2.4818
  180.0000     9.5939     9.8216   -12.3613     7.5837     0.0030     0.1380    71.9165     2.4773
  180.5000     9.5945     9.6870   -12.3641     7.5833     0.0030     0.1406    70.2720     2.4728
  181.0000     9.5291     9.6203   -12.3669     7.5828     0.0045     0.1409    69.0806     2.4682
  181.5000     9.5297     9.5541   -12.2194     7.5823     0.0075     0.1430    70.4331     2.4608
  182.0000     9.5305     9.5541   -12.1838     7.5767     0.0090     0.1481    75.3774     2.4555
  182.5000     9.5311     9.5541   -11.9244     7.5662     0.0119     0.1463    76.0105     2.4510
  183.0000     9.4660     9.4231   -11.9279     7.5657     0.0179     0.1406    77.4827     2.4652
  183.5000     9.4016     9.4231   -11.7689     7.5591     0.0209     0.1355    79.4330     2.4734
  184.0000     9.4024     9.4231   -11.6329     7.5493     0.0284     0.1336    76.1438     2.4756
  184.5000     9.3382     9.4231   -11.6364     7.5342     0.0328     0.1334    71.5083     2.4831
  185.0000     9.2747     9.4231   -11.6393     7.5187     0.0313     0.1225    70.3139     2.5010
  185.5000     9.2753     9.4231   -11.7925     7.5182     0.0239     0.1054    74.5108     2.5130
  186.0000     9.2760     9.4231   -11.9464     7.5026     0.0131     0.1030    76.3114     2.4965
  186.5000     9.2128     9.4168   -11.9493     7.5022     0.0030     0.1375    76.6160     2.4767
  187.0000     9.1499     9.2939   -11.9519     7.5016     0.0000     0.1393    77.6681     2.4710
  187.5000     9.0251     9.1664   -11.9549     7.4862     0.0000     0.1420    79.6174     2.4695
  188.0000     8.9019     9.0407   -11.9579     7.4856     0.0000     0.1522    77.7784     2.4500
  188.5000     8.7804     8.9742   -12.4125     7.4851     0.0015     0.1483    76.7825     2.4507
  189.0000     8.6607     8.9167   -12.5657     7.4995     0.0015     0.1458    76.6370     2.4552
  189.5000     8.6017     8.7944   -12.8693     7.4990     0.0030     0.1461    76.7920     2.4567
  190.0000     8.5431     8.7944   -12.8722     7.4985     0.0032     0.1527    76.9470     2.4475
  190.5000     8.5438     8.6738   -13.0261     7.4980     0.0047     0.1533    77.1009     2.4409
  191.0000     8.5443     8.6738   -13.0289     7.5124     0.0060     0.1509    77.2548     2.4446
  191.5000     8.5449     8.6738   -13.0318     7.5119     0.0075     0.1500    76.6542     2.4476
  192.0000     8.5456     8.6142   -13.0346     7.5114     0.0090     0.1491    74.4199     2.4520
  192.5000     8.5461     8.6142   -13.0382     7.5258     0.0104     0.1479    74.1237     2.4558
  193.0000     8.6059     8.5549   -12.9681     7.5403     0.0119     0.1403    79.2187     2.4572
  193.5000     8.5472     8.5549   -12.8930     7.5546     0.0134     0.1442    82.3668     2.4572
  194.0000     8.4890     8.5549   -12.8963     7.5599     0.0134     0.1523    79.3779     2.4520
  194.5000     8.4897     8.5549   -12.8992     7.5687     0.0134     0.1526    75.4899     2.4467
  195.0000     8.4902     8.5549   -12.9027     7.5681     0.0134     0.1457    73.2486     2.4464
  195.5000     8.4908     8.5549   -12.9056     7.5976     0.0119     0.1436    73.4035     2.4556
  196.0000     8.4329     8.4960   -12.9084     7.5970     0.0114     0.1505    72.8089     2.4526
  196.5000     8.4336     8.4376   -13.0617     7.5965     0.0104     0.1526    71.9149     2.4451
  197.0000     8.4341     8.3795   -13.2155     7.6110     0.0090     0.1507    69.8073     2.4458
  197.5000     8.3765     8.3795   -13.2184     7.6104     0.0090     0.1471    74.3196     2.4525
  198.0000     8.3772     8.3219   -13.2212     7.6099     0.0090     0.1465    78.2160     2.4548
  198.5000     8.3201     8.2646   -13.5248     7.6093     0.0090     0.1453    79.8669     2.4533
  199.0000     8.2635     8.2077   -13.5284     7.6088     0.0104     0.1414    78.7514     2.4543
  199.5000     8.1506     8.2077   -13.6816     7.6083     0.0104     0.1354    75.0860     2.4697
  200.0000     8.0952     8.1513   -13.6844     7.6078     0.0179     0.1354    71.4969     2.4712
  200.5000     7.8732     8.0952   -13.5857     7.6226     0.0164     0.1387    69.8495     2.4614
  201.0000     7.9890     8.0395   -13.8280     7.6224     0.0178     0.1477    68.9506     2.4539
  201.5000     7.8815     8.0395   -14.1267     7.6223     0.0178     0.1385    68.5007     2.4517
  202.0000     7.8293     7.9842   -14.8750     7.6222     0.0162     0.1353    68.3502     2.4644
  202.5000     7.6708     8.0395   -15.4762     7.6220     0.0168     0.1389    67.7507     2.4681
  203.0000     7.4642     7.9842   -16.0717     7.6218     0.0176     0.1386    67.3009     2.4689
  203.5000     7.3633     7.9842   -16.5200     7.6217     0.0176     0.1380    68.5142     2.4681
