~VERSION INFORMATION
 VERS.                2.0:   CWLS LOG ASCII STANDARD - VERSION 2.0
 WRAP.                 NO:   ONE LINE PER DEPTH STEP
~WELL INFORMATION
#MNEM.UNIT      DATA TYPE    INFORMATION
#----------   ------------   ------------------------------
 STRT.F            0.0000:   START DEPTH
 STOP.F          678.0000:   STOP DEPTH
 STEP.F            0.5000:   STEP LENGTH
 NULL.          -999.2500:   NO VALUE
 COMP. FENIX & SCISSON INC:   COMPANY
 WELL. 37-21 SX 11 WO #37-11:   WELL
 FLD .             TEAPOT:   FIELD
 LOC .      S11 T38N R78W:   LOCATION
 CNTY.            NATRONA:   COUNTY
 STAT.            WYOMING:   STATE
 CTRY. UNITED STATES OF AMERICA:   COUNTRY
 SRVC.      Dresser Atlas:   SERVICE COMPANY
 DATE.        14-OCT-1983:   LOGDATE
 API .       490251084300:   API NUMBER
~CURVE INFORMATION
#MNEM.UNIT       API CODE    CURVE DESCRIPTION
#----------   ------------   ------------------------------
 DEPT.F                  :   
 SPR .MV     07 010 01 00:   SPONTANEOUS POTENTIAL
 SFLU.OHMM   07 220 01 00:   SPHERICALLY FOCUSED LOG UNAVERAGED RESISTIVITY
 ILM .OHMM   07 120 44 00:   INDUCTION LOG MEDIUM
 ILD .OHMM   07 120 46 00:   INDUCTION LOG DEEP
 NPHI.DEC    42 890 03 00:   NEUTRON POROSITY SANDSTONE
 DPHI.DEC    45 890 12 00:   DENSITY POROSITY SANDSTONE
 RHOB.G/C3   45 350 01 00:   BULK DENSITY
 CORR.G/C3   45 356 01 00:   DENSITY CORRECTION
 GRD .GAPI   45 310 01 00:   GAMMA RAY FROM DENSITY LOG
 CALD.IN     45 280 60 00:   CALIPER
~PARAMETER INFORMATION
#MNEM.UNIT          VALUE    DESCRIPTION
#----------   ------------   ------------------------------
 PD  .                 GL:   PERMANENT DATUM
 EPD .F              5188:   ELEVATION PERMANENT DATUM
 LMF .                 KB:   LOG MEASURED FROM
 DAPD.F                 5:   FEET ABOVE PERMANENT DATUM
 DMF .                 KB:   DRILLING MEASURED FROM
 EKB .F              5193:   KELLING BUSHING
 EGL .F              5188:   GROUND LEVEL
 DATE.           10-14-83:   RUN DATE
 RUN .                  4:   RUN NUMBER
 DD  .F               629:   DEPTH DRILLER
 DL  .F               630:   DEPTH LOGGER
 BLI .F               624:   BOTTOM LOG INTERVAL
 TLI .F               335:   TOP LOG INTERVAL
 BS  .IN             8.75:   BIT SIZE
 BSD .F               629:   BIT SIZE AT DEPTH
 DFT .          KCL WATER:   DRILLING FLUID TYPE
 LUN .               6307:   LOGGING UNIT NUMBER
 LUL .               GLTE:   LOGGING UNIT LOCATION
 ENGI.            DEYOUNG:   RECORDING ENGINEER
 WITN.            SCHULTE:   WITNESSED BY
 CLNT.            A2DTECH:   CLIENT CODE
 ORIG.       2", 5" PRINT:   ORIGIN OF DATA
 UWI .       490251084300:   UNIQUE WELL ID
 DICO. A2D Technologies, Inc.:   DIGITIZING COMPANY
~OTHER INFORMATION
~A    DEPT     SPR       SFLU        ILM        ILD       NPHI       DPHI       RHOB       CORR        GRD       CALD   
# ...
  569.5000   -29.9005    14.6291    13.0281    13.5198     0.2158     0.1585     2.4204     0.0726    76.2598     9.3805
  570.0000   -29.8580    14.4503    12.9906    13.4294     0.2129     0.1524     2.4025     0.0694    75.1234     9.3813
  570.5000   -29.8155    14.4706    12.9532    13.5355     0.2122     0.1567     2.4054     0.0672    74.2962     9.3785
  571.0000   -29.7731    14.5032    12.9120    13.6400     0.2165     0.1627     2.4174     0.0811    74.2834     9.3757
  571.5000   -29.7306    14.5359    12.8569    13.7453     0.2171     0.1697     2.4319     0.0928    76.3173     9.3730
  572.0000   -29.6881    14.5686    12.8021    13.8514     0.2124     0.1702     2.4344     0.1029    78.3065     9.3702
  572.5000   -29.6457    14.6015    12.7475    13.9583     0.2082     0.1580     2.4369     0.1095    80.1726     9.3676
  573.0000   -29.6032    14.6342    12.6932    14.0661     0.2070     0.1482     2.4467     0.1142    80.4488     9.3653
  573.5000   -29.5607    14.6673    12.6391    14.1747     0.2059     0.1489     2.4549     0.1190    79.4329     9.3839
  574.0000   -29.5183    14.7004    12.5852    14.1881     0.2070     0.1449     2.4513     0.1151    80.0555     9.3859
  574.5000   -29.4758    14.7173    12.5315    13.9406     0.2048     0.1408     2.4415     0.1076    79.2556     9.3893
  575.0000   -29.4333    14.2959    12.4781    13.5878     0.2034     0.1364     2.4336     0.1005    78.0974     9.3931
  575.5000   -29.3909    14.0196    12.4249    13.2439     0.2028     0.1405     2.4432     0.0984    79.1770     9.3969
  576.0000   -29.3484    13.7485    12.3675    12.9087     0.2009     0.1451     2.4555     0.0966    78.0058     9.4007
  576.5000   -29.3061    13.4827    12.3073    12.5820     0.2029     0.1489     2.4629     0.0966    78.1292     9.4045
  577.0000   -29.2634    13.2831    12.2420    12.3675     0.2076     0.1417     2.4691     0.0966    77.4740     9.4083
  577.5000   -29.2131    13.2098    12.1769    12.3675     0.2114     0.1357     2.4710     0.0947    75.4292     9.4120
  578.0000   -29.1304    13.1368    12.1123    12.3675     0.2083     0.1307     2.4669     0.0889    77.0067     9.4158
  578.5000   -29.0499    13.0643    12.0480    12.3675     0.2077     0.1257     2.4672     0.0831    78.7583     9.4196
  579.0000   -28.9694    12.9921    11.9840    12.3675     0.2099     0.1265     2.4643     0.0774    80.5183     9.4234
  579.5000   -28.8889    12.9410    11.9204    12.3675     0.2083     0.1292     2.4587     0.0716    82.2637     9.4272
  580.0000   -28.8084    12.9253    11.8571    12.3674     0.2094     0.1301     2.4502     0.0656    82.7680     9.4310
  580.5000   -28.7279    12.9096    11.7941    12.3603     0.2128     0.1304     2.4592     0.0732    81.1498     9.4348
  581.0000   -28.6474    12.8940    11.7315    12.3412     0.2155     0.1347     2.4718     0.0831    80.8286     9.4386
  581.5000   -28.5670    12.8783    11.5944    12.3222     0.2179     0.1391     2.4748     0.0901    82.2659     9.4418
  582.0000   -28.4865    12.8626    11.6487    12.3033     0.2157     0.1338     2.4611     0.0863    81.4580     9.4306
  582.5000   -28.4054    12.8462    11.6997    12.2840     0.2105     0.1262     2.4463     0.0827    80.2847     9.4185
  583.0000   -28.3229    12.8288    11.7503    12.2655     0.2071     0.1233     2.4334     0.0793    81.1360     9.4064
  583.5000   -28.2621    13.0635    11.8009    12.2548     0.2055     0.1361     2.4278     0.0760    81.9727     9.3943
  584.0000   -28.5766    13.3522    11.8516    12.5381     0.2062     0.1451     2.4327     0.0739    80.5635     9.3822
  584.5000   -28.8984    13.6472    11.9026    12.8179     0.2151     0.1518     2.4269     0.0715    78.7704     9.3703
  585.0000   -29.2194    13.9307    11.9538    13.1039     0.2248     0.1506     2.4266     0.0672    77.9589     9.3653
  585.5000   -29.5388    13.8301    12.0052    13.3963     0.2233     0.1514     2.4332     0.0627    80.0117     9.3794
  586.0000   -29.8157    13.6798    12.0324    13.5533     0.2201     0.1565     2.4212     0.0589    78.1980     9.3931
  586.5000   -29.6670    13.5311    11.8012    13.3126     0.2169     0.1537     2.4178     0.0589    78.7066     9.4069
  587.0000   -29.5226    13.3841    11.6466    13.0926     0.2163     0.1506     2.4198     0.0590    79.9552     9.4206
  587.5000   -29.3799    13.2386    11.4941    12.8762     0.2197     0.1590     2.4149     0.0600    79.8032     9.4343
  588.0000   -29.2374    13.0946    11.3435    12.6635     0.2232     0.1572     2.4253     0.0660    80.8960     9.4409
  588.5000   -29.0948    12.9530    11.1826    12.4542     0.2224     0.1586     2.4347     0.0720    82.1760     9.4386
  589.0000   -28.9522    12.8184    11.0598    12.2484     0.2198     0.1601     2.4399     0.0779    83.2828     9.4364
  589.5000   -28.8096    12.7342    10.8910    12.0324     0.2171     0.1553     2.4515     0.0796    82.6853     9.4342
  590.0000   -28.6670    12.6505    10.7247    12.0524     0.2111     0.1502     2.4584     0.0806    84.6427     9.4319
  590.5000   -28.5238    12.5664    10.5610    12.0736     0.2046     0.1451     2.4638     0.0816    86.5455     9.4297
  591.0000   -28.3794    12.4791    10.3986    12.0953     0.2097     0.1400     2.4548     0.0825    87.7051     9.4275
  591.5000   -28.2617    12.6250    10.2967    12.1167     0.2138     0.1348     2.4488     0.0877    85.1896     9.4253
  592.0000   -28.5198    12.8905    10.3311    12.1387     0.2159     0.1316     2.4574     0.0932    83.1645     9.4230
  592.5000   -28.7810    13.1599    10.4209    12.1444     0.2180     0.1378     2.4595     0.0988    81.1749     9.4158
  593.0000   -29.0399    13.4349    10.5114    12.1395     0.2193     0.1399     2.4532     0.1020    80.1067     9.3967
  593.5000   -29.2985    13.7157    10.5849    12.1284     0.2209     0.1344     2.4470     0.1001    79.0028     9.3779
  594.0000   -29.5583    14.0024    10.9809    12.7475     0.2252     0.1335     2.4357     0.0982    77.9016     9.3590
  594.5000   -30.0270    15.2002    11.6965    13.7473     0.2271     0.1383     2.4065     0.0940    76.2685     9.3402
  595.0000   -30.5709    16.7468    12.6667    14.9142     0.2241     0.1432     2.3697     0.0775    74.2841     9.3213
  595.5000   -31.1154    20.9092    14.0085    16.5306     0.2222     0.1478     2.3180     0.0613    71.9855     9.3025
  596.0000   -31.6569    32.3207    15.4953    18.3195     0.2207     0.1733     2.2800     0.0558    69.5230     9.2841
  596.5000   -32.0351    51.9127    17.1399    20.3039     0.2162     0.2029     2.2626     0.0515    67.0647     9.2733
  597.0000   -32.1443    83.3809    18.9590    22.5030     0.2116     0.2324     2.2678     0.0622    64.8324     9.2628
  597.5000   -32.1332   133.9244    20.9712    24.9402     0.2082     0.2499     2.2824     0.0726    63.2695     9.2524
  598.0000   -32.0499   215.1060    23.1969    27.6414     0.2082     0.2526     2.3085     0.0757    63.7757     9.2441
  598.5000   -31.9034   251.4395    25.6649    29.9103     0.2068     0.2476     2.3400     0.0889    65.4143     9.2370
  599.0000   -31.5135   214.7905    28.3761    30.3739     0.2047     0.2346     2.3714     0.0947    67.3840     9.2296
  599.5000   -31.1344   166.9733    30.0230    30.3350     0.2027     0.2219     2.4020     0.0994    65.3747     9.2270
  600.0000   -30.7580   129.8013    31.5445    30.6314     0.1953     0.2039     2.4795     0.1021    61.6043     9.2724
  600.5000   -30.3909   114.4156    32.3428    30.5932     0.1826     0.1736     2.5436     0.0919    65.5156     9.3169
  601.0000   -29.9198   457.0098    29.9505    31.6756     0.1627     0.1433     2.5508     0.0819    68.0530     9.3612
  601.5000   -29.4658   605.5406    28.2705    32.4124     0.1350     0.1130     2.5435     0.0787    69.9904     9.4025
  602.0000   -29.2654   429.0316    26.6875    32.9405     0.1322     0.0826     2.4880     0.0737    71.8867     9.3738
  602.5000   -29.3374   213.2665    25.1872    30.2472     0.1629     0.0775     2.4262     0.0622    73.7616     9.3400
