~VERSION INFORMATION
 VERS.                2.0:   CWLS LOG ASCII STANDARD - VERSION 2.0
 WRAP.                 NO:   ONE LINE PER DEPTH STEP
~WELL INFORMATION
#MNEM.UNIT      DATA TYPE    INFORMATION
#----------   ------------   ------------------------------
 STRT.F            2.0000:   START DEPTH
 STOP.F          522.0000:   STOP DEPTH
 STEP.F            0.5000:   STEP LENGTH
 NULL.          -999.2500:   NO VALUE
 COMP. LAWRENCE/ALLISON INC:   COMPANY
 WELL.      47-45 SX #3-3:   WELL
 FLD .             TEAPOT:   FIELD
 LOC .       S3 T38N R78W:   LOCATION
 CNTY.            NATRONA:   COUNTY
 STAT.            WYOMING:   STATE
 CTRY. UNITED STATES OF AMERICA:   COUNTRY
 SRVC.           Gearhart:   SERVICE COMPANY
 DATE.        17-JUN-1988:   LOGDATE
 API .       490251123600:   API NUMBER
~CURVE INFORMATION
#MNEM.UNIT       API CODE    CURVE DESCRIPTION
#----------   ------------   ------------------------------
 DEPT.F                  :   
 GRR .GAPI   07 310 01 00:   GAMMA RAY
 RILD.OHMM   07 120 46 00:   INDUCTION LOG DEEP RESISTIVITY
 RILM.OHMM   07 120 44 00:   INDUCTION LOG MEDIUM RESISTIVITY
~PARAMETER INFORMATION
#MNEM.UNIT          VALUE    DESCRIPTION
#----------   ------------   ------------------------------
 PD  .                 GL:   PERMANENT DATUM
 EPD .F              5197:   ELEVATION PERMANENT DATUM
 LMF .                 KB:   LOG MEASURED FROM
 DAPD.F                10:   FEET ABOVE PERMANENT DATUM
 DMF .                 KB:   DRILLING MEASURED FROM
 EKB .F              5207:   KELLING BUSHING
 EGL .F              5197:   GROUND LEVEL
 DATE.        17-JUN-1988:   RUN DATE
 RUN .                  1:   RUN NUMBER
 DD  .F               530:   DEPTH DRILLER
 DL  .F               530:   DEPTH LOGGER
 BLI .F             521.5:   BOTTOM LOG INTERVAL
 TLI .F                48:   TOP LOG INTERVAL
 CS  .IN            9.625:   CASING SIZE
 CBD .F                48:   CASING BOTTOM DRILLER
 CBL .F                48:   CASING BOTTOM LOGGER
 BS  .IN             8.75:   BIT SIZE
 BSD .F               530:   BIT SIZE AT DEPTH
 DFT .                AIR:   DRILLING FLUID TYPE
 TLAB.HRS            0600:   TIME LOGGER AT BOTTOM
 MRT .F                70:   MAXIMUM RECORDED TEMPERATURE
 LUN .               7597:   LOGGING UNIT NUMBER
 LUL .           GILLETTE:   LOGGING UNIT LOCATION
 ENGI.          HUCKFELDT:   RECORDING ENGINEER
 WITN.             STRONG:   WITNESSED BY
 CLNT.            A2DTECH:   CLIENT CODE
 ORIG.           5" PRINT:   ORIGIN OF DATA
 UWI .       490251123600:   UNIQUE WELL ID
 DICO. A2D Technologies, Inc.:   DIGITIZING COMPANY
~OTHER INFORMATION
~A    DEPT      GRR      RILD       RILM   
# ...
   93.0000   122.6853     9.0081     9.0336
   93.5000   123.5973     9.0684     9.0311
   94.0000   122.9941     9.1284     8.9661
   94.5000   121.4818     9.1901     8.9637
   95.0000   122.6976     9.2515     8.9606
   95.5000   123.9126     9.3128     8.8961
   96.0000   124.8245     9.5055     8.8937
   96.5000   122.7062     9.6357     8.8913
   97.0000   121.4969     9.7684     8.9508
   97.5000   121.5005     9.8331     9.0107
   98.0000   121.5034    10.0372     9.1336
   98.5000   119.9911    10.1740     9.3234
   99.0000   116.6607    10.3859     9.5172
   99.5000   116.0575    10.6746     9.7825
  100.0000   116.0611    10.9721    10.0083
  100.5000   116.0698    11.2772    10.2938
  101.0000   115.4181    11.6178    10.5792
  101.5000   112.1501    12.0788    10.9171
  102.0000   110.0378    12.5011    11.5370
  102.5000   109.1354    12.8487    12.0238
  103.0000   109.1465    13.0240    12.5313
  103.5000   108.5493    13.2015    13.0601
  104.0000   106.7400    13.2888    13.3317
  104.5000   106.4437    13.6583    13.5136
  105.0000   107.0608    13.9409    13.6022
  105.5000   107.9788    14.0333    13.6923
  106.0000   107.3575    14.0273    13.7829
  106.5000   106.7845    14.0225    13.9710
  107.0000   106.7956    14.0178    14.0635
  107.5000   107.7136    14.0130    14.0576
  108.0000   108.0255    13.9113    13.9555
  108.5000   107.1231    13.8104    13.7583
  109.0000   106.8289    13.5212    13.4700
  109.5000   107.7491    13.0556    13.2796
  110.0000   108.3641    12.7822    13.1832
  110.5000   108.0699    12.6894    12.9070
  111.0000   107.7758    12.5101    12.8133
  111.5000   107.1786    12.5050    12.6322
  112.0000   107.1879    12.4143    12.4537
  112.5000   106.8956    12.4101    12.1926
  113.0000   105.9954    12.3200    12.1884
  113.5000   104.7922    12.3159    12.0991
  114.0000   104.8011    12.2265    12.0950
  114.5000   104.8100    12.1378    12.0908
  115.0000   105.1219    12.0498    12.0031
  115.5000   104.5225    12.0457    11.8334
  116.0000   102.4124    11.8756    11.7475
  116.5000   102.1181    11.7078    11.7435
  117.0000   102.1272    11.4626    11.5776
  117.5000   102.7878    11.2999    11.4935
  118.0000   103.3570    11.0633    11.4101
  118.5000   101.8530    10.8316    11.4061
  119.0000   101.2536    10.7530    11.4022
  119.5000   106.4162    10.5279    11.3975
  120.0000   111.5766    10.4515    11.3936
  120.5000   112.7954    10.2327    11.3897
  121.0000   110.0793    10.1584    11.3859
  121.5000   108.5727    10.1550    11.3820
  122.0000   109.7940    10.1515    11.3781
  122.5000   109.4697    10.1480    11.1397
  123.0000   105.1819    10.1445    11.0588
  123.5000   101.6411    10.1403    10.8271
  124.0000   101.3447    10.1369    10.5268
  124.5000   102.8710    10.1334    10.4503
  125.0000   104.3951    10.1300    10.3624
  125.5000   105.3130    10.1265    10.2983
  126.0000   105.6250    10.1231    10.2948
  126.5000   103.8157    10.1196    10.3639
  127.0000   102.0064    10.1162    10.2878
  127.5000   101.1061    10.1128    10.2843
  128.0000   103.5394    10.1093    10.2097
  128.5000   105.0636    10.1058    10.2062
  129.0000   105.9836    10.1024    10.2027
  129.5000   105.9924    10.0982    10.1993
  130.0000   103.5771    10.0947    10.1252
  130.5000   101.4648    10.0913    10.1217
  131.0000   102.0797    10.0879    10.0482
  131.5000   103.9068     9.9454     9.9054
  132.0000   106.3399     9.8733     9.8335
  132.5000   106.3488     9.8017     9.6946
  133.0000   106.9638     9.5300     9.5576
  133.5000   109.4061     9.2659     9.3573
  134.0000   111.2971     9.0719     9.0978
  134.5000   112.1442     8.8204     8.7843
  135.0000   112.1531     8.7564     8.4815
  135.5000   111.5559     8.7528     8.3038
  136.0000   110.9587     8.7498     8.1865
  136.5000   110.0585     8.7469     8.1270
  137.0000   109.1583     8.7439     8.2379
  137.5000   107.6521     8.7409     8.2344
  138.0000   106.1458     8.7996     8.2897
  138.5000   105.8515     8.7958     8.2862
  139.0000   106.1755     8.7928     8.2834
  139.5000   108.0574     8.7898     8.3390
  140.0000   111.0321     8.8481     8.4527
  140.5000   112.8592     8.9687     8.5088
  141.0000   113.4741     9.0281     8.5645
  141.5000   115.9072     9.2149     8.5615
  142.0000   118.3404     9.3397     8.5586
  142.5000   119.8644     9.4679     8.6153
  143.0000   119.5703     9.5961     8.6724
  143.5000   113.8216     9.7278     8.7299
  144.0000   111.4062     9.7922     8.9099
  144.5000   109.8911     9.7881     9.0315
  145.0000   108.6967     9.7847     9.2185
  145.5000   109.0109     9.7814     9.2804
  146.0000   110.5349     9.7105     9.4070
  146.5000   112.3620     9.7015     9.4030
  147.0000   113.8860     9.7039     9.3348
  147.5000   116.0162     9.6997     9.2670
  148.0000   117.5402     9.7640     9.1997
  148.5000   119.0642     9.7606     9.0696
  149.0000   119.9822     9.7573     9.1298
  149.5000   118.7790     9.7540     9.1903
  150.0000   116.6667     9.8194     9.2612
  150.5000   116.0635     9.7295     9.3822
  151.0000   116.3702     9.6748     9.5033
  151.5000   111.5246     9.7393     9.6243
  152.0000   106.3760     9.8032     9.7655
  152.5000   106.3790     9.7983     9.6946
  153.0000   107.8970     9.7266     9.6914
  153.5000   108.8090     9.6554     9.6882
  154.0000   107.5998     9.5839     9.6179
  154.5000   110.3308     9.4480     9.4749
  155.0000   112.4549     9.1856     9.2826
  155.5000   114.8820     9.1184     9.2153
  156.0000   113.9759     9.0517     9.2122
  156.5000   112.4636     8.9233     9.0821
  157.0000   111.5575     8.9819     9.0162
  157.5000   111.8642     8.9153     8.9508
  158.0000   112.4731     8.8501     8.9471
  158.5000   112.7791     8.8466     8.9441
  159.0000   113.6911     8.7819     8.7567
  159.5000   113.9970     8.5333     8.5139
  160.0000   114.6060     8.1290     8.2206
  160.5000   113.6998     7.7404     7.9344
  161.0000   113.7035     7.4217     7.5575
  161.5000   115.5246     7.0669     7.2971
  162.0000   116.1336     6.8231     6.9969
  162.5000   114.0153     6.6799     6.8029
  163.0000   111.5939     6.6920     6.8957
  163.5000   112.5486     7.0061     6.9899
  164.0000   114.0248     7.2005     7.2418
  164.5000   113.7246     7.4517     7.4870
  165.0000   113.4238     7.6592     7.6954
  165.5000   112.5176     7.8709     7.8548
  166.0000   111.3091     8.0892     8.0175
  166.5000   110.7060     8.1982     8.1269
  167.0000   111.6188     8.3095     8.1809
  167.5000   112.5308     8.3062     8.1774
  168.0000   113.7458     8.3615     8.2324
  168.5000   114.3548     8.3573     8.2289
  169.0000   113.1456     8.3539     8.2262
  169.5000   112.5424     8.2920     8.2809
  170.0000   113.7981     8.1179     8.2780
  170.5000   115.2763     8.0028     8.2745
  171.0000   115.5822     7.8893     8.2145
  171.5000   115.2821     7.8316     8.0985
  172.0000   113.4669     7.7721     7.9288
  172.5000   111.6516     7.5577     7.7627
  173.0000   110.7293     7.2465     7.5461
  173.5000   109.8400     7.0453     7.1366
  174.0000   110.4490     6.7552     6.8430
  174.5000   112.5731     6.4770     6.5615
  175.0000   114.0911     6.2104     6.2480
  175.5000   115.0032     5.9480     5.8268
  176.0000   113.7940     5.9105     5.5100
  176.5000   110.6901     5.9082     5.2466
  177.0000   107.1339     5.9058     5.3923
  177.5000   106.5300     5.9034     5.6199
  178.0000   108.6548     6.1094     5.9804
  178.5000   111.0820     6.4719     6.3201
  179.0000   112.6001     6.9162     6.6327
  179.5000   113.5262     7.2074     6.9229
  180.0000   115.0309     7.5632     7.4068
  180.5000   117.1550     7.9366     7.7194
  181.0000   118.0670     8.0444     8.0453
  181.5000   118.9790     8.2148     8.2692
  182.0000   117.1638     8.4380     8.4405
  182.5000   114.7424     8.5517     8.5557
  183.0000   115.9941     8.6087     8.6124
  183.5000   117.4763     8.6651     8.6088
