~VERSION INFORMATION
 VERS.                2.0:   CWLS LOG ASCII STANDARD - VERSION 2.0
 WRAP.                 NO:   ONE LINE PER DEPTH STEP
~WELL INFORMATION
#MNEM.UNIT      DATA TYPE    INFORMATION
#----------   ------------   ------------------------------
 STRT.F           31.0000:   START DEPTH
 STOP.F          590.0000:   STOP DEPTH
 STEP.F            0.1000:   STEP LENGTH
 NULL.          -999.2500:   NO VALUE
 COMP. LAWRENCE/ALLISON INC:   COMPANY
 WELL. NPR 3 73-61 SX #3-3:   WELL
 FLD .             TEAPOT:   FIELD
 LOC .       S3 T38N R78W:   LOCATION
 CNTY.            NATRONA:   COUNTY
 STAT.            WYOMING:   STATE
 CTRY. UNITED STATES OF AMERICA:   COUNTRY
 SRVC.           Gearhart:   SERVICE COMPANY
 DATE.        14-AUG-1988:   LOGDATE
 API .       490251124200:   API NUMBER
~CURVE INFORMATION
#MNEM.UNIT       API CODE    CURVE DESCRIPTION
#----------   ------------   ------------------------------
 DEPT.F                  :   
 GRR .GAPI   07 310 01 00:   GAMMA RAY
 RILD.OHMM   07 120 46 00:   INDUCTION LOG DEEP RESISTIVITY
 RILM.OHMM   07 120 44 00:   INDUCTION LOG MEDIUM RESISTIVITY
~PARAMETER INFORMATION
#MNEM.UNIT          VALUE    DESCRIPTION
#----------   ------------   ------------------------------
 PD  .                 GL:   PERMANENT DATUM
 EPD .F              5136:   ELEVATION PERMANENT DATUM
 LMF .                 KB:   LOG MEASURED FROM
 DAPD.F                10:   FEET ABOVE PERMANENT DATUM
 DMF .                 KB:   DRILLING MEASURED FROM
 EKB .F              5146:   KELLING BUSHING
 EDF .F              5144:   DRILLING FLOOR
 EGL .F              5136:   GROUND LEVEL
 DATE.        14-AUG-1988:   RUN DATE
 RUN .                  1:   RUN NUMBER
 DD  .F               597:   DEPTH DRILLER
 DL  .F               598:   DEPTH LOGGER
 BLI .F               590:   BOTTOM LOG INTERVAL
 TLI .F                50:   TOP LOG INTERVAL
 CS  .IN            9.625:   CASING SIZE
 CBD .F                50:   CASING BOTTOM DRILLER
 CBL .F                50:   CASING BOTTOM LOGGER
 BS  .IN             8.75:   BIT SIZE
 BSD .F               597:   BIT SIZE AT DEPTH
 DFT .                AIR:   DRILLING FLUID TYPE
 TCS .HRS            1930:   TIME CURCULATED STOPPED
 TLAB.HRS            2030:   TIME LOGGER AT BOTTOM
 MRT .F                70:   MAXIMUM RECORDED TEMPERATURE
 LUN .               7597:   LOGGING UNIT NUMBER
 LUL .           GILLETTE:   LOGGING UNIT LOCATION
 ENGI.         WEATHERMON:   RECORDING ENGINEER
 WITN.             STRONG:   WITNESSED BY
 CLNT.            A2DTECH:   CLIENT CODE
 ORIG.           5" PRINT:   ORIGIN OF DATA
 UWI .       490251124200:   UNIQUE WELL ID
 DICO. A2D Technologies, Inc.:   DIGITIZING COMPANY
~OTHER INFORMATION
~A   DEPT       GRR      RILD       RILM   
# ...
  504.2000    81.2866    23.3634    21.5601
  504.3000    81.5411    23.3611    21.5084
  504.4000    81.7956    23.3003    21.4571
  504.5000    82.0637    23.1377    21.3562
  504.6000    82.5423    22.9751    21.3544
  504.7000    82.8616    22.8124    21.2297
  504.8000    83.1161    22.6498    21.2033
  504.9000    83.3747    22.4872    21.1282
  505.0000    83.6416    22.3245    21.0047
  505.1000    83.9085    22.1619    20.8819
  505.2000    84.1723    21.9993    20.7598
  505.3000    84.4337    21.9262    20.6385
  505.4000    85.0252    21.8791    20.5179
  505.5000    85.0272    21.7705    20.3979
  505.6000    85.1859    21.7682    20.3255
  505.7000    85.4393    21.6466    20.3239
  505.8000    85.6927    21.6137    20.3222
  505.9000    85.9460    21.6115    20.2035
  506.0000    86.2482    21.6535    20.1784
  506.1000    86.2501    21.7581    20.1767
  506.2000    86.2526    21.7556    20.2218
  506.3000    86.3553    21.8734    20.3137
  506.4000    86.5595    21.9979    20.3120
  506.5000    86.5620    22.0531    20.4513
  506.6000    86.5644    22.0954    20.5448
  506.7000    86.5668    22.2211    20.6622
  506.8000    86.5692    22.3545    20.7802
  506.9000    86.4763    22.4750    20.8989
  507.0000    86.2715    22.5058    21.0182
  507.1000    86.2744    22.5745    21.3097
  507.2000    86.2767    22.6581    21.4071
  507.3000    86.2792    22.6745    21.6046
  507.4000    86.1398    22.8112    21.8031
  507.5000    85.9819    22.8091    21.9276
  507.6000    85.9843    22.8069    22.0528
  507.7000    85.9868    22.7340    22.1789
  507.8000    85.7498    22.6449    22.3056
  507.9000    85.5012    22.6248    22.3552
  508.0000    85.3897    22.4838    22.3534
  508.1000    85.2205    22.4818    22.3515
  508.2000    84.7210    22.3845    22.3497
  508.3000    84.1887    22.3220    22.3478
  508.4000    83.7223    22.2771    22.3459
  508.5000    83.2225    22.1467    22.2668
  508.6000    82.7230    22.0080    22.1878
  508.7000    82.2237    22.0061    22.1604
  508.8000    81.7538    21.9115    22.0308
  508.9000    81.4842    21.7832    22.0290
  509.0000    81.0272    21.6966    21.9257
  509.1000    80.5278    21.6785    21.7975
  509.2000    80.1556    21.5423    21.6700
  509.3000    79.9070    21.5404    21.5433
  509.4000    79.6831    21.4484    21.4173
  509.5000    79.6861    21.3228    21.4152
  509.6000    80.1379    21.2374    21.3151
  509.7000    80.4685    21.2203    21.1905
  509.8000    80.5994    21.0864    21.0666
  509.9000    80.7443    21.0845    20.9434
  510.0000    81.2486    20.9951    20.8209
  510.1000    81.8154    20.9347    20.6749
  510.2000    82.0375    20.8942    20.5783
  510.3000    82.4598    20.7860    20.4580
  510.4000    82.8464    20.7838    20.3385
  510.5000    83.0997    20.6723    20.1964
  510.6000    83.3531    20.6364    19.9623
  510.7000    83.6426    20.5732    19.8457
  510.8000    83.8598    20.4897    19.7297
  510.9000    84.1133    20.4745    19.6144
  511.0000    84.3667    20.3440    19.4550
  511.1000    84.6200    20.2354    19.2517
  511.2000    84.8733    20.1996    19.1391
  511.3000    85.1678    20.1384    19.0273
  511.4000    85.1698    20.0561    19.0036
  511.5000    85.1722    20.0542    18.9364
  511.6000    85.1746    20.0520    18.8692
  511.7000    85.1203    19.9456    18.8458
  511.8000    84.8718    19.9097    18.7356
  511.9000    84.5781    19.9078    18.7341
  512.0000    84.3746    19.8711    18.6462
  512.1000    84.2804    19.7664    18.6015
  512.2000    84.2828    19.7643    18.6000
  512.3000    84.2333    19.6600    18.5770
  512.4000    83.9855    19.6241    18.4683
  512.5000    83.9879    19.6221    18.4668
  512.6000    83.9903    19.6202    18.4652
  512.7000    83.9927    19.6072    18.4637
  512.8000    83.9951    19.4807    18.4622
  512.9000    84.0447    19.4790    18.4821
  513.0000    84.3022    19.4771    18.5876
  513.1000    84.3046    19.4752    18.5857
  513.2000    84.3070    19.4733    18.6707
  513.3000    84.4541    19.4714    18.7122
  513.4000    84.6139    19.4693    18.7541
  513.5000    84.6587    19.4676    18.8394
  513.6000    84.9209    19.4657    18.8378
  513.7000    84.9232    19.4089    18.9670
  513.8000    84.9257    19.3274    18.9657
  513.9000    85.0679    19.3255    19.0301
  514.0000    85.2327    19.3235    19.0946
  514.1000    85.2351    19.3218    19.0930
  514.2000    85.2376    19.3199    19.0914
  514.3000    85.2399    19.3181    19.0898
  514.4000    85.2423    19.3162    19.0882
  514.5000    85.2447    19.3143    19.0867
  514.6000    85.2471    19.3122    19.0411
  514.7000    85.2495    19.2124    18.9516
  514.8000    85.2521    19.1753    18.9500
  514.9000    85.4868    19.1734    18.9481
  515.0000    85.5589    19.1406    18.9468
  515.1000    85.5613    19.0372    18.8798
  515.2000    85.6428    19.0351    18.7694
  515.3000    85.8961    19.0335    18.6812
  515.4000    86.1730    18.9574    18.6796
  515.5000    86.4027    18.8982    18.5705
  515.6000    86.6562    18.8664    18.4620
  515.7000    86.7843    18.7559    18.3541
  515.8000    86.8609    18.6323    18.2467
  515.9000    87.1368    18.6307    18.1612
  516.0000    87.6982    18.5568    18.4985
  516.1000    87.9231    18.4482    18.3903
  516.2000    88.1765    18.3401    18.2828
  516.3000    88.4298    18.2327    18.1760
  516.4000    88.7525    18.1119    18.0697
  516.5000    89.2206    18.0198    17.9641
  516.6000    89.2233    17.9143    17.8591
  516.7000    89.6612    17.8574    17.7547
  516.8000    89.9989    17.8284    17.6508
  516.9000    90.2522    17.7174    17.6491
  517.0000    90.4411    17.4844    17.5665
  517.1000    90.4568    17.3960    17.4639
  517.2000    90.7484    17.2942    17.3220
  517.3000    90.9635    17.1929    17.1410
  517.4000    91.2168    17.0923    17.0407
  517.5000    91.3595    16.9921    16.9411
  517.6000    91.4217    16.8786    16.8421
  517.7000    91.6665    16.7938    16.6861
  517.8000    91.6693    16.6955    16.5308
  517.9000    91.6713    16.5977    16.4341
  518.0000    91.8308    16.4764    16.3380
  518.1000    91.8724    16.2905    16.1113
  518.2000    91.6785    16.1812    16.0360
  518.3000    91.6809    16.1004    15.9423
  518.4000    91.6838    16.0061    15.8491
  518.5000    91.4823    15.8710    15.7563
  518.6000    91.0815    15.7098    15.6642
  518.7000    90.6832    15.6177    15.4469
  518.8000    90.4346    15.5127    15.3747
  518.9000    90.1849    15.4355    15.2849
  519.0000    89.4382    15.2880    15.1955
  519.1000    88.6872    15.1499    15.0894
  519.2000    88.0846    15.0612    14.9145
  519.3000    87.4892    14.9730    14.8273
  519.4000    86.7383    14.8717    14.7407
  519.5000    85.9698    14.7982    14.6546
  519.6000    85.4819    14.7115    14.5689
  519.7000    84.7890    14.5883    14.4837
  519.8000    84.0390    14.4392    14.3990
  519.9000    83.2882    14.3546    14.2980
  520.0000    82.5777    14.2572    14.2312
  520.1000    82.0569    14.1187    14.1480
  520.2000    81.5788    14.0066    14.0653
  520.3000    81.0795    13.9246    13.9671
  520.4000    80.7179    13.8243    13.8052
  520.5000    80.5559    13.6668    13.7245
  520.6000    80.6295    13.5737    13.6443
  520.7000    81.1651    13.5074    13.5646
  520.8000    81.8726    13.4283    13.4853
  520.9000    82.6282    13.3830    13.4064
  521.0000    83.1178    13.3638    13.3280
  521.1000    83.3712    13.2856    13.2346
  521.2000    83.6246    13.1946    13.1727
  521.3000    83.8987    13.1305    13.0957
  521.4000    83.6705    13.1011    13.0191
  521.5000    83.4220    13.0676    12.9430
  521.6000    83.1735    12.9910    12.8673
  521.7000    82.8480    12.9169    12.8660
  521.8000    82.3741    12.9154    12.8059
  521.9000    82.1005    12.8530    12.7311
  522.0000    81.8771    12.8238    12.6566
  522.1000    81.6286    12.8226    12.5971
  522.2000    81.2566    12.8049    12.5961
  522.3000    80.8293    12.7315    12.5078
