~VERSION INFORMATION
 VERS.                2.0:   CWLS LOG ASCII STANDARD - VERSION 2.0
 WRAP.                 NO:   ONE LINE PER DEPTH STEP
~WELL INFORMATION
#MNEM.UNIT      DATA TYPE    INFORMATION
#----------   ------------   ------------------------------
 STRT.F           80.0000:   START DEPTH
 STOP.F          715.0000:   STOP DEPTH
 STEP.F            0.5000:   STEP LENGTH
 NULL.          -999.2500:   NO VALUE
 COMP. U S NAVY-INTEX OIL:   COMPANY
 WELL.     NPR #3 #37-S-2:   WELL
 FLD .             TEAPOT:   FIELD
 LOC .       S2 T38N R78W:   LOCATION
 CNTY.            NATRONA:   COUNTY
 STAT.            WYOMING:   STATE
 CTRY. UNITED STATES OF AMERICA:   COUNTRY
 SRVC.       Schlumberger:   SERVICE COMPANY
 DATE.        21-JUN-1962:   LOGDATE
 API .       490250640600:   API NUMBER
~CURVE INFORMATION
#MNEM.UNIT       API CODE    CURVE DESCRIPTION
#----------   ------------   ------------------------------
 DEPT.F                  :   
 ASN .OHMM   05 041 16 00:   AMPLIFIED SHORT NORMAL 16"
 CILD.MMHO   05 110 46 00:   CONDUCTIVITY INDUCTION LOG DEEP
 ILD .OHMM   05 120 46 00:   INDUCTION LOG DEEP
 SPR .MV     05 010 01 00:   SPONTANEOUS POTENTIAL FROM RES.
 GR  .GAPI   30 310 01 00:   GAMMA RAY
~PARAMETER INFORMATION
#MNEM.UNIT          VALUE    DESCRIPTION
#----------   ------------   ------------------------------
 LMF .                 KB:   LOG MEASURED FROM
 DMF .                 KB:   DRILLING MEASURED FROM
 EKB .F              5159:   KELLING BUSHING
 EGL .F              5154:   GROUND LEVEL
 DATE.        21-JUN-1962:   RUN DATE
 RUN .                  1:   RUN NUMBER
 DD  .F               715:   DEPTH DRILLER
 DL  .F               716:   DEPTH LOGGER
 BLI .F               715:   BOTTOM LOG INTERVAL
 TLI .F                80:   TOP LOG INTERVAL
 BS  .IN             6.75:   BIT SIZE
 BSD .F               715:   BIT SIZE AT DEPTH
 DFT .       OIL-EMULSION:   DRILLING FLUID TYPE
 DFD .                9.3:   DRILLING FLUID DENSITY
 DFV .                 50:   DRILLING FLUID VISCOSITY
 DFL .                3.8:   DRILLING FLUID LOSS
 RMS .OHMM            3.9:   RESISTIVITY MUD SAMPLE
 MST .F                72:   MUD SAMPLE TEMPERATURE
 RMF .OHMM            2.6:   RESISTIVITY MUD FILTRATE SAMPLE
 MFST.F                72:   MUD FILTRATE SAMPLE TEMPERATURE
 RMC .OHMM            5.2:   RESISTIVITY MUD CAKE
 MCST.F                72:   MUD CAKE SAMPLE TEMPERATURE
 TCS .HRS               1:   TIME CURCULATED STOPPED
 LUN .               2503:   LOGGING UNIT NUMBER
 LUL .               CSPR:   LOGGING UNIT LOCATION
 ENGI.             DANNER:   RECORDING ENGINEER
 WITN.          JORGENSEN:   WITNESSED BY
 CLNT.            A2DTECH:   CLIENT CODE
 ORIG.           5" PRINT:   ORIGIN OF DATA
 UWI .       490250640600:   UNIQUE WELL ID
 DICO. A2D Technologies, Inc.:   DIGITIZING COMPANY
~OTHER INFORMATION
~A   DEPT        ASN      CILD         ILD      SPR         GR   
# ...
  263.0000     7.2822   153.2762     6.4714   -73.7683  -999.2500
  263.5000     7.2835   152.4290     6.4012   -73.7561  -999.2500
  264.0000     7.3299   151.5430     6.4077   -73.7439  -999.2500
  264.5000     7.3311   151.4910     6.4128   -73.7310  -999.2500
  265.0000     7.3325   151.4390     6.4180   -73.4141  -999.2500
  265.5000     7.3186   152.9343     6.4232   -73.2498  -999.2500
  266.0000     7.2896   153.6076     6.4284   -73.2378  -999.2500
  266.5000     7.2301   153.5426     6.4336   -73.2259  -999.2500
  267.0000     7.1409   151.2178     6.5269   -73.5188  -999.2500
  267.5000     7.1723   150.4082     6.5960   -74.2661  -999.2500
  268.0000     7.2641   148.0835     6.6766   -74.5620  -999.2500
  268.5000     7.3710   145.7587     6.7572   -75.0043  -999.2500
  269.0000     7.5082   143.4339     6.8378   -75.1478  -999.2500
  269.5000     7.6316   141.1092     6.9938   -74.8280  -999.2500
  270.0000     7.7563   138.0268     7.1498   -74.6636  -999.2500
  270.5000     7.8746   134.9445     7.2303   -74.3468  -999.2500
  271.0000     7.9815   131.1046     7.3109   -74.0300  -999.2500
  271.5000     8.0431   128.7798     7.3915   -73.7132  -999.2500
  272.0000     8.0896   128.7278     7.3967   -73.5488  -999.2500
  272.5000     8.1210   131.0354     7.3203   -73.7017  -999.2500
  273.0000     8.1222   134.6713     7.1684   -74.1596  -999.2500
  273.5000     8.0780   136.8920     6.9610   -74.7295  -999.2500
  274.0000     8.0037   139.1127     6.9662   -74.8729  -999.2500
  274.5000     7.9142   140.5889     6.9713   -75.0134  -999.2500
  275.0000     7.7795   143.5671     6.9765   -75.3064  -999.2500
  275.5000     7.7038   145.0172     6.9050   -75.2914  -999.2500
  276.0000     7.6282   146.4803     6.7593   -74.6697  -999.2500
  276.5000     7.5718   148.7010     6.6891   -73.8956  -999.2500
  277.0000     7.5576   149.4196     6.6199   -73.5788  -999.2500
  277.5000     7.5591   150.1136     6.6253   -73.7195  -999.2500
  278.0000     7.5603   149.3025     6.7059   -73.7073  -999.2500
  278.5000     7.5460   147.7071     6.7866   -73.6951  -999.2500
  279.0000     7.5321   143.8080     6.9553   -73.8608  -999.2500
  279.5000     7.5940   140.0425     7.2506   -74.5831  -999.2500
  280.0000     7.7161   133.9299     7.4066   -75.0285  -999.2500
  280.5000     7.9136   128.5748     7.6380   -74.8641  -999.2500
  281.0000     8.0677   123.9773     7.7940   -74.5473  -999.2500
  281.5000     8.2730   120.8950     8.0254   -74.5353  -999.2500
  282.0000     8.5066   120.8429     8.1814   -74.5234  -999.2500
  282.5000     8.6437   120.7909     8.1866   -74.5115  -999.2500
  283.0000     8.7506   121.5095     8.0407   -74.3471  -999.2500
  283.5000     8.7820   122.2020     7.8199   -74.0302  -999.2500
  284.0000     8.7379   126.6954     7.5988   -73.5610  -999.2500
  284.5000     8.6031   133.4616     7.3777   -73.2439  -999.2500
  285.0000     8.3928   134.9748     7.2321   -73.2317  -999.2500
  285.5000     8.2278   141.0985     7.0123   -73.2173  -999.2500
  286.0000     7.9269   145.4137     6.7899   -73.2053  -999.2500
  286.5000     7.7770   147.6344     6.6456   -73.0409  -999.2500
  287.0000     7.6097   150.6126     6.4986   -73.1844  -999.2500
  287.5000     7.5226   152.0888     6.4284   -73.1695  -999.2500
  288.0000     7.4788   152.7943     6.4348   -73.4624  -999.2500
  288.5000     7.4800   151.9717     6.5154   -73.7583  -999.2500
  289.0000     7.5265   151.1621     6.5960   -74.6580  -999.2500
  289.5000     7.5881   148.8373     6.6766   -75.2559  -999.2500
  290.0000     7.6648   146.5125     6.8326   -75.3963  -999.2500
  290.5000     7.7415   142.6726     6.9887   -74.9141  -999.2500
  291.0000     7.9541   140.3479     7.1448   -74.5844  -999.2500
  291.5000     8.1366   139.5153     7.3019   -73.9856  -999.2500
  292.0000     8.2284   138.7273     7.3825   -73.5163  -999.2500
  292.5000     8.2603   136.2626     7.4630   -73.5044  -999.2500
  293.0000     8.2441   134.8237     7.4682   -73.7973  -999.2500
  293.5000     8.2018   132.4989     7.5488   -74.5475  -999.2500
  294.0000     8.2032   130.9318     7.6294   -75.1453  -999.2500
  294.5000     8.2950   129.3646     7.6346   -75.1334  -999.2500
  295.0000     8.4473   128.5550     7.6397   -74.8166  -999.2500
  295.5000     8.5391   127.7454     7.6449   -74.1949  -999.2500
  296.0000     8.6007   126.9357     7.6501   -73.5732  -999.2500
  296.5000     8.6472   126.1261     7.6554   -73.2561  -999.2500
  297.0000     8.6635   125.3165     7.6606   -73.2185  -999.2500
  297.5000     8.6647   125.2645     7.6669   -73.0770  -999.2500
  298.0000     8.6508   125.9899     7.5212   -73.0651  -999.2500
  298.5000     8.6357   128.9483     7.3756   -73.0531  -999.2500
  299.0000     8.5728   130.6820     7.2286   -72.8887  -999.2500
  299.5000     8.3374   134.1343     7.0842   -72.8768  -999.2500
  300.0000     8.1573   136.3550     7.1698   -72.8649  -999.2500
  300.5000     8.0373   140.0908     7.3204   -72.8529  -999.2500
  301.0000     7.9331   141.5539     7.0865   -72.8160  -999.2500
  301.5000     7.9189   142.2725     6.9550   -72.8293  -999.2500
  302.0000     7.9354   143.7356     6.9601   -72.8171  -999.2500
  302.5000     8.0122   143.6706     6.9653   -73.2749  -999.2500
  303.0000     8.0155   143.6185     7.0459   -73.7327  -999.2500
  303.5000     7.9843   143.5665     7.0510   -74.3033  -999.2500
  304.0000     7.9855   141.9993     7.0562   -74.7366  -999.2500
  304.5000     7.9867   140.4318     7.0614   -75.0314  -999.2500
  305.0000     7.9728   139.5770     7.1420   -74.8621  -999.2500
  305.5000     7.9893   137.9674     7.2979   -74.5438  -999.2500
  306.0000     8.0207   136.7914     7.3786   -73.9206  -999.2500
  306.5000     8.1125   138.2178     7.3839   -73.2912  -999.2500
  307.0000     8.2044   136.5917     7.3902   -72.6738  -999.2500
  307.5000     8.2358   134.2302     7.3953   -72.5049  -999.2500
  308.0000     8.2369   132.6263     7.4005   -72.6473  -999.2500
  308.5000     8.1777   132.5375     7.4811   -73.2402  -999.2500
  309.0000     8.1185   133.2285     7.5617   -73.2268  -999.2500
  309.5000     8.1045   133.1176     7.5668   -73.5216  -999.2500
  310.0000     8.1823   133.0288     7.5720   -73.8130  -999.2500
  310.5000     8.2929   132.9394     7.5772   -74.2569  -999.2500
  311.0000     8.4045   132.8485     7.5823   -74.3959  -999.2500
  311.5000     8.5244   131.2252     7.5875   -74.3790  -999.2500
  312.0000     8.5712   130.3788     7.5928   -73.7558  -999.2500
  312.5000     8.6029   129.5325     7.6735   -73.1326  -999.2500
  313.0000     8.6044   127.1710     7.7551   -73.4482  -999.2500
  313.5000     8.6361   125.5671     7.7603   -74.5015  -999.2500
  314.0000     8.7433   123.2056     7.9163   -75.0706  -999.2500
  314.5000     8.8958   122.3593     8.0723   -75.3654  -999.2500
  315.0000     9.0635   120.7554     8.0774   -74.8913  -999.2500
  315.5000     9.2317   119.9090     8.0826   -74.5729  -999.2500
  316.0000     9.3535   119.8182     8.0878   -74.5595  -999.2500
  316.5000     9.3704   118.1941     8.0929   -74.8509  -999.2500
  317.0000     9.3564   117.3478     8.0981   -74.8375  -999.2500
  317.5000     9.3277   118.0388     8.1033   -74.8240  -999.2500
  318.0000     9.2691   118.6854     8.1086   -74.6581  -999.2500
  318.5000     9.2400   118.5967     8.1149   -74.0349  -999.2500
  319.0000     9.1663   118.5079     8.1201   -73.2531  -999.2500
  319.5000     9.1829   117.6616     8.1252   -72.9222  -999.2500
  320.0000     9.3807   116.8152     8.1304   -72.7751  -999.2500
  320.5000     9.5635   115.9689     8.2864   -72.9140  -999.2500
  321.0000     9.7764   113.5606     8.4424   -72.8972  -999.2500
  321.5000     9.9752   111.1237     8.5984   -72.8838  -999.2500
  322.0000    10.0292   109.6198     8.7544   -72.8703  -999.2500
  322.5000    10.0378   106.5007     8.8350   -72.8569  -999.2500
  323.0000    10.1903   104.8968     8.9156   -72.8434  -999.2500
  323.5000    10.3429   103.2929     8.9962   -73.1382  -999.2500
