~VERSION INFORMATION
 VERS.                2.0:   CWLS LOG ASCII STANDARD - VERSION 2.0
 WRAP.                 NO:   ONE LINE PER DEPTH STEP
~WELL INFORMATION
#MNEM.UNIT      DATA TYPE    INFORMATION
#----------   ------------   ------------------------------
 STRT.F           70.0000:   START DEPTH
 STOP.F         1072.0000:   STOP DEPTH
 STEP.F            0.5000:   STEP LENGTH
 NULL.          -999.2500:   NO VALUE
 COMP. LAWRENCE/ALLISON INC:   COMPANY
 WELL.    67-66 SX #11-11:   WELL
 FLD .             TEAPOT:   FIELD
 LOC .      S11 T38N R78W:   LOCATION
 CNTY.            NATRONA:   COUNTY
 STAT.            WYOMING:   STATE
 CTRY. UNITED STATES OF AMERICA:   COUNTRY
 SRVC.      Dresser Atlas:   SERVICE COMPANY
 DATE.        03-FEB-1986:   LOGDATE
 API .       490251105700:   API NUMBER
~CURVE INFORMATION
#MNEM.UNIT       API CODE    CURVE DESCRIPTION
#----------   ------------   ------------------------------
 DEPT.F                  :   
 RILD.OHMM   07 120 46 00:   RESISTIVITY INDUCTION LOG DEEP
 RILM.OHMM   07 120 44 00:   RESISTIVITY INDUCTION LOG MEDIUM
 GRD .GAPI   45 310 01 00:   GAMMA RAY FROM DENSITY LOG
 CALD.IN     45 280 60 00:   CALIPER FROM DENSITY LOG
 CORR.G/C3   45 356 01 00:   DENSITY CORRECTION
 PORD.DEC    45 890 12 00:   POROSITY DENSITY SANDSTONE
 DEN .G/C3   45 350 01 00:   COMPENSATED BULK DENSTIY
~PARAMETER INFORMATION
#MNEM.UNIT          VALUE    DESCRIPTION
#----------   ------------   ------------------------------
 PD  .                 GL:   PERMANENT DATUM
 EPD .F              5245:   ELEVATION PERMANENT DATUM
 LMF .                 GL:   LOG MEASURED FROM
 DMF .                 GL:   DRILLING MEASURED FROM
 EGL .F              5245:   GROUND LEVEL
 DATE.        03-FEB-1986:   RUN DATE
 RUN .                  1:   RUN NUMBER
 DD  .F              1120:   DEPTH DRILLER
 DL  .F              1074:   DEPTH LOGGER
 BLI .F              1068:   BOTTOM LOG INTERVAL
 TLI .F                86:   TOP LOG INTERVAL
 CS  .IN            8.625:   CASING SIZE
 CBD .F                86:   CASING BOTTOM DRILLER
 CBL .F                86:   CASING BOTTOM LOGGER
 BS  .IN             6.25:   BIT SIZE
 BSD .F              1120:   BIT SIZE AT DEPTH
 DFT .                AIR:   DRILLING FLUID TYPE
 TCS .HRS               2:   TIME CURCULATED STOPPED
 LUN .               6274:   LOGGING UNIT NUMBER
 LUL .           GILLETTE:   LOGGING UNIT LOCATION
 ENGI.             MILLER:   RECORDING ENGINEER
 WITN.           JENNINGS:   WITNESSED BY
 CLNT.            A2DTECH:   CLIENT CODE
 ORIG.           5" PRINT:   ORIGIN OF DATA
 UWI .       490251105700:   UNIQUE WELL ID
 DICO. A2D Technologies, Inc.:   DIGITIZING COMPANY
~OTHER INFORMATION
~A   DEPT     RILD       RILM        GRD       CALD       CORR       PORD        DEN   
# ...
 1025.5000    10.4688    10.5934   122.5972     8.2591     0.0762     0.1451     2.4387
 1026.0000    10.7745    10.9770   119.6318     8.2609     0.0854     0.1433     2.4411
 1026.5000    11.0892    11.2868   114.5737     8.2627     0.0781     0.1472     2.4314
 1027.0000    11.4131    11.6162   105.0314     8.2645     0.0737     0.1655     2.4044
 1027.5000    11.7464    11.9551   104.1526     8.2663     0.0799     0.1878     2.3706
 1028.0000    12.3436    12.4011   104.7807     8.2681     0.0891     0.2085     2.3383
 1028.5000    12.8816    12.8486   103.9080     8.2546     0.0938     0.2121     2.3241
 1029.0000    13.4430    13.4019   100.0458     8.2269     0.0940     0.2084     2.3340
 1029.5000    14.0288    13.8888    99.1731     8.2287     0.0896     0.2066     2.3356
 1030.0000    14.6402    14.3902   100.3931     8.2302     0.0807     0.2084     2.3274
 1030.5000    15.1727    14.9131   103.7057     8.2320     0.0583     0.2095     2.3328
 1031.0000    15.6158    15.3483   104.3229     8.2338     0.0524     0.2047     2.3382
 1031.5000    15.6322    15.5788   103.7050     8.2356     0.0466     0.1995     2.3443
 1032.0000    15.3263    15.2741   101.6165     8.2374     0.0407     0.1932     2.3519
 1032.5000    14.8194    14.7694   100.1893     8.2242     0.0530     0.1820     2.3723
 1033.0000    14.4290    14.2812   100.2410     8.2111     0.0682     0.1710     2.4018
 1033.5000    13.9518    13.8093   101.4530     8.2129     0.0759     0.1544     2.4216
 1034.0000    13.3971    13.2607   102.9719     8.2297     0.0775     0.1430     2.4394
 1034.5000    13.0442    13.0232   105.3877     8.2315     0.0777     0.1457     2.4360
 1035.0000    12.7890    12.7178   107.5045     8.2179     0.0699     0.1684     2.4076
 1035.5000    12.6227    12.4968   107.8277     8.2202     0.0475     0.1839     2.3728
 1036.0000    12.3790    12.2525   107.2479     8.2220     0.0405     0.1893     2.3610
 1036.5000    12.3030    12.1806   108.7728     8.2238     0.0573     0.1877     2.3648
 1037.0000    12.2156    12.1010   110.2918     8.2256     0.0861     0.1814     2.3762
 1037.5000    11.9915    11.8723   112.4086     8.2125     0.1088     0.1759     2.3861
 1038.0000    11.9094    11.8026   116.0202     8.2292     0.1060     0.1716     2.3937
 1038.5000    11.7691    11.8151   115.1475     8.2311     0.1014     0.1686     2.4006
 1039.0000    11.7818    11.8274   113.3779     8.2329     0.1108     0.1680     2.4022
 1039.5000    11.7940    11.9220   113.0971     8.2048     0.1215     0.1733     2.3865
 1040.0000    11.8118    11.9344   114.6220     8.1912     0.1232     0.1799     2.3791
 1040.5000    11.9009    11.9469   112.8525     8.1935     0.1053     0.1748     2.3920
 1041.0000    11.9132    11.9594   110.4850     8.2099     0.0889     0.1714     2.3958
 1041.5000    11.9256    11.9719   108.4165     8.2117     0.0860     0.1756     2.3914
 1042.0000    11.8556    11.9844   105.1522     8.2134     0.0862     0.1819     2.3810
 1042.5000    11.7859    11.9138   104.5724     8.2003     0.0819     0.1879     2.3675
 1043.0000    11.5553    11.6808   105.2005     8.2021     0.0700     0.1906     2.3563
 1043.5000    11.3290    11.3732   106.2282     8.2039     0.0506     0.1911     2.3609
 1044.0000    11.1076    10.9217   109.9475     8.2057     0.0327     0.1875     2.3663
 1044.5000    10.8899    10.5608   113.4029     8.2075     0.0584     0.1862     2.3687
 1045.0000    10.6033    10.4263   115.7948     8.2094     0.0737     0.1868     2.3687
 1045.5000    10.3959    10.2935   117.8795     8.2112     0.0768     0.1871     2.3681
 1046.0000    10.3343    10.2331   118.4934     8.1976     0.0605     0.1873     2.3682
 1046.5000    10.3456    10.2438   117.0227     8.1999     0.0395     0.1867     2.3630
 1047.0000    10.3564    10.2545   116.1495     8.2017     0.0036     0.1839     2.3684
 1047.5000    10.3673    10.2652   117.0711     8.1881     0.0063     0.1782     2.3790
 1048.0000    10.3781    10.2759   119.1879     8.1904     0.0351     0.1718     2.3964
 1048.5000    10.3890    10.3582   118.6141     8.1922     0.0638     0.1649     2.4086
 1049.0000    10.4722    10.4411   117.1435     8.1940     0.0950     0.1591     2.4147
 1049.5000    10.4832    10.5247   115.9719     8.1804     0.1084     0.1558     2.4216
 1050.0000    10.5672    10.6090   115.0931     8.1976     0.1114     0.1602     2.4239
 1050.5000    10.5051    10.6200   115.4203     8.2144     0.0890     0.1659     2.4104
 1051.0000    10.5161    10.5577   115.1438     8.2162     0.0771     0.1686     2.3978
 1051.5000    10.4544    10.4930   111.5787     8.2176     0.0683     0.1681     2.3971
 1052.0000    10.4653    10.4314   109.8018     8.2194     0.0639     0.1645     2.4002
 1052.5000    10.4762    10.3702   110.4276     8.2212     0.0656     0.1609     2.4071
 1053.0000    10.3427    10.3837   112.2437     8.2080     0.0658     0.1603     2.4125
 1053.5000    10.4982    10.3946   114.9567     8.2248     0.0659     0.1627     2.4126
 1054.0000    10.5092    10.4054   118.2676     8.2266     0.0630     0.1654     2.4067
 1054.5000    10.5202    10.4163   120.0837     8.2135     0.0648     0.1662     2.4022
 1055.0000    10.4556    10.4272   120.4050     8.2153     0.0679     0.1641     2.4016
 1055.5000    10.3942    10.3660   118.6336     8.2021     0.0726     0.1610     2.4040
 1056.0000    10.3332    10.3025   109.0895     8.1886     0.0788     0.1595     2.4078
 1056.5000    10.2725    10.1713   108.5084     8.1755     0.0790     0.1616     2.4109
 1057.0000    10.2859    10.0417   109.1342     8.1927     0.0822     0.1624     2.4118
 1057.5000    10.2229     9.9828   110.3524     8.1945     0.0929     0.1621     2.4081
 1058.0000    10.1628     9.9242   112.4675     8.2112     0.1036     0.1609     2.4044
 1058.5000    10.0359     9.8685   114.2836     8.2280     0.1083     0.1596     2.4078
 1059.0000    10.0464     9.8081   114.6049     8.2298     0.1099     0.1587     2.4130
 1059.5000     9.9158     9.7505   114.0294     8.2316     0.0996     0.1568     2.4177
 1060.0000     9.7920     9.6933   107.7737     8.2335     0.0892     0.1559     2.4207
 1060.5000     9.8023     9.8414   102.7130     8.2353     0.0773     0.1568     2.4192
 1061.0000     9.8125    10.1286   104.8289     8.2371     0.0642     0.1561     2.4171
 1061.5000    10.0991    10.6432   106.3461     8.2538     0.0535     0.1540     2.4207
 1062.0000    10.1911    11.1839   103.9768     8.2557     0.0587     0.1521     2.4225
 1062.5000    10.3428    11.5103   102.4663     8.2421     0.0768     0.1527     2.4211
 1063.0000    10.4135    11.7643   103.7226     8.2589     0.0949     0.1521     2.4269
 1063.5000    10.4243    11.5343   103.7766     8.2607     0.1114     0.1490     2.4398
 1064.0000    10.5078    11.1048   103.4679     8.2928     0.1281     0.1261     2.4640
 1064.5000    10.5187    10.7817   103.4908     8.2792     0.1419     0.1098     2.5013
 1065.0000    10.5297    10.8685   103.5132     8.2512     0.1496     0.0971     2.5188
 1065.5000    10.4677    10.7189   104.1335     8.1483     0.1693     0.0914     2.5181
 1066.0000    10.3343    10.5104   105.3516     8.0305     0.1951     0.1023     2.4873
 1066.5000    10.2026    10.3778   108.3636     8.0324     0.2208     0.1585     2.4106
 1067.0000    10.2133    10.1124   109.8807     8.0342     0.2165     0.1808     2.3783
 1067.5000    10.1532     9.9837   112.5937     8.0360     0.1820     0.1794     2.3845
 1068.0000    10.1638     9.9251   115.8844     8.0378     0.1370     0.1653     2.4192
 1068.5000  -999.2500  -999.2500  -999.2500     8.0695     0.1116     0.1408     2.4539
 1069.0000  -999.2500  -999.2500  -999.2500     8.0714     0.1012     0.1312     2.4615
 1069.5000  -999.2500  -999.2500  -999.2500     8.0732     0.0833     0.1356     2.4549
 1070.0000  -999.2500  -999.2500  -999.2500     8.0596     0.1045     0.1359     2.4580
 1070.5000  -999.2500  -999.2500  -999.2500     8.0618     0.1122     0.1295     2.4679
