~VERSION INFORMATION
 VERS.                2.0:   CWLS LOG ASCII STANDARD - VERSION 2.0
 WRAP.                 NO:   ONE LINE PER DEPTH STEP
~WELL INFORMATION
#MNEM.UNIT      DATA TYPE    INFORMATION
#----------   ------------   ------------------------------
 STRT.F            1.0000:   START DEPTH
 STOP.F          708.0000:   STOP DEPTH
 STEP.F            0.5000:   STEP LENGTH
 NULL.          -999.2500:   NO VALUE
 COMP. LAWRENCE/ALLISON INC:   COMPANY
 WELL. NPR 3 68-61 SX #34-34:   WELL
 FLD .             TEAPOT:   FIELD
 LOC .      S34 T39N R78W:   LOCATION
 CNTY.            NATRONA:   COUNTY
 STAT.            WYOMING:   STATE
 CTRY. UNITED STATES OF AMERICA:   COUNTRY
 SRVC.           Gearhart:   SERVICE COMPANY
 DATE.        22-SEP-1988:   LOGDATE
 API .       490251125200:   API NUMBER
~CURVE INFORMATION
#MNEM.UNIT       API CODE    CURVE DESCRIPTION
#----------   ------------   ------------------------------
 DEPT.F                  :   
 GRR .GAPI   07 310 01 00:   GAMMA RAY
 RILD.OHMM   07 120 46 00:   INDUCTION LOG DEEP RESISTIVITY
 RILM.OHMM   07 120 44 00:   INDUCTION LOG MEDIUM RESISTIVITY
~PARAMETER INFORMATION
#MNEM.UNIT          VALUE    DESCRIPTION
#----------   ------------   ------------------------------
 PD  .                 GL:   PERMANENT DATUM
 EPD .F              5067:   ELEVATION PERMANENT DATUM
 LMF .                 KB:   LOG MEASURED FROM
 DAPD.F                10:   FEET ABOVE PERMANENT DATUM
 DMF .                 KB:   DRILLING MEASURED FROM
 EKB .F              5077:   KELLING BUSHING
 EGL .F              5067:   GROUND LEVEL
 DATE.        22-SEP-1988:   RUN DATE
 RUN .                  1:   RUN NUMBER
 DD  .F               705:   DEPTH DRILLER
 DL  .F               716:   DEPTH LOGGER
 BLI .F             707.5:   BOTTOM LOG INTERVAL
 TLI .F                50:   TOP LOG INTERVAL
 CS  .IN            9.625:   CASING SIZE
 CBD .F                50:   CASING BOTTOM DRILLER
 CBL .F                50:   CASING BOTTOM LOGGER
 BS  .IN             8.75:   BIT SIZE
 BSD .F               705:   BIT SIZE AT DEPTH
 DFT .                AIR:   DRILLING FLUID TYPE
 TCS .HRS            2400:   TIME CURCULATED STOPPED
 TLAB.HRS            0251:   TIME LOGGER AT BOTTOM
 MRT .F                70:   MAXIMUM RECORDED TEMPERATURE
 LUN .               7597:   LOGGING UNIT NUMBER
 LUL .           GILLETTE:   LOGGING UNIT LOCATION
 ENGI.          HUCKFRIDT:   RECORDING ENGINEER
 WITN.             STRONG:   WITNESSED BY
 CLNT.            A2DTECH:   CLIENT CODE
 ORIG.           5" PRINT:   ORIGIN OF DATA
 UWI .       490251125200:   UNIQUE WELL ID
 DICO. A2D Technologies, Inc.:   DIGITIZING COMPANY
~OTHER INFORMATION
~A    DEPT      GRR      RILD       RILM   
# ...
  638.0000   118.9140     7.7033     7.2950
  638.5000   118.8569     7.6470     7.2421
  639.0000   116.4680     7.4348     7.1399
  639.5000   114.9452     7.2278     6.9904
  640.0000   114.0257     7.0272     6.6567
  640.5000   114.3165     6.8322     6.0799
  641.0000   114.9019     6.8295     5.6311
  641.5000   116.4493     6.8268     5.4372
  642.0000   119.3938     6.8715     5.3978
  642.5000   119.9863     7.0613     5.5096
  643.0000   119.0631     7.2571     5.7102
  643.5000   116.9370     7.5624     6.1095
  644.0000   116.3191     7.8269     6.6380
  644.5000   116.3046     8.0990     7.0147
  645.0000   115.9879     8.4398     7.2599
  645.5000   115.0653     8.7341     7.4119
  646.0000   115.3524     9.1007     7.7759
  646.5000   116.2465     9.4180     8.0485
  647.0000   117.1333     9.4807     8.4457
  647.5000   117.7221     9.6752     8.6205
  648.0000   116.1991     9.7387     8.7382
  648.5000   117.0861     9.8016     8.8645
  649.0000   119.1832     9.8668     8.9774
  649.5000   120.9786     9.8619     8.9124
  650.0000   123.6811     9.7901     8.8762
  650.5000   122.1688     9.5636     8.7212
  651.0000   118.8476     9.2520     8.4770
  651.5000   117.3363     9.1203     8.4138
  652.0000   118.5394     9.1160     8.2360
  652.5000   119.7439     9.1752     8.2317
  653.0000   120.0426     9.1075     8.2273
  653.5000   118.5307     9.1031     8.2228
  654.0000   115.8128     9.0979     8.2174
  654.5000   113.6538     9.0937     8.2130
  655.0000   115.2442     9.0894     8.2086
  655.5000   117.3116     9.0852     8.2042
  656.0000   117.0071     9.0809     8.1999
  656.5000   116.0992     9.0767     8.1387
  657.0000   116.3979     9.0004     8.0771
  657.5000   116.6974     8.7581     7.9615
  658.0000   115.7888     8.5738     7.8476
  658.5000   113.9618     8.2777     7.6817
  659.0000   111.8606     7.9366     7.3135
  659.5000   112.4610     7.5047     7.1075
  660.0000   113.6648     7.0376     6.8624
  660.5000   114.5676     6.4359     6.3106
  661.0000   113.6589     5.9604     5.7232
  661.5000   112.7510     5.4819     5.4112
  662.0000   112.4465     4.8362     4.9075
  662.5000   112.5439     3.8185     4.0665
  663.0000   115.7582     3.1870     3.3698
  663.5000   118.4702     2.9282     2.7349
  664.0000   119.9756     2.8295     2.2843
  664.5000   123.2909     2.8282     1.9713
  665.0000   126.6062     2.8269     1.9163
  665.5000   126.5974     2.9051     1.9692
  666.0000   120.6464     3.0694     2.1993
  666.5000   110.3072     3.4071     2.6696
  667.0000   106.6843     3.9085     3.0534
  667.5000   108.7930     4.5507     3.6188
  668.0000   113.6167     5.3352     4.3623
  668.5000   118.4403     6.1262     5.1146
  669.0000   119.6440     6.6547     5.7921
  669.5000   118.3962     7.0311     6.2919
  670.0000   116.9225     7.4426     6.6538
  670.5000   116.0146     7.7938     6.9738
  671.0000   115.4084     8.0093     7.1168
  671.5000   114.8022     8.0622     7.2134
  672.0000   116.0059     8.1145     7.3093
  672.5000   117.2096     8.1097     7.3564
  673.0000   118.4133     8.1059     7.3015
  673.5000   119.6171     8.0892     7.2462
  674.0000   119.3118     8.0613     7.2423
  674.5000   118.1022     8.0380     7.1884
  675.0000   117.1943     8.0343     7.1845
  675.5000   117.7955     8.0304     7.1807
  676.0000   118.3951     8.0258     7.1769
  676.5000   119.5989     8.0221     7.1233
  677.0000   118.0869     8.0183     7.1187
  677.5000   116.8774     8.0146     7.0657
  678.0000   117.1761     7.9554     6.9645
  678.5000   121.3964     7.8421     6.9608
  679.0000   120.4885     7.7834     6.9571
  679.5000   119.2790     7.7798     6.9533
  680.0000   120.5029     7.8312     6.9488
  680.5000   121.9881     7.9359     6.9943
  681.0000   123.1918     7.9322     7.0874
  681.5000   124.0939     7.9285     7.1329
  682.0000   122.8836     7.9800     7.1291
  682.5000   120.7691     8.0867     7.1750
  683.0000   118.3529     8.1968     7.2211
  683.5000   118.6516     8.2500     7.2675
  684.0000   121.9662     8.3035     7.2626
  684.5000   123.1707     8.1843     7.2086
  685.0000   121.9604     8.0604     7.1549
  685.5000   120.4492     7.7345     7.1016
  686.0000   118.9387     7.3136     7.0969
  686.5000   119.5385     7.1102     6.9469
  687.0000   120.7421     6.9124     6.8475
  687.5000   121.6943     6.8614     6.5193
  688.0000   123.1488     6.8582     6.1638
  688.5000   124.9559     6.8549     5.8278
  689.0000   126.7629     6.7566     5.4989
  689.5000   128.8716     6.7068     5.3186
  690.0000   131.5836     6.7036     5.2790
  690.5000   135.2065     6.7471     5.3136
  691.0000   137.3093     6.8382     5.3478
  691.5000   137.6080     6.9362     5.7283
  692.0000   136.3978     7.2207     6.3188
  692.5000   135.1882     7.5240     6.7585
  693.0000   131.5654     7.8401     6.9934
  693.5000  -999.2500     8.0568     7.2365
  694.0000  -999.2500     8.3372     7.5402
  694.5000  -999.2500     8.6274     7.7483
  695.0000  -999.2500     8.9358     7.9107
  695.5000  -999.2500     9.1100     8.0692
  696.0000  -999.2500     9.2983     8.1211
  696.5000  -999.2500     9.4237     8.1156
  697.0000  -999.2500     9.4849     8.1113
  697.5000  -999.2500     9.5454     8.1070
  698.0000  -999.2500     9.5407     8.1027
  698.5000  -999.2500     9.4694     8.0973
  699.0000  -999.2500     9.3346     8.0370
  699.5000  -999.2500     9.1381     8.0327
  700.0000  -999.2500     8.8225     8.0284
  700.5000  -999.2500     8.7574     8.0241
  701.0000  -999.2500     8.7533     8.0198
  701.5000  -999.2500     8.8177     8.0154
  702.0000  -999.2500     8.9912     8.0102
  702.5000  -999.2500     9.1114     8.0059
  703.0000  -999.2500     9.2354     7.9463
  703.5000  -999.2500  -999.2500     7.9420
  704.0000  -999.2500  -999.2500     7.9378
  704.5000  -999.2500  -999.2500     7.8786
  705.0000  -999.2500  -999.2500     7.8734
  705.5000  -999.2500  -999.2500     7.8692
  706.0000  -999.2500  -999.2500     7.8650
  706.5000  -999.2500  -999.2500     7.9156
  707.0000  -999.2500  -999.2500     7.9114
  707.5000  -999.2500  -999.2500     7.9070
  708.0000  -999.2500  -999.2500     7.7390
