~VERSION INFORMATION
 VERS.                2.0:   CWLS LOG ASCII STANDARD - VERSION 2.0
 WRAP.                 NO:   ONE LINE PER DEPTH STEP
~WELL INFORMATION
#MNEM.UNIT      DATA TYPE    INFORMATION
#----------   ------------   ------------------------------
 STRT.F           66.0000:   START DEPTH
 STOP.F          814.0000:   STOP DEPTH
 STEP.F            0.5000:   STEP LENGTH
 NULL.          -999.2500:   NO VALUE
 COMP.   FLUOR DANIEL INC:   COMPANY
 WELL. NAVAL PETROLEUM RESERVE 3 SX-2 #32-11-2:   WELL
 FLD .        N.P.R NO. 3:   FIELD
 LOC .       S2 T38N R78W:   LOCATION
 CNTY.            NATRONA:   COUNTY
 STAT.            WYOMING:   STATE
 CTRY. UNITED STATES OF AMERICA:   COUNTRY
 SRVC.      Dresser Atlas:   SERVICE COMPANY
 DATE.        15-AUG-1985:   LOGDATE
 API .       490251104000:   API NUMBER
~CURVE INFORMATION
#MNEM.UNIT       API CODE    CURVE DESCRIPTION
#----------   ------------   ------------------------------
 DEPT.F                  :   
 SPR .MV     07 010 01 00:   SPONTANEOUS POTENTIAL
 RILD.OHMM   07 120 46 00:   INDUCTION LOG DEEP RESISTIVITY
 RILM.OHMM   07 120 44 00:   INDUCTION LOG MEDIUM RESISTIVITY
 RFOC.OHMM   07 220 04 00:   RESISTIVITY FOCUSED LOG
 PORD.DEC    45 890 12 00:   POROSITY DENSITY SANDSTONE
 CNC .DEC    42 890 03 00:   NEUTRON POROSITY SANDSTONE
 GRD .GAPI   45 310 01 00:   GAMMA RAY FROM DENSITY LOG
 CALD.IN     45 280 60 00:   CALIPER FROM DENSITY LOG
 CORR.G/C3   45 356 01 00:   DENSITY CORRECTION
 DEN .G/C3   45 350 01 00:   COMPENSATED BULK DENSTIY
~PARAMETER INFORMATION
#MNEM.UNIT          VALUE    DESCRIPTION
#----------   ------------   ------------------------------
 PD  .                 GL:   PERMANENT DATUM
 EPD .F              5113:   ELEVATION PERMANENT DATUM
 LMF .                 GL:   LOG MEASURED FROM
 DMF .                 GL:   DRILLING MEASURED FROM
 EGL .F              5113:   GROUND LEVEL
 DATE.            8-15-85:   RUN DATE
 RUN .                  1:   RUN NUMBER
 DD  .F               817:   DEPTH DRILLER
 DL  .F               817:   DEPTH LOGGER
 BLI .F               814:   BOTTOM LOG INTERVAL
 CS  .IN            8.625:   CASING SIZE
 CBD .F                79:   CASING BOTTOM DRILLER
 CBL .F                79:   CASING BOTTOM LOGGER
 BS  .IN            7.875:   BIT SIZE
 BSD .F               817:   BIT SIZE AT DEPTH
 DFT .          KCL WATER:   DRILLING FLUID TYPE
 MSS .               TANK:   MUD SAMPLE SOURCE
 RMS .OHMM            .25:   RESISTIVITY MUD SAMPLE
 MST .F                70:   MUD SAMPLE TEMPERATURE
 BHT .F               100:   BOTTOM HOLE TEMPERATURE
 TCS .HRS               2:   TIME CURCULATED STOPPED
 MRT .F               100:   MAXIMUM RECORDED TEMPERATURE
 LUN .            HL-6274:   LOGGING UNIT NUMBER
 LUL .           GILLETTE:   LOGGING UNIT LOCATION
 ENGI.             RAUTIO:   RECORDING ENGINEER
 WITN.           JENNINGS:   WITNESSED BY
 CLNT.            A2DTECH:   CLIENT CODE
 ORIG.       2", 5" PRINT:   ORIGIN OF DATA
 UWI .       490251104000:   UNIQUE WELL ID
 DICO. A2D Technologies, Inc.:   DIGITIZING COMPANY
~OTHER INFORMATION
~A   DEPT      SPR       RILD       RILM       RFOC       PORD        CNC        GRD       CALD       CORR        DEN   
# ...
  166.5000   -28.3916     3.2096     3.2101     4.0850     0.2011     0.3979    93.8971     8.2040     0.0482     2.3844
  167.0000   -28.0875     3.2102     3.1887     3.3761     0.2104     0.3822    95.0868     8.2033     0.0759     2.3543
  167.5000   -27.7835     3.2558     3.2121     3.0948     0.1953     0.3797    95.9762     8.2026     0.0920     2.3281
  168.0000   -27.6308     3.2792     3.2579     3.0104     0.1830     0.3770    95.6616     8.2169     0.0665     2.3281
  168.5000   -27.3267     3.3029     3.2588     3.2504     0.1781     0.3599    92.3468     8.2160     0.0411     2.3492
  169.0000   -27.3202     3.2805     3.2596     3.6588     0.1799     0.3538    87.2302     8.2153     0.0292     2.3747
  169.5000   -27.0209     3.2360     3.2346     4.0336     0.1860     0.3698    85.4198     8.2146     0.0293     2.3770
  170.0000   -26.8681     3.1478     3.1283     4.1771     0.1941     0.3810    88.4084     8.2289     0.0234     2.3680
  170.5000   -26.7154     3.0408     3.0434     3.9797     0.2035     0.3855    90.1987     8.2130     0.0250     2.3530
  171.0000   -26.5627     2.8970     2.9198     3.6366     0.2183     0.3960    85.3796     8.2275     0.0536     2.3282
  171.5000   -26.4099     2.7408     2.7626     3.3000     0.2258     0.4096    85.3681     8.2266     0.0718     2.3079
  172.0000   -26.2572     2.5749     2.6115     3.1005     0.2309     0.4126    87.1584     8.2259     0.0674     2.2997
  172.5000   -26.1044     2.3857     2.4223     3.1011     0.2427     0.3959    89.2490     8.2402     0.0473     2.2819
  173.0000   -26.1026     2.2259     2.2446     3.1671     0.2544     0.3638    92.6307     8.2395     0.0210     2.2591
  173.5000   -25.9499     2.1168     2.0944     3.1242     0.2741     0.3936    98.5325     8.2386     0.0106     2.2419
  174.0000   -25.9484     2.0627     2.0516     2.9150     0.2852     0.4412   102.7252     8.2379     0.0152     2.2088
  174.5000   -26.0986     2.0921     2.0955     2.5726     0.2837     0.4289    97.9089     8.2371     0.0288     2.1976
  175.0000   -26.2481     2.1666     2.1855     2.2237     0.2632     0.3939    91.8914     8.2364     0.0304     2.2179
  175.5000   -26.3979     2.3071     2.3111     2.1782     0.2222     0.3631    87.9741     8.2357     0.0065     2.2773
  176.0000   -26.3964     2.5278     2.5657     2.6286     0.1873     0.3408    87.0617     8.2348     0.0111     2.3321
  176.5000   -26.3946     2.9240     2.9085     3.3533     0.1821     0.3252    87.9511     8.2341     0.0232     2.3682
  177.0000   -26.5448     3.2689     3.2970     4.3679     0.1860     0.3209    88.2402     8.2334     0.0324     2.3697
  177.5000   -26.6943     3.5542     3.5890     4.6832     0.1848     0.3182    90.4054     8.2326     0.0355     2.3652
  178.0000   -26.6928     3.8110     3.7910     4.3093     0.1830     0.3137    94.2201     8.2319     0.0326     2.3675
  178.5000   -26.8426     3.9193     3.9261     3.9916     0.1830     0.3158    91.8062     8.2312     0.0297     2.3682
  179.0000   -27.3000     3.8900     3.9000     3.7778     0.1842     0.3206    92.9959     8.2303     0.0268     2.3653
  179.5000   -28.0496     3.7088     3.7158     3.8050     0.1869     0.3282    95.9875     8.2448     0.0254     2.3638
  180.0000   -28.1998     3.5332     3.4672     3.9678     0.1872     0.3360    96.2763     8.2439     0.0225     2.3638
  180.5000   -28.1980     3.3660     3.2354     4.0239     0.1863     0.3399    92.3580     8.2432     0.0121     2.3638
  181.0000   -28.0453     3.2290     3.0826     3.8605     0.1860     0.3423    91.1482     8.2425     0.0089     2.3638
  181.5000   -27.8925     3.0973     2.9781     3.6513     0.1893     0.3396    95.3381     8.2566     0.0168     2.3616
  182.0000   -27.4372     2.9104     2.8771     3.5778     0.1959     0.3393    98.9302     8.2559     0.0319     2.3541
  182.5000   -27.2592     2.7726     2.7796     3.5537     0.2063     0.3586    98.0178     8.2552     0.0440     2.3361
  183.0000   -26.5262     2.6784     2.7400     3.5300     0.2194     0.3857    98.3965     8.2394     0.0473     2.3068
  183.5000   -25.1632     2.6234     2.6674     3.4339     0.2370     0.4143   103.0970     8.1935     0.0367     2.2670
  184.0000   -23.3463     2.6059     2.6313     3.2263     0.2750     0.4092   101.8844     8.1305     0.0624     2.2189
  184.5000   -21.3781     2.6064     2.6138     2.7985     0.2760     0.4074    97.6687     8.1017     0.0685     2.2159
  185.0000   -20.0151     2.6436     2.6953     2.5130     0.2624     0.4035    94.0536     8.1761     0.0536     2.2415
  185.5000   -19.1059     2.7187     3.0095     2.7134     0.2362     0.3971    89.5126     8.2206     0.0266     2.3106
  186.0000   -18.8018     2.8550     3.3237     3.2742     0.1938     0.3710    82.6163     8.2500     0.0087     2.3655
  186.5000   -20.1616     3.0612     3.6379     3.9236     0.1727     0.3398    81.7068     8.2643     0.0118     2.3870
  187.0000   -22.1269     3.3517     3.9721     4.4475     0.1633     0.3375    85.8967     8.2634     0.0164     2.4038
  187.5000   -23.0331     4.0452     4.2346     4.5738     0.1612     0.3513    90.0894     8.2627     0.0331     2.4091
  188.0000   -23.9394     4.4599     4.4731     4.5115     0.1585     0.3561    89.7776     8.2620     0.0572     2.4076
  188.5000   -24.5431     4.5548     4.6004     4.5126     0.1603     0.3471    87.6286     8.2763     0.0753     2.4076
  189.0000   -25.1518     4.6518     4.6986     4.5767     0.1615     0.3423    89.7517     8.2756     0.0647     2.4099
  189.5000   -25.7504     4.7840     4.7989     4.7067     0.1612     0.3389    93.9445     8.2748     0.0440     2.4189
  190.0000   -26.5051     4.9913     4.9355     4.8404     0.1554     0.3356    96.3382     8.2892     0.0306     2.4280
  190.5000   -27.5626     5.3497     5.2559     5.0902     0.1434     0.3218    90.6182     8.2733     0.0262     2.4340
  191.0000   -28.6201     5.6177     5.5579     5.4880     0.1419     0.3080    88.1942     8.2725     0.0323     2.4347
  191.5000   -29.3751     5.8584     5.7962     5.8030     0.1431     0.2937    89.0908     8.2568     0.0429     2.4363
  192.0000   -29.9788     6.0669     6.0446     6.0936     0.1428     0.2901    89.9831     8.2560     0.0393     2.4402
  192.5000   -30.6077     6.2829     6.2167     6.3104     0.1389     0.2985    88.7676     8.2551     0.0116     2.4446
  193.0000   -31.4884     6.4233     6.3982     6.4446     0.1374     0.3144    90.2576     8.2544    -0.0003     2.4431
  193.5000   -32.0921     6.5082     6.4854     6.4909     0.1401     0.3281    92.0480     8.2537    -0.0138     2.4408
  194.0000   -32.2423     6.4644     6.4417     6.4925     0.1413     0.3238    88.9530     8.2530    -0.0169     2.4416
  194.5000   -32.3921     6.4209     6.4439     6.4938     0.1398     0.2937    88.1210     8.2523    -0.0074     2.4461
  195.0000   -32.3903     6.4221     6.4456     6.4498     0.1389     0.2862    92.0106     8.2664     0.0136     2.4409
  195.5000   -32.3888     6.4234     6.4026     6.4964     0.1419     0.2880    95.3024     8.2657     0.0212     2.4364
  196.0000   -32.0847     6.3802     6.3604     6.4527     0.1471     0.2952    96.1922     8.2650     0.0364     2.4311
  196.5000   -31.7804     6.3372     6.3621     6.4540     0.1501     0.3253    94.3483     8.2643     0.0500     2.4274
  197.0000   -31.4763     6.2512     6.2759     6.4105     0.1516     0.3311    93.1658     8.2635     0.0591     2.4274
  197.5000   -31.1723     6.2091     6.2341     6.4121     0.1504     0.3285    97.6560     8.2628     0.0458     2.4298
  198.0000   -30.8683     6.1673     6.1926     6.3246     0.1474     0.3238    99.4463     8.2619     0.0173     2.4335
  198.5000   -30.5643     6.0833     6.1087     6.2388     0.1419     0.3217    95.5309     8.2612     0.0249     2.4372
  199.0000   -30.4115     6.0423     6.0680     6.1539     0.1382     0.3205    94.5986     8.2605     0.0505     2.4432
  199.5000   -30.1071     6.0016     6.0275     6.0634     0.1350     0.3196    96.7988     8.2598     0.0656     2.4478
