~VERSION INFORMATION
 VERS.                2.0:   CWLS LOG ASCII STANDARD - VERSION 2.0
 WRAP.                 NO:   ONE LINE PER DEPTH STEP
~WELL INFORMATION
#MNEM.UNIT      DATA TYPE    INFORMATION
#----------   ------------   ------------------------------
 STRT.F           36.0000:   START DEPTH
 STOP.F          518.0000:   STOP DEPTH
 STEP.F            0.5000:   STEP LENGTH
 NULL.          -999.2500:   NO VALUE
 COMP.    FENIX & SCISSON:   COMPANY
 WELL.        NPR #57S-10:   WELL
 FLD .             TEAPOT:   FIELD
 LOC .      S10 T38N R78W:   LOCATION
 CNTY.            NATRONA:   COUNTY
 STAT.            WYOMING:   STATE
 CTRY. UNITED STATES OF AMERICA:   COUNTRY
 SRVC.              Welex:   SERVICE COMPANY
 DATE.        11-MAR-1977:   LOGDATE
 API .       490251029100:   API NUMBER
~CURVE INFORMATION
#MNEM.UNIT       API CODE    CURVE DESCRIPTION
#----------   ------------   ------------------------------
 DEPT.F                  :   
 SPR .MV     07 010 01 00:   SPONTANEOUS POTENTIAL
 ILD .OHMM   07 120 46 00:   INDUCTION LOG DEEP
 ILM .OHMM   07 120 44 00:   INDUCTION LOG MEDIUM
 SGUR.OHMM   07 220 01 00:   SHORT GUARD RESISITIVITY
 CORR.G/C3   45 356 01 00:   DENSITY CORRECTION
 CALD.IN     45 280 60 00:   CALIPER
 GRD .GAPI   45 310 01 00:   GAMMA RAY FROM DENSITY LOG
 RHOB.G/C3   45 350 01 00:   BULK DENSITY
 DPOR.DEC    45 890 12 00:   DENSITY POROSITY SANDSTONE
~PARAMETER INFORMATION
#MNEM.UNIT          VALUE    DESCRIPTION
#----------   ------------   ------------------------------
 PD  .                 GL:   PERMANENT DATUM
 EPD .F              5244:   ELEVATION PERMANENT DATUM
 LMF .                 GL:   LOG MEASURED FROM
 DMF .                 GL:   DRILLING MEASURED FROM
 EGL .F              5244:   GROUND LEVEL
 DATE.          3-11-1977:   RUN DATE
 RUN .                  1:   RUN NUMBER
 DD  .F               530:   DEPTH DRILLER
 DL  .F               522:   DEPTH LOGGER
 BLI .F               520:   BOTTOM LOG INTERVAL
 TLI .F                35:   TOP LOG INTERVAL
 CS  .IN            8.625:   CASING SIZE
 CBD .F                40:   CASING BOTTOM DRILLER
 CBL .F                44:   CASING BOTTOM LOGGER
 BS  .IN            7.875:   BIT SIZE
 BSD .F               530:   BIT SIZE AT DEPTH
 DFT .            KCL MUD:   DRILLING FLUID TYPE
 DFD .                8.8:   DRILLING FLUID DENSITY
 DFV .                  8:   DRILLING FLUID VISCOSITY
 DFPH.                 10:   DRILLING FLUID PH
 DFL .               12.4:   DRILLING FLUID LOSS
 MSS .           FLOWLINE:   MUD SAMPLE SOURCE
 RMS .OHMM           .398:   RESISTIVITY MUD SAMPLE
 MST .F                50:   MUD SAMPLE TEMPERATURE
 RMF .OHMM           .276:   RESISTIVITY MUD FILTRATE SAMPLE
 MFST.F                60:   MUD FILTRATE SAMPLE TEMPERATURE
 RMC .OHMM            .42:   RESISTIVITY MUD CAKE
 MCST.F                60:   MUD CAKE SAMPLE TEMPERATURE
 MFSS.           MEASURED:   MUD FILTRATE SAMPLE SOURCE
 RMB .OHMM            .31:   RESISTIVITY MUD AT BHT
 BHT .F                64:   BOTTOM HOLE TEMPERATURE
 TCS .HRS             2.5:   TIME CURCULATED STOPPED
 MRT .F                64:   MAXIMUM RECORDED TEMPERATURE
 LUN .               8611:   LOGGING UNIT NUMBER
 LUL .           GILLETTE:   LOGGING UNIT LOCATION
 ENGI.               DOAK:   RECORDING ENGINEER
 WITN.         STUEBINGER:   WITNESSED BY
 CLNT.            A2DTECH:   CLIENT CODE
 ORIG.      2" & 5" PRINT:   ORIGIN OF DATA
 UWI .       490251029100:   UNIQUE WELL ID
 DICO. A2D Technologies, Inc.:   DIGITIZING COMPANY
~OTHER INFORMATION
~A   DEPT      SPR        ILD        ILM       SGUR        CORR        CALD      GRD       RHOB       DPOR   
# ...
  109.0000   -41.6802     7.0882     9.8206    10.8133     0.0353     8.0394   121.9310     2.4699     0.1054
  109.5000   -41.1597     7.0450     9.7307    10.6486     0.0375     8.0302   124.0872     2.4743     0.1040
  110.0000   -40.7335     7.0019     9.6649    10.5713     0.0398     8.0216   119.4676     2.4786     0.1010
  110.5000   -40.5950     6.9591     9.6537    10.5311     0.0421     8.0129   121.9625     2.4830     0.0979
  111.0000   -40.4531     6.9166     9.6426    10.4908     0.0439     8.0042   123.9112     2.4875     0.0954
  111.5000   -40.3085     6.8827     9.6316    10.4507     0.0431     7.9955   121.8929     2.4877     0.0950
  112.0000   -40.1576     6.9384     9.6205    10.4107     0.0424     7.9868   120.6202     2.4826     0.0974
  112.5000   -40.0071     6.9934     9.6095    10.6097     0.0417     7.9781   123.9017     2.4764     0.0997
  113.0000   -39.8564     7.0487     9.5985    10.8400     0.0410     7.9695   123.7940     2.4719     0.1021
  113.5000   -39.7058     7.1045     9.5874    11.0752     0.0403     7.9619   123.4404     2.4706     0.1038
  114.0000   -39.5551     7.1608     9.5808    10.8217     0.0396     7.9621   122.5686     2.4705     0.1038
  114.5000   -39.4044     7.2175     9.6989    10.9918     0.0389     7.9622   120.8980     2.4705     0.1038
  115.0000   -39.2527     7.2823     9.7917    11.2763     0.0382     7.9622   119.1333     2.4735     0.1026
  115.5000   -39.0996     7.4176     9.8853    10.9974     0.0399     7.9622   117.6025     2.4803     0.1006
  116.0000   -39.0054     7.5553     9.9799    11.3443     0.0430     7.9622   118.7338     2.4934     0.0938
  116.5000   -39.5273     7.6889    10.0753    11.6002     0.0459     7.9622   121.3421     2.5038     0.0862
  117.0000   -40.0542     7.7629    10.1187    11.4307     0.0460     7.9622   120.1610     2.5024     0.0866
  117.5000   -40.5865     7.8377    10.0538    12.5670     0.0461     7.9622   119.0669     2.4917     0.0936
  118.0000   -40.6076     7.9131    10.0076    11.4360     0.0463     7.9622   118.2662     2.4813     0.0990
  118.5000   -40.3565     7.9894     9.9617    11.3289     0.0464     7.9621   119.7833     2.4831     0.0978
  119.0000   -40.0993     8.0370     9.9160    11.6707     0.0465     7.9557   124.1006     2.4887     0.0949
  119.5000   -39.8412     7.9634     9.8704    11.9226     0.0466     7.9379   128.3766     2.4887     0.0934
  120.0000   -39.5856     7.9029     9.8475    11.6331     0.0467     7.9203   130.2717     2.4832     0.0994
  120.5000   -39.4153     7.7425     9.9463    11.2941     0.0468     7.9027   126.3333     2.4958     0.0941
  121.0000   -39.6062     7.5745    10.0229    11.0155     0.0469     7.8851   123.5913     2.4928     0.0930
  121.5000   -39.7894     7.4104    10.1001    11.1980     0.0470     7.8675   125.0039     2.4858     0.0959
  122.0000   -39.9719     7.2068    10.1779    11.3835     0.0472     7.8499   122.7027     2.4770     0.0989
  122.5000   -40.1543     7.2333    10.2562    11.5000     0.0473     7.8322   116.5717     2.4759     0.1018
  123.0000   -40.3367     7.2778    10.3351    11.3201     0.0474     7.8145   114.1823     2.4811     0.0986
  123.5000   -40.5191     7.3316    10.4143    11.1137     0.0475     7.7971   111.6291     2.4802     0.1009
  124.0000   -40.7015     7.2838    10.4902    11.2157     0.0476     7.7897   110.1842     2.4770     0.1011
  124.5000   -40.8777     7.2097    10.5667    11.4527     0.0477     7.8305   112.6036     2.4796     0.0988
  125.0000   -41.0499     7.1364    10.6437    11.6070     0.0478     7.8706   113.5439     2.4830     0.0965
  125.5000   -41.2223     7.0782    10.7614    11.4336     0.0476     7.9106   111.8541     2.4866     0.0950
  126.0000   -41.3954     7.4381    10.9757    11.3201     0.0465     7.9502   112.6525     2.4858     0.0966
  126.5000   -41.5632     7.7882    11.1943    11.4698     0.0454     7.9824   113.6420     2.4825     0.1002
  127.0000   -41.5737     7.9603    11.4172    12.0851     0.0444     7.9773   114.6497     2.4808     0.0987
  127.5000   -41.5454     8.0524    11.6445    12.8644     0.0433     7.9731   115.6899     2.4811     0.0961
  128.0000   -40.7492     8.1455    11.8764    12.9138     0.0422     7.9692   117.3118     2.4813     0.0998
  128.5000   -39.9136     8.2838    12.1129    12.9634     0.0421     7.9651   120.9742     2.4898     0.0922
  129.0000   -39.0800     8.4692    12.2812    13.1184     0.0423     7.9611   122.1932     2.5008     0.0935
  129.5000   -38.2438     8.6589    12.1575    13.3211     0.0425     7.9570   122.2354     2.5020     0.0940
  130.0000   -37.4264     8.8528    12.0462    13.5768     0.0427     7.9530   121.0478     2.4913     0.0891
  130.5000   -37.2538     9.0512    11.9359    13.5021     0.0429     7.9490   118.7230     2.5036     0.0842
  131.0000   -37.4991     9.2675    11.8370    13.3784     0.0431     7.9450   115.0796     2.5105     0.0821
  131.5000   -38.0064     9.6150    11.8370    13.3415     0.0433     7.9409   110.6690     2.5064     0.0848
  132.0000   -38.5164     9.9754    11.8369    13.9397     0.0435     7.9369   108.9140     2.4975     0.0884
  132.5000   -39.0268    10.3193    12.0684    14.4180     0.0437     7.9328   112.7279     2.4884     0.0919
  133.0000   -39.5376    10.3987    12.2015    14.7782     0.0439     7.9288   111.0292     2.4899     0.0946
  133.5000   -40.0513    10.4788    12.2483    14.8306     0.0442     7.9248   108.8393     2.4943     0.0947
  134.0000   -40.5540    10.6659    12.4832    14.8813     0.0444     7.9208   107.6835     2.4987     0.0907
  134.5000   -40.4911    10.9032    13.1807    15.6938     0.0446     7.9167   108.3376     2.4995     0.0901
  135.0000   -40.3963    11.1458    13.8075    17.9975     0.0448     7.9127   110.5724     2.4932     0.0930
  135.5000   -40.3037    11.3937    13.4696    17.4649     0.0450     7.9087   112.5916     2.4859     0.0959
  136.0000   -40.2120    11.5961    13.1400    16.3000     0.0452     7.9047   112.0471     2.4786     0.0988
  136.5000   -40.1203    11.3108    12.9895    15.3092     0.0453     7.9029   111.5168     2.4775     0.1002
  137.0000   -40.0287    11.0354    13.1473    15.2516     0.0450     7.9042   111.9294     2.4789     0.1002
  137.5000   -39.9370    10.7668    13.2612    15.1932     0.0468     7.9054   112.4715     2.4802     0.0984
  138.0000   -39.8454    10.5046    13.3339    14.6274     0.0311     7.9066   113.1007     2.4815     0.0982
  138.5000   -39.7541    10.2489    13.2269    14.7535     0.0447     7.9079   110.3320     2.4766     0.1010
  139.0000   -39.6624    10.0854    13.2727    14.9356     0.0435     7.9091   111.8974     2.4718     0.1039
  139.5000   -39.5362     9.9596    13.3723    15.1571     0.0422     7.9103   113.2039     2.4670     0.1068
  140.0000   -39.2072     9.8354    13.6834    14.9991     0.0412     7.9116   110.0895     2.4621     0.1098
  140.5000   -38.8765     9.7128    13.9777    14.7502     0.0402     7.9128   108.0037     2.4573     0.1127
  141.0000   -38.5463     9.5845    14.0907    14.5156     0.0391     7.9140   109.6854     2.4528     0.1150
  141.5000   -38.2163     9.6236    13.8905    14.2947     0.0380     7.9152   111.9714     2.4490     0.1131
  142.0000   -37.8860     9.6730    13.4831    14.0772     0.0397     7.9165   112.3609     2.4592     0.1109
  142.5000   -37.5557     9.7228    13.0876    13.8630     0.0419     7.9177   106.2884     2.4660     0.1087
  143.0000   -37.2298     9.7725    12.7416    13.6002     0.0440     7.9190   106.0269     2.4723     0.1065
  143.5000   -37.0001     9.8427    12.7416    13.6657     0.0462     7.9202   106.7668     2.4681     0.1079
  144.0000   -37.0049     9.8026    12.7416    13.7754     0.0483     7.9214   105.6441     2.4637     0.1099
  144.5000   -37.0048     9.7128    12.7416    13.8861     0.0498     7.9226   106.1500     2.4594     0.1119
  145.0000   -37.0018     9.6238    12.7416    13.9976     0.0489     7.9239   107.3920     2.4551     0.1138
