~VERSION INFORMATION
 VERS.                2.0:   CWLS LOG ASCII STANDARD - VERSION 2.0
 WRAP.                 NO:   ONE LINE PER DEPTH STEP
~WELL INFORMATION
#MNEM.UNIT      DATA TYPE    INFORMATION
#----------   ------------   ------------------------------
 STRT.F            4.0000:   START DEPTH
 STOP.F         1997.5000:   STOP DEPTH
 STEP.F            0.5000:   STEP LENGTH
 NULL.          -999.2500:   NO VALUE
 COMP. LAWRENCE/ALLISON INC:   COMPANY
 WELL. NPR 3 66 SX #32-11:   WELL
 FLD .             TEAPOT:   FIELD
 LOC .      S11 T38N R78W:   LOCATION
 CNTY.            NATRONA:   COUNTY
 STAT.            WYOMING:   STATE
 CTRY. UNITED STATES OF AMERICA:   COUNTRY
 SRVC.      NL McCullough:   SERVICE COMPANY
 DATE.        16-SEP-1988:   LOGDATE
 API .       490251108600:   API NUMBER
~CURVE INFORMATION
#MNEM.UNIT       API CODE    CURVE DESCRIPTION
#----------   ------------   ------------------------------
 DEPT.F                  :   
 ROP .MIN/FT 91 810 01 00:   RATE OF DRILLING PENETRATION
 GR  .GAPI   81 310 01 00:   GAMMA RAY FROM CEMENT BOND LOG
 TGAS.UNITS  91 830 01 00:   TOTAL GAS FROM HOTWIRE
~PARAMETER INFORMATION
#MNEM.UNIT          VALUE    DESCRIPTION
#----------   ------------   ------------------------------
 PD  .                 GL:   PERMANENT DATUM
 EPD .F              5170:   ELEVATION PERMANENT DATUM
 LMF .                 KB:   LOG MEASURED FROM
 DMF .                 KB:   DRILLING MEASURED FROM
 EKB .F              5170:   KELLING BUSHING
 EGL .F              5170:   GROUND LEVEL
 DATE.        16-SEP-1988:   RUN DATE
 RUN .                  1:   RUN NUMBER
 DD  .F               837:   DEPTH DRILLER
 DL  .F               737:   DEPTH LOGGER
 BLI .F               733:   BOTTOM LOG INTERVAL
 CS  .IN              5.5:   CASING SIZE
 CBD .F               836:   CASING BOTTOM DRILLER
 BSD .F               837:   BIT SIZE AT DEPTH
 DFT .              WATER:   DRILLING FLUID TYPE
 TCS .HRS             1.5:   TIME CURCULATED STOPPED
 ENGI.          BANGERTER:   RECORDING ENGINEER
 WITN.               LOWE:   WITNESSED BY
 CLNT.            A2DTECH:   CLIENT CODE
 ORIG.           5" PRINT:   ORIGIN OF DATA
 UWI .       490251108600:   UNIQUE WELL ID
 DICO. A2D Technologies, Inc.:   DIGITIZING COMPANY
~OTHER INFORMATION
~A    DEPT     ROP          GR      TGAS   
# ...
 1642.0000     0.2749  -999.2500     7.5276
 1642.5000     0.2748  -999.2500     7.7247
 1643.0000     0.2747  -999.2500     7.6883
 1643.5000     0.2746  -999.2500     7.6580
 1644.0000     0.2745  -999.2500     8.6645
 1644.5000     0.2744  -999.2500     8.6341
 1645.0000     0.2743  -999.2500    10.6774
 1645.5000     0.2742  -999.2500    10.6471
 1646.0000     0.2741  -999.2500     9.5798
 1646.5000     0.2740  -999.2500     8.5126
 1647.0000     0.2739  -999.2500     8.4590
 1647.5000     0.2738  -999.2500     7.4136
 1648.0000     0.2737  -999.2500     7.3825
 1648.5000     0.2736  -999.2500     7.3514
 1649.0000     0.2735  -999.2500     7.3203
 1649.5000     0.2734  -999.2500     7.2892
 1650.0000     0.2733  -999.2500     7.2581
 1650.5000     0.2731  -999.2500     7.2270
 1651.0000     0.2729  -999.2500     7.1959
 1651.5000     0.2727  -999.2500     7.1647
 1652.0000     0.2725  -999.2500     7.1336
 1652.5000     0.2723  -999.2500     7.1025
 1653.0000     0.2721  -999.2500     7.0714
 1653.5000     0.2719  -999.2500     7.0403
 1654.0000     0.2717  -999.2500     7.0092
 1654.5000     0.2715  -999.2500     6.9781
 1655.0000     0.2713  -999.2500     6.9470
 1655.5000     0.2711  -999.2500     6.9159
 1656.0000     0.2709  -999.2500     6.8848
 1656.5000     0.2707  -999.2500     9.5395
 1657.0000     0.2705  -999.2500    14.4526
 1657.5000     0.2703  -999.2500    16.1233
 1658.0000     0.2701  -999.2500    15.3457
 1658.5000     0.2698  -999.2500    11.9377
 1659.0000     0.2696  -999.2500     9.2525
 1659.5000     0.2694  -999.2500     9.5624
 1660.0000     0.2692  -999.2500     9.7465
 1660.5000     0.2690  -999.2500     9.7106
 1661.0000     0.2688  -999.2500     8.6434
 1661.5000     0.2686  -999.2500     8.6743
 1662.0000     0.2684  -999.2500     8.7100
 1662.5000     0.2682  -999.2500     8.7457
 1663.0000     0.2680  -999.2500     8.7813
 1663.5000     0.2678  -999.2500     8.8170
 1664.0000     0.2676  -999.2500     8.8527
 1664.5000     0.2674  -999.2500     8.8883
 1665.0000     0.2672  -999.2500     8.9240
 1665.5000     0.2670  -999.2500     8.9597
 1666.0000     0.2668  -999.2500     8.9953
 1666.5000     0.2666  -999.2500     9.0310
 1667.0000     0.2664  -999.2500     9.0667
 1667.5000     0.2662  -999.2500     9.1023
 1668.0000     0.2660  -999.2500     9.1380
 1668.5000     0.2658  -999.2500     9.1737
 1669.0000     0.2656  -999.2500     9.2093
 1669.5000     0.2654  -999.2500     9.2450
 1670.0000     0.2652  -999.2500     9.2807
 1670.5000     0.2650  -999.2500     9.3163
 1671.0000     0.2648  -999.2500     9.3520
 1671.5000     0.2646  -999.2500     9.3877
 1672.0000     0.2644  -999.2500     9.4233
 1672.5000     0.2642  -999.2500     9.4590
 1673.0000     0.2640  -999.2500     9.4947
 1673.5000     0.2638  -999.2500     9.5304
 1674.0000     0.2636  -999.2500     9.5660
 1674.5000     0.2634  -999.2500     9.6017
 1675.0000     0.2632  -999.2500     9.6374
 1675.5000     0.2630  -999.2500     9.6730
 1676.0000     0.2628  -999.2500     9.7087
 1676.5000     0.2626  -999.2500     9.7511
 1677.0000     0.2624  -999.2500    11.7947
 1677.5000     0.2622  -999.2500    13.8383
 1678.0000     0.2620  -999.2500    16.9187
 1678.5000     0.2618  -999.2500    15.8518
 1679.0000     0.2616  -999.2500    13.7479
 1679.5000     0.2614  -999.2500    13.7167
 1680.0000     0.2612  -999.2500    12.6498
 1680.5000     0.2610  -999.2500    12.6187
 1681.0000     0.2608  -999.2500    12.5876
 1681.5000     0.2606  -999.2500    12.5565
 1682.0000     0.2604  -999.2500    12.3560
 1682.5000     0.2602  -999.2500    11.2543
 1683.0000     0.2600  -999.2500    10.1526
 1683.5000     0.2598  -999.2500     9.0510
 1684.0000     0.2596  -999.2500     8.2535
 1684.5000     0.2594  -999.2500     8.2224
 1685.0000     0.2592  -999.2500     8.1912
 1685.5000     0.2590  -999.2500     8.1601
 1686.0000     0.2588  -999.2500     8.5680
 1686.5000     0.2585  -999.2500     9.1348
 1687.0000     0.2583  -999.2500     9.6101
 1687.5000     0.2581  -999.2500    10.1094
 1688.0000     0.2579  -999.2500    10.0783
 1688.5000     0.2577  -999.2500     9.4398
 1689.0000     0.2575  -999.2500     8.3381
 1689.5000     0.2573  -999.2500     7.9113
 1690.0000     0.2571  -999.2500     8.5886
 1690.5000     0.2569  -999.2500     8.8859
 1691.0000     0.2567  -999.2500     8.8548
 1691.5000     0.2565  -999.2500     8.8237
 1692.0000     0.2563  -999.2500     9.8239
 1692.5000     0.2561  -999.2500    11.8675
 1693.0000     0.2559  -999.2500    12.8742
 1693.5000     0.2557  -999.2500    12.8441
 1694.0000     0.2555  -999.2500    13.8508
 1694.5000     0.2553  -999.2500    13.8207
 1695.0000     0.2551  -999.2500    13.7903
 1695.5000     0.2549  -999.2500    13.7604
 1696.0000     0.2547  -999.2500    14.8410
 1696.5000     0.2545  -999.2500    16.2098
 1697.0000     0.2543  -999.2500    20.6046
 1697.5000     0.2541  -999.2500    25.5718
 1698.0000     0.2539  -999.2500    28.1259
 1698.5000     0.2537  -999.2500    19.8529
 1699.0000     0.2535  -999.2500    15.8172
 1699.5000     0.2533  -999.2500    13.1986
 1700.0000     0.2531  -999.2500    12.3971
 1700.5000     0.2533  -999.2500    12.2258
 1701.0000     0.2535  -999.2500    12.0544
 1701.5000     0.2537  -999.2500    11.8830
 1702.0000     0.2539  -999.2500    11.7116
 1702.5000     0.2541  -999.2500    11.5403
 1703.0000     0.2543  -999.2500    11.3689
 1703.5000     0.2545  -999.2500    11.1975
 1704.0000     0.2547  -999.2500    11.0262
 1704.5000     0.2549  -999.2500    10.8548
 1705.0000     0.2551  -999.2500    10.6834
 1705.5000     0.2553  -999.2500    10.5120
 1706.0000     0.2555  -999.2500    10.3407
 1706.5000     0.2557  -999.2500    10.1693
 1707.0000     0.2559  -999.2500     9.9979
 1707.5000     0.2562  -999.2500     9.8266
 1708.0000     0.2564  -999.2500     9.6552
 1708.5000     0.2566  -999.2500     9.4838
 1709.0000     0.2568  -999.2500     9.3124
 1709.5000     0.2570  -999.2500     9.1411
 1710.0000     0.2572  -999.2500     8.9697
 1710.5000     0.2574  -999.2500     8.7983
 1711.0000     0.2576  -999.2500     8.6270
 1711.5000     0.2578  -999.2500     8.4556
 1712.0000     0.2580  -999.2500     8.2842
 1712.5000     0.2582  -999.2500     8.1128
 1713.0000     0.2584  -999.2500     7.9415
 1713.5000     0.2586  -999.2500     7.7701
 1714.0000     0.2588  -999.2500     7.5987
 1714.5000     0.2590  -999.2500     7.4274
 1715.0000     0.2592  -999.2500     7.2560
 1715.5000     0.2594  -999.2500     7.0846
 1716.0000     0.2596  -999.2500     6.9132
 1716.5000     0.2598  -999.2500     6.7419
 1717.0000     0.2600  -999.2500     6.5705
 1717.5000     0.2602  -999.2500     6.3991
 1718.0000     0.2604  -999.2500     9.3178
 1718.5000     0.2606  -999.2500    15.2163
 1719.0000     0.2608  -999.2500    14.4593
 1719.5000     0.2610  -999.2500    11.7692
 1720.0000     0.2612  -999.2500    10.7924
 1720.5000     0.2614  -999.2500     9.8156
 1721.0000     0.2616  -999.2500     9.8355
 1721.5000     0.2618  -999.2500     9.8578
 1722.0000     0.2620  -999.2500     9.8801
 1722.5000     0.2622  -999.2500     9.9024
 1723.0000     0.2624  -999.2500     9.9247
 1723.5000     0.2626  -999.2500     9.9470
 1724.0000     0.2628  -999.2500     9.9693
 1724.5000     0.2630  -999.2500     9.9916
 1725.0000     0.2632  -999.2500    10.0139
 1725.5000     0.2634  -999.2500    10.0363
 1726.0000     0.2636  -999.2500    10.0586
 1726.5000     0.2638  -999.2500    10.0809
 1727.0000     0.2640  -999.2500    10.1032
 1727.5000     0.2642  -999.2500    10.1255
 1728.0000     0.2644  -999.2500    10.1478
 1728.5000     0.2646  -999.2500    10.1701
 1729.0000     0.2648  -999.2500    10.1924
 1729.5000     0.2650  -999.2500    10.2147
 1730.0000     0.2652  -999.2500    10.2371
 1730.5000     0.2654  -999.2500    10.2594
 1731.0000     0.2656  -999.2500    10.2817
 1731.5000     0.2658  -999.2500    10.3040
 1732.0000     0.2660  -999.2500    10.3263
 1732.5000     0.2662  -999.2500    10.3486
