~VERSION INFORMATION
 VERS.                2.0:   CWLS LOG ASCII STANDARD - VERSION 2.0
 WRAP.                 NO:   ONE LINE PER DEPTH STEP
~WELL INFORMATION
#MNEM.UNIT      DATA TYPE    INFORMATION
#----------   ------------   ------------------------------
 STRT.F           60.0000:   START DEPTH
 STOP.F          748.0000:   STOP DEPTH
 STEP.F            0.5000:   STEP LENGTH
 NULL.          -999.2500:   NO VALUE
 COMP.               NAVY:   COMPANY
 WELL.        S-11 #31-11:   WELL
 FLD .             TEAPOT:   FIELD
 LOC .      S11 T38N R78W:   LOCATION
 CNTY.            NATRONA:   COUNTY
 STAT.            WYOMING:   STATE
 CTRY. UNITED STATES OF AMERICA:   COUNTRY
 SRVC.      NL McCullough:   SERVICE COMPANY
 DATE.        10-AUG-1961:   LOGDATE
 API .       490250637600:   API NUMBER
~CURVE INFORMATION
#MNEM.UNIT       API CODE    CURVE DESCRIPTION
#----------   ------------   ------------------------------
 DEPT.F                  :   
 GRN .GAPI   35 310 01 00:   GAMMA RAY
 NEUT.NAPI   35 330 01 00:   NEUTRON
~PARAMETER INFORMATION
#MNEM.UNIT          VALUE    DESCRIPTION
#----------   ------------   ------------------------------
 PD  .                 GL:   PERMANENT DATUM
 EPD .F              5157:   ELEVATION PERMANENT DATUM
 LMF .                 KB:   LOG MEASURED FROM
 DAPD.F                56:   FEET ABOVE PERMANENT DATUM
 DMF .                 KB:   DRILLING MEASURED FROM
 EKB .F              5162:   KELLING BUSHING
 EGL .F              5157:   GROUND LEVEL
 DATE.        10-AUG-1961:   RUN DATE
 RUN .                  1:   RUN NUMBER
 DD  .F               760:   DEPTH DRILLER
 DL  .F               749:   DEPTH LOGGER
 BLI .F               748:   BOTTOM LOG INTERVAL
 TLI .F                60:   TOP LOG INTERVAL
 BS  .IN            7.875:   BIT SIZE
 BSD .F               760:   BIT SIZE AT DEPTH
 DFT .       OIL EMULSION:   DRILLING FLUID TYPE
 DFD .                9.5:   DRILLING FLUID DENSITY
 TCS .HRS            0130:   TIME CURCULATED STOPPED
 ENGI.            JACKSON:   RECORDING ENGINEER
 WITN.          JORGENSEN:   WITNESSED BY
 CLNT.            A2DTECH:   CLIENT CODE
 ORIG.       2", 5" PRINT:   ORIGIN OF DATA
 UWI .       490250637600:   UNIQUE WELL ID
 DICO. A2D Technologies, Inc.:   DIGITIZING COMPANY
~OTHER INFORMATION
~A   DEPT        GRN     NEUT   
# ...
  667.5000     4.9446   665.1685
  668.0000     4.7316   665.6613
  668.5000     4.2456   680.7932
  669.0000     4.1843   689.9643
  669.5000     4.1590   703.2830
  670.0000     4.0764   714.5475
  670.5000     4.0535   700.1774
  671.0000     4.1573   718.9515
  671.5000     4.4238   725.6815
  672.0000     4.1274   694.7325
  672.5000     4.2330   712.0126
  673.0000     4.2781   735.3214
  673.5000     4.2547   729.9941
  674.0000     4.3298   706.5809
  674.5000     4.4278   702.7607
  675.0000     4.4879   686.1428
  675.5000     4.5026   732.7995
  676.0000     4.4944   696.5754
  676.5000     4.5014   693.5219
  677.0000     4.4476   721.3391
  677.5000     4.4320   716.7654
  678.0000     4.9925   727.6174
  678.5000     4.7568   742.2827
  679.0000     4.7515   718.8694
  679.5000     4.8769   705.2324
  680.0000     4.9674   693.8969
  680.5000     4.9668   693.6024
  681.0000     4.8668   683.1297
  681.5000     4.6953   686.4830
  682.0000     4.5857   649.9673
  682.5000     4.7872   662.7260
  683.0000     4.9105   691.3097
  683.5000     5.0009   719.8935
  684.0000     4.8183   716.0734
  684.5000     4.6205   713.7735
  685.0000     4.5364   715.9819
  685.5000     4.6498   691.8022
  686.0000     4.5961   666.1282
  686.5000     4.6863   638.9471
  687.0000     4.7011   650.9652
  687.5000     4.7081   681.0432
  688.0000     4.7150   665.9324
  688.5000     4.8281   674.9231
  689.0000     4.9412   691.4366
  689.5000     4.9636   696.6616
  690.0000     4.9554   658.1746
  690.5000     5.0002   637.0222
  691.0000     4.9161   649.0272
  691.5000     4.8245   673.0895
  692.0000     4.8628   666.2550
  692.5000     4.9086   674.4922
  693.0000     5.4336   658.6148
  693.5000     5.5450   676.6485
  694.0000     5.8780   676.4531
  694.5000     5.6419   664.4737
  695.0000     5.5483   674.2180
  695.5000     5.6691   720.8878
  696.0000     5.8429   732.8928
  696.5000     5.7892   731.3334
  697.0000     5.6293   741.8312
  697.5000     5.4922   725.2003
  698.0000     5.4233   698.7728
  698.5000     5.5062   709.2706
  699.0000     5.3842   731.8258
  699.5000     5.2776   752.8868
  700.0000     5.3376   722.8976
  700.5000     4.9957   710.1918
  701.0000     5.1090   688.9114
  701.5000     5.2906   648.3050
  702.0000     5.4646   664.4782
  702.5000     5.5551   677.9868
  703.0000     5.7443   724.6639
  703.5000     5.8000   713.3155
  704.0000     5.9103   680.1133
  704.5000     5.6140   689.1115
  705.0000     5.8637   706.3990
  705.5000     5.9542   707.8727
  706.0000     6.0677   655.8198
  706.5000     5.9609   606.0388
  707.0000     6.1197   562.2865
  707.5000     6.2103   566.0096
  708.0000     6.1036   589.3370
  708.5000     6.2852   575.7167
  709.0000     6.5806   544.7715
  709.5000     6.9669   514.5836
  710.0000     7.3912   461.7883
  710.5000     7.5728   433.1075
  711.0000     7.6786   413.4809
  711.5000     7.6098   474.4650
  712.0000     6.1908   561.8354
  712.5000     5.9628   618.3091
  713.0000     5.9016   668.0007
  713.5000     5.7798   685.2883
  714.0000     5.6276   663.3898
  714.5000     5.7865   668.0404
  715.0000     5.8694   648.2287
  715.5000     5.8917   641.3719
  716.0000     6.0354   625.0492
  716.5000     6.1108   604.9937
  717.0000     6.1710   597.0318
  717.5000     6.2615   577.1686
  718.0000     6.2994   608.0095
  718.5000     6.2226   620.7756
  719.0000     6.1374   653.8884
  719.5000     6.0380   656.1155
  720.0000     6.1896   651.5381
  720.5000     6.2891   647.7255
  721.0000     6.0685   656.7237
  721.5000     6.0151   665.7220
  722.0000     6.2193   701.8491
  722.5000     6.1960   688.2399
  723.0000     6.1046   683.6736
  723.5000     5.9979   692.6719
  724.0000     6.0809   726.5382
  724.5000     6.2852   724.9863
  725.0000     6.3909   727.9560
  725.5000     6.3677   693.2466
  726.0000     5.8514   672.1016
  726.5000     5.7751   677.3319
  727.0000     5.5774   668.9978
  727.5000     5.4253   690.9566
  728.0000     5.7889   722.0093
  728.5000     5.5981   708.4221
  729.0000     5.6535   690.5349
  729.5000     5.9618   689.1097
  730.0000     5.8476   732.0189
  730.5000     5.7788   703.3382
  731.0000     5.7709   708.5685
  731.5000     5.8613   710.0421
  732.0000     6.1795   696.4218
  732.5000     5.8073   688.8412
  733.0000     5.9661   675.2321
  733.5000     6.1630   667.6516
  734.0000     6.0866   643.4923
  734.5000     6.1695   655.5048
  735.0000     6.1160   665.2567
  735.5000     6.0169   685.5585
  736.0000     6.2592   649.3420
  736.5000     6.5094   650.8063
  737.0000     6.4479   598.7628
  737.5000     6.8418   567.0676
  738.0000     6.4970   552.7049
  738.5000     6.3996   559.4449
  739.0000     6.1880   555.5244
  739.5000     5.9827   560.3776
  740.0000     5.6636   567.5976
  740.5000     5.8376   586.9230
  741.0000     6.4971   604.4224
  741.5000     6.5347   615.6813
  742.0000     6.5341   626.9402
  742.5000  -999.2500   654.7780
  743.0000  -999.2500   682.6157
  743.5000  -999.2500   714.9749
  744.0000  -999.2500   753.3739
  744.5000  -999.2500   745.0286
  745.0000  -999.2500   733.6802
  745.5000  -999.2500   744.9391
  746.0000  -999.2500   753.9485
  746.5000  -999.2500   753.1390
  747.0000  -999.2500   753.0943
  747.5000  -999.2500   753.0496
  748.0000  -999.2500   753.0068
