~VERSION INFORMATION
 VERS.                2.0:   CWLS LOG ASCII STANDARD - VERSION 2.0
 WRAP.                 NO:   ONE LINE PER DEPTH STEP
~WELL INFORMATION
#MNEM.UNIT      DATA TYPE    INFORMATION
#----------   ------------   ------------------------------
 STRT.F           90.0000:   START DEPTH
 STOP.F          712.0000:   STOP DEPTH
 STEP.F            0.5000:   STEP LENGTH
 NULL.          -999.2500:   NO VALUE
 COMP. U S NAVY-INTEX OIL:   COMPANY
 WELL. RES 3 TEAPOT DOM #76S-34:   WELL
 FLD .             TEAPOT:   FIELD
 LOC .      S34 T39N R78W:   LOCATION
 CNTY.            NATRONA:   COUNTY
 STAT.            WYOMING:   STATE
 CTRY. UNITED STATES OF AMERICA:   COUNTRY
 SRVC.       Schlumberger:   SERVICE COMPANY
 DATE.        08-AUG-1961:   LOGDATE
 API .       490250651700:   API NUMBER
~CURVE INFORMATION
#MNEM.UNIT       API CODE    CURVE DESCRIPTION
#----------   ------------   ------------------------------
 DEPT.F                  :   
 SPR .MV     05 010 01 00:   SPONTANEOUS POTENTIAL FROM RES.
 ASN .OHMM   05 041 16 00:   AMPLIFIED SHORT NORMAL 16"
 CILD.MMHO   05 110 46 00:   CONDUCTIVITY INDUCTION LOG DEEP
 ILD .OHMM   05 120 46 00:   INDUCTION LOG DEEP
~PARAMETER INFORMATION
#MNEM.UNIT          VALUE    DESCRIPTION
#----------   ------------   ------------------------------
 LMF .                 KB:   LOG MEASURED FROM
 DMF .                 KB:   DRILLING MEASURED FROM
 EKB .F              5092:   KELLING BUSHING
 EGL .F              5087:   GROUND LEVEL
 DATE.        08-AUG-1961:   RUN DATE
 RUN .                  1:   RUN NUMBER
 DD  .F               710:   DEPTH DRILLER
 DL  .F               713:   DEPTH LOGGER
 BLI .F               712:   BOTTOM LOG INTERVAL
 TLI .F               100:   TOP LOG INTERVAL
 BS  .IN             6.75:   BIT SIZE
 BSD .F               710:   BIT SIZE AT DEPTH
 DFT .       OIL EMULSION:   DRILLING FLUID TYPE
 DFD .               10.4:   DRILLING FLUID DENSITY
 DFV .                 45:   DRILLING FLUID VISCOSITY
 RMS .OHMM           1.21:   RESISTIVITY MUD SAMPLE
 MST .F                78:   MUD SAMPLE TEMPERATURE
 TCS .HRS               1:   TIME CURCULATED STOPPED
 LUN .               2544:   LOGGING UNIT NUMBER
 LUL .                 NC:   LOGGING UNIT LOCATION
 ENGI.             QUINBY:   RECORDING ENGINEER
 WITN.          JORGENSON:   WITNESSED BY
 CLNT.            A2DTECH:   CLIENT CODE
 ORIG.      2" , 5" PRINT:   ORIGIN OF DATA
 UWI .       490250651700:   UNIQUE WELL ID
 DICO. A2D Technologies, Inc.:   DIGITIZING COMPANY
~OTHER INFORMATION
~A   DEPT      SPR        ASN       CILD        ILD   
# ...
  163.0000   -53.6782    11.2643    74.8899    11.8982
  163.5000   -53.2915    11.6488    73.3255    12.1165
  164.0000   -53.0617    11.9499    71.5513    12.1947
  164.5000   -52.8109    11.8709    70.1965    12.1943
  165.0000   -52.5601    11.7488    70.2044    12.1572
  165.5000   -52.1944    11.6347    68.6403    12.1935
  166.0000   -52.1944    11.7121    68.6478    12.2715
  166.5000   -52.1944    11.8173    68.6557    12.3497
  167.0000   -52.3720    11.9452    68.6648    12.5063
  167.5000   -52.7691    12.0227    68.6714    12.5948
  168.0000   -53.1766    12.1909    68.6796    12.6761
  168.5000   -53.4483    12.3340    68.6871    12.8190
  169.0000   -53.8349    12.5183    68.6950    12.8490
  169.5000   -54.0857    12.6455    68.7041    12.9753
  170.0000   -54.2320    12.7673    68.7107    13.0220
  170.5000   -54.2738    12.8919    68.7189    13.2424
  171.0000   -54.3887    12.9562    68.7264    13.6020
  171.5000   -54.2320    13.0918    68.7343    13.8701
  172.0000   -54.0648    13.1894    68.7434    13.9979
  172.5000   -53.8140    13.3118    67.1777    14.2000
  173.0000   -53.5632    13.4364    67.1859    14.3257
  173.5000   -53.2915    13.5000    66.7741    14.5420
  174.0000   -53.0616    13.6072    65.6283    14.5772
  174.5000   -52.9781    13.7332    64.0658    14.6244
  175.0000   -52.9781    13.8563    64.0723    14.8025
  175.5000   -52.9781    13.9808    64.0805    14.8758
  176.0000   -52.9781    14.1220    62.5157    15.0895
  176.5000   -53.0512    14.2299    62.3139    15.1676
  177.0000   -53.1348    14.4335    60.9591    15.2530
  177.5000   -53.2393    14.6035    58.8705    15.4807
  178.0000   -53.2915    14.8534    57.8302    15.5829
  178.5000   -53.2915    15.0570    56.2657    15.7939
  179.0000   -53.4483    15.1967    54.7006    15.9129
  179.5000   -53.2915    15.4468    53.1381    16.1171
  180.0000   -53.2915    15.6964    51.5723    16.3422
  180.5000   -53.2915    15.8680    51.5805    16.4203
  181.0000   -53.2915    15.9922    51.5881    16.4984
  181.5000   -53.1348    16.0696    51.5959    16.5415
  182.0000   -52.9676    16.1471    50.0328    16.5762
  182.5000   -52.8213    16.1463    50.0393    16.5757
  183.0000   -52.7795    16.1291    51.6198    16.5461
  183.5000   -52.6646    15.9099    51.6274    16.4965
  184.0000   -52.6646    15.5775    51.8449    16.4176
  184.5000   -52.6646    15.2007    54.7890    16.2450
  185.0000   -52.7691    14.8722    56.3679    16.1028
  185.5000   -52.8213    14.7332    57.9484    15.7393
  186.0000   -52.9781    14.7323    60.3669    15.4710
  186.5000   -53.1348    14.6986    61.1085    15.1896
  187.0000   -53.2915    14.5743    61.1177    15.1238
  187.5000   -53.2915    14.5736    61.1242    14.8449
  188.0000   -53.2915    14.4945    61.1324    14.5840
  188.5000   -53.1348    14.4937    61.1399    14.2837
  189.0000   -52.9885    14.4930    61.1478    13.8537
  189.5000   -52.8109    14.4114    61.1570    13.4478
  190.0000   -52.5601    14.2853    61.1635    12.9592
  190.5000   -52.4660    14.0442    62.7440    12.7275
  191.0000   -52.1944    13.6290    66.8396    12.5534
  191.5000   -52.1944    13.1438    75.9670    12.0945
  192.0000   -52.0376    12.0456    86.3535    11.5175
  192.5000   -52.0376    11.3657   104.1800    10.1315
  193.0000   -51.8809    10.6858   128.8211     8.8201
  193.5000   -52.1944    10.0059   136.8998     8.1471
  194.0000   -52.5810     9.2273   144.9789     7.5400
  194.5000   -52.8422     8.5984   150.8582     7.0446
  195.0000   -53.2393     7.8737   152.4371     6.6758
  195.5000   -53.4483     7.2312   152.4453     6.6754
  196.0000   -53.4483     7.1061   151.6143     6.5966
  196.5000   -53.4483     7.1657   149.1064     6.6746
  197.0000   -53.4378     7.2824   146.1806     6.6743
  197.5000   -53.2915     7.4178   144.0907     6.7523
  198.0000   -53.0512     7.4892   141.4783     6.8420
  198.5000   -52.8213     7.5278   139.9135     7.0012
  199.0000   -52.5914     7.5361   138.3484     7.2221
  199.5000   -52.1944     7.4755   138.3582     7.3311
  200.0000   -52.0899     7.3187   137.8407     7.4568
  200.5000   -51.8391     7.1421   136.8003     7.4088
  201.0000   -51.5674     7.0106   136.8082     7.2488
  201.5000   -51.5674     6.9792   136.6064     6.9847
  202.0000   -51.9295     6.9825   135.2516     6.9393
  202.5000   -52.4727     7.0786   134.7353     7.0703
  203.0000   -53.0158     7.2081   133.6950     7.3980
  203.5000   -53.3025     7.4011   132.1305     7.6498
  204.0000   -53.3042     7.5092   130.3564     7.9246
  204.5000   -53.2382     7.5911   129.0016     8.0389
  205.0000   -53.1400     7.6353   127.4371     8.0809
  205.5000   -52.7388     7.6710   129.0176     7.9491
  206.0000   -52.4890     7.6976   133.0084     7.6507
  206.5000   -52.2149     7.6203   140.4586     7.3085
  207.0000   -52.1463     7.3930   146.3378     6.9803
  207.5000   -51.8965     7.2590   150.0131     6.7909
  208.0000   -51.6468     7.2081   152.6418     6.7441
  208.5000   -51.5538     7.1452   152.6494     6.7437
  209.0000   -51.2823     7.0864   152.4476     6.8219
  209.5000   -51.1270     7.0736   149.5217     6.8999
  210.0000   -50.9717     7.0736   145.8595     6.9780
  210.5000   -51.0784     7.0736   143.2472     7.0621
  211.0000   -51.3312     7.1730   140.8438     7.2632
  211.5000   -51.6036     7.2733   138.3359     7.4673
  212.0000   -51.8370     7.4022   135.4101     7.6044
  212.5000   -52.0899     7.5333   133.8443     7.7185
  213.0000   -52.2354     7.6369   132.2802     7.8441
  213.5000   -52.2367     7.6870   130.7154     7.9172
  214.0000   -52.0816     7.7372   134.8919     7.9168
  214.5000   -51.6917     7.7778   131.7326     7.8379
  215.0000   -51.4420     7.7806   129.3894     7.7996
  215.5000   -51.1461     7.6839   126.7152     7.7587
  216.0000   -51.1473     7.7475   122.2619     7.9152
  216.5000   -51.3057     8.0340   118.6386     8.0636
  217.0000   -51.5444     8.3568   115.9505     8.3069
  217.5000   -51.8156     8.4482   113.5679     8.5034
  218.0000   -52.0943     8.4980   112.7830     8.6290
  218.5000   -52.2017     8.5133   112.7692     8.6982
  219.0000   -52.0972     8.5325   114.8402     8.7509
  219.5000   -51.7022     8.5603   117.4641     8.6974
  220.0000   -51.4316     8.5556   119.8637     8.5767
  220.5000   -51.0050     8.4445   122.3756     8.5179
  221.0000   -50.7962     8.1887   126.8613     8.2252
  221.5000   -50.5377     7.9861   127.3991     8.1702
  222.0000   -50.5392     7.8247   128.4119     7.9890
  222.5000   -50.5643     7.7708   129.9725     7.9101
  223.0000   -50.8560     7.7800   129.9607     7.8184
  223.5000   -51.0141     7.8451   129.9472     7.6738
  224.0000   -51.3292     7.9109   129.9371     7.6735
  224.5000   -51.4875     7.9499   129.9252     7.6731
  225.0000   -51.6458     7.9656   129.9135     7.6727
  225.5000   -51.6476     7.9461   129.9017     7.6723
  226.0000   -51.8056     7.8458   129.2663     7.6718
  226.5000   -51.6505     7.7611   128.3058     7.6715
  227.0000   -51.6520     7.6995   128.2940     7.6711
  227.5000   -51.6249     7.6765   127.3257     7.6707
  228.0000   -51.4984     7.6682   126.6981     7.6703
  228.5000   -51.2821     7.7892   126.6850     7.6699
  229.0000   -51.0314     7.9378   126.6745     7.6695
  229.5000   -51.0329     8.1064   126.6627     7.6692
  230.0000   -50.8775     8.1685   126.6509     7.7185
  230.5000   -50.7228     8.2003   126.6391     7.7469
  231.0000   -50.7241     7.9812   126.6262     7.7464
  231.5000   -50.7257     7.9499   126.6156     7.8246
  232.0000   -50.7273     7.9499   126.6038     7.9027
  232.5000   -50.5719     7.9577   126.5920     7.9539
  233.0000   -50.5738     8.0374   126.5802     8.0010
  233.5000   -50.5752     8.2160   126.5674     8.1369
  234.0000   -50.5726     8.3492   125.8124     8.2151
  234.5000   -50.4216     8.4820   124.9725     8.2993
  235.0000   -50.4232     8.5369   123.3860     8.4497
  235.5000   -50.4249     8.4994   123.3766     8.5279
