~VERSION INFORMATION
 VERS.                2.0:   CWLS LOG ASCII STANDARD - VERSION 2.0
 WRAP.                 NO:   ONE LINE PER DEPTH STEP
~WELL INFORMATION
#MNEM.UNIT      DATA TYPE    INFORMATION
#----------   ------------   ------------------------------
 STRT.F           90.0000:   START DEPTH
 STOP.F          799.0000:   STOP DEPTH
 STEP.F            0.5000:   STEP LENGTH
 NULL.          -999.2500:   NO VALUE
 COMP. U S NAVY-INTEX OIL:   COMPANY
 WELL. RES 3 TEAPOT DOM #83S-34:   WELL
 FLD .             TEAPOT:   FIELD
 LOC .      S34 T39N R78W:   LOCATION
 CNTY.            NATRONA:   COUNTY
 STAT.            WYOMING:   STATE
 CTRY. UNITED STATES OF AMERICA:   COUNTRY
 SRVC.       Schlumberger:   SERVICE COMPANY
 DATE.        15-FEB-1961:   LOGDATE
 API .       490250655100:   API NUMBER
~CURVE INFORMATION
#MNEM.UNIT       API CODE    CURVE DESCRIPTION
#----------   ------------   ------------------------------
 DEPT.F                  :   
 ASN .OHMM   05 041 16 00:   AMPLIFIED SHORT NORMAL 16"
 ILD .OHMM   05 120 46 00:   INDUCTION LOG DEEP RESISTIVITY.
 CILD.MMHO   05 110 46 00:   CONDUCTIVITY INDUCTION LOG DEEP
 SPR .MV     05 010 01 00:   SPONTANEOUS POTENTIAL FROM RES.
 GR  .GAPI   30 310 01 00:   GAMMA RAY
~PARAMETER INFORMATION
#MNEM.UNIT          VALUE    DESCRIPTION
#----------   ------------   ------------------------------
 PD  .                 GL:   PERMANENT DATUM
 EPD .F              5090:   ELEVATION PERMANENT DATUM
 LMF .                 KB:   LOG MEASURED FROM
 DAPD.F                 4:   FEET ABOVE PERMANENT DATUM
 DMF .                 KB:   DRILLING MEASURED FROM
 EKB .F              5094:   KELLING BUSHING
 EGL .F              5090:   GROUND LEVEL
 DATE.        15-FEB-1961:   RUN DATE
 RUN .                  1:   RUN NUMBER
 DD  .F               800:   DEPTH DRILLER
 DL  .F               800:   DEPTH LOGGER
 BLI .F               799:   BOTTOM LOG INTERVAL
 TLI .F               100:   TOP LOG INTERVAL
 CBD .F                12:   CASING BOTTOM DRILLER
 BS  .IN            7.875:   BIT SIZE
 BSD .F               800:   BIT SIZE AT DEPTH
 DFT .       OIL EMULSION:   DRILLING FLUID TYPE
 DFD .                9.5:   DRILLING FLUID DENSITY
 DFV .                 50:   DRILLING FLUID VISCOSITY
 RMS .OHMM           1.25:   RESISTIVITY MUD SAMPLE
 MST .F                57:   MUD SAMPLE TEMPERATURE
 RMB .OHMM           0.98:   RESISTIVITY MUD AT BHT
 BHT .F                73:   BOTTOM HOLE TEMPERATURE
 TCS .HRS               1:   TIME CURCULATED STOPPED
 LUN .               2572:   LOGGING UNIT NUMBER
 LUL .                 NC:   LOGGING UNIT LOCATION
 ENGI.            EARNEST:   RECORDING ENGINEER
 WITN.          JORGENSEN:   WITNESSED BY
 CLNT.            A2DTECH:   CLIENT CODE
 ORIG.       2" ,5" PRINT:   ORIGIN OF DATA
 UWI .       490250655100:   UNIQUE WELL ID
 DICO. A2D Technologies, Inc.:   DIGITIZING COMPANY
~OTHER INFORMATION
~A   DEPT        ASN        ILD      CILD       SPR         GR   
   90.0000     6.9120     4.8871   183.0831   -55.7530  -999.2500
   90.5000     6.9683     4.8121   184.3998   -55.7515  -999.2500
   91.0000     7.0058     4.8125   184.4144   -55.5994  -999.2500
   91.5000     7.0613     4.8129   185.1802   -55.4472  -999.2500
   92.0000     7.1192     4.9287   185.9460   -55.4458  -999.2500
   92.5000     7.1649     4.9956   185.9636   -55.4016  -999.2500
   93.0000     7.2155     5.1152   185.9760   -55.1415  -999.2500
   93.5000     7.2549     5.2329   185.9910   -55.1401  -999.2500
   94.0000     7.2865     5.2666   186.0081   -55.1386  -999.2500
   94.5000     7.3186     5.2670   186.0210   -55.1370  -999.2500
   95.0000     7.3454     5.2673   186.0360   -54.9849  -999.2500
   95.5000     7.3605     5.2677   186.0527   -54.9378  -999.2500
   96.0000     7.3528     5.1928   186.0661   -54.8313  -999.2500
   96.5000     7.2851     5.1178   186.2262   -54.8298  -999.2500
   97.0000     7.1639     5.0756   187.5987   -54.8283  -999.2500
   97.5000     7.0417     4.9680   190.7157   -54.8268  -999.2500
   98.0000     6.9080     4.8454   194.0140   -54.8253  -999.2500
   98.5000     6.7599     4.8181   196.6522   -54.8238  -999.2500
   99.0000     6.5978     4.6679   199.3894   -54.8223  -999.2500
   99.5000     6.4555     4.6683   202.4074   -54.8208  -999.2500
  100.0000     6.3047     4.5933   204.9550   -54.8193  -999.2500
  100.5000     6.2340     4.5938   207.2250   -54.8178  -999.2500
  101.0000     6.1840     4.5942   208.7387   -54.9666  -999.2500
  101.5000     6.1991     4.5192   210.2552   -54.9654  -999.2500
  102.0000     6.2254     4.5196   210.2725   -54.9639  -999.2500
  102.5000     6.2745     4.5953   210.2853   -55.1130  -999.2500
  103.0000     6.3047     4.5956   210.3003   -55.1114  -999.2500
  103.5000     6.3047     4.5960   209.5663   -55.1099  -999.2500
  104.0000     6.3047     4.5964   208.4585   -55.1082  -999.2500
  104.5000     6.2896     4.6721   207.3407   -55.1069  -999.2500
  105.0000     6.2614     4.6724   205.8570   -55.1054  -999.2500
  105.5000     6.2276     4.6729   205.0401   -55.1392  -999.2500
  106.0000     6.2142     4.7811   204.0240   -55.2216  -999.2500
  106.5000     6.1840     4.8242   202.8979   -55.3301  -999.2500
  107.0000     6.1882     4.8246   200.9510   -55.4006  -999.2500
  107.5000     6.2293     4.9002   199.6997   -55.3991  -999.2500
  108.0000     6.3043     4.9106   198.4386   -55.3976  -999.2500
  108.5000     6.4054     4.9763   196.9549   -55.5464  -999.2500
  109.0000     6.5008     4.9767   195.9459   -55.6501  -999.2500
  109.5000     6.5697     4.9651   193.9439   -55.6943  -999.2500
  110.0000     6.6486     4.9021   192.4949   -55.6925  -999.2500
  110.5000     6.7572     4.8272   190.6907   -55.6913  -999.2500
  111.0000     6.8660     4.8000   189.4395   -55.8514  -999.2500
  111.5000     7.0030     4.6773   188.0349   -55.9895  -999.2500
  112.0000     7.2549     4.5622   188.0480   -55.9880  -999.2500
  112.5000     7.1518     4.4365   189.6897   -55.9864  -999.2500
  113.0000     6.9258     4.3020   191.0824   -56.1353  -999.2500
  113.5000     6.7873     4.1429   193.0030   -56.1340  -999.2500
  114.0000     6.6900     4.0592   195.2052   -56.1466  -999.2500
  114.5000     6.5801     3.9266   198.6344   -56.2816  -999.2500
  115.0000     6.4404     3.8077   201.9520   -56.2801  -999.2500
  115.5000     6.3068     3.7573   207.4624   -56.2786  -999.2500
  116.0000     6.1303     3.7018   213.6939   -56.2769  -999.2500
  116.5000     5.9125     3.7022   217.7027   -56.3424  -999.2500
  117.0000     5.7014     3.7026   222.2723   -56.4248  -999.2500
  117.5000     5.5739     3.7029   227.3523   -56.5736  -999.2500
  118.0000     5.3977     3.7786   235.5280   -56.5723  -999.2500
  118.5000     5.2790     3.8254   239.9049   -56.5708  -999.2500
  119.0000     5.2546     3.9300   239.1692   -56.5691  -999.2500
  119.5000     5.3126     3.9799   234.8218   -56.5329  -999.2500
  120.0000     5.4902     4.1315   226.8269   -56.4090  -999.2500
  120.5000     5.8498     4.2329   217.6427   -56.3236  -999.2500
  121.0000     6.7846     4.3834   209.3408   -56.2620  -999.2500
  121.5000     7.2851     4.5882   202.4774   -56.2605  -999.2500
  122.0000     7.4341     4.8409   195.8058   -56.2589  -999.2500
  122.5000     7.4545     5.1375   189.1150   -56.2575  -999.2500
  123.0000     7.4811     5.3173   184.0540   -56.2560  -999.2500
  123.5000     7.5557     5.4438   180.2703   -56.2544  -999.2500
  124.0000     7.6084     5.5904   176.3967   -56.2530  -999.2500
  124.5000     7.6772     5.6522   173.4535   -56.2515  -999.2500
  125.0000     7.7526     5.7480   169.9199   -56.2500  -999.2500
  125.5000     7.8840     5.8927   167.4024   -56.2485  -999.2500
  126.0000     8.0241     5.9257   164.4471   -56.2209  -999.2500
  126.5000     8.1244     6.0441   162.3674   -56.0947  -999.2500
  127.0000     8.2660     6.1198   160.6607   -56.0934  -999.2500
  127.5000     8.4012     6.1546   158.4855   -56.1810  -999.2500
  128.0000     8.4851     6.2058   157.8178   -56.2410  -999.2500
  128.5000     8.3345     6.1962   156.8018   -56.2395  -999.2500
  129.0000     8.1750     6.0848   155.5255   -56.2380  -999.2500
  129.5000     8.0612     5.9591   157.4474   -56.3869  -999.2500
  130.0000     7.9015     5.7455   162.4624   -56.5361  -999.2500
  130.5000     7.6923     5.5187   169.8358   -56.5346  -999.2500
  131.0000     7.4911     5.2053   176.1860   -56.5330  -999.2500
  131.5000     7.2900     4.9183   183.0480   -56.5316  -999.2500
  132.0000     6.9985     4.7630   190.1506   -56.6809  -999.2500
  132.5000     6.6199     4.6022   197.5226   -56.6791  -999.2500
  133.0000     6.3810     4.5429   207.1172   -56.6777  -999.2500
  133.5000     6.1534     4.3927   217.2524   -56.6762  -999.2500
  134.0000     5.8673     4.3002   224.7475   -56.6746  -999.2500
  134.5000     5.6379     4.2428   228.3334   -56.6732  -999.2500
  135.0000     5.4279     4.1554   230.8809   -56.6717  -999.2500
  135.5000     5.3394     4.0929   233.0502   -56.6701  -999.2500
  136.0000     5.3394     4.0934   233.0631   -56.6687  -999.2500
  136.5000     5.3705     4.0938   232.3262   -56.6305  -999.2500
  137.0000     5.4449     4.1155   230.8425   -56.5150  -999.2500
  137.5000     5.6712     4.2451   229.3544   -56.5136  -999.2500
  138.0000     5.9389     4.2932   226.8369   -56.4357  -999.2500
  138.5000     6.1237     4.3965   223.3795   -56.2093  -999.2500
  139.0000     6.2411     4.5474   220.2102   -56.2078  -999.2500
  139.5000     6.3423     4.6727   214.4195   -56.2063  -999.2500
  140.0000     6.4253     4.7490   202.4030   -56.0542  -999.2500
  140.5000     6.4850     4.8504   197.9129   -56.0527  -999.2500
  141.0000     6.5205     4.9255   198.3883   -55.9553  -999.2500
  141.5000     6.5460     4.7966   199.4445   -55.8990  -999.2500
  142.0000     6.5460     4.6225   200.9638   -55.8976  -999.2500
  142.5000     6.5282     4.3995   201.5266   -55.8961  -999.2500
  143.0000     6.4857     4.2668   203.3233   -55.8945  -999.2500
  143.5000     6.4231     4.0193   207.0143   -55.8931  -999.2500
  144.0000     6.2423     3.7230   211.5216   -56.0424  -999.2500
  144.5000     5.9729     3.5865   223.0782   -56.1912  -999.2500
  145.0000     5.7386     3.3346   241.5934   -56.2851  -999.2500
  145.5000     5.5587     3.1217   261.2113   -56.5351  -999.2500
  146.0000     5.2335     2.9814   296.1559   -56.7891  -999.2500
  146.5000     4.7656     2.8883   318.2144   -56.9814  -999.2500
  147.0000     4.3493     2.7463   329.8398   -57.1345  -999.2500
  147.5000     4.1931     2.6776   338.1131   -57.3870  -999.2500
  148.0000     4.0704     2.5863   340.7815   -57.3855  -999.2500
  148.5000     3.9151     2.5215   342.0020   -57.5349  -999.2500
  149.0000     3.7557     2.4465   342.3123   -57.5331  -999.2500
  149.5000     3.8250     2.5341   337.0722   -57.3810  -999.2500
  150.0000     4.0724     2.8238   304.8078   -57.3795  -999.2500
  150.5000     4.4068     3.1649   274.0344   -57.3775  -999.2500
