~VERSION INFORMATION
 VERS.                2.0:   CWLS LOG ASCII STANDARD - VERSION 2.0
 WRAP.                 NO:   ONE LINE PER DEPTH STEP
~WELL INFORMATION
#MNEM.UNIT      DATA TYPE    INFORMATION
#----------   ------------   ------------------------------
 STRT.F           34.0000:   START DEPTH
 STOP.F          514.0000:   STOP DEPTH
 STEP.F            0.5000:   STEP LENGTH
 NULL.          -999.2500:   NO VALUE
 COMP. FENIX & SCISSON INC:   COMPANY
 WELL. NPR 3 #41 SX 10-10:   WELL
 FLD .             TEAPOT:   FIELD
 LOC .      S10 T38N R78W:   LOCATION
 CNTY.            NATRONA:   COUNTY
 STAT.            WYOMING:   STATE
 CTRY. UNITED STATES OF AMERICA:   COUNTRY
 SRVC.           BIRDWELL:   SERVICE COMPANY
 DATE.        25-JUN-1978:   LOGDATE
 API .       490251065200:   API NUMBER
~CURVE INFORMATION
#MNEM.UNIT       API CODE    CURVE DESCRIPTION
#----------   ------------   ------------------------------
 DEPT.F                  :   
 SPR .MV     07 010 01 00:   SPONTANEOUS POTENTIAL
 ILD .OHMM   07 120 46 00:   INDUCTION LOG DEEP
 SN  .OHMM   07 040 16 00:   SHORT NORMAL 16"
 CALD.IN     45 280 60 00:   CALIPER FROM DENSITY LOG
 GRD .GAPI   45 310 01 00:   GAMMA RAY FROM DENSITY LOG
 CORR.G/C3   45 356 01 00:   DENSITY CORRECTION
 DPHI.DEC    45 890 12 00:   DENSITY POROSITY SANDSTONE
 DEN .G/C3   45 350 01 00:   COMPENSATED BULK DENSTIY
 GRN .GAPI   35 310 01 00:   GAMMA RAY
 NEUT.NAPI   35 330 01 00:   NEUTRON
~PARAMETER INFORMATION
#MNEM.UNIT          VALUE    DESCRIPTION
#----------   ------------   ------------------------------
 PD  .                 GL:   PERMANENT DATUM
 EPD .F              5235:   ELEVATION PERMANENT DATUM
 LMF .                 KB:   LOG MEASURED FROM
 DAPD.F                 4:   FEET ABOVE PERMANENT DATUM
 DMF .                 KB:   DRILLING MEASURED FROM
 EKB .F              5239:   KELLING BUSHING
 EGL .F              5235:   GROUND LEVEL
 DATE.        25-JUN-1978:   RUN DATE
 RUN .                  1:   RUN NUMBER
 DD  .F               510:   DEPTH DRILLER
 DL  .F               514:   DEPTH LOGGER
 BLI .F               514:   BOTTOM LOG INTERVAL
 TLI .F                30:   TOP LOG INTERVAL
 CS  .IN            8.625:   CASING SIZE
 CBD .F                40:   CASING BOTTOM DRILLER
 CBL .F                40:   CASING BOTTOM LOGGER
 BS  .IN            7.875:   BIT SIZE
 BSD .F               510:   BIT SIZE AT DEPTH
 DFT .                KCL:   DRILLING FLUID TYPE
 DFD .                8.6:   DRILLING FLUID DENSITY
 DFV .                 31:   DRILLING FLUID VISCOSITY
 DFPH.                9.5:   DRILLING FLUID PH
 DFL .                 17:   DRILLING FLUID LOSS
 MSS .           FLOWLINE:   MUD SAMPLE SOURCE
 RMS .OHMM             .5:   RESISTIVITY MUD SAMPLE
 MST .F                74:   MUD SAMPLE TEMPERATURE
 RMF .OHMM            .54:   RESISTIVITY MUD FILTRATE SAMPLE
 MFST.F                72:   MUD FILTRATE SAMPLE TEMPERATURE
 RMC .OHMM            1.0:   RESISTIVITY MUD CAKE
 MCST.F                66:   MUD CAKE SAMPLE TEMPERATURE
 MFSS.               MEAS:   MUD FILTRATE SAMPLE SOURCE
 MCSS.               MEAS:   MUD CAKE SAMPLE SOURCE
 BHT .F                74:   BOTTOM HOLE TEMPERATURE
 TCS .HRS            0100:   TIME CURCULATED STOPPED
 MRT .F                74:   MAXIMUM RECORDED TEMPERATURE
 LUN .               2958:   LOGGING UNIT NUMBER
 LUL .               CASP:   LOGGING UNIT LOCATION
 ENGI.           REYNOLDS:   RECORDING ENGINEER
 CLNT.            A2DTECH:   CLIENT CODE
 ORIG.           5" PRINT:   ORIGIN OF DATA
 UWI .       490251065200:   UNIQUE WELL ID
 DICO. A2D Technologies, Inc.:   DIGITIZING COMPANY
~OTHER INFORMATION
~A   DEPT      SPR        ILD         SN       CALD        GRD       CORR       DPHI        DEN        GRN       NEUT   
# ...
  201.5000   -65.1316     7.0515     7.7673     8.7165   100.2365     0.0270     0.1415     2.4741    49.0778  1493.6171
  202.0000   -65.1373     7.0006     7.8180     8.7469    95.5660     0.0270     0.1454     2.4590    45.4918  1503.0366
  202.5000   -65.1429     6.9494     7.8141     8.8074    91.9501     0.0270     0.1478     2.4538    41.2307  1480.0723
  203.0000   -65.1489     6.8516     7.8110     8.8378    91.7980     0.0209     0.1463     2.4507    40.5620  1473.2998
  203.5000   -65.1549     6.8493     7.8079     8.8530    97.3688     0.0164     0.1402     2.4522    41.6101  1484.0686
  204.0000   -65.1609     6.8471     7.8048     8.8532    98.4220     0.0164     0.1404     2.4560    42.2842  1479.6349
  204.5000   -65.1669     6.8448     7.8017     8.8835    97.2153     0.0179     0.1478     2.4582    44.0794  1461.0720
  205.0000   -65.1729     6.8425     7.7448     8.8988    94.0512     0.0179     0.1541     2.4515    48.1167  1444.8544
  205.5000   -65.1789     6.8397     7.6346     8.9140    96.9312     0.0194     0.1556     2.4377    49.2392  1419.1913
  206.0000   -65.1850     6.8374     7.5266     8.9142    98.4157     0.0148     0.1559     2.4319    49.0165  1388.1311
  206.5000   -65.1910     6.7880     7.3182     8.9144    98.4139     0.0088     0.1526     2.4342    47.5568  1332.6472
  207.0000   -65.1970     6.7390     7.1650     8.9145    99.7678     0.0043     0.1568     2.4364    46.6277  1347.5931
  207.5000   -65.2030     6.5983     7.0150     8.9147   102.1760     0.0013     0.1646     2.4402    48.4980  1397.4924
  208.0000   -65.2095     6.4113     6.9133     8.9299   102.7773     0.0028     0.1655     2.4176    50.5174  1450.0905
  208.5000   -65.3657     6.0680     6.7704     8.9301    95.9983     0.0088     0.1706     2.4131    50.8174  1467.6122
  209.0000   -65.6722     5.6997     6.7210     8.9453    93.7378     0.0223     0.1875     2.4071    45.0640  1460.8334
  209.5000   -65.6794     5.4284     6.5803     8.9303    94.3388     0.0448     0.2011     2.3778    47.9806  1442.6591
  210.0000   -65.6852     5.2421     6.3540     8.9305    95.5422     0.0327     0.1936     2.3605    50.2242  1439.1860
  210.5000   -65.6909     5.1683     6.0511     8.9307    95.6913     0.0207     0.1673     2.3666    48.7312  1441.8655
  211.0000   -65.6967     5.1666     5.7172     8.9769    95.8484     0.0207     0.1643     2.4182    49.7043  1421.5934
  211.5000   -65.5519     5.2728     5.4875     9.0367    96.1621     0.0267     0.1636     2.4251    50.1538  1417.5194
  212.0000   -65.1068     5.4566     5.4099     9.0671    96.8913     0.0282     0.1534     2.4236    48.7356  1410.5663
  212.5000   -64.6614     5.7255     5.4453     9.0824    98.5464     0.0250     0.1398     2.4311    48.5872  1406.6732
  213.0000   -64.3664     6.0494     5.8737     9.0674   100.2016     0.0221     0.1386     2.4596    49.3364  1421.4836
  213.5000   -64.0715     6.3475     6.3797     9.0675   101.4049     0.0251     0.1361     2.4671    49.5637  1444.3964
  214.0000   -64.0787     6.6230     6.7488     9.0677   101.8556     0.0281     0.1383     2.4716    52.1343  1472.7063
  214.5000   -64.2348     6.9398     7.1697     9.0678   101.2514     0.0326     0.1422     2.4701    53.5261  1495.6191
  215.0000   -64.5414     7.1322     7.4191     9.0680   100.4969     0.0341     0.1352     2.4626    52.6306  1479.4014
  215.5000   -64.9997     7.3300     7.6243     9.0681    97.1822     0.0341     0.1310     2.4521    54.2016  1503.6570
  216.0000   -65.0055     7.4813     7.7811     9.0834    96.5783     0.0341     0.1300     2.4754    52.3349  1521.1788
  216.5000   -65.0112     7.5830     7.8865     9.0835    96.7274     0.0325     0.1243     2.4791    51.9509  1514.4000
  217.0000   -65.0170     7.7395     7.9931     9.0837    97.2038     0.0250     0.1119     2.4971    52.9357  1504.9288
  217.5000   -65.0228     7.8986     8.1010     9.0839    97.7787     0.0234     0.1240     2.5046    53.3109  1496.6938
  218.0000   -65.0221     8.0060     8.2109     9.0840    97.1745     0.0220     0.1288     2.5016    53.8358  1512.9668
  218.5000   -65.0010     8.0596     8.3221     9.0842    95.8176     0.0235     0.1272     2.4791    55.7805  1506.2008
  219.0000   -64.9800     8.1128     8.3765     9.0843    95.3643     0.0265     0.1327     2.4798    58.9209  1518.3125
  219.5000   -64.9590     8.1658     8.4305     9.0845    95.8146     0.0294     0.1396     2.4678    60.5666  1516.9373
  220.0000   -64.9380     8.2198     8.4934     9.0846    95.9641     0.0294     0.1454     2.4648    61.6144  1503.4183
  220.5000   -64.9169     8.2741     8.5412     9.0847    95.5105     0.0279     0.1381     2.4610    55.7863  1477.7489
  221.0000   -64.8959     8.3288     8.5970     9.0849    95.2078     0.0279     0.1242     2.4556    55.0128  1475.0308
  221.5000   -64.8749     8.3253     8.5928     9.0699    96.1240     0.0264     0.1188     2.4753    54.7428  1488.4983
  222.0000   -64.8538     8.3810     8.5893     9.0685    99.7871     0.0189     0.1185     2.4940    53.2499  1497.9114
  222.5000   -64.8328     8.3198     8.5859     9.0551   101.5283     0.0158     0.1221     2.4948    50.1123  1495.1869
  223.0000   -64.8118     8.3081     8.5824     9.0402   102.5811     0.0160     0.1329     2.4910    51.4590  1491.1132
  223.5000   -64.7933     8.1428     8.5782     9.0252   101.6760     0.0188     0.1317     2.4842    52.3573  1504.5741
  224.0000   -64.8005     8.0839     8.5748     9.0103    97.3070     0.0173     0.1411     2.4717    54.5262  1492.4043
  224.5000   -64.8306     7.9702     8.5714     8.9953    96.5526     0.0158     0.1410     2.4592    54.3782  1489.6799
  225.0000   -64.8633     7.9126     8.5089     8.9803    96.7020     0.0143     0.1367     2.4587    55.0024  1503.1475
  225.5000   -64.8961     7.8013     8.5055     8.9805    97.0014     0.0157     0.1329     2.4654    56.6983  1509.8682
  226.0000   -64.9288     7.7442     8.4427     8.9656    97.1506     0.0172     0.1371     2.4684    53.2618  1503.0894
  226.5000   -64.9616     7.6883     8.3811     8.9204    97.2997     0.0172     0.1401     2.4699    51.4695  1501.7206
  227.0000   -64.9943     7.5801     8.3200     8.9205    97.4488     0.0187     0.1419     2.4624    51.1720  1513.8323
  227.5000   -65.0270     7.4734     8.1458     8.9207    96.6140     0.0187     0.1425     2.4549    50.2766  1520.5531
  228.0000   -65.0598     7.3683     8.0306     8.9209    95.9398     0.0171     0.1422     2.4511    49.0075  1528.6237
  228.5000   -65.0925     7.2634     7.9171     8.9361   100.1549     0.0157     0.1422     2.4534    48.1121  1510.7416
  229.0000   -65.1253     7.1124     7.7506     8.9665   102.8642     0.0186     0.1482     2.4534    46.7686  1502.9281
  229.5000   -65.1580     7.0123     7.6410     8.9817   104.5194     0.0186     0.1491     2.4495    48.4143  1502.9022
  230.0000   -65.1908     6.9136     7.5330     8.9819   104.9701     0.0171     0.1508     2.4435    50.2094  1496.1298
  230.5000   -65.2235     6.8163     7.3963     8.9820    96.8357     0.0141     0.1485     2.4391    50.5095  1492.0560
  231.0000   -65.2562     6.7204     7.2129     8.9822    95.6294     0.0096     0.1515     2.4398    49.6892  1493.4244
  231.5000   -65.2890     6.5782     7.0295     8.9672    95.9292     0.0081     0.1527     2.4473    49.8401  1502.7926
  232.0000   -65.3217     6.3979     6.8261     8.9221   100.1446     0.0080     0.1633     2.4323    51.5878  1512.2120
  232.5000   -65.3546     6.2643     6.5913     8.8769   102.5527     0.0080     0.1702     2.4187    53.2809  1516.2406
  233.0000   -65.3604     6.0493     6.3208     8.8619   102.5512     0.0065     0.1812     2.4157    52.6848  1497.3179
  233.5000   -65.3661     5.5654     6.0148     8.8621   102.5494     0.0082     0.1949     2.3969    52.8358  1485.1481
  234.0000   -65.3719     5.0150     5.5755     8.8623   102.0961     0.0215     0.2046     2.3706    54.4815  1481.0735
  234.5000   -65.2259     4.2961     5.2007     8.8624    95.9200     0.0245     0.2160     2.3511    55.3798  1471.5968
