~VERSION INFORMATION
 VERS.                2.0:   CWLS LOG ASCII STANDARD - VERSION 2.0
 WRAP.                 NO:   ONE LINE PER DEPTH STEP
~WELL INFORMATION
#MNEM.UNIT      DATA TYPE    INFORMATION
#----------   ------------   ------------------------------
 STRT.F           34.5000:   START DEPTH
 STOP.F          756.0000:   STOP DEPTH
 STEP.F            0.5000:   STEP LENGTH
 NULL.          -999.2500:   NO VALUE
 COMP. FENIX & SCISSON INC:   COMPANY
 WELL.    36 SX 11 #36-11:   WELL
 FLD .        TEAPOT DOME:   FIELD
 LOC .      S11 T38N R78W:   LOCATION
 CNTY.            NATRONA:   COUNTY
 STAT.            WYOMING:   STATE
 CTRY. UNITED STATES OF AMERICA:   COUNTRY
 SRVC.           BIRDWELL:   SERVICE COMPANY
 DATE.        21-FEB-1978:   LOGDATE
 API .       490251059700:   API NUMBER
~CURVE INFORMATION
#MNEM.UNIT       API CODE    CURVE DESCRIPTION
#----------   ------------   ------------------------------
 DEPT.F                  :   
 SPR .MV     05 010 01 00:   SPONTANEOUS POTENTIAL FROM RES.
 SN  .OHMM   05 040 16 00:   SHORT NORMAL 16"
 ILD .OHMM   05 120 46 00:   INDUCTION LOG DEEP
 RHOB.G/C3   45 350 01 00:   BULK DENSITY
 DPHI.DEC    45 890 12 00:   DENSITY POROSITY SANDSTONE
 GRD .GAPI   45 310 01 00:   GAMMA RAY FROM DENSITY LOG
 CALD.IN     45 280 60 00:   CALIPER
 CORR.G/C3   45 356 01 00:   DENSITY CORRECTION
~PARAMETER INFORMATION
#MNEM.UNIT          VALUE    DESCRIPTION
#----------   ------------   ------------------------------
 PD  .                 GL:   PERMANENT DATUM
 EPD .F              5175:   ELEVATION PERMANENT DATUM
 LMF .                 KB:   LOG MEASURED FROM
 DAPD.F                 4:   FEET ABOVE PERMANENT DATUM
 DMF .                 KB:   DRILLING MEASURED FROM
 EKB .F              5179:   KELLING BUSHING
 EGL .F              5175:   GROUND LEVEL
 DATE.          2-21-1978:   RUN DATE
 RUN .                  1:   RUN NUMBER
 DD  .F               765:   DEPTH DRILLER
 DL  .F               760:   DEPTH LOGGER
 BLI .F               754:   BOTTOM LOG INTERVAL
 TLI .F                40:   TOP LOG INTERVAL
 CS  .IN            8.625:   CASING SIZE
 CBD .F                39:   CASING BOTTOM DRILLER
 CBL .F                40:   CASING BOTTOM LOGGER
 BS  .IN            7.875:   BIT SIZE
 BSD .F               765:   BIT SIZE AT DEPTH
 DFT .         LIGNO/SULF:   DRILLING FLUID TYPE
 DFD .                8.6:   DRILLING FLUID DENSITY
 DFV .                 33:   DRILLING FLUID VISCOSITY
 DFPH.               10.5:   DRILLING FLUID PH
 DFL .                 84:   DRILLING FLUID LOSS
 MSS .          FLOW LINE:   MUD SAMPLE SOURCE
 RMS .OHMM            1.8:   RESISTIVITY MUD SAMPLE
 MST .F                56:   MUD SAMPLE TEMPERATURE
 RMF .OHMM            1.8:   RESISTIVITY MUD FILTRATE SAMPLE
 MFST.F                58:   MUD FILTRATE SAMPLE TEMPERATURE
 RMC .OHMM              4:   RESISTIVITY MUD CAKE
 MCST.F                62:   MUD CAKE SAMPLE TEMPERATURE
 MFSS.               MEAS:   MUD FILTRATE SAMPLE SOURCE
 RMB .OHMM           1.48:   RESISTIVITY MUD AT BHT
 BHT .F                68:   BOTTOM HOLE TEMPERATURE
 TCS .HRS               5:   TIME CURCULATED STOPPED
 MRT .F                68:   MAXIMUM RECORDED TEMPERATURE
 LUN .               2958:   LOGGING UNIT NUMBER
 LUL .               CASP:   LOGGING UNIT LOCATION
 ENGI.            POINTER:   RECORDING ENGINEER
 WITN.           MCGINLEY:   WITNESSED BY
 CLNT.            A2DTECH:   CLIENT CODE
 ORIG.       2", 5" PRINT:   ORIGIN OF DATA
 UWI .       490251059700:   UNIQUE WELL ID
 DICO. A2D Technologies, Inc.:   DIGITIZING COMPANY
~OTHER INFORMATION
~A   DEPT      SPR         SN        ILD       RHOB       DPHI         GRD      CALD       CORR   
# ...
  723.0000   -31.8551     9.7675     8.9048     2.5024     0.0930   108.5084     8.0076     0.0216
  723.5000   -31.3873     9.6986     8.8595     2.4951     0.0892   116.2520     8.0082     0.0189
  724.0000   -30.9525     9.6264     8.8200     2.4892     0.0803   116.5032     8.0088     0.0185
  724.5000   -31.0009     9.5545     8.7808     2.5181     0.0790   111.1898     8.0095     0.0180
  725.0000   -31.0673     9.4843     8.7416     2.5331     0.0810   105.5295     8.0101     0.0175
  725.5000   -31.1416     9.4128     8.4478     2.5299     0.0830   100.1273     8.0107     0.0170
  726.0000   -30.7783     9.0064     8.1093     2.5261     0.0870   102.5786     8.0114     0.0203
  726.5000   -30.2523     8.6228     7.7853     2.5252     0.0922   107.6026     8.0120     0.0242
  727.0000   -30.2021     8.1944     7.4271     2.5209     0.0974   108.8247     8.0127     0.0282
  727.5000   -30.3074     7.6180     7.0439     2.5094     0.1026   103.7284     8.0133     0.0308
  728.0000   -30.4175     7.0822     6.6673     2.4973     0.1078   102.0511     8.0140     0.0295
  728.5000   -30.5261     6.5806     5.9715     2.4831     0.1134   102.9916     8.0137     0.0282
  729.0000   -30.4800     5.8563     5.2060     2.4709     0.1283   105.3775     8.0131     0.0270
  729.5000   -30.1463     5.1049     4.5387     2.4601     0.1444   107.3711     8.0125     0.0295
  730.0000   -29.8192     4.4523     3.9569     2.4434     0.1604   110.0325     8.0119     0.0466
  730.5000   -29.4925     3.8833     3.4497     2.4160     0.1765   112.7090     8.0113     0.0637
  731.0000   -29.1660     3.3724     3.0657     2.3886     0.1926   113.7404     8.0107     0.0777
  731.5000   -29.2630     3.0597     2.8767     2.3588     0.2032   112.2330     8.0101     0.0910
  732.0000   -29.4501     2.9086     2.7936     2.3177     0.2104   107.2595     8.0095     0.0905
  732.5000   -29.6672     2.9356     2.7772     2.2773     0.2177   100.9868     8.0089     0.0553
  733.0000   -30.0831     3.2057     2.9581     2.2369     0.2249    94.6841     8.0083    -0.0102
  733.5000   -30.4897     3.5624     3.2330     2.2010     0.2314    87.3921     8.0077    -0.0346
  734.0000   -30.7780     4.2218     3.8786     2.2584     0.1693    90.2214     8.0070    -0.0194
  734.5000   -30.9470     5.1854     4.6451     2.4035     0.0940    95.8336     8.0064     0.0120
  735.0000   -31.1156     6.2732     5.5637     2.4964     0.0902    96.1253     8.0058     0.0232
  735.5000   -31.3743     6.8692     6.3833     2.5115     0.0875    95.7099     8.0052     0.0242
  736.0000   -31.6440     7.2514     6.7554     2.5118     0.0858    96.3296     8.0046     0.0234
  736.5000   -31.9094     7.6038     7.0496     2.5097     0.0906    98.6985     8.0040     0.0282
  737.0000   -32.0347     7.8102     7.2033     2.5092     0.0937   100.2243     8.0034     0.0347
  737.5000   -31.8709     8.0223     7.3020     2.5109     0.0946   100.5282     8.0028     0.0412
  738.0000   -31.7011     8.2402     7.4021     2.5121     0.0929   103.5210     8.0022     0.0492
  738.5000   -31.5278     8.4332     7.5035     2.5176     0.0910   105.5082     8.0016     0.0571
  739.0000   -31.3629     8.4850     7.6063     2.5262     0.0778   104.4788     8.0010     0.0650
  739.5000   -31.5649     8.5370     7.7515     2.5353     0.0770   102.2871     8.0004     0.0731
  740.0000   -31.7170     8.5894     7.7446     2.5294     0.0812   102.6176     7.9998     0.0668
  740.5000   -31.4527     8.6421     7.7335     2.5162     0.0870   104.2807     7.9992     0.0410
  741.0000   -31.2953     8.6610     7.7223     2.5031     0.0922   105.9850     7.9986     0.0155
  741.5000   -31.2019     8.6578     7.7112     2.4899     0.0983   105.2937     7.9980    -0.0079
  742.0000   -31.1844     8.6558     7.7001     2.4871     0.1010   103.6008     7.9974    -0.0061
  742.5000   -31.3606     8.6537     7.6890     2.5117     0.0756   101.8888     7.9968     0.0238
  743.0000   -31.5315     8.6516     7.6779     2.5423     0.0548   100.1730     7.9962     0.0529
  743.5000   -31.7024     8.6496     7.6668     2.5701     0.0869    98.4862     7.9956     0.0408
  744.0000   -31.8733     8.6475     7.6558     2.5392     0.0937    97.7439     7.9950     0.0221
  744.5000   -32.0418     8.6455     7.6447     2.5020     0.0913    99.4692     7.9944     0.0057
  745.0000   -32.1500     8.6434     7.6337     2.5035     0.0886   103.4954     7.9950     0.0056
  745.5000   -32.1190     8.6414     7.6226     2.5111     0.0910   105.6722     7.9988     0.0066
  746.0000   -32.0909     8.6393     7.6103     2.5158     0.0943   101.2940     8.0024     0.0076
  746.5000   -32.0624     8.6372     7.6376     2.4994     0.0962   105.8803     8.0061     0.0085
  747.0000   -32.0339     8.6352     7.6723     2.4957     0.0936   109.6588     8.0098     0.0095
  747.5000   -32.0054     8.6332     7.7648     2.4996     0.0878   111.4419     8.0134     0.0104
  748.0000   -31.9770     8.6311  -999.2500     2.5072     0.0872   113.3629     8.0171     0.0109
  748.5000   -31.9554     8.6291  -999.2500     2.5136     0.0845    78.2671     8.0208     0.0152
  749.0000   -31.9383     8.6270  -999.2500     2.5145     0.0773  -999.2500     8.0244     0.0203
  749.5000   -31.9126     8.6250  -999.2500     2.5278     0.0746  -999.2500     8.0281     0.0251
  750.0000   -31.8866     8.6229  -999.2500     2.5385     0.0818  -999.2500     8.0317     0.0190
  750.5000   -31.8606     8.6209  -999.2500     2.5229     0.0874  -999.2500     8.0376     0.0105
  751.0000   -31.8346     8.6188  -999.2500     2.5006     0.0934  -999.2500     8.0485     0.0027
  751.5000   -31.8086     8.6168  -999.2500     2.4978     0.0934  -999.2500     8.0593     0.0008
  752.0000   -31.7825     8.6147  -999.2500     2.4983     0.0902  -999.2500     8.0702     0.0009
  752.5000   -31.7567     8.6127  -999.2500     2.5047     0.0838  -999.2500     8.0707     0.0131
  753.0000   -31.7539     8.6106  -999.2500     2.5109     0.0746  -999.2500     8.0644     0.0348
  753.5000   -31.7540     8.6086  -999.2500     2.5337     0.0757  -999.2500     8.0580     0.0488
  754.0000   -31.7538     8.6065  -999.2500     2.5347     0.0807  -999.2500     8.0573     0.0476
  754.5000  -999.2500  -999.2500  -999.2500     2.5264     0.0848  -999.2500     8.0638     0.0477
  755.0000  -999.2500  -999.2500  -999.2500     2.5160     0.0890  -999.2500     8.0701     0.0719
  755.5000  -999.2500  -999.2500  -999.2500     2.5056     0.0936  -999.2500     8.0734     0.1100
  756.0000  -999.2500  -999.2500  -999.2500     2.4971     0.0981  -999.2500     8.0631     0.1351
