~VERSION INFORMATION
 VERS.                2.0:   CWLS LOG ASCII STANDARD - VERSION 2.0
 WRAP.                 NO:   ONE LINE PER DEPTH STEP
~WELL INFORMATION
#MNEM.UNIT      DATA TYPE    INFORMATION
#----------   ------------   ------------------------------
 STRT.F           18.0000:   START DEPTH
 STOP.F          501.0000:   STOP DEPTH
 STEP.F            0.5000:   STEP LENGTH
 NULL.          -999.2500:   NO VALUE
 COMP. FENIX & SCISSON INC:   COMPANY
 WELL.     NPR-3 SX #34-3:   WELL
 FLD .             TEAPOT:   FIELD
 LOC .       S3 T38N R78W:   LOCATION
 CNTY.            NATRONA:   COUNTY
 STAT.            WYOMING:   STATE
 CTRY. UNITED STATES OF AMERICA:   COUNTRY
 SRVC.            Unknown:   SERVICE COMPANY
 DATE.        13-JUL-1978:   LOGDATE
 API .       490251066600:   API NUMBER
~CURVE INFORMATION
#MNEM.UNIT       API CODE    CURVE DESCRIPTION
#----------   ------------   ------------------------------
 DEPT.F                  :   
 SPR .MV     05 010 01 00:   SPONTANEOUS POTENTIAL FROM RES.
 SN  .OHMM   05 040 16 00:   SHORT NORMAL 16"
 ILD .OHMM   05 120 46 00:   INDUCTION LOG DEEP
 CALD.IN     45 280 60 00:   CALIPER FROM DENSITY LOG
 GRD .GAPI   45 310 01 00:   GAMMA RAY FROM DENSITY LOG
 CORR.G/C3   45 356 01 00:   DENSITY CORRECTION
 DEN .G/C3   45 350 01 00:   COMPENSATED BULK DENSTIY
 DPHI.DEC    45 890 12 00:   DENSITY POROSITY SANDSTONE
~PARAMETER INFORMATION
#MNEM.UNIT          VALUE    DESCRIPTION
#----------   ------------   ------------------------------
 PD  .                 GL:   PERMANENT DATUM
 EPD .F              5209:   ELEVATION PERMANENT DATUM
 LMF .                 KB:   LOG MEASURED FROM
 DAPD.F                 4:   FEET ABOVE PERMANENT DATUM
 DMF .                 KB:   DRILLING MEASURED FROM
 EKB .F              5213:   KELLING BUSHING
 EGL .F              5209:   GROUND LEVEL
 DATE.            7-13-78:   RUN DATE
 RUN .                  1:   RUN NUMBER
 DD  .F               500:   DEPTH DRILLER
 DL  .F               507:   DEPTH LOGGER
 BLI .F               500:   BOTTOM LOG INTERVAL
 TLI .F                30:   TOP LOG INTERVAL
 CS  .IN            8.625:   CASING SIZE
 CBL .F                30:   CASING BOTTOM LOGGER
 BS  .IN            7.875:   BIT SIZE
 BSD .F               500:   BIT SIZE AT DEPTH
 DFT .                KCL:   DRILLING FLUID TYPE
 DFD .                8.6:   DRILLING FLUID DENSITY
 DFV .                 32:   DRILLING FLUID VISCOSITY
 DFPH.                  9:   DRILLING FLUID PH
 DFL .               12.2:   DRILLING FLUID LOSS
 MSS .          FLOW LINE:   MUD SAMPLE SOURCE
 RMS .OHMM            .22:   RESISTIVITY MUD SAMPLE
 MST .F                80:   MUD SAMPLE TEMPERATURE
 RMF .OHMM            .19:   RESISTIVITY MUD FILTRATE SAMPLE
 MFST.F                88:   MUD FILTRATE SAMPLE TEMPERATURE
 RMC .OHMM            .38:   RESISTIVITY MUD CAKE
 MCST.F                84:   MUD CAKE SAMPLE TEMPERATURE
 MFSS.               MEAS:   MUD FILTRATE SAMPLE SOURCE
 BHT .F                76:   BOTTOM HOLE TEMPERATURE
 TCS .HRS               1:   TIME CURCULATED STOPPED
 MRT .F                76:   MAXIMUM RECORDED TEMPERATURE
 LUN .               2958:   LOGGING UNIT NUMBER
 LUL .               CASP:   LOGGING UNIT LOCATION
 ENGI.             MILLER:   RECORDING ENGINEER
 WITN.           MCGINLEY:   WITNESSED BY
 CLNT.            A2DTECH:   CLIENT CODE
 ORIG. 2", 2.5", 5" PRINT:   ORIGIN OF DATA
 UWI .       490251066600:   UNIQUE WELL ID
 DICO. A2D Technologies, Inc.:   DIGITIZING COMPANY
~OTHER INFORMATION
~A   DEPT      SPR         SN        ILD       CALD        GRD       CORR        DEN       DPHI   
# ...
  180.0000   -34.4327     8.2981     8.7116     7.5325    74.8212    -0.0024     2.4689     0.1321
  180.5000   -34.4168     8.1890     8.7163     7.5194    74.0694    -0.0022     2.4705     0.1302
  181.0000   -34.4009     8.1371     8.6597     7.4916    77.1021    -0.0021     2.4660     0.1371
  181.5000   -34.3850     8.1426     8.6655     7.4346    80.7126    -0.0035     2.4631     0.1350
  182.0000   -34.3690     8.1469     8.6852     7.4364    80.7303    -0.0049     2.4669     0.1289
  182.5000   -34.3527     8.1513     8.6910     7.4381    79.6831    -0.0062     2.4760     0.1262
  183.0000   -34.3333     8.2120     8.6969     7.4694    78.7934    -0.0061     2.4813     0.1304
  183.5000   -34.3175     8.2164     8.7027     7.5452    76.1471    -0.0060     2.4709     0.1343
  184.0000   -34.3016     8.2208     8.7085     7.6357    72.7216    -0.0043     2.4763     0.1273
  184.5000   -34.2857     8.2821     8.7746     7.6226    72.4355     0.0005     2.4793     0.1254
  185.0000   -34.4226     8.2867     8.7805     7.6244    77.8468     0.0050     2.4764     0.1269
  185.5000   -34.4027     8.2921     8.7864     7.6112    80.1100     0.0066     2.4772     0.1317
  186.0000   -34.3868     8.2965     8.7925     7.5834    80.5768     0.0067     2.4668     0.1353
  186.5000   -34.3705     8.3010     8.8604     7.5556    79.6963     0.0099     2.4684     0.1290
  187.0000   -34.3510     8.3628     8.9277     7.5426    78.6661     0.0145     2.4834     0.1148
  187.5000   -34.3351     8.3673     8.9954     7.5444    77.6358     0.0252     2.4895     0.1109
  188.0000   -34.3193     8.3718     9.0637     7.5462    77.8032     0.0343     2.5031     0.1168
  188.5000   -34.3034     8.3763     9.1324     7.5483    79.3179     0.0254     2.4851     0.1288
  189.0000   -34.2875     8.3809     9.2017     7.5352    80.9823     0.0164     2.4650     0.1348
  189.5000   -34.2716     8.3864     9.2715     7.5370    82.0484     0.0137     2.4704     0.1305
  190.0000   -34.2557     8.3909     9.3463     7.5535    82.6747     0.0108     2.4749     0.1284
  190.5000   -34.2396     8.3953     9.4794     7.5553    83.6003     0.0064     2.4712     0.1341
  191.0000   -34.2232     8.3411     9.4858     7.5418    83.4527     0.0036     2.4705     0.1265
  191.5000   -34.3568     8.3466     9.4921     7.5440    82.5721     0.0052     2.4796     0.1190
  192.0000   -34.3370     8.3515     9.4985     7.5457    82.7395     0.0069     2.4909     0.1205
  192.5000   -34.4738     8.3556     9.3748     7.5475    83.6554     0.0025     2.4850     0.1256
  193.0000   -34.6068     8.3027     9.3151     7.5340    84.2719     0.0011     2.4776     0.1291
  193.5000   -34.7397     8.1935     9.0695     7.5362    84.5890    -0.0033     2.4739     0.1282
  194.0000   -34.7198     8.1427     8.9514     7.5231    84.6067    -0.0046     2.4725     0.1294
  194.5000   -34.7039     8.0900     8.8349     7.4953    84.6244    -0.0060     2.4710     0.1338
  195.0000   -34.8368     8.0388     8.8423     7.4822    84.6420    -0.0058     2.4704     0.1332
  195.5000   -34.9658     8.0441     8.8482     7.4840    85.2585    -0.0072     2.4704     0.1311
  196.0000   -34.9499     8.0485     8.8541     7.4858    85.8750    -0.0101     2.4675     0.1346
  196.5000   -34.9340     7.9973     8.8600     7.4879    85.8927    -0.0130     2.4631     0.1409
  197.0000   -34.9181     8.0018     8.8660     7.4897    85.1619    -0.0128     2.4572     0.1391
  197.5000   -35.0550     8.0061     8.9333     7.4914    84.5784    -0.0082     2.4580     0.1384
  198.0000   -34.8863     8.0114     8.9392     7.4932    84.1377    -0.0035     2.4611     0.1342
  198.5000   -34.8704     8.0157     8.9452     7.4949    83.2265    -0.0019     2.4664     0.1270
  199.0000   -34.8542     8.0200     8.9514     7.4967    79.6981     0.0012     2.4792     0.1335
  199.5000   -34.6859     8.0798     8.9587     7.4984    78.3641     0.0029     2.4703     0.1401
  200.0000   -34.6731     8.0866     8.9632     7.5001    78.9024     0.0023     2.4584     0.1344
  200.5000   -34.6625     8.1087     8.8628     7.5382    82.4423     0.0000     2.4624     0.1321
  201.0000   -34.6520     8.1309     8.7299     7.5653    85.9001    -0.0012     2.4758     0.1260
  201.5000   -34.6414     8.1553     8.6746     7.5801    85.1663     0.0050     2.4998     0.1205
  202.0000   -34.6292     8.1602     8.5598     7.5820    81.7379     0.0096     2.4999     0.1213
  202.5000   -34.7679     8.1079     8.4480     7.5839    81.0004     0.0068     2.4962     0.1192
  203.0000   -34.7577     8.1141     8.3957     7.5562    81.0188     0.0039     2.4828     0.1252
  203.5000   -34.8988     8.1190     8.3414     7.5428    80.5844     0.0025     2.4716     0.1306
  204.0000   -34.8861     8.0682     8.2886     7.5151    80.1497     0.0009     2.4769     0.1227
  204.5000   -35.0272     8.0732     8.2942     7.5175    80.3144    -0.0017     2.4852     0.1215
  205.0000   -35.0145     8.0225     8.2987     7.5193    80.7884    -0.0045     2.4733     0.1248
  205.5000   -35.0043     7.9175     8.3031     7.5360    81.0923    -0.0043     2.4726     0.1250
  206.0000   -34.9940     7.7082     8.2495     7.5379    79.9131    -0.0057     2.4764     0.1343
  206.5000   -34.9836     7.5551     7.9755     7.5250    77.5326    -0.0070     2.4645     0.1319
  207.0000   -34.9732     7.3542     7.7630     7.5269    76.6454    -0.0084     2.4646     0.1333
  207.5000   -34.9609     7.2082     7.5042     7.5288    79.3584    -0.0113     2.4646     0.1382
  208.0000   -34.9507     7.0650     7.3015     7.5311    81.7683    -0.0141     2.4586     0.1450
  208.5000   -34.9405     7.0197     7.1519     7.5330    82.3818    -0.0155     2.4497     0.1533
  209.0000   -34.9303     6.9288     7.0160     7.5349    82.3965    -0.0138     2.4326     0.1572
  209.5000   -35.0714     6.9332     7.0207     7.5368    81.9621    -0.0122     2.4334     0.1545
  210.0000   -35.0587     6.9374     7.0245     7.5387    80.4798    -0.0105     2.4387     0.1491
  210.5000   -35.0485     6.9897     7.0769     7.5554    80.3064    -0.0074     2.4425     0.1451
  211.0000   -35.1875     7.0423     7.1789     7.5572    81.4074    -0.0072     2.4486     0.1433
  211.5000   -35.1769     7.1453     7.3328     7.5739    82.1706    -0.0056     2.4524     0.1421
  212.0000   -35.1667     7.2989     7.4899     7.5758    81.2595    -0.0054     2.4547     0.1399
  212.5000   -35.3053     7.4047     7.6505     7.5629    81.7016    -0.0068     2.4623     0.1369
  213.0000   -35.2946     7.4604     7.8144     7.5648    83.4160    -0.0066     2.4609     0.1367
  213.5000   -35.2823     7.4125     7.8727     7.5519    84.0295    -0.0064     2.4579     0.1375
  214.0000   -35.2721     7.4182     7.9315     7.5538    84.3436    -0.0063     2.4633     0.1335
  214.5000   -35.2619     7.3706     7.9359     7.5561    84.6577    -0.0076     2.4671     0.1326
  215.0000   -35.2517     7.3762     7.9410     7.5580    84.9718    -0.0090     2.4649     0.1350
  215.5000   -35.2415     7.3807     7.9453     7.5599    85.2859    -0.0088     2.4650     0.1334
  216.0000   -35.2313     7.3345     7.9496     7.5618    86.0491    -0.0087     2.4665     0.1364
  216.5000   -35.2211     7.3390     8.0089     7.5637    87.4111    -0.0055     2.4606     0.1361
  217.0000   -35.3601     7.3436     8.0132     7.5952    87.7252    -0.0054     2.4592     0.1396
  217.5000   -35.3495     7.3489     8.0175     7.5970    86.8417    -0.0053     2.4525     0.1420
  218.0000   -35.3393     7.3018     7.9668     7.6137    84.1618    -0.0051     2.4570     0.1387
  218.5000   -35.3289     7.1568     7.9163     7.6156    80.4272    -0.0050     2.4511     0.1443
  219.0000   -35.4677     6.9665     7.3933     7.6323    80.1493    -0.0048     2.4489     0.1449
  219.5000   -35.4549     6.6895     6.8984     7.6342    81.3652    -0.0047     2.4535     0.1422
  220.0000   -35.4447     6.4226     6.5323     7.6361    83.1763    -0.0030     2.4453     0.1455
