~VERSION INFORMATION
 VERS.                2.0:   CWLS LOG ASCII STANDARD - VERSION 2.0
 WRAP.                 NO:   ONE LINE PER DEPTH STEP
~WELL INFORMATION
#MNEM.UNIT      DATA TYPE    INFORMATION
#----------   ------------   ------------------------------
 STRT.F            0.0000:   START DEPTH
 STOP.F          962.0000:   STOP DEPTH
 STEP.F            0.5000:   STEP LENGTH
 NULL.          -999.2500:   NO VALUE
 COMP. FENIX & SCISSON INC:   COMPANY
 WELL.      NPR #3 #51-14:   WELL
 FLD .             TEAPOT:   FIELD
 LOC .      S14 T38N R78W:   LOCATION
 CNTY.            NATRONA:   COUNTY
 STAT.            WYOMING:   STATE
 CTRY. UNITED STATES OF AMERICA:   COUNTRY
 SRVC.              Welex:   SERVICE COMPANY
 DATE.        03-MAR-1977:   LOGDATE
 API .       490251029700:   API NUMBER
~CURVE INFORMATION
#MNEM.UNIT       API CODE    CURVE DESCRIPTION
#----------   ------------   ------------------------------
 DEPT.F                  :   
 SGRD.OHMM   07 220 05 00:   SHALLOW RESISTIVITY
 ILM .OHMM   07 120 44 00:   INDUCTION LOG MEDIUM
 ILD .OHMM   07 120 46 00:   INDUCTION LOG DEEP
 SPR .MV     07 010 01 00:   SPONTANEOUS POTENTIAL
 DPHI.DEC    45 890 12 00:   DENSITY POROSITY SANDSTONE
 RHOB.G/C3   45 350 01 00:   BULK DENSITY
 CORR.G/C3   45 356 01 00:   DENSITY CORRECTION
 CALD.IN     45 280 60 00:   CALIPER
 GRD .GAPI   45 310 01 00:   GAMMA RAY FROM DENSITY LOG
~PARAMETER INFORMATION
#MNEM.UNIT          VALUE    DESCRIPTION
#----------   ------------   ------------------------------
 PD  .                 GL:   PERMANENT DATUM
 EPD .F            5221.8:   ELEVATION PERMANENT DATUM
 LMF .                 GL:   LOG MEASURED FROM
 DMF .                 GL:   DRILLING MEASURED FROM
 EGL .F            5221.8:   GROUND LEVEL
 DATE.             3-3-77:   RUN DATE
 RUN .                  1:   RUN NUMBER
 DD  .F               967:   DEPTH DRILLER
 DL  .F               964:   DEPTH LOGGER
 BLI .F               962:   BOTTOM LOG INTERVAL
 TLI .F                42:   TOP LOG INTERVAL
 CS  .IN            8.625:   CASING SIZE
 CBD .F                42:   CASING BOTTOM DRILLER
 CBL .F                42:   CASING BOTTOM LOGGER
 BS  .IN            7.875:   BIT SIZE
 BSD .F               967:   BIT SIZE AT DEPTH
 DFT .           CHEM-GEL:   DRILLING FLUID TYPE
 DFD .                8.7:   DRILLING FLUID DENSITY
 DFV .                 33:   DRILLING FLUID VISCOSITY
 DFPH.                7.2:   DRILLING FLUID PH
 DFL .                 10:   DRILLING FLUID LOSS
 MSS .          FLOW LINE:   MUD SAMPLE SOURCE
 RMS .OHMM           .422:   RESISTIVITY MUD SAMPLE
 MST .F                56:   MUD SAMPLE TEMPERATURE
 RMF .OHMM           .372:   RESISTIVITY MUD FILTRATE SAMPLE
 MFST.F                56:   MUD FILTRATE SAMPLE TEMPERATURE
 RMC .OHMM           .484:   RESISTIVITY MUD CAKE
 MCST.F                56:   MUD CAKE SAMPLE TEMPERATURE
 MFSS.           MEASURED:   MUD FILTRATE SAMPLE SOURCE
 MCSS.           MEASURED:   MUD CAKE SAMPLE SOURCE
 RMB .OHMM           .284:   RESISTIVITY MUD AT BHT
 BHT .F                83:   BOTTOM HOLE TEMPERATURE
 TCS .HRS               2:   TIME CURCULATED STOPPED
 MRT .F                83:   MAXIMUM RECORDED TEMPERATURE
 LUN .               8611:   LOGGING UNIT NUMBER
 LUL .           GILLETTE:   LOGGING UNIT LOCATION
 ENGI.          D. LAWSON:   RECORDING ENGINEER
 WITN.         STUEBINGER:   WITNESSED BY
 CLNT.            A2DTECH:   CLIENT CODE
 ORIG.        2" 5" PRINT:   ORIGIN OF DATA
 UWI .       490251029700:   UNIQUE WELL ID
 DICO. A2D Technologies, Inc.:   DIGITIZING COMPANY
~OTHER INFORMATION
~A    DEPT    SGRD        ILM        ILD        SPR       DPHI       RHOB       CORR       CALD        GRD   
# ...
  693.5000     8.6194     6.9812     5.1762   -46.9037     0.1148     2.4527     0.0605     8.1430   129.8199
  694.0000     8.4607     6.7979     5.0023   -47.0035     0.1174     2.4491     0.0588     8.1457   131.8087
  694.5000     8.3048     6.6196     4.8342   -47.1032     0.1201     2.4456     0.0571     8.1485   133.7954
  695.0000     8.1518     6.4458     4.6718   -47.2029     0.1221     2.4420     0.0560     8.1513   134.9073
  695.5000     8.0016     6.2767     4.5148   -47.3027     0.1189     2.4439     0.0596     8.1540   135.1751
  696.0000     7.8592     6.1120     4.3631   -47.4038     0.1157     2.4511     0.0631     8.1568   137.2751
  696.5000     7.5138     5.9516     4.2165   -47.5042     0.1126     2.4581     0.0666     8.1556   139.4974
  697.0000     6.6269     5.7954     4.1218   -47.3824     0.1094     2.4651     0.0694     8.1540   140.8280
  697.5000     5.8519     5.5808     4.1598   -47.2408     0.1062     2.4721     0.0659     8.1523   140.5870
  698.0000     5.2880     5.6576     4.2753   -47.1002     0.1031     2.4791     0.0677     8.1507   138.0747
  698.5000     8.0578     5.8423     4.4289   -46.9598     0.0996     2.4861     0.0699     8.1491   135.5687
  699.0000     8.6907     6.1074     4.5880   -46.8195     0.0950     2.4930     0.0721     8.1474   135.6124
  699.5000     9.1172     6.3845     4.7528   -46.6791     0.0908     2.4982     0.0738     8.1458   136.0926
  700.0000     9.4351     6.6742     4.9235   -46.5388     0.0947     2.4941     0.0730     8.1442   136.5658
  700.5000     9.7715     6.9770     5.1004   -46.3985     0.0986     2.4880     0.0667     8.1426   137.0531
  701.0000     9.6252     7.2936     5.2836   -46.2581     0.1025     2.4816     0.0602     8.1409   136.8219
  701.5000     9.4777     7.6245     5.4734   -46.1178     0.1064     2.4759     0.0554     8.1393   135.4909
  702.0000     9.3330     7.8388     5.6700   -45.9772     0.1058     2.4754     0.0549     8.1377   134.0499
  702.5000     9.7590     7.7924     5.8737   -45.8367     0.1047     2.4750     0.0542     8.1320   132.6119
  703.0000    10.1371     7.6167     5.8994   -45.7063     0.1035     2.4736     0.0535     8.1246   131.5992
  703.5000     9.9948     7.4192     5.9022   -45.6556     0.1039     2.4721     0.0520     8.1172   133.2057
  704.0000     9.8721     7.5078     5.9050   -45.6022     0.1066     2.4706     0.0504     8.1097   134.9848
  704.5000     9.7715     7.6139     5.9078   -45.5486     0.1084     2.4689     0.0519     8.1023   136.4947
  705.0000     9.8612     7.7230     5.9106   -45.4950     0.1060     2.4726     0.0563     8.0949   135.7695
  705.5000     9.9384     7.8399     5.9134   -45.4414     0.1011     2.4793     0.0618     8.0875   137.1646
  706.0000    10.0443     7.8383     5.9162   -45.3879     0.0955     2.4862     0.0676     8.0801   140.7222
  706.5000    10.0201     7.8398     5.9190   -45.3343     0.0996     2.4818     0.0707     8.0726   144.3305
  707.0000     9.9805     7.8370     5.9218   -45.2807     0.1066     2.4731     0.0668     8.0652   144.8210
  707.5000     9.9416     7.8413     5.9246   -45.2270     0.1096     2.4695     0.0665     8.0578   140.4782
  708.0000     9.9029     7.3504     5.9275   -45.1725     0.1032     2.4792     0.0677     8.0504   139.7836
  708.5000     9.8644     7.4731     5.9303   -45.1235     0.0997     2.4837     0.0689     8.0430   139.9502
  709.0000     9.8260     7.5686     5.9331   -45.2127     0.0995     2.4817     0.0701     8.0392   137.9776
  709.5000     9.7715     7.6661     5.9359   -45.3084     0.0999     2.4800     0.0712     8.0446   135.9881
  710.0000     9.8413     7.7646     5.9387   -45.4033     0.0990     2.4825     0.0724     8.0499   135.3108
  710.5000     9.9636     7.8636     5.9415   -45.4982     0.0976     2.4853     0.0736     8.0552   136.4502
  711.0000    10.0875     7.9383     5.9445   -45.5930     0.0985     2.4883     0.0738     8.0604   137.5737
  711.5000    10.2128     7.9838     5.9472   -45.6879     0.1012     2.4838     0.0706     8.0657   138.6997
  712.0000    10.3250     7.9279     5.9527   -45.7827     0.1039     2.4764     0.0663     8.0709   139.8357
  712.5000    10.2080     7.8736     5.8878   -45.8775     0.1066     2.4691     0.0619     8.0762   139.9710
  713.0000    10.1042     7.8202     5.7744   -45.9724     0.1092     2.4636     0.0595     8.0815   138.9358
  713.5000    10.0014     7.7671     5.6634   -46.0672     0.1119     2.4613     0.0590     8.0868   137.7730
  714.0000     9.8997     7.7143     5.5546   -46.1621     0.1132     2.4590     0.0585     8.0920   137.9348
  714.5000     9.7991     7.5456     5.4480   -46.2569     0.1130     2.4581     0.0581     8.0973   140.6725
  715.0000     9.7279     7.3212     5.3434   -46.3518     0.1129     2.4584     0.0579     8.1025   143.8253
  715.5000     9.2885     7.1035     5.2408   -46.4466     0.1126     2.4589     0.0599     8.1078   145.1538
  716.0000     7.6873     6.8923     5.1402   -46.5414     0.1098     2.4634     0.0619     8.1131   145.7785
  716.5000     8.2490     6.6869     5.0415   -46.6363     0.1071     2.4685     0.0639     8.1184   146.2881
  717.0000     8.9964     6.4884     4.9447   -46.7311     0.1043     2.4734     0.0652     8.1236   145.9875
  717.5000     8.9530     6.2884     4.8498   -46.8260     0.1080     2.4656     0.0608     8.1289   145.6887
  718.0000     8.9142     6.5706     4.7567   -46.9209     0.1124     2.4563     0.0562     8.1341   145.3403
  718.5000     9.2477     7.0191     4.6653   -47.0166     0.1168     2.4470     0.0517     8.1394   141.3434
  719.0000     9.1209     6.8744     4.5758   -47.1075     0.1212     2.4377     0.0478     8.1447   136.8881
  719.5000     8.1951     6.6050     4.4769   -47.0632     0.1256     2.4283     0.0488     8.1500   132.4639
  720.0000     6.7559     6.3487     4.5418   -47.0126     0.1298     2.4222     0.0500     8.1552   130.3572
  720.5000     5.7895     6.1027     4.6172   -46.9626     0.1244     2.4346     0.0511     8.1605   128.5332
  721.0000     7.2733     6.0062     4.6939   -46.9127     0.1176     2.4473     0.0544     8.1657   127.2338
  721.5000     8.7954     6.1546     4.7718   -46.8629     0.1108     2.4601     0.0598     8.1710   127.4408
  722.0000     9.4191     6.3683     4.8510   -46.8129     0.1063     2.4726     0.0635     8.1763   129.4170
  722.5000     9.1935     6.5904     4.9316   -46.7619     0.1074     2.4723     0.0625     8.1816   131.4122
  723.0000     9.0136     6.8208     5.0136   -46.7185     0.1085     2.4704     0.0623     8.1868   133.0146
  723.5000     8.9142     7.0569     5.0967   -46.8613     0.1048     2.4757     0.0678     8.1921   132.9024
  724.0000     9.2039     7.1511     5.1855   -47.0125     0.0990     2.4838     0.0724     8.1962   131.8403
  724.5000     9.4108     7.1511     5.0739   -47.1627     0.0932     2.4921     0.0745     8.1909   130.7616
  725.0000     9.6224     7.0532     4.9318   -47.3128     0.0898     2.5001     0.0767     8.1854   130.0040
  725.5000     9.6822     6.8347     4.7937   -47.4628     0.0929     2.4939     0.0773     8.1799   131.6900
  726.0000     9.6822     6.6445     4.6594   -47.6128     0.0973     2.4859     0.0763     8.1744   133.3930
  726.5000     9.0267     6.2473     4.5289   -47.7631     0.1016     2.4797     0.0754     8.1690   134.3545
  727.0000     8.3383     5.8904     4.4021   -47.9132     0.1059     2.4754     0.0744     8.1635   132.3948
  727.5000     6.7624     5.5540     4.2788   -48.0689     0.1130     2.4618     0.0717     8.1580   133.8901
  728.0000     4.8626     5.2816     4.1598   -47.9034     0.1230     2.4445     0.0646     8.1526   134.9466
  728.5000     5.7874     5.5574     4.1598   -47.6154     0.1190     2.4374     0.0599     8.1471   134.2644
  729.0000     8.9142     5.7440     4.2101   -47.3250     0.1123     2.4571     0.0610     8.1417   132.4068
  729.5000     8.5927     5.7710     4.2519   -47.0351     0.1068     2.4704     0.0620     8.1362   130.5631
