~VERSION INFORMATION
 VERS.                2.0:   CWLS LOG ASCII STANDARD - VERSION 2.0
 WRAP.                 NO:   ONE LINE PER DEPTH STEP
~WELL INFORMATION
#MNEM.UNIT      DATA TYPE    INFORMATION
#----------   ------------   ------------------------------
 STRT.F           26.0000:   START DEPTH
 STOP.F          543.5000:   STOP DEPTH
 STEP.F            0.5000:   STEP LENGTH
 NULL.          -999.2500:   NO VALUE
 COMP. LAWRENCE/ALLISON INC:   COMPANY
 WELL. NPR 3 #68-61-STX-3:   WELL
 FLD .             TEAPOT:   FIELD
 LOC .       S3 T38N R78W:   LOCATION
 CNTY.            NATRONA:   COUNTY
 STAT.            WYOMING:   STATE
 CTRY. UNITED STATES OF AMERICA:   COUNTRY
 SRVC.           Gearhart:   SERVICE COMPANY
 DATE.        30-MAY-1987:   LOGDATE
 API .       490251112800:   API NUMBER
~CURVE INFORMATION
#MNEM.UNIT       API CODE    CURVE DESCRIPTION
#----------   ------------   ------------------------------
 DEPT.F                  :   
 GRR .GAPI   07 310 01 00:   GAMMA RAY FROM RES. LOG.
 RILD.OHMM   07 120 46 00:   INDUCTION LOG DEEP RESISTIVITY
 RILM.OHMM   07 120 44 00:   INDUCTION LOG MEDIUM
~PARAMETER INFORMATION
#MNEM.UNIT          VALUE    DESCRIPTION
#----------   ------------   ------------------------------
 PD  .                 GL:   PERMANENT DATUM
 EPD .F              5176:   ELEVATION PERMANENT DATUM
 LMF .                 KB:   LOG MEASURED FROM
 DAPD.F                 8:   FEET ABOVE PERMANENT DATUM
 DMF .                 KB:   DRILLING MEASURED FROM
 EKB .F              5184:   KELLING BUSHING
 EDF .F              5182:   DRILLING FLOOR
 EGL .F              5176:   GROUND LEVEL
 DATE.          5-30-1987:   RUN DATE
 RUN .                  1:   RUN NUMBER
 DD  .F               550:   DEPTH DRILLER
 DL  .F               552:   DEPTH LOGGER
 BLI .F               544:   BOTTOM LOG INTERVAL
 TLI .F                30:   TOP LOG INTERVAL
 CS  .IN            8.625:   CASING SIZE
 CBD .F                50:   CASING BOTTOM DRILLER
 CBL .F                49:   CASING BOTTOM LOGGER
 BS  .IN            7.875:   BIT SIZE
 BSD .F               550:   BIT SIZE AT DEPTH
 DFT .                AIR:   DRILLING FLUID TYPE
 TLAB.HRS            0735:   TIME LOGGER AT BOTTOM
 MRT .F                80:   MAXIMUM RECORDED TEMPERATURE
 LUN .               7597:   LOGGING UNIT NUMBER
 LUL .           GILLETTE:   LOGGING UNIT LOCATION
 ENGI.         WEATHERMON:   RECORDING ENGINEER
 WITN.             STRONG:   WITNESSED BY
 CLNT.            A2DTECH:   CLIENT CODE
 ORIG.       2", 5" PRINT:   ORIGIN OF DATA
 UWI .       490251112800:   UNIQUE WELL ID
 DICO. A2D Technologies, Inc.:   DIGITIZING COMPANY
~OTHER INFORMATION
~A   DEPT       GRR      RILD       RILM   
# ...
  481.0000   119.6432    10.3713    10.0324
  481.5000   118.3902    10.2098     9.8387
  482.0000   116.7351    10.0508     9.7038
  482.5000   115.2430     9.8943     9.5472
  483.0000   116.4564     9.7402     9.3921
  483.5000   118.5546     9.5885     9.2396
  484.0000   122.2596     9.4392     9.1246
  484.5000   125.3996     9.2922     8.9443
  485.0000   125.8003     9.1255     8.7737
  485.5000   125.8392     8.9341     8.6063
  486.0000   124.4844     8.7468     8.4421
  486.5000   125.3652     8.5634     8.2723
  487.0000   125.9930     8.3897     8.0257
  487.5000   125.3203     8.4681     7.7864
  488.0000   123.2737     8.5414     7.7045
  488.5000   121.6073     8.8558     7.9683
  489.0000   122.7176     9.1129     8.2662
  489.5000   124.4429     9.3778     8.5895
  490.0000   126.1336     9.6508     8.9254
  490.5000   123.7459     9.9160     9.2745
  491.0000   121.7410    10.1803     9.6373
  491.5000   122.6785    10.4518     9.9407
  492.0000   124.2515    10.7304    10.1671
  492.5000   125.2659    11.0165    10.3986
  493.0000   122.8626    11.3102    10.6354
  493.5000   120.4231    11.6118    10.9085
  494.0000   118.9242    11.6503    10.8975
  494.5000   117.9829    11.6502    10.8850
  495.0000   118.0806    11.5834    10.8725
  495.5000   118.1944    11.5208    10.8601
  496.0000   118.3084    11.4589    10.8476
  496.5000   118.4010    11.3974    10.8351
  497.0000   117.7951    11.3362    10.8228
  497.5000   115.0916    11.2754    10.8098
  498.0000   114.7712    11.2149    10.7872
  498.5000   114.2355    11.1547    10.7498
  499.0000   112.3831    11.0948    10.7118
  499.5000   110.8204    11.0353    10.6740
  500.0000   115.3849    10.9761    10.6364
  500.5000   117.8923    10.9172    10.5990
  501.0000   116.9128    10.8586    10.5617
  501.5000   115.8792    10.8064    10.5288
  502.0000   114.8489    10.6464    10.3514
  502.5000   113.7863    10.3377     9.8808
  503.0000   113.1345    10.0379     9.4244
  503.5000   113.6127     9.5071     8.9909
  504.0000   115.4971     8.5264     8.7057
  504.5000   117.5357     7.6514     8.4683
  505.0000   117.1980     6.8464     8.0473
  505.5000   114.6862     6.1021     7.2878
  506.0000   113.5382     5.4343     6.6001
  506.5000   115.5318     4.8396     5.9814
  507.0000   118.0681     4.3100     5.2076
  507.5000   119.9630     3.8073     4.3764
  508.0000   119.7701     3.6637     3.7735
  508.5000   117.9546     3.5323     3.2793
  509.0000   114.7113     3.4640     3.0057
  509.5000   111.5635     3.4645     3.0073
  510.0000   108.4309     3.6326     3.1314
  510.5000   107.4542     3.8898     3.3665
  511.0000   107.4642     4.1834     3.8528
  511.5000   108.6872     4.7084     4.4096
  512.0000   112.4180     5.3826     5.0140
  512.5000   115.2848     6.1533     5.6315
  513.0000   113.9647     7.0796     6.3250
  513.5000   112.7045     7.4264     6.9907
  514.0000   111.5704     7.8089     7.5023
  514.5000   111.9353     8.2284     8.0752
  515.0000   112.4014     8.4288     8.1668
  515.5000   114.7046     8.6431     8.2638
  516.0000   119.6749     8.8709     8.3622
  516.5000   122.8648     8.8968     8.4009
  517.0000   122.5327     8.9309     8.4310
  517.5000   121.0461     8.9650     8.4608
  518.0000   119.5432     8.9993     8.4908
  518.5000   118.8335     9.0338     8.5208
  519.0000   119.0712     9.0684     8.5510
  519.5000   119.4031     9.1030     8.5813
  520.0000   119.7444     9.1246     8.6115
  520.5000   120.4958     9.0709     8.6245
  521.0000   123.7221     9.0321     8.6153
  521.5000   127.0210     8.9936     8.6087
  522.0000   127.8091     8.9551     8.6022
  522.5000   126.9542     8.9169     8.5956
  523.0000   127.5912     8.8788     8.5891
  523.5000   128.7570     8.8571     8.5826
  524.0000   129.9684     8.8398     8.5761
  524.5000   129.0877     8.8225     8.5696
  525.0000   127.7477     8.8054     8.5631
  525.5000   127.0458     8.7879     8.5566
  526.0000   127.7276     8.8269     8.5500
  526.5000   127.2526     8.8659     8.5438
  527.0000   126.1606     8.9052     8.5436
  527.5000   124.4718     8.9446     8.5436
  528.0000   122.8899     8.9841     8.5437
  528.5000  -999.2500     9.0392     8.5437
  529.0000  -999.2500     8.9633     8.5428
  529.5000  -999.2500     8.8410     8.5463
  530.0000  -999.2500     8.7204     8.3700
  530.5000  -999.2500     8.6024     8.2496
  531.0000  -999.2500     8.4818     8.2284
  531.5000  -999.2500     8.2843     8.1615
  532.0000  -999.2500     7.7318     7.8711
  532.5000  -999.2500     7.3573     7.5912
  533.0000  -999.2500     7.0384     7.4908
  533.5000  -999.2500     6.7320     7.2835
  534.0000  -999.2500     6.5654     7.3906
  534.5000  -999.2500     6.7636     7.5210
  535.0000  -999.2500     7.0068     7.6566
  535.5000  -999.2500     7.2587     7.8686
  536.0000  -999.2500     7.5468     8.1355
  536.5000  -999.2500     7.8624     8.4099
  537.0000  -999.2500     8.1910     8.6936
  537.5000  -999.2500     8.5325     8.9868
  538.0000  -999.2500     8.8732     9.2899
  538.5000  -999.2500     9.1370     9.6033
  539.0000  -999.2500     9.3508     9.9272
  539.5000  -999.2500     9.4775    10.3104
  540.0000  -999.2500  -999.2500    10.3001
  540.5000  -999.2500  -999.2500    10.2844
  541.0000  -999.2500  -999.2500    10.2688
  541.5000  -999.2500  -999.2500    10.2533
  542.0000  -999.2500  -999.2500    10.2377
  542.5000  -999.2500  -999.2500    10.2221
  543.0000  -999.2500  -999.2500    10.2139
  543.5000  -999.2500  -999.2500    10.6658
