~VERSION INFORMATION
 VERS.                2.0:   CWLS LOG ASCII STANDARD - VERSION 2.0
 WRAP.                 NO:   ONE LINE PER DEPTH STEP
~WELL INFORMATION
#MNEM.UNIT      DATA TYPE    INFORMATION
#----------   ------------   ------------------------------
 STRT.F           80.0000:   START DEPTH
 STOP.F         1011.0000:   STOP DEPTH
 STEP.F            0.5000:   STEP LENGTH
 NULL.          -999.2500:   NO VALUE
 COMP.          U.S. NAVY:   COMPANY
 WELL. RES 3 TEAPOT DOM #61S-11:   WELL
 FLD .             TEAPOT:   FIELD
 LOC .      S11 T38N R78W:   LOCATION
 CNTY.            NATRONA:   COUNTY
 STAT.            WYOMING:   STATE
 CTRY. UNITED STATES OF AMERICA:   COUNTRY
 SRVC.       Schlumberger:   SERVICE COMPANY
 DATE.        23-JUL-1964:   LOGDATE
 API .       490250637500:   API NUMBER
~CURVE INFORMATION
#MNEM.UNIT       API CODE    CURVE DESCRIPTION
#----------   ------------   ------------------------------
 DEPT.F                  :   
 CALS.IN     60 280 50 00:   CALIPER FROM SONIC LOG
 DT  .US/F   60 520 33 00:   INTERVAL TRANSIT TIME
 GR  .GAPI   30 310 01 00:   GAMMA RAY
 CILD.MMHO   05 110 46 00:   CONDUCTIVITY INDUCTION LOG DEEP
 ILD .OHMM   05 120 46 00:   INDUCTION LOG DEEP
 ASN .OHMM   05 041 16 00:   AMPLIFIED SHORT NORMAL 16"
 SPR .MV     05 010 01 00:   SPONTANEOUS POTENTIAL FROM RES.
~PARAMETER INFORMATION
#MNEM.UNIT          VALUE    DESCRIPTION
#----------   ------------   ------------------------------
 PD  .                 GL:   PERMANENT DATUM
 EPD .F              5199:   ELEVATION PERMANENT DATUM
 LMF .                 KB:   LOG MEASURED FROM
 DAPD.F                 5:   FEET ABOVE PERMANENT DATUM
 DMF .                 KB:   DRILLING MEASURED FROM
 EKB .F              5204:   KELLING BUSHING
 EGL .F              5199:   GROUND LEVEL
 DATE.          7-23-1964:   RUN DATE
 RUN .                  1:   RUN NUMBER
 DD  .F              1010:   DEPTH DRILLER
 DL  .F              1012:   DEPTH LOGGER
 BLI .F              1011:   BOTTOM LOG INTERVAL
 TLI .F                88:   TOP LOG INTERVAL
 CS  .IN            8.625:   CASING SIZE
 CBD .F                10:   CASING BOTTOM DRILLER
 BS  .IN             6.75:   BIT SIZE
 BSD .F              1010:   BIT SIZE AT DEPTH
 DFT .            GEL-OIL:   DRILLING FLUID TYPE
 DFD .                9.8:   DRILLING FLUID DENSITY
 DFV .                 54:   DRILLING FLUID VISCOSITY
 MSS .           FLOWLINE:   MUD SAMPLE SOURCE
 RMS .OHMM           1.47:   RESISTIVITY MUD SAMPLE
 MST .F                86:   MUD SAMPLE TEMPERATURE
 RMF .OHMM            .96:   RESISTIVITY MUD FILTRATE SAMPLE
 MFST.F                86:   MUD FILTRATE SAMPLE TEMPERATURE
 RMC .OHMM           2.10:   RESISTIVITY MUD CAKE
 MCST.F                86:   MUD CAKE SAMPLE TEMPERATURE
 MFSS.                 FP:   MUD FILTRATE SAMPLE SOURCE
 MCSS.                 FP:   MUD CAKE SAMPLE SOURCE
 TCS .HRS               2:   TIME CURCULATED STOPPED
 LUN .               4507:   LOGGING UNIT NUMBER
 LUL .              CSPR.:   LOGGING UNIT LOCATION
 ENGI.             DANNER:   RECORDING ENGINEER
 WITN.          JORGENSEN:   WITNESSED BY
 CLNT.            A2DTECH:   CLIENT CODE
 ORIG.      2" & 5" PRINT:   ORIGIN OF DATA
 UWI .       490250637500:   UNIQUE WELL ID
 DICO. A2D Technologies, Inc.:   DIGITIZING COMPANY
~OTHER INFORMATION
~A   DEPT     CALS         DT         GR        CILD         ILD        ASN      SPR   
# ...
  671.5000     6.7023   101.0641    78.4685   139.9824     7.4271     8.5778   -28.6947
  672.0000     6.7629   100.1537    76.5165   137.7109     7.6494     8.5620   -28.8403
  672.5000     6.7934    99.3636    74.2643   134.6954     7.7985     8.5486   -28.8417
  673.0000     6.7937    98.9110    73.0631   131.6714     7.9472     8.6371   -28.8431
  673.5000     6.7940    98.6843    72.0120   130.1428     8.0222     8.7846   -28.7006
  674.0000     6.7943    98.6083    73.0631   130.1002     8.1709     8.9762   -28.8463
  674.5000     6.7795    98.6076    75.0150   130.8005     8.1724     9.1825   -28.8476
  675.0000     6.7496    98.7574    72.3123   131.5007     8.0265     9.3888   -28.9929
  675.5000     6.7348    99.0580    71.5616   133.6762     7.9543     9.4479   -28.9943
  676.0000     6.7352    97.8523    78.3183   134.3872     7.8084     8.4760   -28.9957
  676.5000     6.7053    97.4752    78.4685   135.0875     7.7362     8.8296   -28.8532
  677.0000     6.6302    98.4532    75.7658   135.7878     7.5907     9.0065   -28.4233
  677.5000     6.5701    99.2808    70.2102   137.2203     7.4445     8.9772   -27.9930
  678.0000     6.5856    99.7318    66.9069   138.7223     7.2990     8.5355   -27.5624
  678.5000     6.6160   100.0323    66.6066   142.3250     7.3741     8.4031   -27.5642
  679.0000     6.6465   100.4833    69.3093   143.0359     7.4495     8.5211   -27.4217
  679.5000     6.6770   100.9344    70.0601   140.7538     7.5982     8.6096   -27.4230
  680.0000     6.6773   100.4818    72.0120   137.7393     7.8205     8.5950   -27.5780
  680.5000     6.6776    99.9540    74.5646   135.4678     7.8956     8.5804   -28.1456
  681.0000     6.6779    99.6520    70.0601   133.9376     7.8970     8.6984   -28.7225
  681.5000     6.6782    99.4254    69.4595   133.8860     7.8984     8.8163   -28.8678
  682.0000     6.6633    99.2740    71.2613   133.8433     7.7526     8.9217   -28.7250
  682.5000     6.6335    99.1227    68.5586   133.8007     7.6803     8.9492   -28.2950
  683.0000     6.5433    98.9713    71.4114   134.5022     7.6081     8.9052   -28.1525
  683.5000     6.5889    98.8953    70.9610   135.9442     7.5359     8.7728   -28.0034
  684.0000     6.6797    98.8192    72.1622   136.6445     7.4637     8.6404   -27.7240
  684.5000     6.6950    98.8938    73.5135   136.5911     7.4655     8.5080   -27.7254
  685.0000     6.6954    99.0436    71.7117   136.5485     7.4669     8.4934   -27.7268
  685.5000     6.6957    99.5700    70.3604   136.5058     7.4683     8.5525   -27.7282
  686.0000     6.6960    99.8705    73.2132   137.2065     7.4701     8.6262   -27.7296
  686.5000     6.6963    99.8697    73.1861   137.9064     7.3975     8.6411   -27.8749
  687.0000     6.6966    99.8690    77.5676   137.8531     7.3993     8.5970   -28.1678
  687.5000     6.6969    99.1905    80.2703   137.8104     7.4007     8.5383   -28.4772
  688.0000     6.6972    98.2089    78.0180   138.5107     7.4754     8.4795   -28.8866
  688.5000     6.6823    98.2182    79.2192   138.4680     7.4035     8.4187   -29.3196
  689.0000     6.6374    98.7485    79.8419   139.1683     7.4050     8.3620   -29.6088
  689.5000     6.5472    99.2708    78.1682   139.8580     7.4067     8.3180   -30.0418
  690.0000     6.4720    99.5733    74.2643   140.5689     7.4082     8.3034   -30.0432
  690.5000     6.4724    99.8757    74.4144   140.5156     7.4096     8.3035   -30.0446
  691.0000     6.4727   100.2816    77.4174   140.4729     7.4110     8.3331   -29.5933
  691.5000     6.4730   100.9916    78.3696   141.1738     7.4124     8.3489   -28.8967
  692.0000     6.3979   101.5179    73.9640   141.8735     7.3402     8.3629   -28.3222
  692.5000     6.0211   101.8184    80.2703   141.8202     7.2680     8.3631   -27.7480
  693.0000     6.1421   101.7423    74.5646   142.5311     7.2698     8.3190   -27.4616
  693.5000     6.3234   101.6663    74.2513   143.2314     7.1976     8.2897   -27.4634
  694.0000     6.6857   101.5149    75.4655   143.1781     7.1990     8.2457   -27.4648
  694.5000     6.7161   101.3636    79.9700   143.1354     7.2004     8.1869   -27.6101
  695.0000     6.7315   101.2122    83.2733   144.5680     7.2018     8.1429   -27.7556
  695.5000     6.7318   101.1362    84.7748   144.5253     7.2032     8.1578   -27.7570
  696.0000     6.7472   101.1354    84.7748   144.4827     7.2047     8.1874   -27.7584
  696.5000     6.7475   101.3606    84.9249   144.4400     7.1273     8.2317   -27.7598
  697.0000     6.7478   101.6610    85.3754   145.1403     7.0586     8.2465   -27.7612
  697.5000     6.7330   101.8111    87.4775   145.0965     6.9899     8.2467   -27.6187
  698.0000     6.7333   101.8857    88.6787   145.7979     6.9276     8.2313   -27.6201
  698.5000     6.7336   101.9602    90.4805   146.4982     6.9262     8.1439   -27.4776
  699.0000     6.7189   101.9593    89.8799   146.4449     6.9248     8.0704   -27.4793
  699.5000     6.7192   101.8832    88.3784   145.6593     6.9234     8.0411   -27.4807
  700.0000     6.7044   101.8825    83.5736   145.6166     6.9956     8.0753   -27.3379
  700.5000     6.6906   101.9296    81.0162   144.8825     7.1414     8.1039   -27.4164
  701.0000     6.6628   101.4964    79.0597   144.1483     7.2137     8.1325   -27.4849
  701.5000     6.6449   100.8141    78.4547   143.4142     7.2859     8.2180   -27.1985
  702.0000     6.5850   100.6747    78.1499   142.6801     7.3581     8.3358   -27.0560
  702.5000     6.5249   101.5776    74.8421   141.6778     7.5039     8.4242   -27.0578
  703.0000     6.5403   100.9261    74.2082   140.8468     7.5758     8.4389   -27.2030
  703.5000     6.6160    99.7407    75.8842   139.3529     7.6480     8.4687   -27.7800
  704.0000     6.6917    98.8643    77.5755   138.5673     7.7199     8.5125   -28.6447
  704.5000     6.7373    98.4118    76.7392   137.0387     7.7921     8.5567   -28.9338
  705.0000     6.7225    98.2604    78.7236   136.9960     7.7170     8.6156   -28.9352
  705.5000     6.6926    98.4856    78.1185   136.2104     7.7156     8.7187   -28.6492
  706.0000     6.6325    99.5390    76.4624   135.9478     7.6406     8.7923   -28.2189
  706.5000     6.5575    99.4630    76.3033   135.6815     7.6391     8.8071   -27.7883
  707.0000     6.4673    99.1610    77.8048   135.4153     7.5641     8.7326   -27.7901
  707.5000     6.4524    98.9344    83.2308   137.5148     7.5623     8.5714   -27.9353
  708.0000     6.5131   100.2891    86.6547   138.9580     7.5609     8.4831   -28.3684
  708.5000     6.5889   100.0624    83.7783   141.1442     7.4122     8.4389   -28.8081
  709.0000     6.6193    99.5345    83.0291   142.5767     7.3371     8.4094   -28.9470
  709.5000     6.5140    99.3834    82.1202   144.0306     7.1884     8.3652   -28.9484
  710.0000     6.4842   100.0602    81.9820   145.4631     7.1134     8.2769   -28.6617
  710.5000     6.4694   101.1136    82.6252   146.9169     6.9588     8.1431   -28.2318
  711.0000     6.4546   102.0918    84.3868   149.8365     6.8156     8.1296   -27.6576
  711.5000     6.4549   102.9947    86.3219   152.0215     6.7406     8.1296   -27.2274
  712.0000     6.4552   103.3704    83.1643   154.1969     6.5919     8.0854   -26.7971
  712.5000     6.4555   103.5205    79.2559   155.6508     6.5168     7.9823   -26.7986
  713.0000     6.4562   103.5950    75.9481   157.8263     6.5154     7.8645   -26.9441
  713.5000     6.4863   103.5188    74.1419   158.5372     6.4403     7.7467   -26.9455
  714.0000     6.5330   103.2921    71.1344   158.4838     6.4389     7.6567   -27.0908
  714.5000     6.6091   102.8396    70.6806   157.6969     6.5111     7.6141   -27.2361
  715.0000     6.6551   102.4623    77.5819   155.4160     6.5834     7.6436   -27.0936
  715.5000     6.6986   102.3110    76.0759   153.1445     6.7289     7.7614   -27.0950
  716.0000     6.6989   102.4608    83.7291   150.8730     6.8747     7.9381   -26.9525
  716.5000     6.7144   102.7613    84.9269   148.6015     7.0206     8.0707   -26.9542
