~VERSION INFORMATION
 VERS.                2.0:   CWLS LOG ASCII STANDARD - VERSION 2.0
 WRAP.                 NO:   ONE LINE PER DEPTH STEP
~WELL INFORMATION
#MNEM.UNIT      DATA TYPE    INFORMATION
#----------   ------------   ------------------------------
 STRT.F            0.0000:   START DEPTH
 STOP.F          547.0000:   STOP DEPTH
 STEP.F            0.1000:   STEP LENGTH
 NULL.          -999.2500:   NO VALUE
 COMP.       F D SERV INC:   COMPANY
 WELL.    87-5 SX 3 #87-3:   WELL
 FLD .             TEAPOT:   FIELD
 LOC .       S3 T38N R78W:   LOCATION
 CNTY.            NATRONA:   COUNTY
 STAT.            WYOMING:   STATE
 CTRY. UNITED STATES OF AMERICA:   COUNTRY
 SRVC.     Atlas Wireline:   SERVICE COMPANY
 DATE.        31-OCT-1992:   LOGDATE
 API .       490252254800:   API NUMBER
~CURVE INFORMATION
#MNEM.UNIT       API CODE    CURVE DESCRIPTION
#----------   ------------   ------------------------------
 DEPT.F                  :   
 GRR .GAPI   07 310 01 00:   GAMMA RAY
 RILD.OHMM   07 120 46 00:   INDUCTION LOG DEEP RESISTIVITY
 RILM.OHMM   07 120 44 00:   INDUCTION LOG MEDIUM RESISTIVITY
~PARAMETER INFORMATION
#MNEM.UNIT          VALUE    DESCRIPTION
#----------   ------------   ------------------------------
 PD  .                 GL:   PERMANENT DATUM
 EPD .F              5119:   ELEVATION PERMANENT DATUM
 LMF .                 KB:   LOG MEASURED FROM
 DAPD.F                10:   FEET ABOVE PERMANENT DATUM
 DMF .                 KB:   DRILLING MEASURED FROM
 EKB .F              5129:   KELLING BUSHING
 EDF .F              5128:   DRILLING FLOOR
 EGL .F              5119:   GROUND LEVEL
 DATE.        31-OCT-1992:   RUN DATE
 RUN .                  1:   RUN NUMBER
 DD  .F               568:   DEPTH DRILLER
 DL  .F               555:   DEPTH LOGGER
 BLI .F               547:   BOTTOM LOG INTERVAL
 TLI .F                71:   TOP LOG INTERVAL
 CS  .IN            8.625:   CASING SIZE
 CBD .F                70:   CASING BOTTOM DRILLER
 CBL .F                71:   CASING BOTTOM LOGGER
 BS  .IN            7.875:   BIT SIZE
 BSD .F               568:   BIT SIZE AT DEPTH
 DFT .           AIR FOAM:   DRILLING FLUID TYPE
 TCS .HRS               2:   TIME CURCULATED STOPPED
 MRT .F                64:   MAXIMUM RECORDED TEMPERATURE
 LUN .            HL-6274:   LOGGING UNIT NUMBER
 LUL .             CASPER:   LOGGING UNIT LOCATION
 ENGI.        P.RASHUSSEN:   RECORDING ENGINEER
 WITN.     BRUCE ANDERSON:   WITNESSED BY
 CLNT.            A2DTECH:   CLIENT CODE
 ORIG.           5" PRINT:   ORIGIN OF DATA
 UWI .       490252254800:   UNIQUE WELL ID
 DICO. A2D Technologies, Inc.:   DIGITIZING COMPANY
~OTHER INFORMATION
~A    DEPT      GRR      RILD       RILM   
# ...
   72.8000   120.6952  8373.2119  9897.0557
   72.9000   120.9788  5371.7002  9891.9961
   73.0000   120.9772    40.8387  8830.5508
   73.1000   120.9754     6.1156  2857.0808
   73.2000   121.0893     4.3674   271.7964
   73.3000   121.3396     2.7118    13.6583
   73.4000   121.5770     2.5595    13.3547
   73.5000   121.5748     2.4001    13.1141
   73.6000   122.0006     2.2119    12.9673
   73.7000   122.3407     2.0194    12.8166
   73.8000   122.8127     1.8830    12.7096
   73.9000   123.5077     1.7580    12.7744
   74.0000   124.0182     1.7579    13.3853
   74.1000   124.9023     1.7656    15.5042
   74.2000   125.5271     1.7817    16.5154
   74.3000   126.4391     1.8065    17.5313
   74.4000   127.2336     1.8439    18.3262
   74.5000   127.8452     1.9115    19.1115
   74.6000   128.8486     1.9781    20.1142
   74.7000   129.7471     2.0971    21.0771
   74.8000   130.1536     2.2053    22.0808
   74.9000   130.6559     2.2813    23.0288
   75.0000   131.1583     2.4247    23.8183
   75.1000   131.6109     2.9293    24.5221
   75.2000   131.8628     3.4133    25.9824
   75.3000   132.3620     3.6164    30.3323
   75.4000   132.6652     4.0792    35.8262
   75.5000   132.9155     4.7743    38.6909
   75.6000   133.0695     5.6955    45.7373
   75.7000   133.0677     6.8999    55.5963
   75.8000   133.0658     7.9492    65.2428
   75.9000   133.0640     8.9776    71.0310
   76.0000   133.0622    10.0890    72.0093
   76.1000   133.0604    10.9567    72.0077
   76.2000   133.0586    11.5588    64.4505
   76.3000   133.0567    12.0194    54.2710
   76.4000   133.0549    12.2579    47.2478
   76.5000   133.0531    12.1323    42.3767
   76.6000   133.0513    11.6637    33.6328
   76.7000   133.0495    11.0035    30.1358
   76.8000   133.0477    10.0418    26.2725
   76.9000   133.0458     8.5952    22.5213
   77.0000   133.0439     8.1149    19.3428
   77.1000   133.0422     7.9437    18.0952
   77.2000   133.0404     7.8248    15.9295
   77.3000   133.0385     7.7811    15.0166
   77.4000   133.1185     7.8114    14.4272
   77.5000   133.3386     7.8902    14.0940
   77.6000   133.3364     7.8899    13.8517
   77.7000   133.3347     7.8897    13.8513
   77.8000   133.3329     7.9244    13.8509
   77.9000   133.4594     7.9187    13.9209
   78.0000   133.6328     7.8890    14.0570
   78.1000   133.6819     7.8730    14.3822
   78.2000   134.2359     7.7791    14.9181
   78.3000   134.6867     7.6029    15.5077
   78.4000   135.1891     7.4609    15.8134
   78.5000   135.6915     7.3057    15.9768
   78.6000   136.1938     7.1859    16.0349
   78.7000   136.7168     7.1438    15.9890
   78.8000   137.5634     7.1024    15.8688
   78.9000   138.0045     7.1519    15.6842
   79.0000   138.5068     7.1518    15.4829
   79.1000   138.8906     7.2311    15.1633
   79.2000   139.1409     7.3215    14.7540
   79.3000   139.3912     7.3747    14.2479
   79.4000   139.6768     7.4592    13.5841
   79.5000   139.0258     7.5092    12.6428
   79.6000   137.6073     7.5467    10.8422
   79.7000   135.9544     7.6203    10.5371
   79.8000   134.6270     7.6887    10.2020
   79.9000   133.8907     7.7969    10.2251
   80.0000   133.5961     8.1279    10.5481
   80.1000   133.5945     9.1947    10.7885
   80.2000   133.4325     9.2423    10.9929
   80.3000   133.1786     9.2963    11.1120
   80.4000   132.9821     9.3233    11.2422
   80.5000   132.9863     9.3398    11.3384
   80.6000   133.2816     9.3882    11.4044
   80.7000   134.3140     9.3879    11.4617
   80.8000   135.4173     9.3876    11.3024
   80.9000   136.4239     9.4275    11.1182
   81.0000   137.4304     9.4529    10.9723
   81.1000   138.4370     9.4716    10.8447
   81.2000   139.6440     9.5187    10.6972
   81.3000   140.0463     9.5184    10.5202
   81.4000   140.5487     9.4652    10.3921
   81.5000   141.0511     9.4097    10.2202
   81.6000   141.5057     9.3545    10.1761
   81.7000   141.7596     9.2996    10.1428
   81.8000   142.0063     9.2354    10.0835
   81.9000   142.0595     9.1261    10.0245
   82.0000   142.2033     9.1258     9.9641
   82.1000   142.3593     9.0833     9.9077
   82.2000   142.3575     9.0300     9.8499
   82.3000   142.3556     8.9558     9.7923
   82.4000   142.1103     8.8733     9.7138
   82.5000   142.0486     8.8720     9.6208
   82.6000   141.9059     8.8109     9.6206
   82.7000   141.6520     8.7682     9.5654
   82.8000   141.3981     8.7168     9.5531
   82.9000   141.1307     8.7104     9.5202
   83.0000   140.6515     8.7486     9.4645
   83.1000   139.9581     8.7511     9.4092
   83.2000   139.3360     8.8095     9.3540
   83.3000   138.7454     8.8092     9.3538
   83.4000   137.9872     8.8435     9.3535
   83.5000   137.1744     8.8705     9.3532
   83.6000   136.7049     8.8703     9.3530
   83.7000   136.0164     8.8700     9.3414
   83.8000   135.2583     8.8698     9.2874
   83.9000   134.5798     8.9161     9.2871
   84.0000   134.1305     8.9315     9.2869
   84.1000   134.1285     8.9578     9.2866
   84.2000   133.6688     9.0102     9.2637
   84.3000   133.5181     9.0565     9.2335
   84.4000   133.3900     9.0562     9.2858
   84.5000   133.2858     9.1052     9.2209
   84.6000   133.6065     9.1192     9.2207
   84.7000   134.7245     9.1189     9.2204
   84.8000   135.1713     9.1372     9.1969
   84.9000   135.6736     9.1824     9.1558
   85.0000   136.0546     9.1821     9.1576
   85.1000   136.3049     9.2337     9.2194
   85.2000   136.5552     9.2460     9.2191
   85.3000   136.8380     9.2457     9.2189
   85.4000   137.0557     9.2455     9.2428
   85.5000   137.1381     9.2452     9.2830
   85.6000   137.1363     9.2449     9.2827
   85.7000   137.1344     9.2446     9.2824
   85.8000   137.1189     9.2012     9.2822
   85.9000   136.8270     9.1798     9.2819
   86.0000   136.8255     9.1795     9.2817
   86.1000   136.9867     9.1793     9.2814
   86.2000   137.1253     9.1776     9.2811
   86.3000   137.1235     9.1148     9.2809
   86.4000   137.1395     9.1146     9.3280
   86.5000   137.7265     9.1143     9.3454
   86.6000   137.7250     9.1141     9.3451
   86.7000   137.7232     9.1138     9.3449
   86.8000   137.8282     9.1136     9.3446
   86.9000   138.0231     9.1133     9.3443
   87.0000   138.0253     9.1131     9.3441
   87.1000   138.3226     9.1128     9.3438
   87.2000   138.1163     9.1126     9.3436
   87.3000   137.8624     9.1123     9.3433
   87.4000   137.5065     9.1120     9.3431
   87.5000   137.0511     9.1118     9.3428
   87.6000   136.7964     9.1115     9.3425
   87.7000   136.2919     9.1113     9.3423
   87.8000   135.7859     9.1110     9.3420
   87.9000   135.2799     9.1108     9.3417
   88.0000   134.7739     9.1105     9.3415
   88.1000   134.3136     9.1102     9.3412
   88.2000   134.0540     9.1100     9.3410
   88.3000   134.2986     9.1097     9.3407
   88.4000   134.9390     9.1095     9.3404
   88.5000   135.8371     9.1092     9.3402
   88.6000   136.8437     9.1090     9.3399
   88.7000   137.8503     9.1087     9.3396
   88.8000   138.8989     9.1085     9.3394
   88.9000   139.3803     9.1082     9.3391
   89.0000   140.0728     9.1080     9.3389
   89.1000   140.8273     9.1077     9.3386
   89.2000   141.4944     9.1075     9.3384
   89.3000   141.9968     9.1072     9.3381
   89.4000   142.5298     9.1069     9.3378
   89.5000   142.7648     9.1067     9.3376
   89.6000   143.0151     9.1064     9.3075
   89.7000   143.2654     9.1062     9.2721
   89.8000   143.5156     9.1059     9.2718
   89.9000   143.7350     9.1057     9.2715
   90.0000   143.7328     9.1054     9.2713
   90.1000   143.7311     9.0605     9.2710
   90.2000   143.7293     9.0415     9.2708
   90.3000   143.7275     9.0413     9.2705
   90.4000   143.7256     9.0410     9.2703
   90.5000   143.6975     9.0372     9.2700
   90.6000   143.4183     8.9775     9.2697
   90.7000   143.1897     8.9315     9.2695
   90.8000   143.1114     8.9145     9.2692
   90.9000   142.8611     8.8889     9.2485
