~VERSION INFORMATION
 VERS.                2.0:   CWLS LOG ASCII STANDARD - VERSION 2.0
 WRAP.                 NO:   ONE LINE PER DEPTH STEP
~WELL INFORMATION
#MNEM.UNIT      DATA TYPE    INFORMATION
#----------   ------------   ------------------------------
 STRT.F          566.5000:   START DEPTH
 STOP.F         2065.5000:   STOP DEPTH
 STEP.F            0.5000:   STEP LENGTH
 NULL.          -999.2500:   NO VALUE
 COMP. LAWRENCE/ALLISON INC:   COMPANY
 WELL.      NPR 3 #25-X-3:   WELL
 FLD .             TEAPOT:   FIELD
 LOC .       S3 T38N R78W:   LOCATION
 CNTY.            NATRONA:   COUNTY
 STAT.            WYOMING:   STATE
 CTRY. UNITED STATES OF AMERICA:   COUNTRY
 SRVC.            Unknown:   SERVICE COMPANY
 DATE.        26-SEP-1987:   LOGDATE
 API .       490251119000:   API NUMBER
~CURVE INFORMATION
#MNEM.UNIT       API CODE    CURVE DESCRIPTION
#----------   ------------   ------------------------------
 DEPT.F                  :   
 ROP .MIN/FT 91 810 01 00:   RATE OF DRILLING PENETRATION
 TGAS.UNITS  91 830 01 00:   TOTAL GAS FROM HOTWIRE
~PARAMETER INFORMATION
#MNEM.UNIT          VALUE    DESCRIPTION
#----------   ------------   ------------------------------
 DATE.        26-SEP-1987:   RUN DATE
 RUN .                  1:   RUN NUMBER
 DD  .F              2066:   DEPTH DRILLER
 TLI .F               566:   TOP LOG INTERVAL
 WITN. R. HUSK/R. PETERSON:   WITNESSED BY
 CLNT.            A2DTECH:   CLIENT CODE
 ORIG.           5" PRINT:   ORIGIN OF DATA
 UWI .       490251119000:   UNIQUE WELL ID
 DICO. A2D Technologies, Inc.:   DIGITIZING COMPANY
~OTHER INFORMATION
~A   DEPT        ROP       TGAS 
# ...
 1903.0000     0.6365   276.3272
 1903.5000     0.6361   276.4052
 1904.0000     0.6358   276.4832
 1904.5000     0.6355   276.5612
 1905.0000     0.6351   276.6392
 1905.5000     0.6348   276.7171
 1906.0000     0.6345   276.7951
 1906.5000     0.6342   276.8731
 1907.0000     0.6338   276.9510
 1907.5000     0.6335   277.0290
 1908.0000     0.6332   277.1070
 1908.5000     0.6328   277.1850
 1909.0000     0.6325   277.2630
 1909.5000     0.6322   277.3409
 1910.0000     0.6318   277.4189
 1910.5000     0.6315   277.4969
 1911.0000     0.6312   277.5749
 1911.5000     0.6308   277.6528
 1912.0000     0.6305   277.7308
 1912.5000     0.6302   277.8088
 1913.0000     0.6298   277.8867
 1913.5000     0.6295   277.9648
 1914.0000     0.6292   278.0427
 1914.5000     0.6289   278.1207
 1915.0000     0.6285   278.1987
 1915.5000     0.6282   278.2766
 1916.0000     0.6279   278.3546
 1916.5000     0.6275   278.4326
 1917.0000     0.6272   278.5106
 1917.5000     0.6269   278.5886
 1918.0000     0.6265   278.6665
 1918.5000     0.6262   278.7445
 1919.0000     0.6259   278.8225
 1919.5000     0.6255   278.9005
 1920.0000     0.6252   278.9784
 1920.5000     0.6249   279.0564
 1921.0000     0.6245   279.1344
 1921.5000     0.6242   279.2123
 1922.0000     0.6239   279.2903
 1922.5000     0.6236   279.3683
 1923.0000     0.6232   279.4463
 1923.5000     0.6229   279.5243
 1924.0000     0.6226   279.6022
 1924.5000     0.6222   279.6802
 1925.0000     0.6219   279.7582
 1925.5000     0.6216   279.8362
 1926.0000     0.6212   279.9141
 1926.5000     0.6209   279.9921
 1927.0000     0.6206   280.0701
 1927.5000     0.6202   280.1481
 1928.0000     0.6199   280.2260
 1928.5000     0.6196   280.3040
 1929.0000     0.6192   280.3820
 1929.5000     0.6189   280.4600
 1930.0000     0.6186   280.5379
 1930.5000     0.6183   280.6159
 1931.0000     0.6179   280.6939
 1931.5000     0.6176   280.7719
 1932.0000     0.6173   280.8499
 1932.5000     0.6169   280.9278
 1933.0000     0.6166   281.0058
 1933.5000     0.6163   281.0838
 1934.0000     0.6159   281.1617
 1934.5000     0.6156   281.2397
 1935.0000     0.6153   281.3177
 1935.5000     0.6149   281.3957
 1936.0000     0.6146   281.4737
 1936.5000     0.6143   281.5516
 1937.0000     0.6140   281.6296
 1937.5000     0.6136   281.7076
 1938.0000     0.6133   281.7856
 1938.5000     0.6130   281.8635
 1939.0000     0.6126   281.9415
 1939.5000     0.6123   282.0195
 1940.0000     0.6120   282.0975
 1940.5000     0.6116   282.1754
 1941.0000     0.6113   282.2534
 1941.5000     0.6110   282.3314
 1942.0000     0.6106   282.4094
 1942.5000     0.6103   282.4873
 1943.0000     0.6100   282.5653
 1943.5000     0.6096   282.6433
 1944.0000     0.6093   282.7213
 1944.5000     0.6089   282.7993
 1945.0000     0.6100   282.8772
 1945.5000     0.6112   282.9552
 1946.0000     0.6125   283.0332
 1946.5000     0.6137   283.1111
 1947.0000     0.6149   283.1891
 1947.5000     0.6161   283.2671
 1948.0000     0.6174   283.3451
 1948.5000     0.6186   283.4231
 1949.0000     0.6198   283.5010
 1949.5000     0.6210   283.5790
 1950.0000     0.6223   283.6570
 1950.5000     0.6235   283.7350
 1951.0000     0.6247   283.8129
 1951.5000     0.6259   283.8909
 1952.0000     0.6272   283.9689
 1952.5000     0.6279   284.0468
 1953.0000     0.6282   284.1248
 1953.5000     0.6180   284.2028
 1954.0000     0.5766   284.2808
 1954.5000     0.5456   284.3588
 1955.0000     0.5354   284.4367
 1955.5000     0.5254   284.5147
 1956.0000     0.5048   284.5927
 1956.5000     0.5051   284.6707
 1957.0000     0.4949   284.7486
 1957.5000     0.4954   284.8266
 1958.0000     0.4957   284.9046
 1958.5000     0.4959   284.9826
 1959.0000     0.4959   285.0605
 1959.5000     0.4958   285.1385
 1960.0000     0.4957   285.2165
 1960.5000     0.4956   285.2945
 1961.0000     0.4956   285.3724
 1961.5000     0.4955   285.4504
 1962.0000     0.4954   285.5284
 1962.5000     0.4953   285.6064
 1963.0000     0.4953   285.6844
 1963.5000     0.4952   285.7623
 1964.0000     0.4951   285.8403
 1964.5000     0.4950   285.9183
 1965.0000     0.4950   285.9962
 1965.5000     0.4949   286.0742
 1966.0000     0.4948   286.1522
 1966.5000     0.4947   286.2302
 1967.0000     0.4947   286.3082
 1967.5000     0.4946   286.3861
 1968.0000     0.4945   286.4641
 1968.5000     0.4944   286.5421
 1969.0000     0.4944   286.6201
 1969.5000     0.4943   286.6980
 1970.0000     0.4942   286.7760
 1970.5000     0.4941   286.8540
 1971.0000     0.4941   286.9320
 1971.5000     0.4940   287.0099
 1972.0000     0.4939   287.0879
 1972.5000     0.4938   287.1659
 1973.0000     0.4938   287.2439
 1973.5000     0.4937   287.3218
 1974.0000     0.4936   287.3998
 1974.5000     0.4935   287.4778
 1975.0000     0.4935   287.5558
 1975.5000     0.4934   287.6338
 1976.0000     0.4933   287.7117
 1976.5000     0.4932   287.7897
 1977.0000     0.4932   287.8677
 1977.5000     0.4931   287.9456
 1978.0000     0.4930   288.0236
 1978.5000     0.4929   288.1016
 1979.0000     0.4929   288.1796
 1979.5000     0.4928   288.2576
 1980.0000     0.4927   288.3355
 1980.5000     0.4926   288.4135
 1981.0000     0.4925   288.4915
 1981.5000     0.4925   288.5695
 1982.0000     0.4924   288.6474
 1982.5000     0.4923   288.7254
 1983.0000     0.4922   288.8034
 1983.5000     0.4922   288.8813
 1984.0000     0.4921   288.9594
 1984.5000     0.4920   289.0373
 1985.0000     0.4919   289.1153
 1985.5000     0.4919   289.1933
 1986.0000     0.4918   289.2712
 1986.5000     0.4917   289.3492
 1987.0000     0.4916   289.4272
 1987.5000     0.4916   289.5052
 1988.0000     0.4915   289.5831
 1988.5000     0.4914   289.6611
 1989.0000     0.4913   289.7391
 1989.5000     0.4913   289.8171
 1990.0000     0.4912   289.8951
 1990.5000     0.4911   289.9730
 1991.0000     0.4910   290.0510
 1991.5000     0.4910   290.1290
 1992.0000     0.4909   290.2069
 1992.5000     0.4908   290.2849
 1993.0000     0.4907   290.3629
 1993.5000     0.4907   290.4409
 1994.0000     0.4906   290.5189
 1994.5000     0.4905   290.5968
 1995.0000     0.4904   290.6748
 1995.5000     0.4904   290.7528
 1996.0000     0.4903   290.8307
 1996.5000     0.4902   290.9087
 1997.0000     0.4901   290.9867
 1997.5000     0.4901   291.0647
 1998.0000     0.4900   291.1427
 1998.5000     0.4899   291.2206
 1999.0000     0.4898   291.2986
 1999.5000     0.4898   291.3766
 2000.0000     0.4897   291.4546
 2000.5000     0.4896   291.5325
 2001.0000     0.4895   291.6105
 2001.5000     0.4895   291.6885
 2002.0000     0.4894   291.7665
 2002.5000     0.4893   291.8445
 2003.0000     0.4892   291.9224
 2003.5000     0.4892   292.0004
 2004.0000     0.4891   292.0784
 2004.5000     0.4890   292.1563
 2005.0000     0.4889   292.2343
 2005.5000     0.4888   292.3123
 2006.0000     0.4888   292.3903
 2006.5000     0.4887   292.4683
 2007.0000     0.4886   292.5462
 2007.5000     0.4885   292.6242
 2008.0000     0.4885   292.7022
 2008.5000     0.4884   292.7802
 2009.0000     0.4883   292.8581
 2009.5000     0.4882   292.9361
 2010.0000     0.4882   293.0141
 2010.5000     0.4881   293.0921
 2011.0000     0.4880   293.1700
 2011.5000     0.4879   293.2480
 2012.0000     0.4879   293.3260
 2012.5000     0.4878   293.4040
 2013.0000     0.4877   293.4819
 2013.5000     0.4876   293.5599
 2014.0000     0.4876   293.6379
 2014.5000     0.4875   293.7159
 2015.0000     0.4874   293.7939
 2015.5000     0.4873   293.8718
 2016.0000     0.4873   293.9498
 2016.5000     0.4872   294.0278
 2017.0000     0.4871   294.1057
 2017.5000     0.4870   294.1837
 2018.0000     0.4870   294.2617
 2018.5000     0.4869   294.3397
 2019.0000     0.4868   294.4177
 2019.5000     0.4867   294.4956
 2020.0000     0.4867   294.5736
 2020.5000     0.4866   294.6516
 2021.0000     0.4865   294.7296
 2021.5000     0.4864   294.8075
 2022.0000     0.4864   294.8855
 2022.5000     0.4863   294.9635
 2023.0000     0.4862   295.0414
 2023.5000     0.4861   295.1194
 2024.0000     0.4861   295.1974
