~VERSION INFORMATION
 VERS.                2.0:   CWLS LOG ASCII STANDARD - VERSION 2.0
 WRAP.                 NO:   ONE LINE PER DEPTH STEP
~WELL INFORMATION
#MNEM.UNIT      DATA TYPE    INFORMATION
#----------   ------------   ------------------------------
 STRT.F           30.0000:   START DEPTH
 STOP.F         1358.0000:   STOP DEPTH
 STEP.F            0.5000:   STEP LENGTH
 NULL.          -999.2500:   NO VALUE
 COMP. FENIX & SCISSON INC:   COMPANY
 WELL.      3 SX14 #85-14:   WELL
 FLD .             TEAPOT:   FIELD
 LOC .      S14 T38N R78W:   LOCATION
 CNTY.            NATRONA:   COUNTY
 STAT.            WYOMING:   STATE
 CTRY. UNITED STATES OF AMERICA:   COUNTRY
 SRVC.              Welex:   SERVICE COMPANY
 DATE.        10-FEB-1977:   LOGDATE
 API .       490251027500:   API NUMBER
~CURVE INFORMATION
#MNEM.UNIT       API CODE    CURVE DESCRIPTION
#----------   ------------   ------------------------------
 DEPT.F                  :   
 ILM .OHMM   07 120 44 00:   INDUCTION LOG MEDIUM
 ILD .OHMM   07 120 46 00:   INDUCTION LOG DEEP
 CALD.IN     45 280 60 00:   CALIPER
 GRD .GAPI   45 310 01 00:   GAMMA RAY FROM DENSITY LOG
 RHOB.G/C3   45 350 01 00:   BULK DENSITY
 DPHI.DEC    45 890 12 00:   DENSITY POROSITY SANDSTONE
 CORR.G/C3   45 356 01 00:   DENSITY CORRECTION
~PARAMETER INFORMATION
#MNEM.UNIT          VALUE    DESCRIPTION
#----------   ------------   ------------------------------
 PD  .                 GL:   PERMANENT DATUM
 EPD .F              5345:   ELEVATION PERMANENT DATUM
 LMF .                 GL:   LOG MEASURED FROM
 DMF .                 GL:   DRILLING MEASURED FROM
 EGL .F              5345:   GROUND LEVEL
 DATE.          2-10-1977:   RUN DATE
 RUN .                  1:   RUN NUMBER
 DD  .F              1362:   DEPTH DRILLER
 DL  .F              1361:   DEPTH LOGGER
 BLI .F              1359:   BOTTOM LOG INTERVAL
 TLI .F                43:   TOP LOG INTERVAL
 CS  .IN            8.625:   CASING SIZE
 CBD .F                43:   CASING BOTTOM DRILLER
 CBL .F                43:   CASING BOTTOM LOGGER
 BS  .IN            7.875:   BIT SIZE
 BSD .F              1362:   BIT SIZE AT DEPTH
 DFT .           AIR MIST:   DRILLING FLUID TYPE
 TCS .HRS               4:   TIME CURCULATED STOPPED
 MRT .F               104:   MAXIMUM RECORDED TEMPERATURE
 LUN .               8611:   LOGGING UNIT NUMBER
 LUL .           GILLETTE:   LOGGING UNIT LOCATION
 ENGI.               DOAK:   RECORDING ENGINEER
 WITN. PETTINGILL/STUEBINGER:   WITNESSED BY
 CLNT.            A2DTECH:   CLIENT CODE
 ORIG.       2", 5" PRINT:   ORIGIN OF DATA
 UWI .       490251027500:   UNIQUE WELL ID
 DICO. A2D Technologies, Inc.:   DIGITIZING COMPANY
~OTHER INFORMATION
~A   DEPT      ILM        ILD         CALD      GRD         RHOB     DPHI        CORR  
# ...
 1304.0000    11.5152    10.5430     8.0052    89.7197     2.4487     0.1330     0.0323
 1304.5000    11.3863    10.2030     7.9885    90.7211     2.4533     0.1334     0.0325
 1305.0000    11.2198     9.8739     7.9718    91.7291     2.4577     0.1298     0.0327
 1305.5000    11.0557     9.5551     7.9551    92.1497     2.4622     0.1265     0.0329
 1306.0000    10.8940     9.2462     7.9384    91.6749     2.4667     0.1232     0.0331
 1306.5000    10.7346     8.9003     7.9216    91.1804     2.4711     0.1199     0.0333
 1307.0000    10.6000     8.9450     7.9049    90.7069     2.4735     0.1168     0.0335
 1307.5000    10.6281     8.9973     7.8881    90.9007     2.4765     0.1184     0.0337
 1308.0000    10.6579     9.0491     7.8717    91.5142     2.4800     0.1193     0.0339
 1308.5000    10.6877     9.1008     7.8564    92.0917     2.4836     0.1156     0.0341
 1309.0000    10.7176     9.1528     7.8363    92.1829     2.4870     0.1135     0.0340
 1309.5000    10.7475     9.2051     7.8526    91.4450     2.4852     0.1151     0.0329
 1310.0000    10.7776     9.2577     7.8684    90.4281     2.4872     0.1122     0.0318
 1310.5000    10.8077     9.3103     7.8846    89.4037     2.4931     0.1087     0.0307
 1311.0000    10.8380     9.3637     7.9008    88.7055     2.4989     0.1053     0.0296
 1311.5000    10.8683     9.4050     7.9170    90.5532     2.5050     0.1018     0.0285
 1312.0000    10.8968     9.5796     7.9332    92.3623     2.5054     0.1014     0.0274
 1312.5000    10.9034     9.6839     7.9494    94.1757     2.5009     0.1046     0.0263
 1313.0000    10.9295     9.7381     7.9656    94.8420     2.4973     0.1078     0.0271
 1313.5000    10.9551     9.7927     7.9818    94.0149     2.4986     0.1066     0.0290
 1314.0000    10.9807     9.8476     7.9981    93.0385     2.5058     0.1030     0.0308
 1314.5000    11.0064     9.9027     8.0139    92.0560     2.5158     0.0994     0.0327
 1315.0000    11.0321     9.9582     8.0116    91.0624     2.5135     0.0985     0.0345
 1315.5000    11.0579    10.0140     8.0085    90.7515     2.5102     0.1003     0.0362
 1316.0000    11.0838    10.0701     8.0054    91.4947     2.5087     0.1021     0.0345
 1316.5000    11.1097    10.1264     8.0024    92.3459     2.5125     0.1031     0.0328
 1317.0000    11.1356    10.1832     7.9993    93.1929     2.5157     0.1014     0.0311
 1317.5000    11.1617    10.2170     7.9963    94.0401     2.5191     0.0997     0.0293
 1318.0000    11.1878    10.2071     7.9933    94.8800     2.5192     0.0980     0.0276
 1318.5000    11.3052    10.1668     7.9902    95.4561     2.5170     0.0976     0.0259
 1319.0000    11.2735    10.1266     7.9872    96.0950     2.5148     0.0980     0.0242
 1319.5000    11.2281    10.0867     7.9841    97.3041     2.5140     0.0984     0.0224
 1320.0000    11.1828    10.0468     7.9811    98.5300     2.5140     0.0989     0.0207
 1320.5000    11.1377    10.0072     7.9781    98.9900     2.5147     0.0985     0.0207
 1321.0000    11.0928     9.9676     7.9751    97.5003     2.5159     0.0970     0.0229
 1321.5000    11.0481     9.9283     7.9735    95.8817     2.5200     0.0952     0.0252
 1322.0000    11.0035     9.8891     7.9623    94.2441     2.5246     0.0933     0.0275
 1322.5000    10.9591     9.8500     7.9489    94.1273     2.5301     0.0914     0.0298
 1323.0000    10.8967     9.8111     7.9354    96.8582     2.5356     0.0895     0.0320
 1323.5000    10.9123     9.7724     7.9219    99.4927     2.5407     0.0877     0.0343
 1324.0000    10.9392     9.7338     7.9084    99.4232     2.5456     0.0861     0.0366
 1324.5000    10.9661     9.6954     7.8944    99.5842     2.5510     0.0848     0.0383
 1325.0000    10.9930     9.6682     7.8932    99.8089     2.5555     0.0845     0.0373
 1325.5000    11.0201     9.7578     7.8969    99.9386     2.5587     0.0836     0.0364
 1326.0000    11.0472     9.7418     7.9009   100.9756     2.5626     0.0826     0.0356
 1326.5000    11.0743     9.7311     7.9048   102.0225     2.5666     0.0817     0.0347
 1327.0000    11.1016     9.7206     7.9087   103.0660     2.5688     0.0807     0.0338
 1327.5000    11.1288     9.7101     7.9126   104.1117     2.5601     0.0817     0.0329
 1328.0000    11.1562     9.6997     7.9165   105.1570     2.5575     0.0829     0.0320
 1328.5000    11.1836     9.6893     7.9204   106.1516     2.5637     0.0824     0.0312
 1329.0000    11.2016     9.6725     7.9243   105.4513     2.5679     0.0815     0.0303
 1329.5000    10.7676     9.6645     7.9282   103.7289     2.5537     0.0824     0.0284
 1330.0000    10.6822     9.5648     7.9321   103.1833     2.5480     0.0836     0.0264
 1330.5000    10.6005     9.4706     7.9360   104.1195     2.5543     0.0870     0.0253
 1331.0000    10.5193     9.3832     7.9399   105.0074     2.5414     0.0906     0.0245
 1331.5000    10.4384     9.2958     7.9438   104.9749     2.5249     0.0941     0.0237
 1332.0000    10.3582     9.2092     7.9477   104.2114     2.5104     0.0976     0.0229
 1332.5000    10.2786     9.1233     7.9516   103.6830     2.5150     0.0987     0.0221
 1333.0000    10.1996     9.0383     7.9556   104.4092     2.5201     0.0956     0.0213
 1333.5000    10.1212     8.9541     7.9597   105.2926     2.5247     0.0959     0.0205
 1334.0000    10.0434     8.8707     7.9637   105.3082     2.5287     0.0953     0.0197
 1334.5000     9.9662     8.7880     7.9678   104.5889     2.5348     0.0932     0.0189
 1335.0000     9.8897     8.7061     7.9719   103.8608     2.5402     0.0912     0.0181
 1335.5000     9.8136     8.6250     7.9760   104.3310     2.5359     0.0921     0.0179
 1336.0000     9.7382     8.5446     7.9800   106.2672     2.5308     0.0948     0.0186
 1336.5000     9.6634     8.4650     7.9841   107.6482     2.5256     0.0954     0.0193
 1337.0000     9.5904     8.3458     7.9882   106.4391     2.5252     0.0926     0.0209
 1337.5000     9.4479     8.1806     7.9923   105.1320     2.5322     0.0897     0.0246
 1338.0000     9.3007     8.0187     7.9936   103.8356     2.5411     0.0868     0.0281
 1338.5000     9.1489     7.8600     7.9868  -999.2500     2.5500     0.0839     0.0317
 1339.0000     8.7915     7.6724     7.9801  -999.2500     2.5590     0.0810     0.0353
 1339.5000     8.4360     7.4166     7.9733  -999.2500     2.5648     0.0798     0.0385
 1340.0000     8.0948     7.1693     7.9665  -999.2500     2.5580     0.0823     0.0393
 1340.5000     7.7678     6.7873     7.9598  -999.2500     2.5508     0.0847     0.0401
 1341.0000     7.4168     6.4046     7.9531  -999.2500     2.5435     0.0873     0.0409
 1341.5000     7.0304     6.0436     7.9463  -999.2500     2.5360     0.0893     0.0417
 1342.0000     6.6646     5.7028     7.9396  -999.2500     2.5335     0.0919     0.0425
 1342.5000     6.2835     5.3813     7.9328  -999.2500     2.5306     0.0945     0.0433
 1343.0000     5.8054     5.0779     7.9261  -999.2500     2.5236     0.0971     0.0440
 1343.5000     5.3647     4.7912     7.9194  -999.2500     2.5141     0.0998     0.0436
 1344.0000     4.9519     4.5192     7.9125  -999.2500     2.5036     0.1054     0.0399
 1344.5000     4.7401     4.1520     7.9111  -999.2500     2.4810     0.1119     0.0363
 1345.0000     4.5913     4.2491     7.9131  -999.2500     2.4593     0.1185     0.0327
 1345.5000     4.5048     4.4373     7.9155  -999.2500     2.4485     0.1234     0.0291
 1346.0000     4.9883     4.6339     7.9179  -999.2500     2.4963     0.1018     0.0260
 1346.5000     5.3654     4.8392     7.9203  -999.2500     2.5349     0.0816     0.0339
 1347.0000     5.7709     5.0632     7.9227  -999.2500     2.5765     0.0614     0.0426
 1347.5000     6.2071     5.3849     7.9251  -999.2500     2.5839     0.0559     0.0482
 1348.0000     6.6763     5.7269     7.9275  -999.2500     2.5654     0.0635     0.0457
 1348.5000     7.1810     6.0908     7.9299  -999.2500     2.5553     0.0695     0.0433
 1349.0000     7.7238     6.4778     7.9314  -999.2500     2.5586     0.0733     0.0410
