~VERSION INFORMATION
 VERS.                2.0:   CWLS LOG ASCII STANDARD - VERSION 2.0
 WRAP.                 NO:   ONE LINE PER DEPTH STEP
~WELL INFORMATION
#MNEM.UNIT      DATA TYPE    INFORMATION
#----------   ------------   ------------------------------
 STRT.F           70.0000:   START DEPTH
 STOP.F         1236.0000:   STOP DEPTH
 STEP.F            0.5000:   STEP LENGTH
 NULL.          -999.2500:   NO VALUE
 COMP. U S NAVY/INTEX OIL CO:   COMPANY
 WELL. NAVAL PETROLEUM TE ##3 75S-11:   WELL
 FLD .             TEAPOT:   FIELD
 LOC .      S11 T38N R78W:   LOCATION
 CNTY.            NATRONA:   COUNTY
 STAT.            WYOMING:   STATE
 CTRY. UNITED STATES OF AMERICA:   COUNTRY
 SRVC.         Lane Wells:   SERVICE COMPANY
 DATE.        04-MAR-1960:   LOGDATE
 API .       490250633900:   API NUMBER
~CURVE INFORMATION
#MNEM.UNIT       API CODE    CURVE DESCRIPTION
#----------   ------------   ------------------------------
 DEPT.F                  :   
 GR  .GAPI   30 310 01 00:   GAMMA RAY
 SPR .MV     05 010 01 00:   SPONTANEOUS POTENTIAL FROM RES.
 ILD .OHMM   05 120 46 00:   INDUCTION LOG DEEP
 CILD.MMHO   05 110 46 00:   CONDUCTIVITY INDUCTION LOG DEEP
 ASN .OHMM   05 041 18 00:   AMPLIFIED SHORT NORMAL 18"
~PARAMETER INFORMATION
#MNEM.UNIT          VALUE    DESCRIPTION
#----------   ------------   ------------------------------
 PD  .                 GL:   PERMANENT DATUM
 EPD .F              5252:   ELEVATION PERMANENT DATUM
 LMF .                 KB:   LOG MEASURED FROM
 DAPD.F                 5:   FEET ABOVE PERMANENT DATUM
 DMF .                 KB:   DRILLING MEASURED FROM
 EKB .F              5257:   KELLING BUSHING
 EGL .F              5252:   GROUND LEVEL
 DATE.             3-4-60:   RUN DATE
 RUN .                  1:   RUN NUMBER
 DD  .F              1239:   DEPTH DRILLER
 DL  .F              1238:   DEPTH LOGGER
 BLI .F              1236:   BOTTOM LOG INTERVAL
 TLI .F                70:   TOP LOG INTERVAL
 CS  .IN            8.625:   CASING SIZE
 CBD .F                12:   CASING BOTTOM DRILLER
 BS  .IN            7.875:   BIT SIZE
 BSD .F              1239:   BIT SIZE AT DEPTH
 DFT .                GEL:   DRILLING FLUID TYPE
 DFD .                9.2:   DRILLING FLUID DENSITY
 DFV .                 34:   DRILLING FLUID VISCOSITY
 DFPH.                7.5:   DRILLING FLUID PH
 DFL .                8.5:   DRILLING FLUID LOSS
 MSS .                PIT:   MUD SAMPLE SOURCE
 RMS .OHMM              3:   RESISTIVITY MUD SAMPLE
 MST .F                52:   MUD SAMPLE TEMPERATURE
 RMF .OHMM            2.8:   RESISTIVITY MUD FILTRATE SAMPLE
 MFST.F                55:   MUD FILTRATE SAMPLE TEMPERATURE
 RMC .OHMM            3.3:   RESISTIVITY MUD CAKE
 MCST.F                55:   MUD CAKE SAMPLE TEMPERATURE
 MFSS.                MUD:   MUD FILTRATE SAMPLE SOURCE
 MCSS.              PRESS:   MUD CAKE SAMPLE SOURCE
 RMB .OHMM            2.2:   RESISTIVITY MUD AT BHT
 BHT .F                77:   BOTTOM HOLE TEMPERATURE
 TCS .HRS              .5:   TIME CURCULATED STOPPED
 MRT .F                77:   MAXIMUM RECORDED TEMPERATURE
 LUN .               4474:   LOGGING UNIT NUMBER
 LUL .             CASPER:   LOGGING UNIT LOCATION
 ENGI.      GRIGGS/NELSON:   RECORDING ENGINEER
 WITN.  JORGENSEN/HOLLAND:   WITNESSED BY
 CLNT.            A2DTECH:   CLIENT CODE
 ORIG.       2", 5" PRINT:   ORIGIN OF DATA
 UWI .       490250633900:   UNIQUE WELL ID
 DICO. A2D Technologies, Inc.:   DIGITIZING COMPANY
~OTHER INFORMATION
~A   DEPT       GR        SPR          ILD      CILD         ASN 
# ...
  680.0000  -999.2500   -36.0846     5.8583   180.6911     6.8154
  680.5000  -999.2500   -36.1311     5.7716   182.4118     6.7106
  681.0000  -999.2500   -36.1776     5.6848   184.9130     6.6192
  681.5000  -999.2500   -36.2240     5.5982   187.2586     6.5840
  682.0000  -999.2500   -36.2704     5.5106   189.6041     6.5510
  682.5000  -999.2500   -36.3342     5.4794   191.9497     6.5179
  683.0000  -999.2500   -36.5026     5.4825   194.2953     6.4847
  683.5000  -999.2500   -36.6722     5.5082   195.0906     6.4460
  684.0000  -999.2500   -36.8415     5.5337   195.0906     6.3796
  684.5000  -999.2500   -37.0109     5.5592   195.0906     6.3131
  685.0000  -999.2500   -37.1870     5.5846   195.0906     6.2466
  685.5000  -999.2500   -37.1952     5.6100   195.0906     6.1802
  686.0000  -999.2500   -37.1548     5.6354   195.0906     6.1301
  686.5000  -999.2500   -37.1133     5.6608   194.8033     6.1579
  687.0000  -999.2500   -37.0710     5.6863   193.7502     6.2776
  687.5000  -999.2500   -36.9465     5.7117   192.6971     6.3930
  688.0000  -999.2500   -36.6169     5.7371   191.6440     6.5071
  688.5000  -999.2500   -36.2907     5.7625   189.3190     6.6010
  689.0000  -999.2500   -35.9684     5.7880   186.7389     6.6484
  689.5000  -999.2500   -35.8050     5.8136   184.1588     6.6968
  690.0000  -999.2500   -35.9333     5.8399   181.5786     6.7449
  690.5000  -999.2500   -36.0567     5.8376   178.7893     6.7933
  691.0000  -999.2500   -36.1811     5.8276   178.9775     6.8418
  691.5000  -999.2500   -36.3052     5.8179   179.1823     6.8894
  692.0000  -999.2500   -36.4293     5.8082   179.3870     6.8661
  692.5000  -999.2500   -36.5534     5.7985   179.5918     6.8089
  693.0000  -999.2500   -36.6772     5.7888   179.7966     6.7522
  693.5000  -999.2500   -36.8017     5.7791   180.0013     6.6955
  694.0000  -999.2500   -36.8768     5.7693   180.2061     6.6387
  694.5000  -999.2500   -36.9116     5.7591   180.4109     6.5818
  695.0000  -999.2500   -36.9455     5.7540   180.5897     6.5294
  695.5000  -999.2500   -36.9795     5.8243   178.6338     6.5514
  696.0000  -999.2500   -37.0134     5.8940   176.7804     6.6341
  696.5000  -999.2500   -37.0365     5.9632   174.9359     6.7145
  697.0000  -999.2500   -36.9786     6.0322   173.0930     6.8001
  697.5000  -999.2500   -36.9210     6.1014   171.2500     6.9093
  698.0000  -999.2500   -36.8637     6.1707   169.4059     7.0200
  698.5000  -999.2500   -36.8071     6.2396   167.5629     7.1307
  699.0000  -999.2500   -36.7510     6.2955   165.9060     7.2415
  699.5000  -999.2500   -36.7133     6.2944   164.9944     7.3523
  700.0000  -999.2500   -35.3717     6.2954   164.9431     7.4411
  700.5000  -999.2500   -35.7343     6.2387   167.5634     7.3027
  701.0000  -999.2500   -36.6732     6.1656   170.1837     7.1497
  701.5000  -999.2500   -36.8011     6.0921   172.8040     6.9963
  702.0000  -999.2500   -36.7320     6.0187   175.4243     6.8435
  702.5000  -999.2500   -36.7173     5.9453   178.0446     6.6905
  703.0000  -999.2500   -36.8587     5.8719   180.6649     6.5376
  703.5000  -999.2500   -36.9974     5.7992   182.4118     6.4405
  704.0000  -999.2500   -37.1364     5.7489   182.4118     6.3546
  704.5000  -999.2500   -37.2753     5.7874   182.4118     6.2689
  705.0000  -999.2500   -37.4146     5.8305   181.1666     6.2676
  705.5000  -999.2500   -37.5536     5.8738   179.7257     6.3880
  706.0000  -999.2500   -37.6898     5.9169   178.2848     6.5165
  706.5000  -999.2500   -37.6692     5.9601   176.8439     6.6453
  707.0000  -999.2500   -37.4017     6.0033   175.4029     6.7745
  707.5000  -999.2500   -37.1377     6.0464   173.9620     6.9049
  708.0000  -999.2500   -36.8728     6.0894   172.5211     6.9494
  708.5000  -999.2500   -36.6077     6.1135   171.0802     6.9900
  709.0000  -999.2500   -36.3433     6.1344   169.6393     7.0308
  709.5000  -999.2500   -36.0823     6.1804   168.1984     7.0741
  710.0000  -999.2500   -36.1279     6.2261   166.7574     7.1666
  710.5000  -999.2500   -36.4986     6.2720   165.3165     7.2624
  711.0000  -999.2500   -36.8689     6.3178   163.8756     7.3343
  711.5000  -999.2500   -37.1055     6.3638   162.4881     7.3864
  712.0000  -999.2500   -37.2317     6.3844   162.8790     7.4360
  712.5000  -999.2500   -37.3564     6.3724   163.6180     7.4530
  713.0000  -999.2500   -37.3653     6.3505   164.3534     7.4360
  713.5000  -999.2500   -37.2926     6.3284   165.0872     7.3761
  714.0000  -999.2500   -37.2184     6.3064   165.8208     7.2759
  714.5000  -999.2500   -37.1442     6.2844   166.5543     7.1750
  715.0000  -999.2500   -37.0701     6.2624   167.2879     7.0740
  715.5000  -999.2500   -36.9959     6.2404   168.0218     6.9731
  716.0000  -999.2500   -36.9219     6.2184   168.7555     6.8712
  716.5000  -999.2500   -36.8511     6.1964   169.4895     6.8440
  717.0000  -999.2500   -36.8060     6.1744   169.8231     6.8847
  717.5000  -999.2500   -36.7601     6.1523   170.3483     6.9259
  718.0000  -999.2500   -36.7135     6.1303   170.8716     6.9670
  718.5000  -999.2500   -36.6413     6.1125   171.3956     7.0080
  719.0000  -999.2500   -36.4529     6.1129   171.5443     7.0490
  719.5000  -999.2500   -36.2669     6.1130   171.5443     7.0900
  720.0000  -999.2500   -36.0825     6.1130   171.5443     7.1311
  720.5000  -999.2500   -35.9586     6.1130   171.5443     7.1732
  721.0000  -999.2500   -36.0381     6.1130   171.5448     7.1816
  721.5000  -999.2500   -36.1124     6.1130   171.5442     7.1817
  722.0000  -999.2500   -36.1864     6.1130   171.5494     7.1816
  722.5000  -999.2500   -36.2605     6.1129   170.9925     7.1816
  723.0000  -999.2500   -36.3742     6.1129   170.3047     7.1816
  723.5000  -999.2500   -36.5777     6.1132   169.6171     7.1816
  724.0000  -999.2500   -36.7799     6.1334   168.9293     7.1815
  724.5000  -999.2500   -36.9821     6.1952   168.2416     7.1919
  725.0000  -999.2500   -37.1850     6.2563   167.5539     7.2914
  725.5000  -999.2500   -37.3866     6.3175   166.8662     7.3977
  726.0000  -999.2500   -37.3858     6.3786   166.1785     7.5044
  726.5000  -999.2500   -37.3591     6.4397   164.2217     7.6114
  727.0000  -999.2500   -37.3321     6.5009   162.1258     7.7205
  727.5000  -999.2500   -37.3056     6.5620   160.0302     7.7681
  728.0000  -999.2500   -37.2794     6.6231   157.9341     7.8139
  728.5000  -999.2500   -37.2539     6.6843   155.8347     7.8529
  729.0000  -999.2500   -37.2214     6.7463   153.7289     7.9714
  729.5000  -999.2500   -37.0010     6.8151   151.6453     8.0982
  730.0000  -999.2500   -36.7680     6.8849   153.4067     8.2455
  730.5000  -999.2500   -36.5339     6.9548   151.6853     8.4084
  731.0000  -999.2500   -36.3234     7.0246   149.9387     8.3848
  731.5000  -999.2500   -36.5251     7.0945   148.1922     8.3544
  732.0000  -999.2500   -36.7390     7.1644   146.4456     8.3406
  732.5000  -999.2500   -36.9534     7.2342   144.6990     8.4062
  733.0000  -999.2500   -37.0341     7.3041   142.9525     8.5222
  733.5000  -999.2500   -36.8853     7.3740   141.2059     8.6388
  734.0000  -999.2500   -36.7333     7.4436   139.4594     8.8287
  734.5000  -999.2500   -36.7841     7.5321   137.7128     9.0132
  735.0000  -999.2500   -36.9562     7.6319   135.9662     9.1967
  735.5000  -999.2500   -37.1307     7.7319   133.9722     9.3803
  736.0000  -999.2500   -37.3052     7.8320   131.8327     9.5636
  736.5000  -999.2500   -37.4796     7.9320   129.6932     9.7368
  737.0000  -999.2500   -37.6539     8.0321   127.5536     9.8376
  737.5000  -999.2500   -37.8286     8.1321   125.4141     9.9351
  738.0000  -999.2500   -38.0028     8.2321   123.2746    10.2738
  738.5000  -999.2500   -38.1441     8.3322   122.3538    10.7163
  739.0000  -999.2500   -38.1453     8.4323   121.9463    10.8544
  739.5000  -999.2500   -37.9240     8.5358   121.5388    10.9050
  740.0000  -999.2500   -37.6287     8.5581   121.1312    10.8585
  740.5000  -999.2500   -37.3318     8.5516   120.8888    10.7854
