~VERSION INFORMATION
 VERS.                2.0:   CWLS LOG ASCII STANDARD - VERSION 2.0
 WRAP.                 NO:   ONE LINE PER DEPTH STEP
~WELL INFORMATION
#MNEM.UNIT      DATA TYPE    INFORMATION
#----------   ------------   ------------------------------
 STRT.F           30.0000:   START DEPTH
 STOP.F          697.0000:   STOP DEPTH
 STEP.F            0.5000:   STEP LENGTH
 NULL.          -999.2500:   NO VALUE
 COMP. LAWRENCE/ALLISON INC:   COMPANY
 WELL.    81-66 SX #15-15:   WELL
 FLD .             TEAPOT:   FIELD
 LOC .      S15 T38N R78W:   LOCATION
 CNTY.            NATRONA:   COUNTY
 STAT.            WYOMING:   STATE
 CTRY. UNITED STATES OF AMERICA:   COUNTRY
 SRVC.           Gearhart:   SERVICE COMPANY
 DATE.        15-JUL-1987:   LOGDATE
 API .       490251117000:   API NUMBER
~CURVE INFORMATION
#MNEM.UNIT       API CODE    CURVE DESCRIPTION
#----------   ------------   ------------------------------
 DEPT.F                  :   
 GRR .GAPI   07 310 01 00:   GAMMA RAY
 ILD .OHMM   07 120 46 00:   INDUCTION LOG DEEP
 ILM .OHMM   07 120 44 00:   INDUCTION LOG MEDIUM
~PARAMETER INFORMATION
#MNEM.UNIT          VALUE    DESCRIPTION
#----------   ------------   ------------------------------
 PD  .                 GL:   PERMANENT DATUM
 EPD .F              5232:   ELEVATION PERMANENT DATUM
 LMF .                 KB:   LOG MEASURED FROM
 DAPD.F                 8:   FEET ABOVE PERMANENT DATUM
 DMF .                 KB:   DRILLING MEASURED FROM
 EKB .F              5240:   KELLING BUSHING
 EDF .F              5238:   DRILLING FLOOR
 EGL .F              5232:   GROUND LEVEL
 DATE.        28-AUG-1987:   RUN DATE
 RUN .                  1:   RUN NUMBER
 DD  .F               700:   DEPTH DRILLER
 DL  .F               706:   DEPTH LOGGER
 BLI .F               700:   BOTTOM LOG INTERVAL
 TLI .F                30:   TOP LOG INTERVAL
 CS  .IN            8.625:   CASING SIZE
 CBD .F                48:   CASING BOTTOM DRILLER
 CBL .F                48:   CASING BOTTOM LOGGER
 BS  .IN            7.875:   BIT SIZE
 BSD .F               700:   BIT SIZE AT DEPTH
 DFT .                AIR:   DRILLING FLUID TYPE
 TCS .HRS            0200:   TIME CURCULATED STOPPED
 TLAB.HRS            0449:   TIME LOGGER AT BOTTOM
 MRT .F                80:   MAXIMUM RECORDED TEMPERATURE
 LUN .               7597:   LOGGING UNIT NUMBER
 LUL .           GILLETTE:   LOGGING UNIT LOCATION
 ENGI.         WEATHERMON:   RECORDING ENGINEER
 WITN.             STRONG:   WITNESSED BY
 CLNT.            A2DTECH:   CLIENT CODE
 ORIG.       2", 5" PRINT:   ORIGIN OF DATA
 UWI .       490251117000:   UNIQUE WELL ID
 DICO. A2D Technologies, Inc.:   DIGITIZING COMPANY
~OTHER INFORMATION
~A   DEPT       GRR       ILD        ILM   
# ...
  212.0000   116.8435     9.6071     9.5997
  212.5000   117.1726     9.6130     9.6740
  213.0000   118.1068     9.6188     9.7489
  213.5000   118.4359     9.5579     9.7564
  214.0000   119.0681     9.5638     9.7652
  214.5000   119.4033     9.5018     9.7028
  215.0000   119.7323     9.5090     9.6427
  215.5000   120.0614     9.4488     9.5828
  216.0000   119.7853     9.4547     9.5234
  216.5000   119.5026     9.3947     9.5323
  217.0000   118.3255     9.4019     9.5394
  217.5000   116.2340     9.3410     9.5466
  218.0000   115.6551     9.3481     9.5554
  218.5000   116.6324     9.3538     9.4961
  219.0000   119.0433     9.3595     9.5032
  219.5000   119.3657     9.3002     9.4425
  220.0000   115.1628     9.3059     9.3187
  220.5000   114.8801     9.3117     9.2609
  221.0000   116.4261     9.3175     9.2050
  221.5000   119.4783     9.2597     9.1481
  222.0000   122.8331     9.2654     9.1551
  222.5000   124.3725     9.2053     9.0981
  223.0000   124.7016     9.2117     9.1066
  223.5000   121.5491     9.2179     9.1134
  224.0000   119.3149     9.1596     9.1202
  224.5000   120.2491     9.1652     9.1275
  225.0000   121.4859     9.1708     9.1338
  225.5000   122.1176     9.1127     9.1406
  226.0000   119.4209     9.0977     9.0839
  226.5000   114.9088     9.0605     9.0275
  227.0000   114.2754     9.0045     9.0348
  227.5000   118.0333     8.9475     8.9782
  228.0000   121.4403     8.9530     8.9225
  228.5000   122.8883     8.8500     8.8672
  229.0000   122.6057     8.7176     8.7526
  229.5000   121.7244     8.6625     8.6983
  230.0000   122.0601     8.6077     8.7048
  230.5000   122.9944     8.6236     8.6508
  231.0000   123.3234     8.6798     8.7194
  231.5000   123.3499     8.7457     8.7259
  232.0000   123.9939     8.8738     8.8549
  232.5000   125.9152     9.0037     8.9859
  233.0000   127.9746     9.1355     9.1187
  233.5000   127.3960     9.2692     9.2536
  234.0000   122.5814     9.4706     9.3252
  234.5000   118.9770     9.6093     9.3975
  235.0000   118.0958     9.6153     9.4704
  235.5000   118.4249     9.6225     9.5452
  236.0000   120.2668     9.6956     9.6191
  236.5000   122.1089     9.7015     9.6936
  237.0000   122.4387     9.7075     9.7686
  237.5000   121.8592     9.7129     9.7759
  238.0000   120.9780     9.7190     9.7832
  238.5000   120.0967     9.7253     9.7905
  239.0000   120.1299     9.7312     9.7980
  239.5000   119.8472     9.6635     9.7388
  240.0000   120.7880     9.4770     9.6112
  240.5000   123.2351     9.3502     9.4853
  241.0000   125.0832     9.2910     9.4247
  241.5000   126.0121     9.1695     9.2366
  242.0000   125.1367     9.1101     9.1156
  242.5000   121.5323     8.9286     8.9352
  243.0000   121.5588     8.8103     8.7571
  243.5000   122.1904     8.6939     8.7027
  244.0000   123.4272     8.5790     8.7108
  244.5000   123.7563     8.5154     8.6552
  245.0000   123.4796     8.4120     8.6633
  245.5000   121.6854     8.4184     8.6697
  246.0000   118.6203     8.4235     8.6762
  246.5000   113.8841     8.4875     8.8045
  247.0000   112.9962     8.5521     8.8726
  247.5000   114.8448     8.6773     8.9467
  248.0000   116.0816     8.8043     9.0752
  248.5000   116.1081     8.9340     9.2738
  249.0000   116.1346     9.1351     9.3456
  249.5000   117.0688     9.3270     9.4838
  250.0000   118.6082     9.4636     9.5572
  250.5000   118.2330     9.6692     9.6312
  251.0000   113.8267     9.8108     9.6384
  251.5000   111.1450     9.8853     9.6456
  252.0000   107.8634     9.8914     9.6530
  252.5000   106.3772     9.9665     9.6617
  253.0000   107.3292     9.9726     9.6689
  253.5000   108.8776     9.8956     9.6761
  254.0000   110.1483     9.8181     9.6833
  254.5000   111.1730     9.7406     9.7583
  255.0000   113.8340     9.7911     9.8886
  255.5000   114.1721     9.7971     9.8947
  256.0000   112.0896     9.8115     9.9701
  256.5000   109.0993    10.0176     9.9764
  257.0000   108.5208    10.1705    10.1946
  257.5000   109.7754    10.3852    10.4163
  258.0000   111.0212    10.5372    10.7173
  258.5000   110.4515    10.7662    11.1040
  259.0000   109.8779    11.0770    11.5047
  259.5000   108.6758    11.4764    11.8955
  260.0000   107.8348    11.8902    12.3499
  260.5000   107.8792    12.3189    12.7955
  261.0000   107.6032    12.7679    13.3499
  261.5000   106.4373    13.1453    13.8386
  262.0000   104.0522    13.5126    14.2636
  262.5000    96.2208    13.8063    14.8501
  263.0000    90.8100    13.8147    15.0677
  263.5000    90.5416    13.8232    14.9723
  264.0000    95.4195    13.8317    14.6716
  264.5000   101.8457    13.8401    14.3770
  265.0000   104.9520    13.5141    13.8933
  265.5000   107.0326    12.9815    13.6143
  266.0000   108.2783    12.6658    13.2482
  266.5000   108.0113    12.4916    12.9821
  267.0000   104.7184    12.2475    12.7163
  267.5000   102.3333    12.1700    12.5531
  268.0000   101.4611    12.1775    12.4736
  268.5000   102.1017    12.1004    12.3946
  269.0000   104.2552    12.0238    12.4041
  269.5000   105.8036    12.1171    12.4117
  270.0000   104.9117    12.1245    12.4193
  270.5000   103.8850    12.1319    12.4269
  271.0000   103.7920    12.2240    12.3463
  271.5000   103.8364    12.2316    12.4422
  272.0000   103.5604    12.2393    12.4498
  272.5000   102.6882    12.2485    12.4574
  273.0000    99.4042    12.2560    12.3785
  273.5000    98.5231    12.1773    12.3020
  274.0000    98.2560    12.0995    12.2241
  274.5000   100.1158    11.9413    12.1448
  275.0000   100.7564    11.7834    11.9860
  275.5000   101.4261    11.7070    11.8274
  276.0000   103.2568    11.6345    11.7506
  276.5000   106.9232    11.4012    11.5952
  277.0000   109.9844    11.2474    11.5232
  277.5000   110.3136    11.0247    11.4504
  278.0000   106.1219    10.8806    11.3780
  278.5000   104.9471    10.7367    11.2274
  279.0000   105.2851    10.6671    11.1563
  279.5000   107.4386    10.5996    11.0857
  280.0000   108.3818    10.4610    11.0154
  280.5000   108.0988    10.3948    10.8713
  281.0000   105.0165    10.2574    10.8018
  281.5000    99.4200    10.1925    10.6579
  282.0000   101.5735    10.1987    10.5904
  282.5000   104.6347    10.1319    10.5247
  283.0000   104.3676    10.0703    10.4582
  283.5000   103.7979    10.0078    10.3914
  284.0000   102.3205    10.0139    10.3264
  284.5000   102.0446     9.9490    10.3341
  285.0000   101.7852     9.9566    10.3405
  285.5000   102.1244     9.9627    10.2734
  286.0000   102.7977     9.9935    10.2813
  286.5000   104.7504    10.0446    10.2876
  287.0000   108.8963    10.1210    10.2939
  287.5000   110.1421    10.1980    10.3002
  288.0000   106.8493    10.2043    10.3065
  288.5000   102.6487    10.0693    10.1702
  289.0000    99.6585     9.9376    10.0342
  289.5000    98.7774     9.7367     9.8267
  290.0000   100.6372     9.4751     9.3081
  290.5000   102.4881     9.0314     8.8089
  291.0000   104.6416     8.7277     8.5707
  291.5000   108.6838     8.5513     8.3986
  292.0000   111.0681     8.3228     8.3454
  292.5000   108.0852     8.2700     8.3518
  293.0000   105.9938     8.2178     8.3569
  293.5000   104.5253     8.2804     8.4205
  294.0000   104.5608     8.2866     8.5439
  294.5000   106.7142     8.4667     8.6691
  295.0000   109.7754     8.5906     8.7352
  295.5000   111.3238     8.7164     8.7417
  296.0000   109.2413     8.7218     8.7471
  296.5000   106.8523     8.6652     8.7525
  297.0000   106.5891     8.6716     8.8183
  297.5000   108.1463     8.6772     8.8245
  298.0000   111.8126     8.6824     8.8299
  298.5000   114.8738     8.6879     8.9194
  299.0000   116.7247     8.7368     8.9648
  299.5000   116.7602     8.8218     9.0330
  300.0000   112.5597     8.8983     9.1654
  300.5000   108.3592     9.0190     9.1769
  301.0000   106.2766     9.0875     9.2410
  301.5000   106.0091     9.0931     9.2467
  302.0000   108.5144     9.0987     9.2510
  302.5000   113.1214     9.1338     9.2562
