~VERSION INFORMATION
 VERS.                2.0:   CWLS LOG ASCII STANDARD - VERSION 2.0
 WRAP.                 NO:   ONE LINE PER DEPTH STEP
~WELL INFORMATION
#MNEM.UNIT      DATA TYPE    INFORMATION
#----------   ------------   ------------------------------
 STRT.F           33.0000:   START DEPTH
 STOP.F          957.0000:   STOP DEPTH
 STEP.F            0.5000:   STEP LENGTH
 NULL.          -999.2500:   NO VALUE
 COMP. TESORO PETROLEUM CORP:   COMPANY
 WELL.  NPR #3 46-S-14 #3:   WELL
 FLD .             TEAPOT:   FIELD
 LOC .      S14 T38N R78W:   LOCATION
 CNTY.            NATRONA:   COUNTY
 STAT.            WYOMING:   STATE
 CTRY. UNITED STATES OF AMERICA:   COUNTRY
 SRVC.       Schlumberger:   SERVICE COMPANY
 DATE.        25-JUN-1970:   LOGDATE
 API .       490251023100:   API NUMBER
~CURVE INFORMATION
#MNEM.UNIT       API CODE    CURVE DESCRIPTION
#----------   ------------   ------------------------------
 DEPT.F                  :   
 SPR .MV     05 010 01 00:   SPONTANEOUS POTENTIAL FROM RES.
 ILD .OHMM   05 120 46 00:   INDUCTION LOG DEEP
 CILD.MMHO   05 110 46 00:   CONDUCTIVITY INDUCTION LOG DEEP
 ASN .OHMM   05 041 16 00:   AMPLIFIED SHORT NORMAL 16"
 GR  .GAPI   30 310 01 00:   GAMMA RAY
 CALD.IN     45 280 60 00:   CALIPER FROM DENSITY LOG
 CORR.G/C3   45 356 01 00:   DENSITY CORRECTION
 DPHI.DEC    45 890 12 00:   DENSITY POROSITY SANDSTONE
 RHOB.G/C3   45 350 01 00:   BULK DENSITY
~PARAMETER INFORMATION
#MNEM.UNIT          VALUE    DESCRIPTION
#----------   ------------   ------------------------------
 PD  .                 GL:   PERMANENT DATUM
 EPD .F              5271:   ELEVATION PERMANENT DATUM
 LMF .                 KB:   LOG MEASURED FROM
 DAPD.F                10:   FEET ABOVE PERMANENT DATUM
 DMF .                 KB:   DRILLING MEASURED FROM
 EKB .F              5281:   KELLING BUSHING
 EDF .F              5280:   DRILLING FLOOR
 EGL .F              5271:   GROUND LEVEL
 DATE.        25-JUN-1970:   RUN DATE
 RUN .                  1:   RUN NUMBER
 DD  .F               950:   DEPTH DRILLER
 DL  .F               958:   DEPTH LOGGER
 BLI .F               957:   BOTTOM LOG INTERVAL
 TLI .F                33:   TOP LOG INTERVAL
 CS  .IN            10.75:   CASING SIZE
 CBD .F                30:   CASING BOTTOM DRILLER
 CBL .F                33:   CASING BOTTOM LOGGER
 BS  .IN                9:   BIT SIZE
 BSD .F               950:   BIT SIZE AT DEPTH
 DFT .         MO-MAR MUD:   DRILLING FLUID TYPE
 DFD .                9.7:   DRILLING FLUID DENSITY
 DFV .                 62:   DRILLING FLUID VISCOSITY
 DFPH.                7.4:   DRILLING FLUID PH
 DFL .                5.6:   DRILLING FLUID LOSS
 MSS .           FLOWLINE:   MUD SAMPLE SOURCE
 RMS .OHMM           1.40:   RESISTIVITY MUD SAMPLE
 MST .F                85:   MUD SAMPLE TEMPERATURE
 RMF .OHMM           0.85:   RESISTIVITY MUD FILTRATE SAMPLE
 MFST.F                87:   MUD FILTRATE SAMPLE TEMPERATURE
 MFSS.               MEAS:   MUD FILTRATE SAMPLE SOURCE
 RMB .OHMM           1.06:   RESISTIVITY MUD AT BHT
 BHT .F               112:   BOTTOM HOLE TEMPERATURE
 TCS .HRS               1:   TIME CURCULATED STOPPED
 MRT .F               112:   MAXIMUM RECORDED TEMPERATURE
 LUN .               7037:   LOGGING UNIT NUMBER
 LUL .                GLT:   LOGGING UNIT LOCATION
 ENGI.           KNOSTMAN:   RECORDING ENGINEER
 WITN.                MAY:   WITNESSED BY
 CLNT.            A2DTECH:   CLIENT CODE
 ORIG.         2.5" PRINT:   ORIGIN OF DATA
 UWI .       490251023100:   UNIQUE WELL ID
 DICO. A2D Technologies, Inc.:   DIGITIZING COMPANY
~OTHER INFORMATION
~A   DEPT       SPR        ILD       CILD       ASN         GR       CALD       CORR       DPHI       RHOB   
# ...
  325.0000   -39.8176     3.1818   293.3131     3.5152  -999.2500     9.3610     0.0324     0.1891     2.3472
  325.5000   -39.8237     3.1326   296.3526     3.4537  -999.2500     9.3612     0.0402     0.1891     2.3488
  326.0000   -39.8308     3.0303   305.8259     3.3524  -999.2500     9.3613     0.0128     0.1897     2.3488
  326.5000   -39.5319     2.9943   320.6306     3.2520  -999.2500     9.3615     0.0001     0.1945     2.3441
  327.0000   -39.5380     2.9129   334.3919     3.1667  -999.2500     9.3616     0.0154     0.2009     2.3405
  327.5000   -39.5441     2.7841   345.6814     3.1515  -999.2500     9.3618     0.0233     0.2023     2.3315
  328.0000   -39.5502     2.7273   364.7416     3.0909  -999.2500     9.3619     0.0203     0.2030     2.3192
  328.5000   -39.5562     2.7273   381.4590     3.0000  -999.2500     9.3621     0.0095     0.2144     2.3082
  329.0000   -39.5623     2.5758   401.2158     2.8064  -999.2500     9.3622     0.0127     0.2271     2.2961
  329.5000   -39.2654     2.5758   436.6875     2.6103  -999.2500     9.3624     0.0221     0.2355     2.2810
  330.0000   -39.2711     2.5758   448.6828     2.5455  -999.2500     9.3625     0.0235     0.2443     2.2622
  330.5000   -39.2777     2.5758   449.8480     2.5455  -999.2500     9.3627     0.0204     0.2525     2.2464
  331.0000   -39.2827     2.6212   438.8446     2.6061  -999.2500     9.3628     0.0220     0.2515     2.2377
  331.5000   -39.2888     2.7273   396.6565     2.7273  -999.2500     9.3630     0.0452     0.2432     2.2420
  332.0000   -39.0841     3.0303   366.2614     2.8485  -999.2500     9.3632     0.0267     0.2128     2.3191
  332.5000   -38.9970     3.3333   341.9453     2.9722  -999.2500     9.3633     0.0159     0.1778     2.3706
  333.0000   -39.0039     3.6364   311.6975     3.6885  -999.2500     9.3634     0.0271     0.1505     2.4100
  333.5000   -39.0091     3.7955   280.0083     3.9725  -999.2500     9.3636     0.0333     0.1384     2.4238
  334.0000   -39.0153     4.0000   244.6808     4.0606  -999.2500     9.3637     0.0351     0.1365     2.4285
  334.5000   -39.3252     4.2424   229.4833     4.0909  -999.2500     9.3639     0.0361     0.1373     2.4268
  335.0000   -39.3313     4.2803   224.8479     4.1212  -999.2500     9.3640     0.0330     0.1414     2.4163
  335.5000   -39.4630     4.3939   223.4043     4.0606  -999.2500     9.3642     0.0269     0.1561     2.3996
  336.0000   -39.6474     4.2424   224.4578     4.0202  -999.2500     9.3644     0.0177     0.1610     2.3906
  336.5000   -39.6543     4.2424   240.0761     3.9097  -999.2500     9.3645     0.0181     0.1613     2.3876
  337.0000   -39.6600     3.7727   265.9575     3.7576  -999.2500     9.3647     0.0277     0.1631     2.3876
  337.5000   -39.6657     3.2955   287.2340     3.5758  -999.2500     9.3648     0.0338     0.1691     2.3773
  338.0000   -39.3674     2.9091   323.7082     3.4242  -999.2500     9.3650     0.0363     0.1794     2.3529
  338.5000   -39.3739     2.4924   364.0336     3.2048  -999.2500     9.3794     0.0425     0.1857     2.3448
  339.0000   -39.1611     2.4242   405.5187     2.9966  -999.2500     9.3955     0.0472     0.1927     2.3408
  339.5000   -39.0821     2.4242   437.6900     2.7918  -999.2500     9.4258     0.0503     0.1963     2.3334
  340.0000   -38.7849     2.4242   442.2492     2.7273  -999.2500     9.4260     0.0469     0.2041     2.3123
  340.5000   -38.4867     2.4242   445.2888     2.7273  -999.2500     9.4261     0.0364     0.2350     2.2911
  341.0000   -38.1884     2.4697   445.2888     2.7879  -999.2500     9.3921     0.0386     0.2560     2.2687
  341.5000   -38.1945     2.6439   428.5910     2.9453  -999.2500     9.3660     0.0381     0.2592     2.2391
  342.0000   -38.1034     3.0303   388.9665     3.0606  -999.2500     9.3662     0.0227     0.2403     2.2338
  342.5000   -38.2067     3.3333   344.9848     3.1254  -999.2500     9.3663     0.0088     0.2228     2.2802
  343.0000   -38.2139     3.7879   310.0304     3.9147  -999.2500     9.3665     0.0104     0.1803     2.3715
  343.5000   -38.5235     4.2424   268.9969     4.6061  -999.2500     9.3666     0.0384     0.1512     2.4049
  344.0000   -38.5291     4.4242   234.7513     4.7879  -999.2500     9.3668     0.0351     0.1391     2.4367
  344.5000   -39.1429     4.7500   203.9413     4.9703  -999.2500     9.3669     0.0172     0.1336     2.4428
  345.0000   -39.2097     5.0758   193.9969     5.0960  -999.2500     9.3973     0.0188     0.1330     2.4398
  345.5000   -39.4590     5.3030   189.9696     5.2015  -999.2500     9.3974     0.0306     0.1331     2.4413
  346.0000   -39.7690     5.4545   189.9696     5.3019  -999.2500     9.3841     0.0353     0.1329     2.4336
  346.5000   -39.7761     5.4545   189.9696     5.3939  -999.2500     9.3675     0.0355     0.1323     2.4278
  347.0000   -39.7818     5.4545   188.4498     5.4848  -999.2500     9.3677     0.0322     0.1335     2.4335
  347.5000   -39.7874     5.4545   181.9529     5.7273  -999.2500     9.3678     0.0254     0.1341     2.4400
  348.0000   -39.7933     5.4545   174.0426     5.9832  -999.2500     9.3680     0.0136     0.1342     2.4370
  348.5000   -39.7994     5.6061   167.5126     6.2447  -999.2500     9.3681     0.0061     0.1328     2.4431
  349.0000   -39.8055     5.7576   161.7984     6.5062  -999.2500     9.3683     0.0116     0.1302     2.4523
  349.5000   -39.8116     6.0606   158.0547     6.8182  -999.2500     9.3684     0.0154     0.1281     2.4584
  350.0000   -39.8186     6.3636   155.0152     6.9697  -999.2500     9.3686     0.0170     0.1259     2.4644
  350.5000   -39.8242     6.6667   153.4954     7.0303  -999.2500     9.3688     0.0185     0.1263     2.4489
  351.0000   -39.8298     6.8182   153.4954     7.0303  -999.2500     9.3689     0.0134     0.1351     2.4310
  351.5000   -39.8359     6.8182   153.4954     7.0303  -999.2500     9.3690     0.0059     0.1423     2.4229
  352.0000   -39.8419     6.8182   154.1439     7.0079  -999.2500     9.3692     0.0063     0.1411     2.4238
  352.5000   -39.8480     6.8182   156.5350     6.9537  -999.2500     9.3693     0.0087     0.1387     2.4253
  353.0000   -39.8541     6.6667   156.5350     6.9394  -999.2500     9.3695     0.0094     0.1380     2.4269
  353.5000   -39.8611     6.6667   156.5350     6.9091  -999.2500     9.3696     0.0095     0.1379     2.4286
  354.0000   -39.8667     6.6515   158.0547     6.9091  -999.2500     9.3698     0.0095     0.1364     2.4315
  354.5000   -39.8724     6.5152   158.0547     6.9091  -999.2500     9.3700     0.0064     0.1355     2.4346
  355.0000   -39.8784     6.5152   158.0547     6.9091  -999.2500     9.3701     0.0099     0.1374     2.4324
  355.5000   -39.7994     6.4080   158.0547     6.9091  -999.2500     9.3702     0.0138     0.1385     2.4302
  356.0000   -39.5866     6.3636   159.5745     6.9091  -999.2500     9.3704     0.0181     0.1349     2.4347
  356.5000   -39.5939     6.3636   159.5745     6.9091  -999.2500     9.3705     0.0236     0.1288     2.4439
  357.0000   -39.5996     6.3636   159.5745     6.8485  -999.2500     9.3603     0.0267     0.1257     2.4471
  357.5000   -39.6052     6.3636   161.1829     6.8454  -999.2500     9.3406     0.0282     0.1235     2.4542
  358.0000   -39.6109     6.3333   162.6140     6.8103  -999.2500     9.3408     0.0250     0.1214     2.4596
  358.5000   -39.6170     6.2121   164.1337     6.7879  -999.2500     9.3410     0.0151     0.1294     2.4608
  359.0000   -39.6231     6.2121   164.8988     6.7273  -999.2500     9.3411     0.0037     0.1348     2.4426
  359.5000   -39.6292     6.2121   165.6535     6.7273  -999.2500     9.3715    -0.0039     0.1432     2.4320
  360.0000   -39.6364     6.2121   165.6535     6.6970  -999.2500     9.3716     0.0053     0.1435     2.4245
  360.5000   -39.9460     6.2121   167.1732     6.6653  -999.2500     9.3718     0.0115     0.1377     2.4215
  361.0000   -39.9514     6.2121   167.1732     6.6061  -999.2500     9.3719     0.0069     0.1346     2.4201
