~VERSION INFORMATION
 VERS.                2.0:   CWLS LOG ASCII STANDARD - VERSION 2.0
 WRAP.                 NO:   ONE LINE PER DEPTH STEP
~WELL INFORMATION
#MNEM.UNIT      DATA TYPE    INFORMATION
#----------   ------------   ------------------------------
 STRT.F           39.0000:   START DEPTH
 STOP.F          478.0000:   STOP DEPTH
 STEP.F            0.5000:   STEP LENGTH
 NULL.          -999.2500:   NO VALUE
 COMP. FENIX & SCISSON, INC.:   COMPANY
 WELL.  S-3 NPR #3 #46S-3:   WELL
 FLD .              NPR-3:   FIELD
 LOC .       S3 T38N R78W:   LOCATION
 CNTY.            NATRONA:   COUNTY
 STAT.            WYOMING:   STATE
 CTRY. UNITED STATES OF AMERICA:   COUNTRY
 SRVC.      Dresser Atlas:   SERVICE COMPANY
 DATE.        28-MAR-1977:   LOGDATE
 API .       490251034100:   API NUMBER
~CURVE INFORMATION
#MNEM.UNIT       API CODE    CURVE DESCRIPTION
#----------   ------------   ------------------------------
 DEPT.F                  :   
 ILD .OHMM   07 120 46 00:   INDUCTION LOG DEEP
 ILM .OHMM   07 120 44 00:   INDUCTION LOG MEDIUM
 SFL .OHMM   07 220 01 00:   SHALLOW FOCUSED LOG RESISTIVITY
 SPR .MV     07 010 01 00:   SPONTANEOUS POTENTIAL
 CALD.IN     45 280 60 00:   CALIPER FROM DENSITY LOG
 GRD .GAPI   45 310 01 00:   GAMMA RAY FROM DENSITY LOG
 DPHI.DEC    45 890 12 00:   DENSITY POROSITY SANDSTONE
 RHOB.G/C3   45 350 01 00:   BULK DENSITY
 DRHO.G/C3   45 356 01 00:   DENSITY CORRECTION
~PARAMETER INFORMATION
#MNEM.UNIT          VALUE    DESCRIPTION
#----------   ------------   ------------------------------
 PD  .                 GL:   PERMANENT DATUM
 EPD .F              5186:   ELEVATION PERMANENT DATUM
 LMF .                 KB:   LOG MEASURED FROM
 DAPD.F                 3:   FEET ABOVE PERMANENT DATUM
 DMF .                 KB:   DRILLING MEASURED FROM
 EKB .F              5189:   KELLING BUSHING
 EGL .F              5186:   GROUND LEVEL
 DATE.        28-MAR-1977:   RUN DATE
 RUN .                  1:   RUN NUMBER
 DD  .F               480:   DEPTH DRILLER
 DL  .F               480:   DEPTH LOGGER
 BLI .F               478:   BOTTOM LOG INTERVAL
 TLI .F                40:   TOP LOG INTERVAL
 CS  .IN            8.625:   CASING SIZE
 CBD .F                40:   CASING BOTTOM DRILLER
 CBL .F                40:   CASING BOTTOM LOGGER
 BS  .IN            7.875:   BIT SIZE
 BSD .F               480:   BIT SIZE AT DEPTH
 DFT .           CHEM GEL:   DRILLING FLUID TYPE
 DFD .                8.9:   DRILLING FLUID DENSITY
 DFV .                 39:   DRILLING FLUID VISCOSITY
 DFPH.                 11:   DRILLING FLUID PH
 DFL .                 16:   DRILLING FLUID LOSS
 MSS .           FLOWLINE:   MUD SAMPLE SOURCE
 RMS .OHMM           0.41:   RESISTIVITY MUD SAMPLE
 MST .F                40:   MUD SAMPLE TEMPERATURE
 RMF .OHMM           0.29:   RESISTIVITY MUD FILTRATE SAMPLE
 MFST.F                62:   MUD FILTRATE SAMPLE TEMPERATURE
 RMC .OHMM           0.28:   RESISTIVITY MUD CAKE
 MCST.F                62:   MUD CAKE SAMPLE TEMPERATURE
 MFSS.               MEAS:   MUD FILTRATE SAMPLE SOURCE
 MCSS.               MEAS:   MUD CAKE SAMPLE SOURCE
 RMB .OHMM           0.26:   RESISTIVITY MUD AT BHT
 BHT .F                62:   BOTTOM HOLE TEMPERATURE
 TCS .HRS               6:   TIME CURCULATED STOPPED
 MRT .F                62:   MAXIMUM RECORDED TEMPERATURE
 LUN .               6145:   LOGGING UNIT NUMBER
 LUL .              GLTTE:   LOGGING UNIT LOCATION
 ENGI.              RANCK:   RECORDING ENGINEER
 WITN.     MR. STUEBINGER:   WITNESSED BY
 CLNT.            A2DTECH:   CLIENT CODE
 ORIG.           5" PRINT:   ORIGIN OF DATA
 UWI .       490251034100:   UNIQUE WELL ID
 DICO. A2D Technologies, Inc.:   DIGITIZING COMPANY
~OTHER INFORMATION
~A   DEPT      ILD        ILM        SFL        SPR       CALD         GRD      DPHI       RHOB       DRHO   
# ...
  185.0000     6.3752     6.5420     7.5632   -34.0576     7.8817   104.2307     0.1013     2.4820     0.0438
  185.5000     6.1203     6.3219     7.1093   -34.1843     7.8838   105.3084     0.1000     2.4873     0.0470
  186.0000     5.8347     6.1092     6.9181   -34.3063     7.8861   107.5647     0.0982     2.4911     0.0486
  186.5000     5.5238     5.6962     6.7335   -34.4324     7.8883   109.2292     0.0975     2.4927     0.0533
  187.0000     5.0502     5.0559     6.6470   -34.5589     7.8909   107.3062     0.0981     2.4935     0.0564
  187.5000     4.3668     4.3473     6.2905   -34.8599     7.8781   106.4296     0.1047     2.4854     0.0581
  188.0000     3.8150     3.7563     5.8732   -35.2571     7.8803   106.2953     0.1132     2.4667     0.0553
  188.5000     3.1760     3.3145     5.4801   -35.6841     7.8824   105.1248     0.1328     2.4357     0.0510
  189.0000     2.8635     2.9659     5.1412   -36.1112     7.8696   102.1555     0.1424     2.3986     0.0496
  189.5000     2.6180     2.7101     4.4876   -36.3882     7.8868   100.5127     0.1519     2.3732     0.0482
  190.0000     2.2955     2.4592     4.0739   -36.6651     7.8895   100.1033     0.1648     2.3448     0.0439
  190.5000     2.1581     2.3764     3.6726   -36.6417     7.8917    99.6802     0.1960     2.3164     0.0336
  191.0000     2.1304     2.4464     3.2879   -36.6184     7.8936    98.6540     0.2257     2.2805     0.0185
  191.5000     2.1326     2.5728     3.2906   -36.4444     7.8960    98.5197     0.2431     2.2490     0.0085
  192.0000     2.2889     2.7208     3.6560   -36.1154     7.8982   100.9367     0.2497     2.2390     0.0056
  192.5000     2.4762     2.8795     4.3249   -35.9419     7.9003   104.2454     0.2337     2.2485     0.0058
  193.0000     2.6401     3.0689     5.2608   -35.7683     7.9025   106.2352     0.2081     2.2718     0.0089
  193.5000     2.9312     3.4109     4.5812   -35.4447     7.9048   107.2805     0.1906     2.3132     0.0121
  194.0000     3.3498     4.1809     4.0437   -35.2712     7.9074   108.1976     0.1684     2.3545     0.0093
  194.5000     4.0197     4.5503     5.7748   -34.9475     7.9096   108.8157     0.1629     2.3696     0.0064
  195.0000     4.6259     4.9524     7.4789   -34.7740     7.9118   108.6814     0.1572     2.3832     0.0171
  195.5000     5.0347     5.3903     7.6416   -34.6005     7.9139   108.8562     0.1429     2.4213     0.0278
  196.0000     5.3289     5.6300     7.2332   -34.5766     7.9010   108.2785     0.1171     2.4614     0.0354
  196.5000     5.5622     5.9129     7.0414   -34.5479     7.8957   108.1493     0.1111     2.4675     0.0386
  197.0000     5.8069     6.0852     6.9497   -34.5246     7.8905   108.9219     0.1099     2.4706     0.0402
  197.5000     6.0658     6.1325     6.9555   -34.5012     7.8932   111.1843     0.1092     2.4722     0.0404
  198.0000     6.1529     6.1371     7.0112   -34.4778     7.8954   111.8025     0.1092     2.4738     0.0407
  198.5000     6.1591     6.1417     7.1153   -34.4545     7.8975   112.2711     0.1088     2.4769     0.0438
  199.0000     6.0800     6.1463     7.2715   -34.4311     7.8842   113.7861     0.1079     2.4815     0.0439
  199.5000     5.8369     5.8570     7.3283   -34.4077     7.8869   113.8261     0.1090     2.4845     0.0456
  200.0000     5.4115     5.4274     7.4372   -34.3844     7.8891   113.2287     0.1129     2.4734     0.0433
  200.5000     5.0522     5.0886     7.4953   -34.5275     7.8845   111.9024     0.1188     2.4622     0.0429
  201.0000     4.7167     4.7269     7.3975   -34.9383     7.8800   113.4209     0.1273     2.4533     0.0432
  201.5000     4.4654     4.4419     6.9530   -35.5097     7.8755   115.8315     0.1332     2.4443     0.0418
  202.0000     4.3168     4.2626     6.0811   -35.9367     7.8709   117.0463     0.1410     2.4213     0.0375
  202.5000     4.2023     4.1192     5.0915   -35.9501     7.8664   116.3178     0.1533     2.3897     0.0347
  203.0000     4.1206     4.0642     4.8861   -36.0159     7.8619   112.3009     0.1572     2.3861     0.0319
  203.5000     4.1248     4.2424     5.3922   -36.0391     7.8573   109.3304     0.1490     2.3951     0.0336
  204.0000     4.2755     4.4586     5.9482   -36.0020     7.8526   108.0041     0.1391     2.4132     0.0383
  204.5000     4.4009     4.6207     5.2514   -35.6926     7.8534   106.8272     0.1276     2.4373     0.0430
  205.0000     4.5936     4.9007     5.7152   -35.6721     7.8542   107.5936     0.1188     2.4591     0.0478
  205.5000     4.8282     5.2494     6.3499   -35.5014     7.8550   109.7245     0.1095     2.4704     0.0539
  206.0000     5.1822     5.5169     6.2672   -35.4809     7.8558   111.2676     0.1044     2.4795     0.0571
  206.5000     5.5663     5.7980     6.3651   -35.3102     7.8566   112.4385     0.1002     2.4856     0.0573
  207.0000     5.8939     5.9710     6.8239   -35.2897     7.8574   112.7564     0.0962     2.4888     0.0575
  207.5000     6.1464     6.1833     7.5843   -34.9689     7.8582   111.8785     0.0920     2.4933     0.0592
  208.0000     6.4155     6.3956     7.8595   -34.7982     7.8590   112.1965     0.0878     2.5023     0.0624
  208.5000     6.7433     6.6194     7.9209   -34.6275     7.8598   111.3186     0.0853     2.5084     0.0670
  209.0000     6.9896     6.7662     7.9274   -34.4454     7.8606   110.4407     0.0835     2.5107     0.0687
  209.5000     7.1446     6.9648     7.9338   -34.2853     7.8614   110.0112     0.0826     2.5131     0.0704
  210.0000     7.2019     7.1193     7.9403   -34.2605     7.8622   108.5354     0.0822     2.5146     0.0706
  210.5000     7.1464     7.1762     8.0023   -34.3953     7.8630   105.8638     0.0852     2.5110     0.0663
  211.0000     7.0188     7.0849     8.0089   -34.3696     7.8638   106.9676     0.0882     2.5042     0.0620
  211.5000     6.8913     6.9915     8.0156   -34.4992     7.8646   107.5460     0.0929     2.4942     0.0577
  212.0000     6.7637     6.9494     7.5886   -34.4787     7.8654   106.6729     0.1025     2.4812     0.0519
  212.5000     6.6362     6.8610     7.3845   -34.4582     7.8662   107.2898     0.1118     2.4670     0.0461
  213.0000     6.5086     6.7722     7.3920   -34.5886     7.8670   108.9530     0.1187     2.4513     0.0418
  213.5000     6.2954     6.6364     7.3981   -34.7177     7.8678   110.9152     0.1216     2.4431     0.0390
  214.0000     6.1254     6.4879     7.3512   -34.8529     7.8686   112.7279     0.1236     2.4387     0.0362
  214.5000     5.9620     6.4221     7.3061   -34.9767     7.8694   113.0458     0.1273     2.4358     0.0364
  215.0000     5.8020     6.2073     7.2626   -35.1063     7.8702   113.2142     0.1293     2.4329     0.0351
  215.5000     5.6462     5.9043     7.0689   -35.2359     7.8712   113.0837     0.1326     2.4307     0.0338
  216.0000     5.2696     5.3710     6.9067   -35.3656     7.8728   112.6128     0.1365     2.4269     0.0325
  216.5000     4.7396     4.9090     6.6457   -35.4952     7.8749   110.8843     0.1428     2.4218     0.0297
  217.0000     4.2815     4.6463     6.3846   -35.6248     7.8770   109.8569     0.1472     2.4159     0.0254
  217.5000     4.1950     4.3977     6.0854   -36.0496     7.8791   110.7727     0.1508     2.4077     0.0225
  218.0000     4.1687     4.3095     5.1526   -36.1844     7.8812   111.9875     0.1535     2.4003     0.0168
  218.5000     4.2308     4.5311     4.8434   -36.0085     7.8833   111.8570     0.1555     2.3921     0.0125
  219.0000     4.2932     4.9325     4.5846   -35.9880     7.8854   111.4228     0.1558     2.3877     0.0082
  219.5000     4.3578     5.3694     4.9884   -35.6512     7.8875   112.6423     0.1483     2.4058     0.0053
  220.0000     4.5456     5.8043     7.2223   -35.1911     7.8896   114.1561     0.1314     2.4336     0.0071
  220.5000     4.9803     6.1961     7.5895   -34.8703     7.8916   114.6235     0.1074     2.4693     0.0118
  221.0000     5.4193     6.5511     7.7103   -34.6996     7.8937   113.2795     0.0938     2.4920     0.0150
