~VERSION INFORMATION
 VERS.                2.0:   CWLS LOG ASCII STANDARD - VERSION 2.0
 WRAP.                 NO:   ONE LINE PER DEPTH STEP
~WELL INFORMATION
#MNEM.UNIT      DATA TYPE    INFORMATION
#----------   ------------   ------------------------------
 STRT.F            0.0000:   START DEPTH
 STOP.F          717.5000:   STOP DEPTH
 STEP.F            0.5000:   STEP LENGTH
 NULL.          -999.2500:   NO VALUE
 COMP. LAWRENCE/ALLISON INC:   COMPANY
 WELL. NPR 3 #27-64-SX-11-WP:   WELL
 FLD .             TEAPOT:   FIELD
 LOC .      S11 T38N R78W:   LOCATION
 CNTY.            NATRONA:   COUNTY
 STAT.            WYOMING:   STATE
 CTRY. UNITED STATES OF AMERICA:   COUNTRY
 SRVC.      Dresser Atlas:   SERVICE COMPANY
 DATE.        15-SEP-1984:   LOGDATE
 API .       490251097500:   API NUMBER
~CURVE INFORMATION
#MNEM.UNIT       API CODE    CURVE DESCRIPTION
#----------   ------------   ------------------------------
 DEPT.F                  :   
 CALD.IN     45 280 60 00:   CALIPER FROM DENSITY LOG
 CNC .DEC    42 890 03 00:   COMPENSATED NEUTRON POROSITY SANDSTONE
 CORR.G/C3   45 356 01 00:   DENSITY CORRECTION
 DEN .G/C3   45 350 01 00:   BULK DENSTIY
 PORD.DEC    45 890 12 00:   POROSITY DENSITY SANDSTONE
 GRR .GAPI   07 310 01 00:   GAMMA RAY FROM RESISTIVITY
 RFOC.OHMM   07 220 01 00:   RESISTIVITY FOCUSED LOG
 RILD.OHMM   07 120 46 00:   RESISTIVITY INDUCTION LOG DEEP
 RILM.OHMM   07 120 44 00:   RESITIVITY INDUCTION LOG MEDIUM
 SPR .MV     07 010 01 00:   SPONTANEOUS POTENTIAL FROM RES.
~PARAMETER INFORMATION
#MNEM.UNIT          VALUE    DESCRIPTION
#----------   ------------   ------------------------------
 PD  .                 GL:   PERMANENT DATUM
 EPD .F              5198:   ELEVATION PERMANENT DATUM
 LMF .                 GL:   LOG MEASURED FROM
 DMF .                 GL:   DRILLING MEASURED FROM
 EGL .F              5198:   GROUND LEVEL
 DATE.        15-SEP-1984:   RUN DATE
 RUN .                  1:   RUN NUMBER
 DD  .F               736:   DEPTH DRILLER
 DL  .F               722:   DEPTH LOGGER
 BLI .F               704:   BOTTOM LOG INTERVAL
 TLI .F                42:   TOP LOG INTERVAL
 CS  .IN            8.625:   CASING SIZE
 CBD .F                42:   CASING BOTTOM DRILLER
 CBL .F                42:   CASING BOTTOM LOGGER
 BS  .IN            7.875:   BIT SIZE
 BSD .F               736:   BIT SIZE AT DEPTH
 DFT .          KCL WATER:   DRILLING FLUID TYPE
 MSS .           FLOWLINE:   MUD SAMPLE SOURCE
 RMS .OHMM           0.22:   RESISTIVITY MUD SAMPLE
 MST .F                70:   MUD SAMPLE TEMPERATURE
 RMB .OHMM           0.17:   RESISTIVITY MUD AT BHT
 BHT .F                90:   BOTTOM HOLE TEMPERATURE
 TCS .HRS               5:   TIME CURCULATED STOPPED
 MRT .F                90:   MAXIMUM RECORDED TEMPERATURE
 LUN .               6274:   LOGGING UNIT NUMBER
 LUL .               GLTE:   LOGGING UNIT LOCATION
 ENGI.             RAUTIO:   RECORDING ENGINEER
 WITN.            JOHNSON:   WITNESSED BY
 CLNT.            A2DTECH:   CLIENT CODE
 ORIG.         2.5" PRINT:   ORIGIN OF DATA
 UWI .       490251097500:   UNIQUE WELL ID
 DICO. A2D Technologies, Inc.:   DIGITIZING COMPANY
~OTHER INFORMATION
~A    DEPT    CALD        CNC       CORR        DEN       PORD         GRR      RFOC       RILD       RILM        SPR   
# ...
   67.0000     9.9829     0.3462     0.0483     1.9990     0.4709    79.9704     6.0634     2.4156     2.8934   -18.1440
   67.5000     9.3009     0.3344     0.0132     1.9989     0.3196    78.6243     5.5786     2.5984     3.1817   -19.1765
   68.0000     8.3230     0.3119     0.0058     2.1084     0.2622    78.1775     4.9882     2.9822     3.8219   -19.5976
   68.5000     8.3179     0.2794     0.0261     2.3219     0.1918    78.7219     4.8526     3.6101     4.8828   -19.6275
   69.0000     8.3494     0.2676     0.0220     2.3549     0.1918    77.4892     5.1178     4.4985     6.2410   -19.6517
   69.5000     8.3182     0.2439    -0.0009     2.3630     0.1900    73.7071     5.8636     5.6613     7.4110   -19.6775
   70.0000     8.3463     0.2333    -0.0129     2.3633     0.1815    70.7101     6.7174     6.9957     8.0386   -19.7041
   70.5000     8.3445     0.2310    -0.0012     2.3704     0.1775    69.3639     7.6401     8.4135     8.7795   -19.7308
   71.0000     8.3728     0.2346     0.0106     2.3786     0.1720    69.0111     8.3619     9.3809     9.8471   -19.7606
   71.5000     8.3723     0.2430     0.0194     2.3846     0.1683    68.9679     9.1711    10.4594    10.5435   -20.3765
   72.0000     8.3719     0.2579     0.0223     2.3907     0.1672    68.9231     9.8108    10.9149    11.1226   -21.0335
   72.5000     8.3715     0.2723     0.0066     2.3952     0.1660    68.8757    10.3662    11.0309    11.1121   -21.7110
   73.0000     8.3711     0.2809    -0.0047     2.3998     0.1731    69.1065    10.8137    10.2476     9.6235   -22.3886
   73.5000     8.3708     0.2982     0.0027     2.4010     0.1873    71.1407    10.9083     8.8408     8.0879   -23.1482
   74.0000     8.3704     0.3238     0.0139     2.3712     0.2090    72.2810    10.5986     8.0255     7.3091   -23.4683
   74.5000     8.3700     0.3407     0.0200     2.3267     0.2565    73.4527     9.7511     7.2306     6.6638   -24.4211
   75.0000     8.3696     0.3543     0.0245     2.2644     0.2850    74.5616     8.6827     6.4351     6.3024   -25.0986
   75.5000     8.3692     0.3556     0.0193     2.2066     0.2916    68.1953     8.0681     5.9985     6.0409   -26.0720
   76.0000     8.3688     0.3461     0.0035     2.1960     0.2895    59.0692     7.4536     5.6764     5.9550   -27.1275
   76.5000     8.3684     0.3360     0.0123     2.2396     0.2609    57.2509     6.7939     5.6653     6.3029   -28.0393
   77.0000     8.3680     0.3195     0.0211     2.2923     0.2209    57.8698     6.8855     6.1709     7.0998   -28.3593
   77.5000     8.3677     0.2839     0.0269     2.3547     0.1809    64.4675     7.0899     6.6661     7.8074   -27.6972
   78.0000     8.3673     0.2415     0.0297     2.3907     0.1669    70.0355     7.4531     7.2890     8.3533   -27.2308
   78.5000     8.3669     0.2393     0.0326     2.4002     0.1687    73.0331     7.9686     8.0704     8.9773   -26.0772
   79.0000     8.3665     0.2521     0.0226     2.3987     0.1717    72.3983     8.4083     8.5183     9.3936   -23.7345
   79.5000     8.3661     0.2551    -0.0044     2.3941     0.1776    72.3551     8.9150     9.0091     9.9646   -20.6440
   80.0000     8.3657     0.2569    -0.0123     2.3837     0.1818    73.6095     9.4639     9.5593    10.3577   -18.2643
   80.5000     8.3653     0.2587     0.0044     2.3777     0.1836    74.0440    10.0093    10.0784    10.6359   -15.9438
   81.0000     8.3649     0.2605     0.0125     2.3732     0.1843    74.5799    10.2562    10.5683    10.9208   -14.3760
   81.5000     8.3645     0.2618     0.0126     2.3716     0.1855    75.1243    10.6955    10.7054    11.1059   -13.5126
   82.0000     8.3642     0.2624    -0.0001     2.3716     0.1869    75.0765    10.8731    10.9940    11.2769   -13.1637
   82.5000     8.3638     0.2593    -0.0278     2.3700     0.1909    75.0296    11.0434    11.1367    11.4984   -12.2830
   83.0000     8.3634     0.2527    -0.0220     2.3659     0.1957    74.9823    11.2561    11.3456    11.4876   -11.3629
   83.5000     8.3630     0.2470    -0.0161     2.3558     0.1982    74.9255    11.3971    11.5806    11.7958   -10.3671
   84.0000     8.3626     0.2467    -0.0044     2.3427     0.1991    73.1072    11.5416    11.5712    11.7833    -9.7996
   84.5000     8.3622     0.2516     0.0104     2.3416     0.1980    71.2890    11.5262    11.7213    11.7712    -9.2321
   85.0000     8.3618     0.2578     0.0283     2.3442     0.1957    70.0592    11.5096    11.7109    11.9194    -8.8659
   85.5000     8.3614     0.2590     0.0369     2.3503     0.1909    71.8077    11.4968    11.7005    12.0725    -8.6953
   86.0000     8.3611     0.2496     0.0292     2.3586     0.1856    74.1539    11.4836    11.6881    12.0611    -8.7251
   86.5000     8.3607     0.2431     0.0113     2.3709     0.1815    74.9645    11.4694    11.8397    12.0825    -8.7493
   87.0000     8.3603     0.2378     0.0009     2.3767     0.1768    73.4186    11.4553    11.8301    12.2687    -8.7751
   87.5000     8.3599     0.2425     0.0092     2.3826     0.1726    74.0385    11.5975    11.9837    12.3581    -8.5019
   88.0000     8.3595     0.2500     0.0214     2.3870     0.1702    74.6982    11.7446    11.9722    12.3441    -8.2367
   88.5000     8.3591     0.2544     0.0429     2.3898     0.1691    74.4615    11.8933    11.9615    12.5029    -7.9707
   89.0000     8.3587     0.2494     0.0598     2.3942     0.1686    73.2245    11.9065    12.1158    12.6634    -7.6982
   89.5000     8.3583     0.2521     0.0419     2.3956     0.1705    73.1814    11.9374    12.2720    12.6495    -7.1315
   90.0000     8.3579     0.2541     0.0358     2.3956     0.1757    74.3217    11.9683    12.2837    12.6365    -6.7653
   90.5000     8.3576     0.2548     0.0357     2.3951     0.1822    74.8703    11.9992    12.4752    12.6218    -6.5947
   91.0000     8.3572     0.2567     0.0385     2.3834     0.1883    74.8166    12.0301    12.5794    12.6100    -6.0328
   91.5000     8.3568     0.2611     0.0352     2.3631     0.1913    74.1707    12.0610    12.7402    12.7720    -5.7612
   92.0000     8.3564     0.2582     0.0169     2.3563     0.1937    72.9442    12.0919    12.7298    12.7583    -5.4517
   92.5000     8.3560     0.2369     0.0014     2.3537     0.1955    71.7160    11.7752    12.8950    12.7452    -4.8274
   93.0000     8.3556     0.2251    -0.0081     2.3530     0.1979    72.2662    11.4106    12.8830    12.7301    -4.3609
   93.5000     8.3552     0.2215    -0.0126     2.3468     0.2002    72.8047    11.2731    12.8716    12.8945    -4.0949
   94.0000     8.3548     0.2313    -0.0025     2.3408     0.2001    73.9335    11.2570    13.2158    12.8813    -3.8233
   94.5000     8.3545     0.2441     0.0079     2.3445     0.1936    72.7069    11.7165    13.2050    12.8680    -3.8491
   95.0000     8.3534     0.2542     0.0202     2.3622     0.1844    72.6627    11.8807    13.1940    12.8548    -3.8757
   95.5000     8.3223     0.2669     0.0315     2.3755     0.1797    72.6154    12.0154    13.1822    12.8393    -3.9024
   96.0000     8.3207     0.2714     0.0225     2.3798     0.1779    73.4201    11.9985    13.1705    12.8273    -3.9322
   96.5000     8.3191     0.2608     0.0105     2.3827     0.1811    74.8797    11.8190    13.1569    12.8152    -3.6598
   97.0000     8.3230     0.2531     0.0074     2.3797     0.1870    74.8366    11.4867    13.1462    12.8021    -3.6848
   97.5000     8.3456     0.2525     0.0043     2.3706     0.1945    73.5947    11.4388    13.1353    12.7889    -3.4172
   98.0000     8.3438     0.2526     0.0012     2.3538     0.1973    71.8937    11.3025    12.9450    12.7732    -3.2860
   98.5000     8.3422     0.2514    -0.0019     2.3469     0.1899    69.4635    11.4422    12.8595    12.7612    -2.8819
   99.0000     8.3701     0.2502    -0.0025     2.3599     0.1875    66.9304    12.0736    12.7440    12.7493    -2.9061
   99.5000     8.3682     0.2467    -0.0058     2.3683     0.1864    65.1124    12.3954    12.3894    12.7364    -2.6345
  100.0000     8.3654     0.2414    -0.0082     2.3704     0.1822    64.2998    12.3793    12.2108    12.6785    -2.3628
