~VERSION INFORMATION
 VERS.                2.0:   CWLS LOG ASCII STANDARD - VERSION 2.0
 WRAP.                 NO:   ONE LINE PER DEPTH STEP
~WELL INFORMATION
#MNEM.UNIT      DATA TYPE    INFORMATION
#----------   ------------   ------------------------------
 STRT.F           30.0000:   START DEPTH
 STOP.F          618.0000:   STOP DEPTH
 STEP.F            0.5000:   STEP LENGTH
 NULL.          -999.2500:   NO VALUE
 COMP. FENNIX & SCISSON, INC.:   COMPANY
 WELL.       NPR #88-S-10:   WELL
 FLD .              NPR-3:   FIELD
 LOC .      S10 T38N R78W:   LOCATION
 CNTY.            NATRONA:   COUNTY
 STAT.            WYOMING:   STATE
 CTRY. UNITED STATES OF AMERICA:   COUNTRY
 SRVC.              Welex:   SERVICE COMPANY
 DATE.        22-APR-1977:   LOGDATE
 API .       490251034200:   API NUMBER
~CURVE INFORMATION
#MNEM.UNIT       API CODE    CURVE DESCRIPTION
#----------   ------------   ------------------------------
 DEPT.F                  :   
 CALD.IN     45 280 60 00:   CALIPER FROM DENSITY LOG
 GRD .GAPI   45 310 01 00:   GAMMA RAY FROM DENSITY LOG
 CORR.G/C3   45 356 01 00:   DENSITY CORRECTION
 RHOB.G/C3   45 350 01 00:   BULK DENSITY
 DPHI.DEC    45 890 12 00:   DENSITY POROSITY SANDSTONE
 ILD .OHMM   07 120 46 00:   INDUCTION LOG DEEP
 ILM .OHMM   07 120 44 00:   INDUCTION LOG MEDIUM
 SGRD.OHMM   07 220 05 00:   SHALLOW GUARD RESISTIVITY
 SPR .MV     07 010 01 00:   SPONTANEOUS POTENTIAL FROM RES.
~PARAMETER INFORMATION
#MNEM.UNIT          VALUE    DESCRIPTION
#----------   ------------   ------------------------------
 PD  .                 GL:   PERMANENT DATUM
 EPD .F              5255:   ELEVATION PERMANENT DATUM
 LMF .                 GL:   LOG MEASURED FROM
 DMF .                 GL:   DRILLING MEASURED FROM
 EGL .F              5255:   GROUND LEVEL
 DATE.        22-APR-1977:   RUN DATE
 RUN .                  1:   RUN NUMBER
 DD  .F               630:   DEPTH DRILLER
 DL  .F               620:   DEPTH LOGGER
 BLI .F               618:   BOTTOM LOG INTERVAL
 TLI .F                38:   TOP LOG INTERVAL
 CS  .IN            8.625:   CASING SIZE
 CBD .F                40:   CASING BOTTOM DRILLER
 BS  .IN            7.875:   BIT SIZE
 BSD .F               630:   BIT SIZE AT DEPTH
 DFT .            KCL GEL:   DRILLING FLUID TYPE
 DFD .                9.0:   DRILLING FLUID DENSITY
 DFV .                 40:   DRILLING FLUID VISCOSITY
 DFPH.                8.0:   DRILLING FLUID PH
 DFL .                6.4:   DRILLING FLUID LOSS
 MSS .            MUD PIT:   MUD SAMPLE SOURCE
 RMS .OHMM            .20:   RESISTIVITY MUD SAMPLE
 MST .F                65:   MUD SAMPLE TEMPERATURE
 RMF .OHMM            .18:   RESISTIVITY MUD FILTRATE SAMPLE
 MFST.F                65:   MUD FILTRATE SAMPLE TEMPERATURE
 RMC .OHMM            .28:   RESISTIVITY MUD CAKE
 MCST.F                65:   MUD CAKE SAMPLE TEMPERATURE
 MFSS.               MEAS:   MUD FILTRATE SAMPLE SOURCE
 MCSS.               MEAS:   MUD CAKE SAMPLE SOURCE
 RMB .OHMM            .18:   RESISTIVITY MUD AT BHT
 BHT .F                71:   BOTTOM HOLE TEMPERATURE
 TCS .HRS            0300:   TIME CURCULATED STOPPED
 MRT .F                71:   MAXIMUM RECORDED TEMPERATURE
 LUN .               8611:   LOGGING UNIT NUMBER
 LUL .             CASPER:   LOGGING UNIT LOCATION
 ENGI.          T. JOYNER:   RECORDING ENGINEER
 WITN.           ROB LYON:   WITNESSED BY
 CLNT.            A2DTECH:   CLIENT CODE
 ORIG.           5" PRINT:   ORIGIN OF DATA
 UWI .       490251034200:   UNIQUE WELL ID
 DICO. A2D Technologies, Inc.:   DIGITIZING COMPANY
~OTHER INFORMATION
~A   DEPT     CALD        GRD       CORR       RHOB       DPHI        ILD        ILM       SGRD        SPR   
# ...
  358.5000     7.8061   132.5107     0.0148     2.4525     0.1201     4.3632     5.2345     7.6350   -25.5952
  359.0000     7.8210   130.8655     0.0149     2.4592     0.1168     4.3925     5.0904     7.0269   -25.5952
  359.5000     7.8208   129.6694     0.0149     2.4697     0.1129     4.4525     4.9546     6.4672   -25.5952
  360.0000     7.8206   128.7727     0.0149     2.4787     0.1097     4.5445     4.9192     6.0351   -25.5952
  360.5000     7.8205   127.8760     0.0150     2.4854     0.1061     4.6708     5.0255     7.3176   -25.4464
  361.0000     7.8353   127.2787     0.0180     2.4929     0.1022     4.8003     5.2421     8.3395   -25.2976
  361.5000     7.8351   126.9804     0.0226     2.5026     0.0987     4.9672     5.5828     9.3738   -25.1300
  362.0000     7.8350   128.0302     0.0226     2.4981     0.1026     5.1049     6.0154    10.0401   -24.8512
  362.5000     7.8498   129.3790     0.0226     2.4862     0.1095     5.2465     6.3556    10.3894   -24.7024
  363.0000     7.8496   130.4284     0.0211     2.4757     0.1119     5.4292     6.6608    10.4591   -24.4048
  363.5000     7.8495   131.6275     0.0212     2.4697     0.1140     5.5798     6.8456    10.4555   -24.2560
  364.0000     7.8643   130.7308     0.0212     2.4645     0.1158     5.6954     6.9783    10.3808   -24.1071
  364.5000     7.8641   128.9359     0.0197     2.4592     0.1185     5.8128     7.0733    10.3067   -23.9583
  365.0000     7.8640   127.1410     0.0167     2.4555     0.1197     5.8521     7.1203    10.3039   -23.9583
  365.5000     7.8638   128.3401     0.0153     2.4547     0.1185     5.8506     7.1671    10.2303   -23.8095
  366.0000     7.8487   129.0901     0.0153     2.4600     0.1167     5.8494     7.2147    10.2275   -23.8095
  366.5000     7.8486   129.6904     0.0168     2.4690     0.1143     5.8482     7.3636    10.2247   -23.8095
  367.0000     7.8335   130.4404     0.0214     2.4727     0.1119     5.8470     7.5155    10.2219   -23.8095
  367.5000     7.8184   131.1904     0.0229     2.4757     0.1107     5.8458     7.6711    10.2191   -23.8095
  368.0000     7.8182   131.9404     0.0199     2.4787     0.1095     5.8850     7.8830    10.1461   -23.6607
  368.5000     7.8181   134.4868     0.0170     2.5019     0.1012     5.8838     7.9360    10.1433   -23.8095
  369.0000     7.8179   135.6859     0.0154     2.5026     0.1006     5.8422     7.9887    10.0699   -23.8095
  369.5000     7.8178   137.0347     0.0140     2.5004     0.1006     5.8410     7.8224     9.9302   -23.8095
  370.0000     7.8176   137.4849     0.0125     2.4847     0.1024     5.8398     7.5031     9.8593   -23.8095
  370.5000     7.8025   136.2892     0.0125     2.4787     0.1081     5.8386     7.2467     9.9248   -23.9583
  371.0000     7.8024   133.5961     0.0126     2.4705     0.1125     5.8374     7.0963     9.9907   -24.1071
  371.5000     7.8022   130.0047     0.0126     2.4667     0.1134     5.8766     7.2427    10.0571   -24.2560
  372.0000     7.8021   129.1080     0.0126     2.4660     0.1134     5.8753     7.5467    10.1239   -24.4048
  372.5000     7.8019   132.4029     0.0127     2.4869     0.1060     5.9147     7.8094    10.1904   -24.5536
  373.0000     7.8018   135.0990     0.0127     2.4854     0.1063     5.9135     7.9706    10.1876   -24.7024
  373.5000     7.8016   135.2499     0.0142     2.4749     0.1120     5.9123     7.5405    10.1149   -24.7024
  374.0000     7.8015   133.1556     0.0143     2.4712     0.1147     5.7854     7.1336    10.0426   -24.8512
  374.5000     7.8013   134.8042     0.0158     2.4641     0.1185     5.6261     6.7023     9.9709   -25.0000
  375.0000     7.8012   133.1589     0.0158     2.4478     0.1221     5.4712     6.2971     9.8997   -25.0000
  375.5000     7.8010   132.2622     0.0156     2.4394     0.1287     5.3275     5.9573     9.8290   -25.0000
  376.0000     7.8009   135.8565     0.0096     2.4273     0.1371     5.2172     5.5586     9.6917   -25.1488
  376.5000     7.8007   140.0497     0.0039     2.4158     0.1417     5.1094     5.2587     9.2965   -25.2976
  377.0000     7.8006   143.1949     0.0039     2.4129     0.1386     4.9695     5.0440     8.4388   -25.2976
  377.5000     7.8004   140.0526     0.0039     2.4301     0.1338     4.8003     4.9054     7.4520   -25.4464
  378.0000     7.8003   134.0661     0.0040     2.4316     0.1350     4.6368     4.8036     6.5805   -25.5952
  378.5000     7.8151   130.3251     0.0040     2.4271     0.1404     4.5099     4.8355     7.2453   -25.7440
  379.0000     7.8149   130.0272     0.0055     2.4188     0.1449     4.4167     5.0038     8.4879   -25.8929
  379.5000     7.7998   129.4299     0.0056     2.4054     0.1488     4.3255     5.2500     9.2812   -25.8929
  380.0000     7.7997   132.8745     0.0056     2.4009     0.1446     4.2361     5.3958     9.6047   -25.8929
  380.5000     7.7995   133.3251     0.0056     2.4046     0.1381     4.1486     5.3939     8.5987   -25.8929
  381.0000     7.7994   132.7278     0.0072     2.4256     0.1335     4.0910     5.0329     7.8594   -25.8929
  381.5000     7.7992   129.5856     0.0087     2.4443     0.1219     4.0902     4.6638     7.3338   -25.7440
  382.0000     7.7991   126.8925     0.0087     2.4504     0.1198     4.1176     4.4427     6.6115   -25.5952
  382.5000     7.7989   125.2469     0.0057     2.4420     0.1267     4.2905     4.5658     6.9365   -25.4464
  383.0000     7.7988   133.6320     0.0043     2.4293     0.1318     4.4399     4.8569     7.5327   -25.2976
  383.5000     7.7987   135.5796     0.0043     2.4174     0.1345     4.5633     5.1666     8.1801   -25.1488
  384.0000     7.8134   132.2877     0.0043     2.4129     0.1351     4.7220     5.5725     8.5822   -25.0000
  384.5000     7.8133   131.9894     0.0043     2.4121     0.1339     4.8529     5.8871     8.9422   -24.8442
  385.0000     7.8132   132.1410     0.0059     2.4256     0.1300     4.9535     6.0501     9.1897   -24.7024
  385.5000     7.8279   132.2922     0.0059     2.4405     0.1255     5.0906     6.0907     9.3792   -24.7024
  386.0000     7.8278   132.5931     0.0090     2.4435     0.1231     5.1601     6.0886     9.3766   -24.7024
  386.5000     7.8426   137.0856     0.0105     2.4375     0.1258     5.1591     6.0870     9.3740   -24.8700
  387.0000     7.8424   136.3386     0.0090     2.4308     0.1288     5.0874     6.0434     9.3715   -25.0000
  387.5000     7.8423   133.1964     0.0091     2.4233     0.1333     4.9142     5.8773     9.3045   -25.1736
  388.0000     7.8272   130.9523     0.0091     2.4084     0.1372     4.7468     5.6765     9.1729   -25.4464
  388.5000     7.8121   133.0497     0.0076     2.4069     0.1354     4.5852     5.3333     9.0432   -25.5952
  389.0000     7.7970   137.0931     0.0046     2.4218     0.1300     4.4290     5.0108     8.6084   -25.8929
  389.5000     7.7969   138.8906     0.0046     2.4420     0.1249     4.3077     4.7078     7.6136   -25.8929
  390.0000     7.7967   131.2577     0.0047     2.4547     0.1210     4.1610     4.4232     5.9805   -26.0417
  390.5000     7.7966   129.1634     0.0032     2.4428     0.1246     4.0193     4.2427     5.2664   -25.8929
  391.0000     7.7964   127.9669     0.0002     2.4353     0.1267     3.9093     4.1834     5.9293   -25.5952
  391.5000     7.7963   130.2143     0.0002     2.4308     0.1276     3.8023     4.3590     8.0878   -25.2976
  392.0000     7.7961   128.2697     0.0003     2.4405     0.1198     3.9619     4.6050     9.2172   -25.0000
  392.5000     7.7960   125.7263     0.0003     2.4720     0.1130     4.4226     4.8650     8.6008   -24.8512
  393.0000     7.7958   124.0811     0.0049     2.4772     0.1109     4.7375     5.2111     8.2501   -24.7024
  393.5000     7.7957   122.4359     0.0094     2.4884     0.1037     5.0749     5.5053     8.8365   -24.4048
  394.0000     7.8105   121.3891     0.0079     2.4966     0.1013     5.2888     5.7363     9.5960   -24.4048
  394.5000     7.8103   123.7862     0.0049     2.4921     0.1046     5.5118     5.9360    10.2074   -24.2560
