~VERSION INFORMATION
 VERS.                2.0:   CWLS LOG ASCII STANDARD - VERSION 2.0
 WRAP.                 NO:   ONE LINE PER DEPTH STEP
~WELL INFORMATION
#MNEM.UNIT      DATA TYPE    INFORMATION
#----------   ------------   ------------------------------
 STRT.F           15.0000:   START DEPTH
 STOP.F         5640.0000:   STOP DEPTH
 STEP.F            0.5000:   STEP LENGTH
 NULL.          -999.2500:   NO VALUE
 COMP.       F D SERV INC:   COMPANY
 WELL. NAVAL PETROLEUM RESERVE 3 SX-1 #43-10:   WELL
 FLD .         N.P.R. #.3:   FIELD
 LOC .      S10 T38N R78W:   LOCATION
 CNTY.            NATRONA:   COUNTY
 STAT.            WYOMING:   STATE
 CTRY. UNITED STATES OF AMERICA:   COUNTRY
 SRVC.      Dresser Atlas:   SERVICE COMPANY
 DATE.        05-JUL-1986:   LOGDATE
 API .       490251101800:   API NUMBER
~CURVE INFORMATION
#MNEM.UNIT       API CODE    CURVE DESCRIPTION
#----------   ------------   ------------------------------
 DEPT.F                  :   
 GRR .GAPI   07 310 01 00:   GAMMA RAY
 ILD .OHMM   07 120 46 00:   INDUCTION LOG DEEP
 ILM .OHMM   07 120 44 00:   INDUCTION LOG MEDIUM
 CALS.IN     60 280 50 00:   CALIPER FROM SONIC LOG
 GRS .GAPI   60 310 01 00:   GAMMA RAY FROM SONIC LOG
 AC  .US/F   60 520 00 00:   ACCOUSTIC
~PARAMETER INFORMATION
#MNEM.UNIT          VALUE    DESCRIPTION
#----------   ------------   ------------------------------
 PD  .                 GL:   PERMANENT DATUM
 EPD .F              5205:   ELEVATION PERMANENT DATUM
 LMF .                 KB:   LOG MEASURED FROM
 DAPD.F                 5:   FEET ABOVE PERMANENT DATUM
 DMF .                 KB:   DRILLING MEASURED FROM
 EKB .F              5210:   KELLING BUSHING
 EGL .F              5205:   GROUND LEVEL
 DATE.        05-JUL-1986:   RUN DATE
 RUN .                  1:   RUN NUMBER
 DD  .F               560:   DEPTH DRILLER
 DL  .F               560:   DEPTH LOGGER
 BLI .F               550:   BOTTOM LOG INTERVAL
 TLI .F                15:   TOP LOG INTERVAL
 CS  .IN            8.625:   CASING SIZE
 CBD .F                47:   CASING BOTTOM DRILLER
 CBL .F                47:   CASING BOTTOM LOGGER
 BS  .IN            7.875:   BIT SIZE
 BSD .F               560:   BIT SIZE AT DEPTH
 DFT .                AIR:   DRILLING FLUID TYPE
 BHT .F                83:   BOTTOM HOLE TEMPERATURE
 TCS .HRS            2100:   TIME CURCULATED STOPPED
 TLAB.HRS            2230:   TIME LOGGER AT BOTTOM
 MRT .F                83:   MAXIMUM RECORDED TEMPERATURE
 LUN .               7609:   LOGGING UNIT NUMBER
 LUL .           GILLETTE:   LOGGING UNIT LOCATION
 ENGI.              BAURT:   RECORDING ENGINEER
 CLNT.            A2DTECH:   CLIENT CODE
 ORIG. 1" 2" 2.5", 5" PRINT:   ORIGIN OF DATA
 UWI .       490251101800:   UNIQUE WELL ID
 DICO. A2D Technologies, Inc.:   DIGITIZING COMPANY
 R2  . HEADER NOT CLEARLY VISIBLE:   REMARKS 2
~OTHER INFORMATION
~A   DEPT       GRR       ILD        ILM       CALS        GRS         AC   
# ...
 4383.0000  -999.2500  -999.2500  -999.2500    10.1570   101.8249    64.7346
 4383.5000  -999.2500  -999.2500  -999.2500    10.1716    95.7535    65.2693
 4384.0000  -999.2500  -999.2500  -999.2500    10.1861    89.3811    65.3428
 4384.5000  -999.2500  -999.2500  -999.2500    10.2007    80.8876    65.1187
 4385.0000  -999.2500  -999.2500  -999.2500    10.2153    71.1423    65.0455
 4385.5000  -999.2500  -999.2500  -999.2500    10.2448    67.2317    64.9717
 4386.0000  -999.2500  -999.2500  -999.2500    10.2465    67.2230    65.0498
 4386.5000  -999.2500  -999.2500  -999.2500    10.2740    68.1234    65.3642
 4387.0000  -999.2500  -999.2500  -999.2500    10.2581    68.7230    66.1105
 4387.5000  -999.2500  -999.2500  -999.2500    10.1969    68.7121    67.0176
 4388.0000  -999.2500  -999.2500  -999.2500    10.1054    66.2770    67.5477
 4388.5000  -999.2500  -999.2500  -999.2500     9.9986    61.7229    67.7865
 4389.0000  -999.2500  -999.2500  -999.2500     9.9072    58.9869    66.5562
 4389.5000  -999.2500  -999.2500  -999.2500     9.9219    56.8570    65.4431
 4390.0000  -999.2500  -999.2500  -999.2500    10.0121    54.7271    64.8420
 4390.5000  -999.2500  -999.2500  -999.2500    10.1781    53.2033    65.3720
 4391.0000  -999.2500  -999.2500  -999.2500    10.2382    59.2530    66.5808
 4391.5000  -999.2500  -999.2500  -999.2500    10.2679    66.5171    67.6388
 4392.0000  -999.2500  -999.2500  -999.2500    10.2217    71.9629    67.7918
 4392.5000  -999.2500  -999.2500  -999.2500    10.2060    68.0149    67.1912
 4393.0000  -999.2500  -999.2500  -999.2500    10.2207    61.8972    66.8911
 4393.5000  -999.2500  -999.2500  -999.2500    10.2654    57.9953    66.9693
 4394.0000  -999.2500  -999.2500  -999.2500    10.3103    56.7745    67.3485
 4394.5000  -999.2500  -999.2500  -999.2500    10.3868    55.5537    67.6523
 4395.0000  -999.2500  -999.2500  -999.2500    10.4605    55.2420    67.5791
 4395.5000  -999.2500  -999.2500  -999.2500    10.4902    57.0515    67.5058
 4396.0000  -999.2500  -999.2500  -999.2500    10.5049    61.2831    67.3572
 4396.5000  -999.2500  -999.2500  -999.2500    10.5042    62.4865    67.5861
 4397.0000  -999.2500  -999.2500  -999.2500    10.5036    63.0839    67.6637
 4397.5000  -999.2500  -999.2500  -999.2500    10.5030    63.9843    67.5002
 4398.0000  -999.2500  -999.2500  -999.2500    10.5023    63.6726    67.0652
 4398.5000  -999.2500  -999.2500  -999.2500    10.5017    63.0576    66.8412
 4399.0000  -999.2500  -999.2500  -999.2500    10.5012    62.7439    66.6165
 4399.5000  -999.2500  -999.2500  -999.2500    10.5006    63.6443    66.4679
 4400.0000  -999.2500  -999.2500  -999.2500    10.4999    68.4841    66.6214
 4400.5000  -999.2500  -999.2500  -999.2500    10.4995    76.0512    66.9524
 4401.0000  -999.2500  -999.2500  -999.2500    10.4991    83.6280    67.2263
 4401.5000  -999.2500  -999.2500  -999.2500    10.4835    88.7588    67.0008
 4402.0000  -999.2500  -999.2500  -999.2500    10.4523    89.6592    66.6232
 4402.5000  -999.2500  -999.2500  -999.2500    10.4219    86.9232    66.2483
 4403.0000  -999.2500  -999.2500  -999.2500    10.4214    81.7630    66.0227
 4403.5000  -999.2500  -999.2500  -999.2500    10.4363    81.7114    65.7972
 4404.0000  -999.2500  -999.2500  -999.2500    10.4510    82.9576    65.5717
 4404.5000  -999.2500  -999.2500  -999.2500    10.4656    81.7346    65.6478
 4405.0000  -999.2500  -999.2500  -999.2500    10.4652    79.3016    66.0305
 4405.5000  -999.2500  -999.2500  -999.2500    10.5101    77.4769    66.2526
 4406.0000  -999.2500  -999.2500  -999.2500    10.5249    79.2842    65.3485
 4406.5000  -999.2500  -999.2500  -999.2500    10.5396    84.4270    64.3689
 4407.0000  -999.2500  -999.2500  -999.2500    10.5391    83.7678    63.9169
 4407.5000  -999.2500  -999.2500  -999.2500    10.5386    79.2559    63.9932
 4408.0000  -999.2500  -999.2500  -999.2500    10.5382    75.0047    64.7739
 4408.5000  -999.2500  -999.2500  -999.2500    10.5376    75.9051    66.3327
 4409.0000  -999.2500  -999.2500  -999.2500    10.5221    77.7145    66.4087
 4409.5000  -999.2500  -999.2500  -999.2500    10.5216    80.1301    66.0325
 4410.0000  -999.2500  -999.2500  -999.2500    10.5060    83.4941    65.6562
 4410.5000  -999.2500  -999.2500  -999.2500    10.5056    84.0520    65.1290
 4411.0000  -999.2500  -999.2500  -999.2500    10.5052    80.4048    64.5209
 4411.5000  -999.2500  -999.2500  -999.2500    10.5046    75.8506    63.9240
 4412.0000  -999.2500  -999.2500  -999.2500    10.4890    70.3873    63.8491
 4412.5000  -999.2500  -999.2500  -999.2500    10.4886    66.7422    63.9254
 4413.0000  -999.2500  -999.2500  -999.2500    10.4882    66.7875    64.9065
 4413.5000  -999.2500  -999.2500  -999.2500    10.4877    70.9650    67.0189
 4414.0000  -999.2500  -999.2500  -999.2500    10.4872    79.7442    68.2534
 4414.5000  -999.2500  -999.2500  -999.2500    10.4867    88.2203    68.9813
 4415.0000  -999.2500  -999.2500  -999.2500    10.5166    92.7571    68.5295
 4415.5000  -999.2500  -999.2500  -999.2500    10.5162    91.2332    67.4744
 4416.0000  -999.2500  -999.2500  -999.2500    10.5157    86.0407    66.8718
 4416.5000  -999.2500  -999.2500  -999.2500    10.5002    84.5469    67.0234
 4417.0000  -999.2500  -999.2500  -999.2500    10.4542    84.5382    67.4852
 4417.5000  -999.2500  -999.2500  -999.2500    10.4083    84.2264    67.4021
 4418.0000  -999.2500  -999.2500  -999.2500    10.3927    83.3086    66.7241
 4418.5000  -999.2500  -999.2500  -999.2500    10.3619    81.7848    65.9707
 4419.0000  -999.2500  -999.2500  -999.2500    10.3312    79.7211    65.4435
 4419.5000  -999.2500  -999.2500  -999.2500    10.3005    74.1894    65.3688
 4420.0000  -999.2500  -999.2500  -999.2500    10.2696    70.5443    65.6057
 4420.5000  -999.2500  -999.2500  -999.2500    10.2389    70.2325    66.0491
 4421.0000  -999.2500  -999.2500  -999.2500    10.2384    70.2238    66.1253
 4421.5000  -999.2500  -999.2500  -999.2500    10.2229    69.0030    66.1260
 4422.0000  -999.2500  -999.2500  -999.2500    10.2073    66.2223    65.7497
 4422.5000  -999.2500  -999.2500  -999.2500    10.1594    65.9531    64.9962
 4423.0000  -999.2500  -999.2500  -999.2500    10.1305    65.0352    64.4457
 4423.5000  -999.2500  -999.2500  -999.2500    10.0998    64.1174    63.9421
 4424.0000  -999.2500  -999.2500  -999.2500    10.0842    64.1087    63.7919
 4424.5000  -999.2500  -999.2500  -999.2500    10.0686    65.3121    63.7171
 4425.0000  -999.2500  -999.2500  -999.2500    10.0682    69.8467    63.7180
 4425.5000  -999.2500  -999.2500  -999.2500    10.0676    72.2622    63.6433
 4426.0000  -999.2500  -999.2500  -999.2500    10.0672    75.2838    63.3425
 4426.5000  -999.2500  -999.2500  -999.2500    10.0516    77.6993    63.1922
 4427.0000  -999.2500  -999.2500  -999.2500    10.0057    69.2057    63.3440
 4427.5000  -999.2500  -999.2500  -999.2500     9.9901    61.3058    63.8726
 4428.0000  -999.2500  -999.2500  -999.2500     9.9594    58.5800    64.9291
 4428.5000  -999.2500  -999.2500  -999.2500     9.8376    58.2683    66.0688
 4429.0000  -999.2500  -999.2500  -999.2500     9.6251    58.2596    67.4194
 4429.5000  -999.2500  -999.2500  -999.2500     9.5337    57.3418    67.8727
 4430.0000  -999.2500  -999.2500  -999.2500     9.4727    56.1209    68.4013
 4430.5000  -999.2500  -999.2500  -999.2500     9.4420    52.4757    69.2316
 4431.0000  -999.2500  -999.2500  -999.2500     9.4415    53.0710    69.6848
 4431.5000  -999.2500  -999.2500  -999.2500     9.4410    57.6077    69.9118
 4432.0000  -999.2500  -999.2500  -999.2500     9.4405    66.6899    69.7617
 4432.5000  -999.2500  -999.2500  -999.2500     9.4401    77.8933    70.0642
 4433.0000  -999.2500  -999.2500  -999.2500     9.4245    90.6119    71.8749
 4433.5000  -999.2500  -999.2500  -999.2500     9.3786    90.2031    74.9676
 4434.0000  -999.2500  -999.2500  -999.2500     9.1908    73.0165    77.4570
 4434.5000  -999.2500  -999.2500  -999.2500     9.0595    52.0987    80.3789
