~VERSION INFORMATION
 VERS.                2.0:   CWLS LOG ASCII STANDARD - VERSION 2.0
 WRAP.                 NO:   ONE LINE PER DEPTH STEP
~WELL INFORMATION
#MNEM.UNIT      DATA TYPE    INFORMATION
#----------   ------------   ------------------------------
 STRT.F           70.0000:   START DEPTH
 STOP.F         1043.0000:   STOP DEPTH
 STEP.F            0.5000:   STEP LENGTH
 NULL.          -999.2500:   NO VALUE
 COMP. U S NAVY/INTEX OIL CO:   COMPANY
 WELL.       NPR 3 #54S-2:   WELL
 FLD .             TEAPOT:   FIELD
 LOC .       S2 T38N R78W:   LOCATION
 CNTY.            NATRONA:   COUNTY
 STAT.            WYOMING:   STATE
 CTRY. UNITED STATES OF AMERICA:   COUNTRY
 SRVC.         Lane Wells:   SERVICE COMPANY
 DATE.        14-JUN-1960:   LOGDATE
 API .       490250643300:   API NUMBER
~CURVE INFORMATION
#MNEM.UNIT       API CODE    CURVE DESCRIPTION
#----------   ------------   ------------------------------
 DEPT.F                  :   
 CILD.MMHO   05 110 46 00:   CONDUCTIVITY INDUCTION LOG DEEP
 ILD .OHMM   05 120 46 00:   INDUCTION LOG DEEP
 ASN .OHMM   05 041 16 00:   AMPLIFIED SHORT NORMAL 16"
 SPR .MV     05 010 01 00:   SPONTANEOUS POTENTIAL FROM RES.
~PARAMETER INFORMATION
#MNEM.UNIT          VALUE    DESCRIPTION
#----------   ------------   ------------------------------
 PD  .                 GL:   PERMANENT DATUM
 EPD .F              6164:   ELEVATION PERMANENT DATUM
 LMF .                 KB:   LOG MEASURED FROM
 DAPD.F                 5:   FEET ABOVE PERMANENT DATUM
 DMF .                 KB:   DRILLING MEASURED FROM
 EKB .F              6169:   KELLING BUSHING
 EGL .F              6164:   GROUND LEVEL
 DATE.            6-14-60:   RUN DATE
 RUN .                  1:   RUN NUMBER
 DD  .F              1045:   DEPTH DRILLER
 DL  .F              1045:   DEPTH LOGGER
 BLI .F              1043:   BOTTOM LOG INTERVAL
 TLI .F                70:   TOP LOG INTERVAL
 CS  .IN            8.625:   CASING SIZE
 CBD .F                12:   CASING BOTTOM DRILLER
 BS  .IN            7.875:   BIT SIZE
 BSD .F              1045:   BIT SIZE AT DEPTH
 DFT .   GEL/OIL EMULSION:   DRILLING FLUID TYPE
 DFD .                9.7:   DRILLING FLUID DENSITY
 DFV .                 45:   DRILLING FLUID VISCOSITY
 DFPH.                  8:   DRILLING FLUID PH
 DFL .               11.6:   DRILLING FLUID LOSS
 MSS .          FLOW LINE:   MUD SAMPLE SOURCE
 RMS .OHMM            1.6:   RESISTIVITY MUD SAMPLE
 MST .F                62:   MUD SAMPLE TEMPERATURE
 RMF .OHMM            1.4:   RESISTIVITY MUD FILTRATE SAMPLE
 MFST.F                60:   MUD FILTRATE SAMPLE TEMPERATURE
 RMC .OHMM           1.75:   RESISTIVITY MUD CAKE
 MCST.F                60:   MUD CAKE SAMPLE TEMPERATURE
 MFSS.                MUD:   MUD FILTRATE SAMPLE SOURCE
 MCSS.              PRESS:   MUD CAKE SAMPLE SOURCE
 RMB .OHMM            1.4:   RESISTIVITY MUD AT BHT
 BHT .F                72:   BOTTOM HOLE TEMPERATURE
 MRT .F                72:   MAXIMUM RECORDED TEMPERATURE
 LUN .             C-4474:   LOGGING UNIT NUMBER
 LUL .             CASPER:   LOGGING UNIT LOCATION
 ENGI.      NELSON/GRIGGS:   RECORDING ENGINEER
 WITN.   JORGENSEN/HUDSON:   WITNESSED BY
 CLNT.            A2DTECH:   CLIENT CODE
 ORIG.       2", 5" PRINT:   ORIGIN OF DATA
 UWI .       490250643300:   UNIQUE WELL ID
 DICO. A2D Technologies, Inc.:   DIGITIZING COMPANY
~OTHER INFORMATION
~A   DEPT     CILD          ILD        ASN      SPR   
# ...
  800.0000   197.5544     5.3214     5.4898   -40.0350
  800.5000   196.3597     5.3291     5.5406   -39.7022
  801.0000   195.1651     5.2622     5.5735   -39.2793
  801.5000   194.5498     5.2016     5.5830   -39.6142
  802.0000   198.2881     5.1287     5.5924   -40.1138
  802.5000   201.7754     5.0799     5.5552   -40.3256
  803.0000   205.0748     5.0136     5.4042   -40.0769
  803.5000   210.4961     4.9177     5.1854   -39.7758
  804.0000   215.9175     4.8321     4.9406   -39.9616
  804.5000   219.9955     4.7380     4.6512   -40.2127
  805.0000   224.3309     4.6540     4.3841   -40.1896
  805.5000   227.2046     4.5496     4.2773   -39.5953
  806.0000   226.9668     4.6153     4.2243   -38.5831
  806.5000   222.5257     4.7582     4.2722   -38.5108
  807.0000   216.1611     4.8819     4.4442   -38.4767
  807.5000   209.8398     5.0097     4.6355   -38.8310
  808.0000   202.0825     5.1875     4.8470   -39.4995
  808.5000   192.7488     5.4317     5.0726   -40.0670
  809.0000   186.1265     5.6338     5.3236   -40.5555
  809.5000   177.8151     5.8465     5.6250   -41.0239
  810.0000   169.3365     6.0499     5.9338   -41.4229
  810.5000   167.5356     6.2637     6.2536   -41.0452
  811.0000   164.1257     6.3863     6.4849   -41.0534
  811.5000   156.7299     6.4340     6.6183   -41.2501
  812.0000   155.4038     6.4275     6.7161   -41.2776
  812.5000   156.7299     6.3832     6.7908   -41.1453
  813.0000   158.0559     6.3435     6.7417   -41.0275
  813.5000   159.2834     6.3039     6.7154   -40.8880
  814.0000   160.5793     6.2597     6.6157   -40.7409
  814.5000   161.9817     6.2267     6.4866   -40.6153
  815.0000   164.7560     6.1604     6.3734   -40.6266
  815.5000   168.6019     6.0621     6.2231   -40.4731
  816.0000   172.4503     5.9681     6.1311   -40.2084
  816.5000   176.2927     5.8169     6.0223   -39.9960
  817.0000   182.2461     5.7104     5.8396   -39.7707
  817.5000   189.8223     5.3972     5.6827   -40.1285
  818.0000   198.1517     5.0843     5.4318   -40.1462
  818.5000   204.7401     4.9523     5.1275   -39.9161
  819.0000   212.1991     4.8085     4.8391   -39.9998
  819.5000   216.1611     4.7091     4.5812   -40.0652
  820.0000   213.3538     4.8294     4.3408   -40.1464
  820.5000   210.7212     5.0215     4.3798   -40.2223
  821.0000   208.0887     5.1894     4.5977   -40.3043
  821.5000   202.6788     5.3717     4.8416   -40.4096
  822.0000   190.9479     5.5336     5.2861   -40.4101
  822.5000   183.8891     5.7454     5.7092   -40.3469
  823.0000   175.4357     6.0002     6.0086   -40.2818
  823.5000   166.9823     6.2524     6.1910   -40.7471
  824.0000   160.3318     6.3915     6.3079   -40.9066
  824.5000   158.2433     6.4431     6.4273   -40.7650
  825.0000   156.5221     6.5065     6.5514   -40.8045
  825.5000   154.8008     6.5649     6.6574   -40.7643
  826.0000   153.0795     6.6238     6.7241   -40.4655
  826.5000   151.3270     6.6864     6.7837   -40.1411
  827.0000   151.6512     6.7024     6.8613   -39.7000
  827.5000   152.2106     6.6791     6.9491   -39.7236
  828.0000   152.7700     6.6635     7.0029   -40.0277
  828.5000   153.3294     6.6444     7.0016   -40.1759
  829.0000   153.8889     6.6271     7.0087   -40.3604
  829.5000   154.4483     6.6091     7.0161   -40.5391
  830.0000   154.9289     6.5908     6.9889   -40.6177
  830.5000   154.9289     6.5739     6.9424   -40.6180
  831.0000   154.9289     6.5542     6.9014   -40.5974
  831.5000   157.7492     6.5405     6.8233   -40.8276
  832.0000   160.3318     6.4940     6.7496   -41.2287
  832.5000   161.3313     6.3871     6.7178   -41.2846
  833.0000   163.9337     6.2799     6.6811   -41.1995
  833.5000   168.4232     6.1731     6.6073   -41.1763
  834.0000   172.9384     6.0605     6.5162   -41.4021
  834.5000   174.7393     5.9072     6.3086   -41.7749
  835.0000   184.4644     5.7562     6.0426   -41.7352
  835.5000   194.4822     5.6034     5.8163   -41.8383
  836.0000   207.1564     5.4333     5.5027   -41.9486
  836.5000   211.7086     5.3498     5.1251   -41.7284
  837.0000   215.8397     5.3596     4.7186   -41.2112
  837.5000   219.7630     5.3353     4.5961   -40.3068
  838.0000   218.6207     5.3223     4.6181   -39.6198
  838.5000   216.0634     5.2970     4.7049   -39.6656
  839.0000   213.5060     5.2891     4.8941   -39.9295
  839.5000   210.9487     5.1986     5.1353   -40.1291
  840.0000   208.9574     5.1776     5.3186   -40.3560
  840.5000   215.4026     5.1470     5.2603   -40.5845
  841.0000   221.7208     4.8426     5.0594   -40.6150
  841.5000   228.0389     4.6441     4.7910   -40.6458
  842.0000   230.1492     4.6393     4.4241   -41.0889
  842.5000   229.0962     4.6300     4.1749   -41.3039
  843.0000   228.0432     4.6473     4.2396   -41.2754
  843.5000   226.9668     4.6127     4.4418   -41.2426
  844.0000   218.2142     4.8423     4.6599   -41.1910
  844.5000   208.9574     5.1711     5.0360   -41.1738
  845.0000   197.9973     5.1751     5.5521   -40.9712
  845.5000   181.9431     5.1756     5.7792   -40.6772
  846.0000   180.6356     5.2489     5.8931   -41.2963
  846.5000   181.5307     5.4972     6.0109   -41.3806
  847.0000   182.4258     5.7098     6.0660   -41.1097
  847.5000   183.3208     5.7751     6.0577   -40.9201
  848.0000   183.7441     5.8064     5.9862   -40.7126
  848.5000   187.4531     5.6687     5.8239   -40.4807
  849.0000   190.7507     5.5985     5.5987   -40.6038
  849.5000   194.0483     5.2108     5.3776   -40.9101
  850.0000   196.3507     5.2290     5.0298   -41.2746
  850.5000   194.8761     5.3998     4.8811   -41.4651
  851.0000   192.7658     5.4982     4.9950   -41.2686
  851.5000   190.6555     5.6381     5.1997   -41.1164
  852.0000   186.2699     5.7968     5.6118   -40.9385
  852.5000   176.1801     6.0470     6.0060   -40.3877
  853.0000   166.0903     6.3020     6.4151   -40.6231
  853.5000   156.7299     6.5641     6.7629   -41.3771
  854.0000   149.8605     6.7873     7.0145   -41.8082
  854.5000   146.3183     6.8728     7.2467   -41.3817
  855.0000   144.2080     6.9563     7.3938   -40.9893
  855.5000   142.0977     7.0400     7.4664   -41.2635
  856.0000   138.7204     7.0823     7.5655   -41.4580
  856.5000   137.8220     7.1132     7.6286   -41.6579
  857.0000   136.7669     7.1510     7.6612   -41.6861
  857.5000   135.7117     7.1851     7.6378   -41.9711
  858.0000   135.6794     7.2230     7.6426   -42.0247
  858.5000   136.9606     7.2472     7.6783   -41.7867
  859.0000   138.2418     7.2356     7.7048   -41.0628
  859.5000   139.5231     7.2223     7.7211   -41.2831
  860.0000   140.5213     7.2090     7.6941   -41.5247
  860.5000   140.2018     7.1960     7.6324   -41.3773
  861.0000   139.8119     7.1825     7.6047   -41.0843
  861.5000   139.4220     7.1706     7.5781   -41.0476
  862.0000   139.0320     7.1561     7.5523   -41.2657
  862.5000   138.7204     7.1317     7.5217   -40.9030
  863.0000   138.7204     7.1016     7.5487   -41.0982
  863.5000   138.7204     7.0869     7.6716   -41.1535
  864.0000   138.7204     7.0401     7.8048   -41.1252
  864.5000   144.3297     7.0226     7.8417   -41.1900
  865.0000   153.8964     6.7318     7.7108   -41.5664
  865.5000   163.4630     6.2040     7.2979   -41.9019
  866.0000   173.5651     5.7469     6.9130   -42.2501
  866.5000   185.5450     5.5848     6.2212   -42.3839
  867.0000   187.3460     5.4551     5.5915   -42.3655
  867.5000   185.0247     5.4873     5.2636   -42.3532
  868.0000   181.8207     5.6390     5.3469   -41.9447
  868.5000   176.4394     5.7738     5.9387   -41.0707
  869.0000   168.7602     5.9748     6.3723   -40.6412
  869.5000   158.5308     6.5040     7.2364   -40.3273
  870.0000   140.0531     7.0373     7.9592   -40.1211
  870.5000   126.1137     7.5207     8.7631   -40.4641
  871.0000   121.3568     8.0056     9.0063   -40.6411
  871.5000   117.1714     8.2442     9.1958   -40.6986
  872.0000   111.7062     8.3710     9.3199   -40.7357
  872.5000   110.3254     8.5003     9.4100   -41.0068
