~VERSION INFORMATION
 VERS.                2.0:   CWLS LOG ASCII STANDARD - VERSION 2.0
 WRAP.                 NO:   ONE LINE PER DEPTH STEP
~WELL INFORMATION
#MNEM.UNIT      DATA TYPE    INFORMATION
#----------   ------------   ------------------------------
 STRT.F            6.0000:   START DEPTH
 STOP.F          622.0000:   STOP DEPTH
 STEP.F            0.5000:   STEP LENGTH
 NULL.          -999.2500:   NO VALUE
 COMP. BROWN JOHN E&C INC:   COMPANY
 WELL. 71-26 STX-15 #26-15:   WELL
 FLD .             TEAPOT:   FIELD
 LOC .      S15 T38N R78W:   LOCATION
 CNTY.            NATRONA:   COUNTY
 STAT.            WYOMING:   STATE
 CTRY. UNITED STATES OF AMERICA:   COUNTRY
 SRVC.           Gearhart:   SERVICE COMPANY
 DATE.        01-JUL-1987:   LOGDATE
 API .       490251114900:   API NUMBER
~CURVE INFORMATION
#MNEM.UNIT       API CODE    CURVE DESCRIPTION
#----------   ------------   ------------------------------
 DEPT.F                  :   
 GRR .GAPI   07 310 01 00:   GAMMA RAY FROM RES. LOG.
 RILD.OHMM   11 120 46 00:   INDUCTION LOG DEEP RESISTIVITY
 RILM.OHMM   07 120 44 00:   INDUCTION LOG MEDIUM RESISTIVITY
~PARAMETER INFORMATION
#MNEM.UNIT          VALUE    DESCRIPTION
#----------   ------------   ------------------------------
 PD  .                 GL:   PERMANENT DATUM
 EPD .F              5208:   ELEVATION PERMANENT DATUM
 LMF .                 KB:   LOG MEASURED FROM
 DAPD.F                 8:   FEET ABOVE PERMANENT DATUM
 DMF .                 KB:   DRILLING MEASURED FROM
 EKB .F              5216:   KELLING BUSHING
 EDF .F              5214:   DRILLING FLOOR
 EGL .F              5208:   GROUND LEVEL
 DATE.             7-1-87:   RUN DATE
 RUN .                  1:   RUN NUMBER
 DD  .F               630:   DEPTH DRILLER
 DL  .F               630:   DEPTH LOGGER
 BLI .F               622:   BOTTOM LOG INTERVAL
 CS  .IN            8.625:   CASING SIZE
 CBD .F                50:   CASING BOTTOM DRILLER
 CBL .F                50:   CASING BOTTOM LOGGER
 BS  .IN             7.87:   BIT SIZE
 BSD .F               630:   BIT SIZE AT DEPTH
 DFT .                AIR:   DRILLING FLUID TYPE
 TCS .HRS            0300:   TIME CURCULATED STOPPED
 TLAB.HRS            0505:   TIME LOGGER AT BOTTOM
 LUN .               7660:   LOGGING UNIT NUMBER
 LUL .           GILLETTE:   LOGGING UNIT LOCATION
 ENGI.           JOHNSTON:   RECORDING ENGINEER
 WITN.             STRONG:   WITNESSED BY
 CLNT.            A2DTECH:   CLIENT CODE
 ORIG.       2", 5" PRINT:   ORIGIN OF DATA
 UWI .       490251114900:   UNIQUE WELL ID
 DICO. A2D Technologies, Inc.:   DIGITIZING COMPANY
~OTHER INFORMATION
~A    DEPT      GRR      RILD       RILM   
# ...
   97.0000   116.6686     8.5137     8.1338
   97.5000   115.8875     8.5487     8.1338
   98.0000   115.9577     8.5838     8.1798
   98.5000   117.8722     8.6191     8.2318
   99.0000   119.7316     8.6545     8.2842
   99.5000   120.2295     8.6795     8.3633
  100.0000   119.3184     8.5586     8.3187
  100.5000   119.4173     8.4668     8.2300
  101.0000   119.7069     8.3756     8.1422
  101.5000   118.9960     8.2856     8.0553
  102.0000   118.3081     8.1965     7.9694
  102.5000   118.0257     8.1084     7.8844
  103.0000   117.7497     8.0213     7.8003
  103.5000   117.2894     7.9351     7.7171
  104.0000   117.3830     7.9005     7.6617
  104.5000   117.9824     7.8864     7.6173
  105.0000   118.3527     7.8723     7.5732
  105.5000   118.5250     7.8583     7.5293
  106.0000   118.9843     7.8442     7.4824
  106.5000   121.4258     7.8380     7.5030
  107.0000   123.3729     7.8703     7.5254
  107.5000   122.1396     7.8951     7.5479
  108.0000   120.3197     7.9198     7.5704
  108.5000   119.0082     7.9447     7.5930
  109.0000   118.8686     7.9697     7.6156
  109.5000   118.6364     7.9948     7.6383
  110.0000   115.7108     8.0199     7.6611
  110.5000   112.5379     8.0452     7.6840
  111.0000   109.8288     8.0705     7.7069
  111.5000   110.4632     8.0958     7.7299
  112.0000   114.8947     8.1213     7.7530
  112.5000   119.3202     8.1468     7.7761
  113.0000   119.1966     8.1725     7.7993
  113.5000   118.2520     8.1981     7.8225
  114.0000   117.5831     8.2521     7.8538
  114.5000   118.5386     8.3291     7.8995
  115.0000   119.4720     8.4069     7.9455
  115.5000   119.7332     8.4854     7.9918
  116.0000   119.3354     8.5646     8.0392
  116.5000   119.3124     8.6446     8.1465
  117.0000   119.8643     8.7512     8.3026
  117.5000   120.3663     8.8792     8.4619
  118.0000   120.8696     9.0091     8.6248
  118.5000   121.3800     9.1409     8.7767
  119.0000   121.4842     9.2746     8.8640
  119.5000   121.4929     9.4102     8.9522
  120.0000   121.9346     9.5479     9.0750
  120.5000   123.1476     9.6875     9.2555
  121.0000   123.9529     9.8291     9.4395
  121.5000   124.0714     9.9749     9.6272
  122.0000   124.1948    10.1189     9.8187
  122.5000   124.1468    10.2669    10.0139
  123.0000   123.2750    10.4171    10.2131
  123.5000   122.4048    10.6172    10.4162
  124.0000   121.5851    10.8339    10.6233
  124.5000   120.9643    11.0550    10.8345
  125.0000   116.8383    11.2806    11.0500
  125.5000   113.2757    11.4641    11.2697
  126.0000   112.1451    11.5662    11.3965
  126.5000   116.2496    11.6690    11.4602
  127.0000   120.9766    11.7727    11.5243
  127.5000   122.3409    11.8974    11.5887
  128.0000   121.8214    11.8595    11.6698
  128.5000   118.7034    11.7575    11.5884
  129.0000   115.9748    11.6178    11.4424
  129.5000   115.0984    11.4798    11.2984
  130.0000   115.7730    11.3435    11.1560
  130.5000   117.3004    11.2087    11.0155
  131.0000   118.8236    11.0756    10.8768
  131.5000   119.1157    10.9436    10.7399
  132.0000   117.8291    10.8280    10.6049
  132.5000   116.6168    10.7628    10.4716
  133.0000   116.7493    10.6980    10.3598
  133.5000   119.3708    10.6334    10.2565
  134.0000   122.0393    10.5692    10.2089
  134.5000   124.7000    10.5053    10.1631
  135.0000   125.0488    10.4418    10.1175
  135.5000   123.4957    10.3787    10.0722
  136.0000   122.0556    10.3160    10.0271
  136.5000   121.1620    10.2565     9.9821
  137.0000   120.2545    10.2366     9.9491
  137.5000   119.3532    10.2176     9.9182
  138.0000   118.5472    10.1986     9.8874
  138.5000   118.7403    10.1797     9.8829
  139.0000   120.8723    10.1619     9.8829
  139.5000   123.5933    10.1618     9.8829
  140.0000   125.5962    10.1618     9.8830
  140.5000   125.2869    10.1618     9.8830
  141.0000   124.4060    10.1618     9.8830
  141.5000   124.6368    10.1619     9.8831
  142.0000   126.2132    10.1617     9.8838
  142.5000   127.8528    10.1637     9.8854
  143.0000   128.0882    10.1174     9.8230
  143.5000   127.7893    10.0238     9.6971
  144.0000   127.4713     9.9311     9.5727
  144.5000   127.1444     9.7917     9.4499
  145.0000   125.8696     9.6030     9.2772
  145.5000   124.4664     9.4180     9.1005
  146.0000   123.8540     9.2366     8.9271
  146.5000   123.3515     9.0587     8.7567
  147.0000   123.4974     8.8842     8.5903
  147.5000   124.3873     8.7130     8.4413
  148.0000   126.7553     8.5452     8.2113
  148.5000   129.0531     8.3774     8.0058
  149.0000   131.3207     8.4507     7.9843
  149.5000   133.5857     8.5494     7.9843
  150.0000   133.9849     8.5993     7.9843
  150.5000   132.4717     8.7600     8.3239
  151.0000   129.0203     8.9087     8.5855
  151.5000   125.3016     9.0599     8.7190
  152.0000   121.9204     9.2137     8.8546
  152.5000   121.8679     9.3701     8.9922
  153.0000   124.5799     9.5291     9.1320
  153.5000   126.6364     9.6908     9.2740
  154.0000   126.1873     9.8553     9.4182
  154.5000   124.2179     9.9750     9.5238
  155.0000   123.3325     9.9228     9.5236
  155.5000   122.6042     9.8837     9.5235
  156.0000   119.7306     9.6676     9.3322
  156.5000   115.9593     9.2617     9.1190
  157.0000   116.8776     9.2810     9.0082
  157.5000   119.4061     9.3220     8.9756
  158.0000   120.5234     9.3632     8.9454
  158.5000   121.2880     9.4040     8.9243
  159.0000   122.9390     9.4682     9.0200
  159.5000   124.7536     9.5971     9.0914
  160.0000   126.0249     9.7278     9.2816
  160.5000   126.9273     9.8602     9.4642
  161.0000   127.1081     9.9942     9.6505
  161.5000   126.9438    10.0680     9.7917
  162.0000   125.8589    10.0680     9.7917
  162.5000   124.7740    10.0680     9.7920
  163.0000   123.0679    10.0680     9.7918
  163.5000   120.8748    10.0680     9.7917
  164.0000   117.9275    10.0680     9.7918
  164.5000   114.6409    10.0686     9.7917
  165.0000   113.8925    10.0690     9.7917
  165.5000   115.9354    10.0036     9.7161
  166.0000   118.2289     9.9259     9.5991
  166.5000   120.4488     9.8499     9.4835
  167.0000   122.0554     9.7567     9.3692
  167.5000   123.4260     9.6073     9.2563
  168.0000   123.2297     9.4602     9.1447
  168.5000   120.5585     9.3154     9.0345
  169.0000   118.3819     9.1728     8.9257
  169.5000   117.8437     9.0876     8.8420
  170.0000   119.3305     9.0704     8.8105
  170.5000   121.6047     9.0526     8.7807
  171.0000   123.9052     9.0351     8.7507
  171.5000   125.1133     9.0178     8.7207
  172.0000   125.2766     9.0074     8.6836
  172.5000   124.7564     9.0276     8.7322
  173.0000   124.8086     9.0445     8.8193
  173.5000   128.0679     9.0612     8.9243
  174.0000   131.0351     9.0780     8.8875
  174.5000   132.1846     9.0914     8.8420
  175.0000   130.3344     9.0338     8.7836
  175.5000   127.9908     8.9861     8.7257
  176.0000   128.1196     8.9388     8.6576
  176.5000   129.3640     8.8916     8.5470
  177.0000   130.5930     8.8447     8.4378
  177.5000   130.4031     8.7980     8.2861
  178.0000   128.2312     8.7603     8.3326
  178.5000   125.3191     8.8275     8.4121
  179.0000   122.3908     8.8844     8.4923
  179.5000   122.1334     8.9417     8.5733
  180.0000   122.0083     8.9994     8.6551
  180.5000   121.6907     9.0574     8.7377
  181.0000   120.2292     9.1157     8.8210
  181.5000   118.7309     9.1759     8.9052
  182.0000   118.6442     9.1762     8.9247
  182.5000   119.0780     9.1762     8.9245
  183.0000   121.6694     9.1762     8.9244
  183.5000   124.5270     9.1762     8.9243
  184.0000   127.0751     9.1765     8.9241
  184.5000   126.8995     9.1670     8.9252
  185.0000   126.7533     9.1079     8.8626
  185.5000   127.6475     9.0495     8.7986
  186.0000   128.0029     8.9915     8.7352
  186.5000   126.6150     8.9339     8.6723
  187.0000   125.2949     8.8767     8.6098
  187.5000   124.5487     8.8198     8.5478
