~VERSION INFORMATION
 VERS.                2.0:   CWLS LOG ASCII STANDARD - VERSION 2.0
 WRAP.                 NO:   ONE LINE PER DEPTH STEP
~WELL INFORMATION
#MNEM.UNIT      DATA TYPE    INFORMATION
#----------   ------------   ------------------------------
 STRT.F           40.0000:   START DEPTH
 STOP.F          596.0000:   STOP DEPTH
 STEP.F            0.5000:   STEP LENGTH
 NULL.          -999.2500:   NO VALUE
 COMP. FENIX & SCISSON INC:   COMPANY
 WELL. SX-15 N.O.R. #3 #51-15:   WELL
 FLD .             TEAPOT:   FIELD
 LOC .      S15 T38N R78W:   LOCATION
 CNTY.            NATRONA:   COUNTY
 STAT.            WYOMING:   STATE
 CTRY. UNITED STATES OF AMERICA:   COUNTRY
 SRVC.              Welex:   SERVICE COMPANY
 DATE.        12-MAR-1977:   LOGDATE
 API .       490251031100:   API NUMBER
~CURVE INFORMATION
#MNEM.UNIT       API CODE    CURVE DESCRIPTION
#----------   ------------   ------------------------------
 DEPT.F                  :   
 GRD .GAPI   45 310 01 00:   GAMMA RAY FROM DENSITY LOG
 CALD.IN     45 280 60 00:   CALIPER FROM DENSITY LOG
 CORR.G/C3   45 356 01 00:   DENSITY CORRECTION
 RHOB.G/C3   45 350 01 00:   BULK DENSITY
 DPOR.DEC    45 890 12 00:   DENSITY POROSITY SANDSTONE
 SGRD.OHMM   07 220 05 00:   SHALLOW GUARD RESISTIVITY
 ILD .OHMM   07 120 46 00:   INDUCTION LOG DEEP
 ILM .OHMM   07 120 44 00:   INDUCTION LOG MEDIUM
 SPR .MV     07 010 01 00:   SPONTANEOUS POTENTIAL
~PARAMETER INFORMATION
#MNEM.UNIT          VALUE    DESCRIPTION
#----------   ------------   ------------------------------
 PD  .                 GL:   PERMANENT DATUM
 EPD .F              5221:   ELEVATION PERMANENT DATUM
 LMF .                 GL:   LOG MEASURED FROM
 DMF .                 GL:   DRILLING MEASURED FROM
 EGL .F              5221:   GROUND LEVEL
 DATE.            3-12-77:   RUN DATE
 RUN .                  1:   RUN NUMBER
 DD  .F               600:   DEPTH DRILLER
 DL  .F               597:   DEPTH LOGGER
 BLI .F               596:   BOTTOM LOG INTERVAL
 TLI .F                45:   TOP LOG INTERVAL
 CS  .IN            8.625:   CASING SIZE
 CBD .F                46:   CASING BOTTOM DRILLER
 CBL .F                45:   CASING BOTTOM LOGGER
 BS  .IN            7.875:   BIT SIZE
 BSD .F               600:   BIT SIZE AT DEPTH
 DFT .            KCL-MUD:   DRILLING FLUID TYPE
 DFD .                8.9:   DRILLING FLUID DENSITY
 DFV .                 34:   DRILLING FLUID VISCOSITY
 MSS .            MUD PIT:   MUD SAMPLE SOURCE
 RMS .OHMM            .68:   RESISTIVITY MUD SAMPLE
 MST .F                40:   MUD SAMPLE TEMPERATURE
 RMF .OHMM            .57:   RESISTIVITY MUD FILTRATE SAMPLE
 MFST.F                40:   MUD FILTRATE SAMPLE TEMPERATURE
 RMC .OHMM            .78:   RESISTIVITY MUD CAKE
 MCST.F                40:   MUD CAKE SAMPLE TEMPERATURE
 MFSS.           MEASURED:   MUD FILTRATE SAMPLE SOURCE
 MCSS.           MEASURED:   MUD CAKE SAMPLE SOURCE
 RMB .OHMM            .41:   RESISTIVITY MUD AT BHT
 BHT .F                65:   BOTTOM HOLE TEMPERATURE
 TCS .HRS               3:   TIME CURCULATED STOPPED
 MRT .F                65:   MAXIMUM RECORDED TEMPERATURE
 LUN .                716:   LOGGING UNIT NUMBER
 LUL .             VERNAL:   LOGGING UNIT LOCATION
 ENGI.           CALLAHAN:   RECORDING ENGINEER
 WITN.         STUEBINGER:   WITNESSED BY
 CLNT.            A2DTECH:   CLIENT CODE
 ORIG.       2", 5" PRINT:   ORIGIN OF DATA
 UWI .       490251031100:   UNIQUE WELL ID
 DICO. A2D Technologies, Inc.:   DIGITIZING COMPANY
~OTHER INFORMATION
~A   DEPT       GRD        CALD     CORR       RHOB       DPOR       SGRD        ILD        ILM        SPR   
# ...
  514.5000   101.8069     7.7997     0.0438     2.4404     0.1271    16.2564    11.3759    12.8495   -43.8522
  515.0000   102.0812     7.7992     0.0415     2.4375     0.1318    16.7827    11.2104    12.8434   -43.7747
  515.5000   102.3571     7.7987     0.0394     2.4347     0.1328    16.4355    11.0473    14.3511   -43.6683
  516.0000   102.6317     7.7983     0.0373     2.4320     0.1340    15.9869    10.8867    14.0348   -43.5622
  516.5000   102.8089     7.7978     0.0393     2.4313     0.1362    15.8829    10.7284    13.5788   -43.4561
  517.0000   102.8035     7.7973     0.0452     2.4429     0.1300    15.7265    10.5724    15.2394   -43.3500
  517.5000   102.5996     7.7968     0.0466     2.4550     0.1243    15.3084    10.4187    15.5927   -43.2440
  518.0000   102.0052     7.7963     0.0433     2.4599     0.1218    14.8903    10.2032    15.5927   -43.1379
  518.5000   101.4116     7.7958     0.0400     2.4622     0.1195    15.2600    10.2520    15.6303   -43.0318
  519.0000   100.8286     7.7954     0.0366     2.4612     0.1188    15.7524    10.3378    15.8484   -42.9258
  519.5000   101.1925     7.7949     0.0333     2.4602     0.1199    16.4796    10.4242    16.0300   -42.8197
  520.0000   101.6171     7.7944     0.0272     2.4592     0.1211    16.3043    10.5114    15.6385   -42.7137
  520.5000   102.0393     7.7939     0.0202     2.4582     0.1222    15.8829    10.5994    15.3078   -42.6078
  521.0000   102.5269     7.7936     0.0234     2.4574     0.1213    15.9686    10.6880    15.1107   -42.5013
  521.5000   103.4463     7.7936     0.0274     2.4603     0.1200    16.1785    10.7774    14.8111   -42.3791
  522.0000   104.3691     7.7936     0.0313     2.4632     0.1188    16.1112    10.8675    14.4473   -42.1978
  522.5000   105.2905     7.7936     0.0353     2.4662     0.1176    15.9971    10.9585    14.0889   -42.1187
  523.0000   106.2118     7.7936     0.0392     2.4691     0.1163    15.8829    11.0501    14.0248   -42.0377
  523.5000   107.1330     7.7936     0.0421     2.4720     0.1151    16.0284    11.1425    13.8766   -41.9564
  524.0000   108.0543     7.7936     0.0407     2.4739     0.1139    15.8632    11.2357    13.4558   -41.8751
  524.5000   108.9759     7.7936     0.0393     2.4711     0.1143    15.5807    11.2923    13.0478   -41.7938
  525.0000   109.8968     7.7936     0.0362     2.4683     0.1147    15.3093    11.1941    12.6522   -41.7125
  525.5000   110.8195     7.7936     0.0254     2.4639     0.1190    15.4496    11.1127    12.2798   -41.6312
  526.0000   111.7662     7.7936     0.0147     2.4550     0.1232    15.5914    11.0320    11.9258   -41.5499
  526.5000   111.8270     7.7936     0.0106     2.4465     0.1284    15.3984    10.9842    11.5820   -41.4686
  527.0000   111.0787     7.7936     0.0177     2.4477     0.1203    15.2030    11.2387    11.2479   -41.3873
  527.5000   110.3556     7.7936     0.0247     2.4494     0.1147    15.1159    11.4259    10.9234   -41.3060
  528.0000   110.0291     7.7936     0.0277     2.4510     0.1132    15.0282    11.6073    10.6089   -41.2247
  528.5000   110.9598     7.7936     0.0305     2.4526     0.1137    14.7301    11.1821    10.4236   -41.1434
  529.0000   111.8536     7.7936     0.0333     2.4542     0.1129    14.4414    10.7713    10.2977   -41.0621
  529.5000   112.7453     7.7936     0.0360     2.4559     0.1102    14.2194    10.3769    10.4937   -40.9808
  530.0000   113.6386     7.7936     0.0289     2.4572     0.1101    14.2194     9.9973    10.7389   -40.8995
  530.5000   114.5316     7.7936     0.0230     2.4567     0.1111    14.2194     9.6317    10.9842   -40.8182
  531.0000   115.4249     7.7936     0.0289     2.4562     0.1108    14.1029     9.2790    10.8376   -40.7369
  531.5000   116.3101     7.7936     0.0349     2.4557     0.1108    13.8324     9.0827    10.7836   -40.6556
  532.0000   117.6493     7.7936     0.0402     2.4552     0.1123    13.5663     8.9201    10.9232   -40.5743
  532.5000   119.2134     7.7936     0.0403     2.4547     0.1137    13.3006     8.7608    11.1887   -40.4930
  533.0000   120.7806     7.7936     0.0412     2.4536     0.1151    12.7670     8.6035    10.8194   -40.4118
  533.5000   122.3473     7.7936     0.0405     2.4476     0.1165    12.3211     8.3706    10.4067   -40.3305
  534.0000   124.7179     7.7936     0.0336     2.4416     0.1248    12.1796     7.8976    10.0601   -40.2471
  534.5000   128.2038     7.7936     0.0318     2.4356     0.1338    11.8476     7.4514     9.7229   -40.1493
  535.0000   131.6860     7.7936     0.0352     2.4299     0.1325    11.4883     7.0303     9.2848   -39.9846
  535.5000   135.0071     7.7936     0.0385     2.4225     0.1344    10.9896     6.6331     8.4906   -39.8217
  536.0000   134.4908     7.7936     0.0418     2.4154     0.1412    10.3332     6.2583     7.7732   -39.6584
  536.5000   131.7360     7.7936     0.0451     2.4081     0.1464     8.5345     6.0713     7.0056   -39.4951
  537.0000   129.5489     7.7936     0.0485     2.4052     0.1474     6.5627     5.9203     6.2959   -39.3319
  537.5000   126.0410     7.7936     0.0504     2.4123     0.1481     5.0465     5.7730     5.4509   -39.1686
  538.0000   119.7915     7.7936     0.0451     2.4285     0.1392     4.3689     5.6293     6.1936   -39.0053
  538.5000   112.2700     7.7936     0.0371     2.4492     0.1255    12.7881     5.5523     7.4576   -38.8421
  539.0000   111.6071     7.7936     0.0291     2.4698     0.1123    13.7046     6.0180     7.7215   -38.6788
  539.5000   111.5024     7.7936     0.0210     2.4767     0.1077    13.3307     6.3610     8.2979   -38.5155
  540.0000   112.2864     7.7936     0.0241     2.4808     0.1033    13.4121     6.7235     9.1010   -38.3523
  540.5000   113.0451     7.7936     0.0336     2.4870     0.0989    13.5615     7.1067     9.9818   -38.1890
  541.0000   113.3704     7.7936     0.0432     2.4956     0.0945    13.7287     7.5117    10.5534   -38.0257
  541.5000   113.2145     7.7936     0.0526     2.5027     0.0901    13.8965     7.9399    10.7836   -37.8625
  542.0000   113.7230     7.7936     0.0552     2.4994     0.0935    14.0889     8.4014    10.7836   -37.6992
  542.5000   114.3721     7.7936     0.0364     2.4914     0.0969    13.9684     8.9008    10.8325   -37.5359
  543.0000   114.9699     7.7936     0.0377     2.4851     0.1003    13.8308     9.3908    11.0160   -37.3726
  543.5000   113.3469     7.7936     0.0417     2.4842     0.1010    13.7046     9.5745    11.1887   -37.2096
  544.0000   112.1147     7.7936     0.0510     2.4934     0.0935    14.0101     9.7491    11.1195   -37.0513
  544.5000   114.0997     7.7936     0.0603     2.5050     0.0858    14.3861     9.9269    11.0860   -36.8402
  545.0000   115.5503     7.7936     0.0612     2.5089     0.0813    15.0030    10.1080    12.1141   -36.6283
  545.5000   115.8545     7.7936     0.0555     2.5108     0.0857    15.5927    10.3437    12.6133   -36.4159
  546.0000   116.1680     7.7936     0.0569     2.5125     0.0829    15.5064    10.6419    12.0819   -36.2037
  546.5000   116.4830     7.7936     0.0558     2.5126     0.0821    15.4496    10.9488    11.7165   -35.9917
  547.0000   116.0269     7.7936     0.0513     2.5094     0.0856    16.0263    11.1351    11.9639   -35.7796
  547.5000   114.6643     7.7936     0.0468     2.5037     0.0891    16.6314    11.3079    12.2692   -35.5838
  548.0000   111.6849     7.7936     0.0423     2.4979     0.0926    16.5290    11.4834    11.7896   -35.4096
  548.5000   109.4763     7.7936     0.0377     2.4921     0.0956    16.4796    11.6304    11.1282   -35.2396
  549.0000   108.0275     7.7936     0.0332     2.4863     0.0978    16.6163    11.7035    10.6846   -35.0698
  549.5000   106.9863     7.7936     0.0287     2.4805     0.0999    16.8934    11.7772    11.2757   -34.8998
  550.0000   107.1004     7.7936     0.0241     2.4754     0.1022    17.1890    11.8513    11.6090   -34.7299
  550.5000   107.9111     7.7936     0.0211     2.4761     0.1012    17.5766    11.9258    10.9842   -34.5599
