~VERSION INFORMATION
 VERS.                2.0:   CWLS LOG ASCII STANDARD - VERSION 2.0
 WRAP.                 NO:   ONE LINE PER DEPTH STEP
~WELL INFORMATION
#MNEM.UNIT      DATA TYPE    INFORMATION
#----------   ------------   ------------------------------
 STRT.F            0.0000:   START DEPTH
 STOP.F          484.0000:   STOP DEPTH
 STEP.F            0.5000:   STEP LENGTH
 NULL.          -999.2500:   NO VALUE
 COMP. LAWRENCE/ALLISON INC:   COMPANY
 WELL.  NPR 3 #68-63-SX-3:   WELL
 FLD .             TEAPOT:   FIELD
 LOC .       S3 T38N R78W:   LOCATION
 CNTY.            NATRONA:   COUNTY
 STAT.            WYOMING:   STATE
 CTRY. UNITED STATES OF AMERICA:   COUNTRY
 SRVC.           Gearhart:   SERVICE COMPANY
 DATE.        29-JUN-1988:   LOGDATE
 API .       490251122900:   API NUMBER
~CURVE INFORMATION
#MNEM.UNIT       API CODE    CURVE DESCRIPTION
#----------   ------------   ------------------------------
 DEPT.F                  :   
 GRR .GAPI   07 310 01 00:   GAMMA RAY FROM RES. LOG.
 ILD .OHMM   07 120 46 00:   INDUCTION LOG DEEP
 ILM .OHMM   07 120 44 00:   INDUCTION LOG MEDIUM
 CALI.IN     70 280 01 00:   CALIPER
~PARAMETER INFORMATION
#MNEM.UNIT          VALUE    DESCRIPTION
#----------   ------------   ------------------------------
 PD  .                 GL:   PERMANENT DATUM
 EPD .F              5158:   ELEVATION PERMANENT DATUM
 LMF .                 KB:   LOG MEASURED FROM
 DAPD.F                10:   FEET ABOVE PERMANENT DATUM
 DMF .                 KB:   DRILLING MEASURED FROM
 EKB .F              5168:   KELLING BUSHING
 EGL .F              5158:   GROUND LEVEL
 DATE.            6-29-88:   RUN DATE
 RUN .                  1:   RUN NUMBER
 DD  .F               490:   DEPTH DRILLER
 DL  .F             492.5:   DEPTH LOGGER
 BLI .F               484:   BOTTOM LOG INTERVAL
 TLI .F                49:   TOP LOG INTERVAL
 CS  .IN            9.625:   CASING SIZE
 CBD .F                49:   CASING BOTTOM DRILLER
 CBL .F                49:   CASING BOTTOM LOGGER
 BS  .IN             8.75:   BIT SIZE
 BSD .F               490:   BIT SIZE AT DEPTH
 DFT .                AIR:   DRILLING FLUID TYPE
 TLAB.HRS            1000:   TIME LOGGER AT BOTTOM
 MRT .F                70:   MAXIMUM RECORDED TEMPERATURE
 LUN .               7597:   LOGGING UNIT NUMBER
 LUL .           GILLETTE:   LOGGING UNIT LOCATION
 ENGI.          HUCKFELDT:   RECORDING ENGINEER
 WITN.              FIVAS:   WITNESSED BY
 CLNT.            A2DTECH:   CLIENT CODE
 ORIG.  2", 5", 10" PRINT:   ORIGIN OF DATA
 UWI .       490251122900:   UNIQUE WELL ID
 DICO. A2D Technologies, Inc.:   DIGITIZING COMPANY
~OTHER INFORMATION
~A    DEPT      GRR       ILD        ILM       CALI   
# ...
  146.0000   110.9246     7.4023     7.0305    -0.9385
  146.5000   110.5543     7.6459     7.2729    -0.8016
  147.0000   110.3404     7.8967     7.5236    -0.8856
  147.5000   109.9313     8.0107     7.7331    -1.0580
  148.0000   110.1513     8.1081     7.8237    -1.1671
  148.5000   111.5001     8.2067     7.9154    -1.1030
  149.0000   113.3889     8.3064     8.0082    -1.0163
  149.5000   115.2855     8.4074     8.1024    -0.9282
  150.0000   115.6451     8.4585     8.1498    -0.8404
  150.5000   114.5317     8.4010     8.0951    -0.7560
  151.0000   113.3939     8.3196     8.0346    -0.7252
  151.5000   112.2328     8.2391     7.9748    -0.7078
  152.0000   112.7102     8.1593     7.9154    -0.7305
  152.5000   113.3616     8.0740     7.8518    -0.7524
  153.0000   114.9771     7.9287     7.7562    -0.7745
  153.5000   115.7946     7.7952     7.6256    -0.7975
  154.0000   115.1834     7.6357     7.4445    -0.7901
  154.5000   113.0956     7.3636     7.0717    -0.7492
  155.0000   113.8932     7.0825     6.7176    -0.6868
  155.5000   114.9286     6.7835     6.3812    -0.6228
  156.0000   115.1515     6.4734     6.0511    -0.5391
  156.5000   114.6731     6.1059     5.8431    -0.5012
  157.0000   114.1861     6.1281     5.5765    -0.5005
  157.5000   113.6983     6.1855     5.4625    -0.5005
  158.0000   113.2087     6.2435     5.5448    -0.5005
  158.5000   112.8637     6.2904     5.7997    -0.5003
  159.0000   112.6158     6.3979     6.1367    -0.4847
  159.5000   113.1078     6.7509     6.4936    -0.4405
  160.0000   113.8236     7.1234     6.8732    -0.3968
  160.5000   114.5216     7.5164     7.1715    -0.3530
  161.0000   114.2273     7.8720     7.4572    -0.3091
  161.5000   111.8074     7.9809     7.7523    -0.2658
  162.0000   109.4265     8.0913     8.0059    -0.2382
  162.5000   108.9081     8.2032     8.0400    -0.2738
  163.0000   109.2352     8.3167     8.0742    -0.3311
  163.5000   110.1616     8.4317     8.1085    -0.3888
  164.0000   111.0764     8.5483     8.1430    -0.4466
  164.5000   111.9820     8.6173     8.1777    -0.5043
  165.0000   112.4882     8.6173     8.2125    -0.5621
  165.5000   112.1475     8.6173     8.3087    -0.6192
  166.0000   110.7265     8.7186     8.4441    -0.7043
  166.5000   109.9792     8.8830     8.5818    -0.8069
  167.0000   110.7191     9.0505     8.7216    -0.9868
  167.5000   111.4383     9.1270     8.8638    -1.1454
  168.0000   112.1399     9.1489     8.9441    -1.2317
  168.5000   111.9882     9.1713     8.9444    -1.3190
  169.0000   111.7897     9.1939     8.9442    -1.4265
  169.5000   111.5930     9.2165     8.9441    -1.5647
  170.0000   111.3817     9.2392     8.9441    -1.6314
  170.5000   112.1537     9.2619     8.9441    -1.3597
  171.0000   112.8719     9.2832     8.9441    -0.8342
  171.5000   112.0793     9.2030     8.9442    -0.2976
  172.0000   111.5860     9.1286     8.9441    -0.1317
  172.5000   112.2987     9.0547     8.9457    -0.5785
  173.0000   114.7869     8.9815     8.8823    -0.8045
  173.5000   117.2721     8.9441     8.7556    -0.8669
  174.0000   118.2416     8.8208     8.6307    -0.7418
  174.5000   118.2458     8.7388     8.5076    -0.6035
  175.0000   117.5301     8.6575     8.3850    -0.3670
  175.5000   115.6663     8.5770     8.3005    -0.1272
  176.0000   114.0301     8.4973     8.2697     0.1125
  176.5000   113.4285     8.3802     8.2401     0.3438
  177.0000   114.2675     8.0306     8.1290     0.4404
  177.5000   113.9708     7.6642     7.9538     0.4828
  178.0000   112.9533     7.2886     7.7823     0.5273
  178.5000   112.6325     6.9081     7.5565     0.5761
  179.0000   114.0844     6.4144     6.9645     0.6472
  179.5000   115.5949     5.8796     6.4176     0.7188
  180.0000   117.0941     5.2371     5.9152     0.7802
  180.5000   118.2033     4.6674     5.4078     0.8178
  181.0000   117.3746     4.1595     4.7244     0.8936
  181.5000   114.9282     3.7067     4.1273     0.9673
  182.0000   112.5297     3.3011     3.6057     0.9453
  182.5000   110.1409     3.0117     3.1500     0.9321
  183.0000   108.6582     2.9288     2.7520     0.9630
  183.5000   107.3780     2.9017     2.5383     0.9331
  184.0000   105.2062     2.9542     2.4772     0.8870
  184.5000   102.5339     3.0387     2.5473     0.8689
  185.0000   102.4246     3.1975     2.6661     0.9053
  185.5000   103.8679     3.3674     2.9463     0.9447
  186.0000   109.9612     3.8055     3.3052     0.9967
  186.5000   114.3061     4.3111     3.7338     1.0652
  187.0000   116.0292     4.8831     4.3465     1.0166
  187.5000   116.4565     5.5307     5.0589     0.9625
  188.0000   115.5246     6.1550     5.8846     0.9085
  188.5000   115.4521     6.3930     6.0936     0.8975
  189.0000   118.0595     6.6403     6.3048     0.9487
  189.5000   120.7169     6.8929     6.5155     0.9989
  190.0000   123.3767     6.8579     6.6007     1.0245
  190.5000   126.0277     6.8017     6.6351     1.0124
  191.0000   125.8260     6.7458     6.6676     1.0480
  191.5000   123.0445     6.6312     6.7318     1.0497
  192.0000   120.2893     6.3287     6.7686     1.0456
  192.5000   118.7073     6.1077     6.4890     0.9635
  193.0000   118.7776     5.9388     6.2393     0.8804
  193.5000   121.8591     5.7440     5.8444     0.8499
  194.0000   126.8837     5.5555     5.4745     0.9168
  194.5000   130.5265     5.3732     5.1170     1.0235
  195.0000   129.8420     5.2630     5.1177     1.1302
  195.5000   125.7803     5.2865     5.0697     1.2070
  196.0000   122.8289     5.3122     5.1714     1.1965
  196.5000   121.5204     5.4874     5.2526     1.2282
  197.0000   121.6898     5.7429     5.3618     1.1641
  197.5000   121.8705     6.0175     5.6084     1.0882
  198.0000   122.4428     6.2224     5.8323     1.0105
  198.5000   122.9612     6.5201     6.1431     0.9704
  199.0000   125.1859     6.8075     6.4495     0.9975
  199.5000   124.7100     7.1077     6.7697     1.0245
  200.0000   122.9162     7.4226     7.1058     1.0648
  200.5000   121.1087     7.7764     7.4586     1.1072
  201.0000   121.1826     7.9038     7.7339     1.2004
  201.5000   121.8716     8.0438     7.8518     1.2608
  202.0000   122.1177     8.1862     7.9343     1.2850
  202.5000   122.1586     8.3026     8.0730     1.3098
  203.0000   121.0674     8.1323     8.0502     1.3694
  203.5000   121.2650     8.0065     8.0296     1.4364
  204.0000   122.5361     7.8825     8.0086     1.4402
  204.5000   124.7039     7.7607     7.9488     1.3841
  205.0000   125.9579     7.6405     7.8070     1.2340
  205.5000   124.3326     7.5241     7.6698     1.0869
  206.0000   122.2034     7.2121     7.4259     0.9660
  206.5000   122.7474     6.8531     7.1910     1.0149
  207.0000   125.1190     6.5107     6.9573     1.1166
  207.5000   127.5373     6.1859     6.6932     1.1688
  208.0000   126.3090     5.8773     6.2437     1.1943
  208.5000   124.6596     5.5840     5.7733     1.2663
  209.0000   123.0027     5.3618     5.3316     1.3370
  209.5000   123.1056     5.3618     4.6157     0.9471
  210.0000   125.1787     5.4184     4.6606     0.2085
  210.5000   126.2357     5.5114     4.7585    -0.5211
  211.0000   125.4122     5.6705     4.9384    -1.0348
  211.5000   122.6679     5.9236     5.2879    -1.1097
  212.0000   119.9745     6.1881     5.6623    -1.1229
  212.5000   117.5133     6.5294     6.0780    -1.0884
  213.0000   118.1182     6.9753     6.5274    -1.0508
  213.5000   122.4121     7.4517     7.0101    -1.0438
  214.0000   127.9540     7.9252     7.5293    -1.0437
  214.5000   132.6045     7.9776     7.7867    -1.0438
  215.0000   133.4667     8.0384     7.9418    -1.0438
  215.5000   132.1694     8.0996     7.9842    -1.0440
  216.0000   129.8859     8.1613     8.0316    -1.0459
  216.5000   127.6134     8.2235     8.0740    -0.9623
  217.0000   125.3317     8.2864     8.0688    -0.8618
  217.5000   123.0736     8.3798     8.0583    -0.7828
  218.0000   121.4945     8.3716     8.0478    -0.7374
  218.5000   124.7029     8.3533     8.0374    -0.7052
