~VERSION INFORMATION
 VERS.                2.0:   CWLS LOG ASCII STANDARD - VERSION 2.0
 WRAP.                 NO:   ONE LINE PER DEPTH STEP
~WELL INFORMATION
#MNEM.UNIT      DATA TYPE    INFORMATION
#----------   ------------   ------------------------------
 STRT.F           20.0000:   START DEPTH
 STOP.F          600.0000:   STOP DEPTH
 STEP.F            0.5000:   STEP LENGTH
 NULL.          -999.2500:   NO VALUE
 COMP. FENIX & SCISSON INC:   COMPANY
 WELL. TEAPOT DOME #23 SX 3-4:   WELL
 FLD .             TEAPOT:   FIELD
 LOC .       S4 T38N R78W:   LOCATION
 CNTY.            NATRONA:   COUNTY
 STAT.            WYOMING:   STATE
 CTRY. UNITED STATES OF AMERICA:   COUNTRY
 SRVC.            Unknown:   SERVICE COMPANY
 DATE.        31-JUL-1978:   LOGDATE
 API .       490251067600:   API NUMBER
~CURVE INFORMATION
#MNEM.UNIT       API CODE    CURVE DESCRIPTION
#----------   ------------   ------------------------------
 DEPT.F                  :   
 CALD.IN     45 280 60 00:   CALIPER FROM DENSITY LOG
 GRD .GAPI   45 310 01 00:   GAMMA RAY FROM DENSITY LOG
 CORR.G/C3   45 356 01 00:   DENSITY CORRECTION
 DPHI.DEC    45 890 12 00:   DENSITY POROSITY SANDSTONE
 RHOB.G/C3   45 350 01 00:   BULK DENSITY
 SPR .MV     07 010 01 00:   SPONTANEOUS POTENTIAL
 ILD .OHMM   07 120 46 00:   INDUCTION LOG DEEP
 SN  .OHMM   07 040 16 00:   SHORT NORMAL 16"
 CILD.MMHO   07 110 46 00:   CONDUCTIVITY INDUCTION LOG DEEP
~PARAMETER INFORMATION
#MNEM.UNIT          VALUE    DESCRIPTION
#----------   ------------   ------------------------------
 PD  .                 GL:   PERMANENT DATUM
 EPD .F              5181:   ELEVATION PERMANENT DATUM
 LMF .                 KB:   LOG MEASURED FROM
 DAPD.F                 4:   FEET ABOVE PERMANENT DATUM
 DMF .                 KB:   DRILLING MEASURED FROM
 EKB .F              5185:   KELLING BUSHING
 EGL .F              5181:   GROUND LEVEL
 DATE.        31-JUL-1978:   RUN DATE
 RUN .                  1:   RUN NUMBER
 DD  .F               595:   DEPTH DRILLER
 DL  .F               606:   DEPTH LOGGER
 BLI .F               600:   BOTTOM LOG INTERVAL
 TLI .F                40:   TOP LOG INTERVAL
 CBL .F                45:   CASING BOTTOM LOGGER
 BS  .IN            7.875:   BIT SIZE
 BSD .F               595:   BIT SIZE AT DEPTH
 DFT .                KCL:   DRILLING FLUID TYPE
 DFD .                9.0:   DRILLING FLUID DENSITY
 DFV .                 36:   DRILLING FLUID VISCOSITY
 DFPH.                9.0:   DRILLING FLUID PH
 DFL .                8.0:   DRILLING FLUID LOSS
 MSS .           FLOWLINE:   MUD SAMPLE SOURCE
 BHT .F                74:   BOTTOM HOLE TEMPERATURE
 TCS .HRS            0500:   TIME CURCULATED STOPPED
 MRT .F                74:   MAXIMUM RECORDED TEMPERATURE
 LUN .               2958:   LOGGING UNIT NUMBER
 LUL .               CASP:   LOGGING UNIT LOCATION
 ENGI.            POINTER:   RECORDING ENGINEER
 WITN.              AMEND:   WITNESSED BY
 CLNT.            A2DTECH:   CLIENT CODE
 ORIG.           5" PRINT:   ORIGIN OF DATA
 UWI .       490251067600:   UNIQUE WELL ID
 DICO. A2D Technologies, Inc.:   DIGITIZING COMPANY
~OTHER INFORMATION
~A   DEPT     CALD        GRD       CORR       DPHI       RHOB        SPR        ILD         SN       CILD   
# ...
  129.5000     7.5535   117.4910     0.0183     0.0843     2.5358   -31.2109     8.0016     9.3671   118.8586
  130.0000     7.5548   112.1054     0.0184     0.0669     2.5554   -31.0547     8.0621     9.3717   115.7938
  130.5000     7.5412   113.0261     0.0185     0.0573     2.5607   -30.6014     8.1231     9.5067   113.4781
  131.0000     7.5426   114.8476     0.0178     0.0708     2.5300   -30.4453     8.2413     9.7104   111.1761
  131.5000     7.5439   115.6016     0.0149     0.0962     2.4874   -30.1405     8.3036    10.1261   110.2594
  132.0000     7.5453   119.5369     0.0052     0.1138     2.4627   -30.5788     8.3089    10.0614   109.5431
  132.5000     7.5467   118.5056    -0.0083     0.0964     2.5025   -31.0189     8.3141     9.7909   109.4757
  133.0000     7.5480   121.0981     0.0016     0.0904     2.5048   -31.3066     8.3194     9.5949   109.4071
  133.5000     7.5494   123.3499     0.0122     0.0925     2.4989   -31.5981     8.3236    10.0120   109.3385
  134.0000     7.5658   121.5679     0.0085     0.0976     2.4922   -31.1429     8.3288    10.0799   110.0224
  134.5000     7.5821   116.1823     0.0063     0.0999     2.4818   -30.9868     8.3917     9.8101   110.7167
  135.0000     7.5833   112.4483     0.0064     0.0985     2.4969   -30.9792     8.4551     9.7473   110.6310
  135.5000     7.5995   114.4200     0.0095     0.0949     2.5104   -30.7994     8.5780     9.7522   110.5624
  136.0000     7.6009   119.8452     0.0141     0.0905     2.5176   -30.6686     8.7028     9.7570   108.9958
  136.5000     7.6022   117.0121     0.0149     0.0834     2.5210   -30.8099     8.8294     9.8295   107.4291
  137.0000     7.5886   112.2270     0.0150     0.0809     2.5196   -30.9509     8.8962     9.9024   102.1171
  137.5000     7.6050   108.4930     0.0143     0.0842     2.5174   -31.0922     8.9635     9.9759   101.2994
  138.0000     7.6063   105.2095     0.0144     0.0869     2.5167   -31.5305     9.1569    10.0500   101.2309
  138.5000     7.6077   106.5806     0.0144     0.0847     2.5168   -31.6716     9.3544    10.0549   101.1761
  139.0000     7.6091   107.7967     0.0145     0.0871     2.5176   -31.5151     9.5562    10.0599   100.2594
  139.5000     7.6104   103.0166     0.0138     0.0829     2.5192   -31.0618     9.8300    10.0648    98.7440
  140.0000     7.6118   107.3907     0.0132     0.0793     2.5080   -30.6085     9.9730    10.1395    97.2285
  140.5000     7.5382   111.4645     0.0132     0.0882     2.5021   -30.4523    10.1181    10.1435    96.4108
  141.0000     7.4496   111.9347     0.0118     0.0921     2.5029   -30.7419    10.1933    10.1484    94.0951
  141.5000     7.3610   111.7728     0.0111     0.0936     2.4940   -30.8849    10.1997    10.1533    91.7794
  142.0000     7.3171   110.4084     0.0105     0.0932     2.4895   -30.8754    10.2060    10.2295    90.9617
  142.5000     7.3035   108.4859     0.0105     0.0989     2.4971   -30.8679    10.2124    10.3759    90.8932
  143.0000     7.2898   105.8278     0.0106     0.0956     2.5137   -30.8603    10.2188    10.3810    90.8246
  143.5000     7.2762   103.1698     0.0107     0.0932     2.5115   -30.6825    10.2253    10.4580    90.7560
  144.0000     7.2779   101.0471     0.0108     0.0911     2.5003   -30.4012    10.2317    10.3912    90.6875
  144.5000     7.2793   105.7618     0.0093     0.1051     2.4802   -30.2451    10.2382    10.2537    91.3680
  145.0000     7.2804   106.0819     0.0079     0.1146     2.4703   -30.0891    10.1026    10.1181    92.7976
  145.5000     7.2817   106.4020     0.0065     0.1164     2.4606   -30.0815     9.9719     9.9842    94.2271
  146.0000     7.2830   107.0223     0.0073     0.1179     2.4579   -30.2229     9.7721     9.8521    95.8201
  146.5000     7.2994   108.0932     0.0089     0.1209     2.4580   -30.3655     9.6442     9.7879    97.1034
  147.0000     7.3307   109.9147     0.0090     0.1215     2.4648   -30.6551     9.6518     9.6585    97.0337
  147.5000     7.3921   113.9885     0.0090     0.1130     2.4738   -30.7962     9.6579     9.5967    97.7154
  148.0000     7.4384   115.3597     0.0091     0.1134     2.4740   -31.0839     9.7310     9.6026    97.6468
  148.5000     7.4698   116.1302     0.0092     0.1106     2.4710   -31.2268     9.8034     9.6064    98.3273
  149.0000     7.5011   117.6514     0.0092     0.1129     2.4815   -31.3679     9.8095     9.6861    99.0078
  149.5000     7.5175   119.9235     0.0093     0.1048     2.4898   -31.3584     9.8154     9.8169    99.6883
  150.0000     7.5190   118.4417     0.0102     0.1033     2.4959   -31.3226     9.6870     9.8897   100.3860
  150.5000     7.5205   114.1072     0.0102     0.1021     2.5057   -30.9652     9.5587     9.8993    99.5646
  151.0000     7.5370   112.4753     0.0103     0.1011     2.4946   -30.7452     9.4322     9.4990   101.0018
  151.5000     7.5409   112.3148     0.0104     0.0990     2.4992   -30.7392     9.3718     9.1816   103.1881
  152.0000     7.5697   112.2096     0.0104     0.0960     2.5052   -30.5846     9.3110     8.9974   105.3744
  152.5000     7.5722   113.1506     0.0112     0.1034     2.4874   -30.7286     9.3167     9.0037   106.8269
  153.0000     7.5877   115.4084     0.0121     0.1046     2.4822   -31.1669     9.3213     9.0088   107.5151
  153.5000     7.5892   116.9236     0.0121     0.1037     2.4921   -31.3109     9.3905     9.3304   106.6899
  154.0000     7.5907   119.1957     0.0122     0.1027     2.4882   -31.3046     9.3304     9.7979   106.6290
  154.5000     7.5923   122.0683     0.0130     0.1012     2.4897   -30.9827     9.3350    10.0086   106.5681
  155.0000     7.5938   122.2673     0.0131     0.0985     2.5014   -30.6985     9.2753    10.2238   107.2715
  155.5000     7.6103   120.4562     0.0139     0.0945     2.5037   -31.5850     9.2799    10.3004   107.9597
  156.0000     7.5964   116.5721     0.0147     0.0921     2.5038   -31.8752     9.2205     9.2922   108.6479
  156.5000     7.5684   120.6459     0.0148     0.0942     2.5009   -31.7205     9.0986     9.0429   108.7164
  157.0000     7.5545   121.4115     0.0126     0.0992     2.4905   -31.4173     9.0079     9.3223   109.2751
  157.5000     7.5564   119.0338     0.0112     0.1067     2.4764   -31.4112     8.9049     9.5015   109.2134
  158.0000     7.6029   118.4481     0.0097     0.1062     2.4825   -31.7039     8.8019     9.4387   109.9024
  158.5000     7.6190   121.1755     0.0098     0.1036     2.4848   -31.9950     8.6989     9.3170   109.8415
  159.0000     7.5760   123.5977     0.0099     0.1033     2.4797   -32.4333     8.5960     9.2580   110.5297
  159.5000     7.5475   125.4193     0.0099     0.1036     2.4820   -32.4272     8.4930     9.2633   111.2179
  160.0000     7.5336   127.6913     0.0092     0.1053     2.4799   -32.4212     8.4022     9.2685   111.9213
  160.5000     7.5202   127.4108     0.0093     0.1086     2.4725   -32.4152     8.3485     9.2737   113.3433
  161.0000     7.5217   125.4264     0.0094     0.1118     2.4688   -32.4091     8.2380     9.2151   116.2787
  161.5000     7.5082   124.1106     0.0095     0.1136     2.4643   -32.4031     8.0741     9.1568   119.2140
  162.0000     7.5097   123.1031     0.0095     0.1151     2.4608   -32.2485     7.9125     9.0976   122.8984
  162.5000     7.5112   121.0285     0.0103     0.1147     2.4730   -32.2189     7.7444     9.0413   125.1000
  163.0000     7.5128   119.2462     0.0119     0.1090     2.4790   -32.0891     7.5402     8.9829   128.7692
  163.5000     7.5143   119.7167     0.0135     0.1051     2.4828   -31.9346     7.3414     8.9892   131.7045
  164.0000     7.5158   122.7395     0.0143     0.1054     2.4844   -31.9287     7.1472     9.0566   132.4079
  164.5000     7.5173   125.0116     0.0136     0.1071     2.4800   -31.9226     7.1507     9.0616   131.5955
  165.0000     7.5188   126.3827     0.0137     0.1097     2.4786   -32.0654     7.2038     9.1285   130.7865
  165.5000     7.5204   129.4055     0.0145     0.1080     2.4847   -32.0591     7.2572     9.1968   129.9498
