~VERSION INFORMATION
 VERS.                2.0:   CWLS LOG ASCII STANDARD - VERSION 2.0
 WRAP.                 NO:   ONE LINE PER DEPTH STEP
~WELL INFORMATION
#MNEM.UNIT      DATA TYPE    INFORMATION
#----------   ------------   ------------------------------
 STRT.F           36.0000:   START DEPTH
 STOP.F          557.0000:   STOP DEPTH
 STEP.F            0.5000:   STEP LENGTH
 NULL.          -999.2500:   NO VALUE
 COMP. FENIX & SCISSON U.S. NAVY:   COMPANY
 WELL.        NPR #62-S-3:   WELL
 FLD .             TEAPOT:   FIELD
 LOC .       S3 T38N R78W:   LOCATION
 CNTY.            NATRONA:   COUNTY
 STAT.            WYOMING:   STATE
 CTRY. UNITED STATES OF AMERICA:   COUNTRY
 SRVC.              Welex:   SERVICE COMPANY
 DATE.        07-MAY-1977:   LOGDATE
 API .       490251035000:   API NUMBER
~CURVE INFORMATION
#MNEM.UNIT       API CODE    CURVE DESCRIPTION
#----------   ------------   ------------------------------
 DEPT.F                  :   
 SPR .MV     07 010 01 00:   SPONTANEOUS POTENTIAL
 ILD .OHMM   07 120 46 00:   INDUCTION LOG DEEP
 ILM .OHMM   07 120 44 00:   INDUCTION LOG MEDIUM
 SGRD.OHMM   07 221 05 00:   SHALLOW SHORT GUARD RESISTIVITY
 GRD .GAPI   45 310 01 00:   GAMMA RAY FROM DENSITY LOG
 CALD.IN     45 280 60 00:   CALIPER FROM DENSITY LOG
 CORR.G/C3   45 356 01 00:   DENSITY CORRECTION
 RHOB.G/C3   45 350 01 00:   BULK DENSITY
 DPHI.DEC    45 890 12 00:   DENSITY POROSITY SANDSTONE
 NEUT.NAPI   35 330 01 00:   NEUTRON
~PARAMETER INFORMATION
#MNEM.UNIT          VALUE    DESCRIPTION
#----------   ------------   ------------------------------
 PD  .                 GL:   PERMANENT DATUM
 EPD .F              5136:   ELEVATION PERMANENT DATUM
 LMF .                 GL:   LOG MEASURED FROM
 DMF .                 GL:   DRILLING MEASURED FROM
 EGL .F              5136:   GROUND LEVEL
 DATE.        07-MAY-1977:   RUN DATE
 RUN .                  1:   RUN NUMBER
 DD  .F               560:   DEPTH DRILLER
 DL  .F               560:   DEPTH LOGGER
 BLI .F               558:   BOTTOM LOG INTERVAL
 TLI .F                35:   TOP LOG INTERVAL
 CS  .IN            8.625:   CASING SIZE
 CBD .F                40:   CASING BOTTOM DRILLER
 CBL .F                42:   CASING BOTTOM LOGGER
 BS  .IN            7.875:   BIT SIZE
 BSD .F               560:   BIT SIZE AT DEPTH
 DFT .             KCLMUD:   DRILLING FLUID TYPE
 DFD .                8.8:   DRILLING FLUID DENSITY
 MSS .           FLOWLINE:   MUD SAMPLE SOURCE
 RMS .OHMM           0.24:   RESISTIVITY MUD SAMPLE
 MST .F                60:   MUD SAMPLE TEMPERATURE
 RMF .OHMM           0.20:   RESISTIVITY MUD FILTRATE SAMPLE
 MFST.F                60:   MUD FILTRATE SAMPLE TEMPERATURE
 RMC .OHMM           0.29:   RESISTIVITY MUD CAKE
 MCST.F                60:   MUD CAKE SAMPLE TEMPERATURE
 MFSS.               MEAS:   MUD FILTRATE SAMPLE SOURCE
 MCSS.               MEAS:   MUD CAKE SAMPLE SOURCE
 RMB .OHMM             17:   RESISTIVITY MUD AT BHT
 BHT .F                71:   BOTTOM HOLE TEMPERATURE
 TCS .HRS            0230:   TIME CURCULATED STOPPED
 MRT .F                71:   MAXIMUM RECORDED TEMPERATURE
 LUN .               8611:   LOGGING UNIT NUMBER
 LUL .           GILLETTE:   LOGGING UNIT LOCATION
 ENGI.            C. DOCK:   RECORDING ENGINEER
 WITN.           ROB LYON:   WITNESSED BY
 CLNT.            A2DTECH:   CLIENT CODE
 ORIG.           5" PRINT:   ORIGIN OF DATA
 UWI .       490251035000:   UNIQUE WELL ID
 DICO. A2D Technologies, Inc.:   DIGITIZING COMPANY
~OTHER INFORMATION
~A   DEPT      SPR        ILD        ILM       SGRD        GRD       CALD       CORR       RHOB       DPHI       NEUT   
# ...
  170.0000   -40.4156    10.7688    14.1749    15.9978   105.3881     7.8956     0.0026     2.4941     0.0997  -999.2500
  170.5000   -40.4053    10.9249    15.3035    16.8017   104.5703     7.8971     0.0035     2.5031     0.0952  -999.2500
  171.0000   -40.2460    11.2392    16.6366    17.6459   105.9647     7.8833     0.0043     2.5137     0.0937  -999.2500
  171.5000   -39.9377    11.5626    18.2113    17.9010   107.0241     7.8852     0.0059     2.5168     0.0963  -999.2500
  172.0000   -39.7784    11.8952    19.1249    18.3028   107.3131     7.9012     0.0067     2.5123     0.0978  -999.2500
  172.5000   -39.7681    12.1522    17.1288    17.4279   103.2624     7.8878     0.0075     2.5116     0.0957  -999.2500
  173.0000   -39.6089    12.4148    18.8828    16.9592   102.8729     7.8897     0.0084     2.5177     0.0932  -999.2500
  173.5000   -39.4496    12.5947    19.9677    16.5031   105.4470     7.8912     0.0092     2.5208     0.0959  -999.2500
  174.0000   -39.2903    12.8669    20.2568    17.9692   105.2866     7.8927     0.0078     2.5149     0.1004  -999.2500
  174.5000   -39.2800    12.9624    19.0450    19.4076   103.5201     7.8941     0.0056     2.4999     0.1060  -999.2500
  175.0000   -39.2697    13.0587    17.7823    20.5152   102.3507     7.8956     0.0041     2.4888     0.1102  -999.2500
  175.5000   -39.2593    12.9672    17.9155    20.9344   102.0709     7.8971     0.0035     2.4858     0.1108  -999.2500
  176.0000   -39.0998    12.7867    18.0497    20.6534   102.6867     7.8833     0.0020     2.4881     0.1153  -999.2500
  176.5000   -39.0874    12.5380    17.8115    19.5504   103.7502     7.8699     0.0021     2.4800     0.1224  -999.2500
  177.0000   -39.0771    12.2830    17.2156    19.4223   105.1122     7.8569     0.0022     2.4703     0.1221  -999.2500
  177.5000   -39.0668    12.2025    17.5965    19.1662   106.1757     7.8584     0.0015     2.4689     0.1191  -999.2500
  178.0000   -39.0566    12.1225    17.8742    18.0151   109.0302     7.8449    -0.0007     2.4794     0.1163  -999.2500
  178.5000   -39.0463    12.1287    17.4404    17.5285   111.2878     7.8464    -0.0029     2.4780     0.1190  -999.2500
  179.0000   -39.0361    12.1337    16.5544    17.1778   112.7990     7.8479    -0.0043     2.4728     0.1229  -999.2500
  179.5000   -39.0258    12.1387    15.8903    16.9473   114.3103     7.8643    -0.0050     2.4669     0.1255  -999.2500
  180.0000   -39.1671    12.0579    15.6785    16.7219   115.5230     7.8658    -0.0049     2.4565     0.1282  -999.2500
  180.5000   -39.1543    11.9802    15.7981    16.7319   115.0940     7.8823    -0.0056     2.4588     0.1273  -999.2500
  181.0000   -39.1440    11.9851    15.8067    17.0919   113.9187     7.8838    -0.0055     2.4649     0.1242  -999.2500
  181.5000   -39.2828    11.9900    15.8153    17.4596   111.4001     7.9002    -0.0039     2.4672     0.1236  -999.2500
  182.0000   -39.2726    11.9950    15.8240    16.6402   108.5830     7.8864    -0.0031     2.4657     0.1251  -999.2500
  182.5000   -39.2623    11.9164    15.7235    16.0806   106.6614     7.8730    -0.0023     2.4651     0.1244  -999.2500
  183.0000   -39.2519    11.8329    15.6216    16.0884   104.7398     7.8450    -0.0007     2.4681     0.1223  -999.2500
  183.5000   -39.2414    11.7499    15.4176    16.5509   102.5197     7.8312     0.0002     2.4712     0.1199  -999.2500
  184.0000   -39.2289    11.6836    15.2141    17.1412   100.5981     7.8178     0.0010     2.4773     0.1162  -999.2500
  184.5000   -39.2187    11.6082    14.7051    16.8997    99.4228     7.7894     0.0018     2.4811     0.1150  -999.2500
  185.0000   -39.2084    11.4518    13.5416    16.6692    98.6906     7.7610     0.0026     2.4828     0.1138  -999.2500
  185.5000   -39.1982    11.2975    12.4702    16.2412   102.1468     7.7476     0.0042     2.4834     0.1146  -999.2500
  186.0000   -39.1879    11.0677    12.1365    15.8044   102.4594     7.7644     0.0051     2.4825     0.1194  -999.2500
  186.5000   -39.3292    10.9941    12.3978    15.3794    99.3484     7.7808     0.0051     2.4774     0.1197  -999.2500
  187.0000   -39.3164    10.8459    12.4046    14.9658    98.3224     7.8122     0.0052     2.4744     0.1181  -999.2500
  187.5000   -39.3062    10.7749    12.4115    14.8677    97.7441     7.8286     0.0053     2.4778     0.1163  -999.2500
  188.0000   -39.4475    10.7042    12.2475    15.0844    98.0613     7.8450     0.0038     2.4800     0.1148  -999.2500
  188.5000   -39.4347    10.6341    12.1547    15.4089    99.2741     7.8465     0.0039     2.4801     0.1156  -999.2500
  189.0000   -39.4244    10.4919    11.8459    15.8500   100.9346     7.8779     0.0032     2.4793     0.1159  -999.2500
  189.5000   -39.4141    10.4962    11.7691    15.7480   103.6399     7.8794     0.0033     2.4748     0.1192  -999.2500
  190.0000   -39.5529    10.4274    11.8588    15.3226   106.7882     7.8809     0.0026     2.4713     0.1203  -999.2500
  190.5000   -39.6917    10.3591    12.1140    15.0143   103.6773     7.8824     0.0020     2.4752     0.1179  -999.2500
  191.0000   -39.8304    10.2912    12.5470    15.0233   102.7958     7.8857     0.0005     2.4791     0.1155  -999.2500
  191.5000   -39.8176    10.2237    13.3600    14.3182   105.2073     7.9000    -0.0002     2.4843     0.1130  -999.2500
  192.0000   -39.9590    10.1567    14.2256    14.1275   105.9676     7.9018    -0.0001     2.4873     0.1127  -999.2500
  192.5000   -39.9461    10.0199    14.8343    14.6333   101.5134     7.9030     0.0000     2.4866     0.1124  -999.2500
  193.0000   -40.0849     9.9542    14.4394    15.3686   100.3381     7.9045     0.0008     2.4868     0.1126  -999.2500
  193.5000   -40.0746     9.8890    14.1507    15.1556   100.3568     7.9060     0.0024     2.4883     0.1141  -999.2500
  194.0000   -40.2134     9.6888    13.9621    14.1560   101.7188     7.9075     0.0040     2.4814     0.1189  -999.2500
  194.5000   -40.2031     9.6928    13.7779    14.0632   104.4241     7.9090     0.0026     2.4747     0.1218  -999.2500
  195.0000   -40.3419     9.6283    13.7873    14.1696   105.3383     7.8955     0.0004     2.4697     0.1239  -999.2500
  195.5000   -40.3317     9.6333    14.0840    14.4744   104.3123     7.8970    -0.0018     2.4682     0.1272  -999.2500
  196.0000   -40.4730     9.5691    14.2879    14.6836   103.5847     7.8985    -0.0040     2.4606     0.1296  -999.2500
  196.5000   -40.4602     9.5073    14.2957    14.5892   102.7079     7.9000    -0.0047     2.4519     0.1334  -999.2500
  197.0000   -40.4499     9.5113    14.1071    14.1968   101.9804     7.9015    -0.0054     2.4490     0.1343  1433.6957
  197.5000   -40.4396     9.5152    13.7220    13.8150   101.5466     7.9030    -0.0068     2.4529     0.1328  1435.0785
  198.0000   -40.5784     9.4529    13.2704    13.7244   101.5700     7.9045    -0.0075     2.4567     0.1312  1435.1436
  198.5000   -41.0152     9.4481    13.5909    14.3162   102.0365     7.9060    -0.0074     2.4507     0.1324  1433.8582
  199.0000   -41.4495     9.3303    14.2380    14.2240   103.1000     7.8921    -0.0081     2.4463     0.1369  1432.5461
  199.5000   -41.5908     9.2046    13.3862    13.5565   103.8650     7.8791    -0.0080     2.4516     0.1341  1424.5520
  200.0000   -41.9013     9.1669    13.4463    14.0416   104.5073     7.8806    -0.0072     2.4607     0.1290  1416.5150
  200.5000   -42.1774     8.7111    14.1657    14.5411   104.8811     7.8788    -0.0058     2.4630     0.1214  1405.7772
  201.0000   -42.3149     8.5356    14.1765    15.0590   104.9556     7.8770    -0.0040     2.4728     0.1151  1390.9884
  201.5000   -42.6081     8.3626    13.8960    15.1670   104.3750     7.8752    -0.0009     2.4796     0.1148  1374.8494
  202.0000   -42.8913     8.2496    12.3643    12.8458   107.2314     7.8734    -0.0001     2.4842     0.1157  1356.0096
  202.5000   -43.1820     8.1962    11.9510    12.0719   108.7363     7.8724     0.0000     2.4775     0.1177  1330.9843
  203.0000   -43.3236     8.1431    11.5559    11.0341   103.8315     7.8737     0.0001     2.4723     0.1201  1310.2444
