~VERSION INFORMATION
 VERS.                2.0:   CWLS LOG ASCII STANDARD - VERSION 2.0
 WRAP.                 NO:   ONE LINE PER DEPTH STEP
~WELL INFORMATION
#MNEM.UNIT      DATA TYPE    INFORMATION
#----------   ------------   ------------------------------
 STRT.F           30.0000:   START DEPTH
 STOP.F          618.0000:   STOP DEPTH
 STEP.F            0.5000:   STEP LENGTH
 NULL.          -999.2500:   NO VALUE
 COMP. FENNIX & SCISSON, INC.:   COMPANY
 WELL.       NPR #88-S-10:   WELL
 FLD .              NPR-3:   FIELD
 LOC .      S10 T38N R78W:   LOCATION
 CNTY.            NATRONA:   COUNTY
 STAT.            WYOMING:   STATE
 CTRY. UNITED STATES OF AMERICA:   COUNTRY
 SRVC.              Welex:   SERVICE COMPANY
 DATE.        22-APR-1977:   LOGDATE
 API .       490251034200:   API NUMBER
~CURVE INFORMATION
#MNEM.UNIT       API CODE    CURVE DESCRIPTION
#----------   ------------   ------------------------------
 DEPT.F                  :   
 CALD.IN     45 280 60 00:   CALIPER FROM DENSITY LOG
 GRD .GAPI   45 310 01 00:   GAMMA RAY FROM DENSITY LOG
 CORR.G/C3   45 356 01 00:   DENSITY CORRECTION
 RHOB.G/C3   45 350 01 00:   BULK DENSITY
 DPHI.DEC    45 890 12 00:   DENSITY POROSITY SANDSTONE
 ILD .OHMM   07 120 46 00:   INDUCTION LOG DEEP
 ILM .OHMM   07 120 44 00:   INDUCTION LOG MEDIUM
 SGRD.OHMM   07 220 05 00:   SHALLOW GUARD RESISTIVITY
 SPR .MV     07 010 01 00:   SPONTANEOUS POTENTIAL FROM RES.
~PARAMETER INFORMATION
#MNEM.UNIT          VALUE    DESCRIPTION
#----------   ------------   ------------------------------
 PD  .                 GL:   PERMANENT DATUM
 EPD .F              5255:   ELEVATION PERMANENT DATUM
 LMF .                 GL:   LOG MEASURED FROM
 DMF .                 GL:   DRILLING MEASURED FROM
 EGL .F              5255:   GROUND LEVEL
 DATE.        22-APR-1977:   RUN DATE
 RUN .                  1:   RUN NUMBER
 DD  .F               630:   DEPTH DRILLER
 DL  .F               620:   DEPTH LOGGER
 BLI .F               618:   BOTTOM LOG INTERVAL
 TLI .F                38:   TOP LOG INTERVAL
 CS  .IN            8.625:   CASING SIZE
 CBD .F                40:   CASING BOTTOM DRILLER
 BS  .IN            7.875:   BIT SIZE
 BSD .F               630:   BIT SIZE AT DEPTH
 DFT .            KCL GEL:   DRILLING FLUID TYPE
 DFD .                9.0:   DRILLING FLUID DENSITY
 DFV .                 40:   DRILLING FLUID VISCOSITY
 DFPH.                8.0:   DRILLING FLUID PH
 DFL .                6.4:   DRILLING FLUID LOSS
 MSS .            MUD PIT:   MUD SAMPLE SOURCE
 RMS .OHMM            .20:   RESISTIVITY MUD SAMPLE
 MST .F                65:   MUD SAMPLE TEMPERATURE
 RMF .OHMM            .18:   RESISTIVITY MUD FILTRATE SAMPLE
 MFST.F                65:   MUD FILTRATE SAMPLE TEMPERATURE
 RMC .OHMM            .28:   RESISTIVITY MUD CAKE
 MCST.F                65:   MUD CAKE SAMPLE TEMPERATURE
 MFSS.               MEAS:   MUD FILTRATE SAMPLE SOURCE
 MCSS.               MEAS:   MUD CAKE SAMPLE SOURCE
 RMB .OHMM            .18:   RESISTIVITY MUD AT BHT
 BHT .F                71:   BOTTOM HOLE TEMPERATURE
 TCS .HRS            0300:   TIME CURCULATED STOPPED
 MRT .F                71:   MAXIMUM RECORDED TEMPERATURE
 LUN .               8611:   LOGGING UNIT NUMBER
 LUL .             CASPER:   LOGGING UNIT LOCATION
 ENGI.          T. JOYNER:   RECORDING ENGINEER
 WITN.           ROB LYON:   WITNESSED BY
 CLNT.            A2DTECH:   CLIENT CODE
 ORIG.           5" PRINT:   ORIGIN OF DATA
 UWI .       490251034200:   UNIQUE WELL ID
 DICO. A2D Technologies, Inc.:   DIGITIZING COMPANY
~OTHER INFORMATION
~A   DEPT     CALD        GRD       CORR       RHOB       DPHI        ILD        ILM       SGRD        SPR   
# ...
  212.5000     7.8685   132.5604     0.0102     2.4783     0.1092     7.1903    10.4925    11.0546   -23.6979
  213.0000     7.8685   130.1615     0.0117     2.4806     0.1068     7.1884    10.6383    11.1311   -23.8485
  213.5000     7.8685   132.2543     0.0132     2.4851     0.1059     7.2361    10.5652    11.2081   -23.8500
  214.0000     7.8685   131.3531     0.0163     2.4896     0.1053     7.2341    10.2069    11.3637   -23.8515
  214.5000     7.8685   127.6077     0.0178     2.4910     0.1026     7.2321     9.6588    11.5215   -23.8529
  215.0000     7.8685   125.8083     0.0223     2.4933     0.0999     7.2301     9.0773    11.6815   -24.0032
  215.5000     7.8685   126.1047     0.0238     2.4970     0.0973     7.2281     8.7093    11.9256   -24.0047
  216.0000     7.8685   125.8023     0.0239     2.5015     0.0913     7.2261     8.4722    12.1748   -24.0062
  216.5000     7.8685   122.2065     0.0224     2.5060     0.0841     7.2241     8.4140    12.2590   -24.0077
  217.0000     7.8685   123.5508     0.0209     2.5097     0.0844     7.2721     8.5309    12.0911   -24.0091
  217.5000     7.8535   123.8598     0.0179     2.5111     0.0898     7.2701     8.6494    11.9256   -24.0106
  218.0000     7.8523   123.5449     0.0134     2.5026     0.0967     7.3184     8.8914    11.7623   -24.0121
  218.5000     7.8236   123.0928     0.0119     2.4958     0.1009     7.3670     9.0773    11.6815   -24.0136
  219.0000     7.8087   119.6467     0.0119     2.4923     0.1036     7.4159     9.2672    11.6815   -24.1638
  219.5000     7.8087   116.0509     0.0119     2.4977     0.1042     7.4651     9.3959    11.6815   -24.1653
  220.0000     7.8087   115.4491     0.0119     2.5021     0.1019     7.4113     9.5265    11.6815   -24.3156
  220.5000     7.7937   125.1817     0.0104     2.5008     0.0988     7.4093     9.6588    11.6012   -24.3171
  221.0000     7.7937   125.6228     0.0074     2.4889     0.1083     7.3059     9.7257    11.5215   -24.4674
  221.5000     7.8087   124.3998     0.0029     2.4770     0.1105     7.2039     9.5922    11.4423   -24.4688
  222.0000     7.8087   123.2216    -0.0016     2.4710     0.1121     7.0546     9.2018    11.3637   -24.6191
  222.5000     7.8236   125.2147    -0.0046     2.4506     0.1201     7.0043     8.8272    11.2857   -24.6206
  223.0000     7.8236   126.9882    -0.0061     2.4369     0.1253     6.8592     8.6494    11.2045   -24.6221
  223.5000     7.8236   128.6367    -0.0076     2.4239     0.1378     6.7634     8.6552    11.0488   -24.6235
  224.0000     7.8236   130.0260    -0.0076     2.4203     0.1419     6.6691     8.8914    10.8953   -24.6250
  224.5000     7.8236   133.6034    -0.0076     2.4181     0.1422     6.6215     9.0149    10.7540   -24.7753
  225.0000     7.8386   134.1319    -0.0075     2.4181     0.1419     6.5291     8.9944    10.6067   -24.7768
  225.5000     7.8386   132.9438    -0.0060     2.4197     0.1389     6.4825     8.3236    10.4615   -24.7783
  226.0000     7.8386   130.2329    -0.0060     2.4229     0.1326     6.4807     7.7990    10.3182   -24.7798
  226.5000     7.8386   129.1821    -0.0060     2.4348     0.1256     6.4789     7.5868    10.3182   -24.7812
  227.0000     7.8535   127.5324    -0.0043     2.4506     0.1214     6.5219     7.4313    10.3182   -24.6339
  227.5000     7.8535   124.9845     0.0001     2.4594     0.1188     6.5657     7.5346    10.4615   -24.6354
  228.0000     7.8535   119.2929     0.0046     2.4662     0.1164     6.6549     7.7454    10.6067   -24.6372
  228.5000     7.8685   117.7936     0.0061     2.4730     0.1112     6.7449     7.9621    10.7540   -24.6387
  229.0000     7.8685   119.7360     0.0062     2.4812     0.1059     6.8366     8.1287    10.9033   -24.6402
  229.5000     7.8685   120.9306     0.0062     2.4871     0.1039     6.9296     8.2987    11.0546   -24.6416
  230.0000     7.8685   121.6769     0.0077     2.4718     0.1106     7.0238     8.4722    11.2081   -24.4943
  230.5000     7.8685   117.3318     0.0092     2.4658     0.1132     7.0704     8.6494    11.3637   -24.4958
  231.0000     7.8685   116.7308     0.0107     2.4778     0.1107     7.1178     8.8303    11.4423   -24.4972
  231.5000     7.8535   119.7211     0.0123     2.4927     0.1058     7.1651     8.9530    11.4423   -24.3495
  232.0000     7.8535   121.0662     0.0108     2.4979     0.1009     7.2122     9.1402    11.4423   -24.3514
  232.5000     7.8535   119.1163     0.0063     2.4732     0.1090     7.2101     9.1402    11.5215   -24.3529
  233.0000     7.8535   118.9644     0.0002     2.4635     0.1151     7.2082     9.0773    11.6815   -24.3543
  233.5000     7.8535   119.2601    -0.0028     2.4567     0.1190     7.1567     9.0149    11.7623   -24.3558
  234.0000     7.8386   125.6950    -0.0043     2.4492     0.1207     7.1548     8.9530    11.9256   -24.2085
  234.5000     7.8386   123.1463    -0.0057     2.4447     0.1219     7.1037     8.8914    11.9256   -24.2100
  235.0000     7.8386   123.8918    -0.0072     2.4425     0.1232     7.1018     8.8914    11.6815   -24.2114
  235.5000     7.8386   125.8350    -0.0102     2.4335     0.1258     7.0998     8.8914    11.5215   -24.2129
  236.0000     7.8386   127.6291    -0.0117     2.4155     0.1307     7.0979     8.7093    11.4423   -24.2144
  236.5000     7.8386   125.6793    -0.0147     2.4028     0.1362     7.0959     8.4140    11.3637   -24.2159
  237.0000     7.8386   122.2332    -0.0177     2.3923     0.1418     7.0939     8.2987    11.3637   -24.0682
  237.5000     7.8386   120.7332    -0.0177     2.3856     0.1447     7.1411     8.1287    11.3637   -24.0700
  238.0000     7.8386   120.4316    -0.0162     2.3885     0.1462     7.1884     7.9621    11.3637   -24.0715
  238.5000     7.8386   120.7273    -0.0132     2.4259     0.1326     7.2426     7.8530    11.3637   -24.0730
  239.0000     7.8386   121.4728    -0.0101     2.4386     0.1260     7.3345     7.8530    11.3637   -24.0744
  239.5000     7.8386   121.9196    -0.0056     2.4506     0.1216     7.4432     7.8530    11.4423   -23.9271
  240.0000     7.8386   119.5207    -0.0026     2.4775     0.1154     7.5874     8.1287    11.5215   -23.7798
  240.5000     7.8386   116.0754    -0.0010     2.4947     0.1042     7.6900     8.5309    11.6012   -23.7812
  241.0000     7.8386   117.8680    -0.0010     2.5014     0.0998     7.7946     9.0149    11.6815   -23.7827
  241.5000     7.8386   119.6615     0.0005     2.5029     0.0986     7.8469     9.5924    11.8436   -23.7842
  242.0000     7.8535   123.8501     0.0005     2.4991     0.1010     7.9530    10.0671    12.1068   -23.7857
  242.5000     7.8535   125.0455     0.0005     2.4924     0.1049     8.0063    10.3487    12.5152   -23.7872
  243.0000     7.8535   123.8441     0.0005     2.4804     0.1070     8.0589    10.2065    12.8651   -23.7890
  243.5000     7.8685   122.6435     0.0006     2.4804     0.1070     8.0567     9.9250    13.2248   -23.6413
  244.0000     7.8685   117.9999     0.0006     2.4856     0.1051     8.1102     9.6553    13.4084   -23.6431
  244.5000     7.8685   118.7454     0.0006     2.4968     0.0974     8.2210     9.5265    13.5012   -23.4954
  245.0000     7.8685   119.3412     0.0021     2.5035     0.0929     8.3898     9.4610    13.5946   -23.4973
  245.5000     7.8685   119.4880     0.0038     2.5050     0.0902     8.6218     9.5346    13.6886   -23.3496
  246.0000     7.8535   113.3472     0.0067     2.5057     0.0882     8.9215     9.8030    13.7833   -23.2022
  246.5000     7.8535   110.0508     0.0084     2.5042     0.0915     9.1683    10.1607    13.9747   -23.0549
  247.0000     7.8535   109.5987     0.0100     2.4967     0.0927     9.4218    10.5793    14.1687   -22.9076
  247.5000     7.8535   110.0448     0.0112     2.4982     0.0930     9.6824    11.0879    14.7670   -22.7602
  248.0000     7.8685   110.3813     0.0128     2.4944     0.0963     9.9502    11.7171    15.3907   -22.6129
  248.5000     7.8685   107.1946     0.0128     2.4810     0.1070    10.0861    12.3820    16.1516   -22.6147
