~VERSION INFORMATION
 VERS.                2.0:   CWLS LOG ASCII STANDARD - VERSION 2.0
 WRAP.                 NO:   ONE LINE PER DEPTH STEP
~WELL INFORMATION
#MNEM.UNIT      DATA TYPE    INFORMATION
#----------   ------------   ------------------------------
 STRT.F           98.5000:   START DEPTH
 STOP.F          716.5000:   STOP DEPTH
 STEP.F            0.5000:   STEP LENGTH
 NULL.          -999.2500:   NO VALUE
 COMP. U S NAVY-INTEX OIL:   COMPANY
 WELL. RES 3 TEAPOT DOM #32S-11:   WELL
 FLD .             TEAPOT:   FIELD
 LOC .      S11 T38N R78W:   LOCATION
 CNTY.            NATRONA:   COUNTY
 STAT.            WYOMING:   STATE
 CTRY. UNITED STATES OF AMERICA:   COUNTRY
 SRVC.       Schlumberger:   SERVICE COMPANY
 DATE.        13-JUL-1962:   LOGDATE
 API .       490250636500:   API NUMBER
~CURVE INFORMATION
#MNEM.UNIT       API CODE    CURVE DESCRIPTION
#----------   ------------   ------------------------------
 DEPT.F                  :   
 SPR .MV     05 010 01 00:   SPONTANEOUS POTENTIAL FROM RES.
 CILD.MMHO   05 110 46 00:   CONDUCTIVITY INDUCTION LOG DEEP
 ASN .OHMM   05 040 16 00:   AMPLIFIED SHORT NORMAL 16"
 ILD .OHMM   05 120 46 00:   INDUCTION LOG DEEP
 GR  .GAPI   30 310 01 00:   GAMMA RAY
~PARAMETER INFORMATION
#MNEM.UNIT          VALUE    DESCRIPTION
#----------   ------------   ------------------------------
 PD  .                 GL:   PERMANENT DATUM
 EPD .F              5161:   ELEVATION PERMANENT DATUM
 LMF .                 KB:   LOG MEASURED FROM
 DAPD.F                 5:   FEET ABOVE PERMANENT DATUM
 DMF .                 KB:   DRILLING MEASURED FROM
 EKB .F              5166:   KELLING BUSHING
 EGL .F              5161:   GROUND LEVEL
 DATE.            7-13-62:   RUN DATE
 RUN .                  1:   RUN NUMBER
 DD  .F               716:   DEPTH DRILLER
 DL  .F               717:   DEPTH LOGGER
 BLI .F               716:   BOTTOM LOG INTERVAL
 TLI .F               100:   TOP LOG INTERVAL
 CBD .F                10:   CASING BOTTOM DRILLER
 BS  .IN             6.75:   BIT SIZE
 BSD .F               716:   BIT SIZE AT DEPTH
 DFT .           OIL EMUL:   DRILLING FLUID TYPE
 DFD .               10.2:   DRILLING FLUID DENSITY
 DFV .                 43:   DRILLING FLUID VISCOSITY
 RMS .OHMM              5:   RESISTIVITY MUD SAMPLE
 MST .F                70:   MUD SAMPLE TEMPERATURE
 RMF .OHMM            5.5:   RESISTIVITY MUD FILTRATE SAMPLE
 MFST.F                70:   MUD FILTRATE SAMPLE TEMPERATURE
 RMC .OHMM              6:   RESISTIVITY MUD CAKE
 MCST.F                70:   MUD CAKE SAMPLE TEMPERATURE
 TCS .HRS              .5:   TIME CURCULATED STOPPED
 LUN .               2503:   LOGGING UNIT NUMBER
 LUL .               CSPR:   LOGGING UNIT LOCATION
 ENGI.           ELLERMAN:   RECORDING ENGINEER
 WITN.          JORGENSON:   WITNESSED BY
 CLNT.            A2DTECH:   CLIENT CODE
 ORIG.       2", 5" PRINT:   ORIGIN OF DATA
 UWI .       490250636500:   UNIQUE WELL ID
 DICO. A2D Technologies, Inc.:   DIGITIZING COMPANY
~OTHER INFORMATION
~A   DEPT      SPR       CILD        ASN        ILD         GR   
# ...
  647.5000   -55.7719    38.2561    23.2822    21.2742    20.3672
  648.0000   -57.4063    36.0282    24.2472    22.4104    33.0213
  648.5000   -58.9627    34.6808    24.6776    23.2001    47.5728
  649.0000   -59.5435    34.0972    25.1082    23.4898    39.8422
  649.5000   -58.7831    33.7702    25.6269    23.6376    41.7236
  650.0000   -57.9790    34.0370    26.0212    23.3374    35.1560
  650.5000   -57.2010    34.3459    25.8230    23.0496    23.9949
  651.0000   -57.8149    34.6549    25.5722    22.7637    26.4882
  651.5000   -58.3427    35.3041    25.9839    22.4778     9.5718
  652.0000   -58.1480    36.1794    26.1883    22.1901    14.1124
  652.5000   -57.9793    37.0548    24.7041    21.8941    24.7734
  653.0000   -58.4962    37.6930    24.0090    21.9071    17.4716
  653.5000   -59.0690    36.9427    24.2416    21.8382    15.2405
  654.0000   -58.7297    37.8516    24.8692    21.7896    19.3941
  654.5000   -58.4869    39.1582    25.4903    21.4083    20.6935
  655.0000   -58.2219    40.4740    24.6036    20.8159    20.5540
  655.5000   -58.3666    41.7868    23.1158    20.3544    17.6572
  656.0000   -58.9110    42.9774    21.6334    19.9169    14.3800
  656.5000   -59.5712    43.6651    21.5491    19.5491    18.6294
  657.0000   -59.5843    44.3529    23.2081    19.2740    24.6915
  657.5000   -58.7189    45.0407    22.7505    18.9982    29.1458
  658.0000   -57.5392    45.7285    22.1881    18.7215    32.3788
  658.5000   -57.8581    46.4162    21.6388    18.4097    22.5761
  659.0000   -58.5159    47.1040    21.0864    18.0880    22.2824
  659.5000   -59.1398    47.7917    20.4973    17.8204    31.6701
  660.0000   -59.3929    48.4795    19.9916    17.6847    26.1831
  660.5000   -59.3830    49.1673    19.9637    17.5452    19.2193
  661.0000   -58.9811    49.8550    19.9260    17.3503    12.7340
  661.5000   -58.4001    50.5428    19.6912    17.1533    15.1703
  662.0000   -57.6926    51.2306    19.3568    16.9796    19.0614
  662.5000   -56.9874    51.9183    18.9955    16.6783    33.0692
  663.0000   -56.3025    52.6061    18.7119    16.3901    32.9024
  663.5000   -55.6340    53.2938    18.4617    16.1029    50.7297
  664.0000   -55.4679    53.9314    18.2126    15.9449    48.4824
  664.5000   -56.1687    53.7025    18.0451    15.9457    50.3971
  665.0000   -56.2271    52.9234    18.1896    15.9454    39.8358
  665.5000   -54.7609    52.9234    18.2834    15.9460    29.5038
  666.0000   -53.3671    52.9234    17.8134    15.9172     9.7294
  666.5000   -54.1589    52.9234    17.3258    15.8720    20.0248
  667.0000   -55.5648    52.9234    17.0896    15.8266    28.8920
  667.5000   -56.7866    52.9234    17.7442    15.7831    41.3854
  668.0000   -56.1925    53.3813    17.9886    15.7329    51.2197
  668.5000   -55.3220    55.6322    16.9563    15.3854    46.3473
  669.0000   -55.3419    57.7540    16.2633    15.0258    39.7238
  669.5000   -55.3431    59.9798    15.8022    14.6680    48.0639
  670.0000   -55.0072    60.7555    15.3539    14.3055    50.3706
  670.5000   -54.3594    61.5802    15.2715    14.1169    54.5210
  671.0000   -53.7102    62.4049    15.2712    13.9669    51.1289
  671.5000   -53.0630    63.2296    15.2759    13.8177    52.9525
  672.0000   -52.4088    64.0543    15.0834    13.6679    43.5835
  672.5000   -51.9384    64.8790    14.8215    13.5183    42.2510
  673.0000   -51.3851    65.7037    14.5579    13.3860    46.0833
  673.5000   -51.6336    66.5283    14.2983    13.2793    43.6239
  674.0000   -52.0298    67.3530    14.1670    13.1723    31.2478
  674.5000   -52.4380    68.1777    14.0574    13.0653    37.2847
  675.0000   -52.5257    69.0024    13.9476    12.9584    34.6115
  675.5000   -52.5488    69.8271    13.8377    12.8514    36.2566
  676.0000   -51.9340    70.6518    13.7278    12.7444    30.9942
  676.5000   -51.7198    71.4765    13.6179    12.6374    36.0092
  677.0000   -51.8225    72.3012    13.5079    12.5304    44.3433
  677.5000   -51.9409    73.1259    13.3979    12.4247    40.1808
  678.0000   -52.0582    73.9506    13.2945    12.3364    33.8111
  678.5000   -51.8524    74.7753    13.1953    12.2470    40.5623
  679.0000   -51.3342    75.6000    13.0960    12.1306    37.2379
  679.5000   -50.7730    76.4247    12.9966    11.9997    40.2464
  680.0000   -50.4558    77.2494    12.8972    11.8685    34.3751
  680.5000   -50.1295    78.0741    12.7979    11.7388    33.6253
  681.0000   -49.8055    78.8988    12.6985    11.6633    31.1645
  681.5000   -49.4801    79.6182    12.5991    11.5979    37.3802
  682.0000   -49.2772    80.2965    12.4998    11.5324    40.5451
  682.5000   -49.5275    80.9738    12.4004    11.4669    35.7505
  683.0000   -49.5922    81.6517    12.3011    11.4014    39.9660
  683.5000   -49.6522    82.3283    12.2016    11.3359    26.6634
  684.0000   -49.7015    83.0126    12.1022    11.2703    30.4359
  684.5000   -49.6865    83.1638    12.0033    11.2049    30.2561
  685.0000   -49.9168    83.1653    11.9375    11.1385    38.2911
  685.5000   -49.6157    83.1653    11.9198    11.1306    39.4930
  686.0000   -49.2358    83.1653    11.9016    11.1505    39.6952
  686.5000   -48.8523    83.1653    11.8836    11.1712    30.2422
  687.0000   -48.4684    83.1653    11.8655    11.1918    31.5503
  687.5000   -48.1445    83.1653    11.8474    11.2124    38.4775
  688.0000   -47.8662    83.1653    11.8293    11.2329    48.8769
  688.5000   -47.5900    83.1653    11.8111    11.2535  -999.2500
  689.0000   -47.3173    83.1653    11.7930    11.2741  -999.2500
  689.5000   -47.0849    83.1653    11.7751    11.2949  -999.2500
  690.0000   -46.9150    83.7433    11.7569    11.3159  -999.2500
  690.5000   -47.0025    84.4436    11.7256    11.3027  -999.2500
  691.0000   -47.0943    85.1814    11.6494    11.1540  -999.2500
  691.5000   -47.1879    85.4181    11.5761    11.0043  -999.2500
  692.0000   -47.2811    85.6682    11.5029    10.8962  -999.2500
  692.5000   -47.3745    85.9183    11.4296    10.8512  -999.2500
  693.0000   -47.4664    86.1895    11.3563    10.8056  -999.2500
  693.5000   -47.4166    86.9545    11.2830    10.7602  -999.2500
  694.0000   -47.2841    87.7900    11.2096    10.7136  -999.2500
  694.5000   -47.1552    88.6256    11.1392    10.6399  -999.2500
  695.0000   -47.1865    89.4611    11.1014    10.5648  -999.2500
  695.5000   -47.4437    90.2967    11.0653    10.4899  -999.2500
  696.0000   -47.8804    91.1322    11.0291    10.4149  -999.2500
  696.5000   -48.4451    91.9678    10.9928    10.3392  -999.2500
  697.0000   -48.9025    92.8033    10.9569    10.2675  -999.2500
  697.5000   -48.8917    93.2460    10.9462    10.2849  -999.2500
  698.0000   -48.8432    93.2460    10.9651    10.3671  -999.2500
  698.5000   -48.6742    92.5502    10.9838    10.4245  -999.2500
  699.0000   -48.5081    91.8060    11.0027    10.4838  -999.2500
  699.5000   -48.3383    91.0617    11.0216    10.5433  -999.2500
  700.0000   -48.3738    90.3174    11.0380    10.6030  -999.2500
  700.5000   -48.4995    89.5771    10.9991    10.6627  -999.2500
  701.0000   -48.6287    89.4198    10.9552    10.7067  -999.2500
  701.5000   -48.6580    89.8400    10.9115    10.6291  -999.2500
  702.0000   -48.4053    90.2543    10.8678    10.5522  -999.2500
  702.5000   -48.1482    90.6676    10.8241    10.4759  -999.2500
  703.0000   -47.8948    91.0810    10.7801    10.4104  -999.2500
  703.5000   -47.9963    91.4944    10.7377    10.3898  -999.2500
  704.0000   -48.3416    91.9078    10.6854    10.3284  -999.2500
  704.5000   -48.4495    92.6146    10.6013    10.2675  -999.2500
  705.0000   -48.3900    94.4841    10.5162    10.2065  -999.2500
  705.5000   -48.3229    96.3535    10.4312    10.1443  -999.2500
  706.0000   -48.1118    98.2230    10.3461    10.0343  -999.2500
  706.5000   -47.6549   100.0917    10.2619     9.8568  -999.2500
  707.0000   -47.5917   101.9704    10.1788     9.6803  -999.2500
  707.5000   -48.1948   103.8187    10.1570     9.5010  -999.2500
  708.0000   -48.8015   105.6811     9.9808     9.3191  -999.2500
