~VERSION INFORMATION
 VERS.                2.0:   CWLS LOG ASCII STANDARD - VERSION 2.0
 WRAP.                 NO:   ONE LINE PER DEPTH STEP
~WELL INFORMATION
#MNEM.UNIT      DATA TYPE    INFORMATION
#----------   ------------   ------------------------------
 STRT.F            0.0000:   START DEPTH
 STOP.F         1110.0000:   STOP DEPTH
 STEP.F            0.5000:   STEP LENGTH
 NULL.          -999.2500:   NO VALUE
 COMP. FENIX & SCISSON INC:   COMPANY
 WELL. NAVAL PETROLEUM RESERVE 3 SX-1 #63-14:   WELL
 FLD .       TEA POT DOME:   FIELD
 LOC .      S14 T38N R78W:   LOCATION
 CNTY.            NATRONA:   COUNTY
 STAT.            WYOMING:   STATE
 CTRY. UNITED STATES OF AMERICA:   COUNTRY
 SRVC.            Unknown:   SERVICE COMPANY
 DATE.        15-APR-1978:   LOGDATE
 API .       490251061500:   API NUMBER
~CURVE INFORMATION
#MNEM.UNIT       API CODE    CURVE DESCRIPTION
#----------   ------------   ------------------------------
 DEPT.F                  :   
 NPHI.DEC    42 890 03 00:   NEUTRON POROSITY SANDSTONE
 GRD .GAPI   45 310 01 00:   GAMMA RAY FROM DENSITY LOG
 CALD.IN     45 280 60 00:   CALIPER FROM DENSITY LOG
 RHOB.G/C3   45 350 01 00:   BULK DENSITY
 DPHI.DEC    45 890 12 00:   DENSITY POROSITY SANDSTONE
 CORR.G/C3   45 356 01 00:   DENSITY CORRECTION
 SPR .MV     05 010 01 00:   SPONTANEOUS POTENTIAL FROM RES.
 SN  .OHMM   05 040 16 00:   SHORT NORMAL 16"
 ILD .OHMM   05 120 46 00:   INDUCTION LOG DEEP
~PARAMETER INFORMATION
#MNEM.UNIT          VALUE    DESCRIPTION
#----------   ------------   ------------------------------
 PD  .                 GL:   PERMANENT DATUM
 EPD .F              5253:   ELEVATION PERMANENT DATUM
 LMF .                 KB:   LOG MEASURED FROM
 DAPD.F                 4:   FEET ABOVE PERMANENT DATUM
 DMF .                 KB:   DRILLING MEASURED FROM
 EKB .F              5257:   KELLING BUSHING
 EGL .F              5253:   GROUND LEVEL
 DATE.          4-15-1978:   RUN DATE
 RUN .                  1:   RUN NUMBER
 DD  .F              1095:   DEPTH DRILLER
 DL  .F              1102:   DEPTH LOGGER
 BLI .F              1100:   BOTTOM LOG INTERVAL
 TLI .F               850:   TOP LOG INTERVAL
 CS  .IN            9.625:   CASING SIZE
 CBD .F                40:   CASING BOTTOM DRILLER
 CBL .F                40:   CASING BOTTOM LOGGER
 BS  .IN            7.875:   BIT SIZE
 BSD .F              1095:   BIT SIZE AT DEPTH
 DFT .                KCL:   DRILLING FLUID TYPE
 DFD .                8.6:   DRILLING FLUID DENSITY
 DFV .                 30:   DRILLING FLUID VISCOSITY
 DFPH.                 10:   DRILLING FLUID PH
 DFL .                  8:   DRILLING FLUID LOSS
 MSS .           FLOWLINE:   MUD SAMPLE SOURCE
 RMS .OHMM            .46:   RESISTIVITY MUD SAMPLE
 MST .F                58:   MUD SAMPLE TEMPERATURE
 RMF .OHMM             .5:   RESISTIVITY MUD FILTRATE SAMPLE
 MFST.F                60:   MUD FILTRATE SAMPLE TEMPERATURE
 RMC .OHMM             .5:   RESISTIVITY MUD CAKE
 MCST.F                60:   MUD CAKE SAMPLE TEMPERATURE
 MFSS.           MEASURED:   MUD FILTRATE SAMPLE SOURCE
 RMB .OHMM            .33:   RESISTIVITY MUD AT BHT
 BHT .F                80:   BOTTOM HOLE TEMPERATURE
 TCS .HRS               6:   TIME CURCULATED STOPPED
 MRT .F                80:   MAXIMUM RECORDED TEMPERATURE
 LUN .               2958:   LOGGING UNIT NUMBER
 LUL .               CASP:   LOGGING UNIT LOCATION
 ENGI.             MILLER:   RECORDING ENGINEER
 WITN.           MCGINLEY:   WITNESSED BY
 CLNT.            A2DTECH:   CLIENT CODE
 ORIG.      2" & 5" PRINT:   ORIGIN OF DATA
 UWI .       490251061500:   UNIQUE WELL ID
 DICO. A2D Technologies, Inc.:   DIGITIZING COMPANY
~OTHER INFORMATION
~A    DEPT    NPHI         GRD      CALD       RHOB       DPHI       CORR        SPR         SN        ILD   
# ...
  657.0000  -999.2500   101.7403     7.9420     2.4763     0.0983     0.0767   -49.5307     7.0312     6.8396
  657.5000  -999.2500   100.9225     7.9632     2.4691     0.1015     0.0729   -49.5261     7.0312     6.8396
  658.0000  -999.2500   100.7245     7.9685     2.4618     0.1048     0.0647   -49.5214     7.0312     6.8396
  658.5000  -999.2500   100.9742     7.9248     2.4545     0.1081     0.0565   -49.5168     7.0312     6.8396
  659.0000  -999.2500   101.9204     7.8830     2.4510     0.1113     0.0514   -49.5121     7.0312     6.8396
  659.5000  -999.2500   104.1376     7.8410     2.4509     0.1123     0.0491   -49.5075     7.0312     6.8396
  660.0000  -999.2500   105.7484     7.7997     2.4485     0.1119     0.0468   -49.5028     7.0312     6.8396
  660.5000  -999.2500   106.5996     7.8192     2.4459     0.1187     0.0445   -49.4982     7.0322     6.8405
  661.0000  -999.2500   107.0820     7.8457     2.4440     0.1194     0.0423   -49.4935     7.0351     6.8433
  661.5000  -999.2500   109.4424     7.8721     2.4469     0.1187     0.0412   -49.4889     7.0379     6.8461
  662.0000  -999.2500   109.9201     7.8984     2.4499     0.1141     0.0444   -49.4842     7.0408     6.8489
  662.5000  -999.2500   108.2454     7.9247     2.4517     0.1108     0.0466   -49.4796     7.0436     6.8517
  663.0000  -999.2500   103.7805     7.9512     2.4505     0.1159     0.0465   -49.4749     7.0465     6.8545
  663.5000  -999.2500   103.1479     7.9988     2.4552     0.1153     0.0465   -49.4703     7.0494     6.8572
  664.0000  -999.2500   100.6535     8.0548     2.4649     0.1102     0.0504   -49.4656     7.0522     6.8600
  664.5000  -999.2500    96.8828     8.0777     2.4705     0.1050     0.0555   -49.4610     7.0551     6.8628
  665.0000  -999.2500    94.8489     8.0761     2.4733     0.1056     0.0597   -49.4563     7.0580     6.8656
  665.5000  -999.2500    95.1171     8.0300     2.4761     0.1002     0.0625   -49.4517     7.0608     6.8684
  666.0000  -999.2500   101.3953     7.9829     2.4750     0.0991     0.0645   -49.4470     7.0637     6.8712
  666.5000  -999.2500   107.1240     7.9705     2.4728     0.1000     0.0640   -49.4424     7.0665     6.8740
  667.0000  -999.2500   108.1229     7.9962     2.4722     0.1027     0.0635   -49.4378     7.0694     6.8767
  667.5000  -999.2500   103.6815     8.0122     2.4678     0.1051     0.0630   -49.4331     7.0723     6.8795
  668.0000  -999.2500   103.6674     7.9640     2.4629     0.1070     0.0619   -49.4285     7.0752     6.8823
  668.5000  -999.2500   107.3972     7.9162     2.4631     0.1056     0.0576   -49.4238     7.0780     6.8851
  669.0000  -999.2500   110.1799     7.8776     2.4582     0.1078     0.0533   -49.4192     7.0809     6.8879
  669.5000  -999.2500   112.1353     7.8843     2.4556     0.1152     0.0491   -49.4145     7.0838     6.8907
  670.0000  -999.2500   114.1017     7.8984     2.4549     0.1153     0.0448   -49.4098     7.0866     6.8935
  670.5000  -999.2500   115.1746     7.9124     2.4597     0.1116     0.0432   -49.4052     7.0895     6.8963
  671.0000  -999.2500   118.5472     7.9264     2.4652     0.1066     0.0446   -49.4011     7.0924     6.8991
  671.5000  -999.2500   119.3106     7.9404     2.4665     0.1024     0.0460   -49.4012     7.0958     6.9029
  672.0000  -999.2500   118.9900     7.9544     2.4552     0.1075     0.0474   -49.4012     7.0856     6.8924
  672.5000  -999.2500   119.7805     7.9684     2.4470     0.1169     0.0476   -49.4012     7.0693     6.8767
  673.0000  -999.2500   117.2557     7.9825     2.4448     0.1208     0.0410   -49.4012     7.0532     6.8609
  673.5000  -999.2500   114.0733     7.9965     2.4448     0.1197     0.0386   -49.4012     7.0370     6.8452
  674.0000  -999.2500   113.2620     8.0099     2.4460     0.1183     0.0385   -49.4012     7.0209     6.8295
  674.5000  -999.2500   112.9049     7.9974     2.4473     0.1169     0.0385   -49.4012     7.0048     6.8139
  675.0000  -999.2500   112.5593     7.9603     2.4469     0.1156     0.0385   -49.4012     6.9887     6.7983
  675.5000  -999.2500   112.1237     7.9935     2.4449     0.1185     0.0385   -49.4012     6.9668     6.7773
  676.0000  -999.2500   107.3804     7.9527     2.4444     0.1208     0.0385   -49.4012     7.0168     6.7906
  676.5000  -999.2500   104.9457     7.8233     2.4452     0.1192     0.0385   -49.4012     7.0970     6.8128
  677.0000  -999.2500   105.3986     7.8669     2.4460     0.1176     0.0385   -49.4012     7.1781     6.8350
  677.5000  -999.2500   108.7063     7.8976     2.4444     0.1170     0.0385   -49.4012     7.2601     6.8572
  678.0000  -999.2500   112.0779     7.8540     2.4432     0.1167     0.0385   -49.4012     7.3430     6.8797
  678.5000  -999.2500   112.0160     7.8254     2.4491     0.1164     0.0386   -49.4012     7.4307     6.9028
  679.0000  -999.2500   108.0545     7.8049     2.4551     0.1156     0.0391   -49.4012     7.3976     6.8917
  679.5000  -999.2500   105.6215     7.7845     2.4611     0.1147     0.0404   -49.4012     7.3542     6.8800
  680.0000  -999.2500   105.4550     7.7635     2.4670     0.1111     0.0416   -49.4012     7.3110     6.8684
  680.5000  -999.2500   105.5149     7.7589     2.4723     0.1064     0.0429   -49.4012     7.2682     6.8567
  681.0000  -999.2500   105.6177     7.7586     2.4735     0.1048     0.0441   -49.4012     7.2282     6.8451
  681.5000  -999.2500   104.2915     7.7602     2.4747     0.1058     0.0454   -49.4012     7.2033     6.8335
  682.0000  -999.2500   102.6486     7.7989     2.4812     0.0969     0.0466   -49.4012     7.1800     6.8219
  682.5000  -999.2500   101.1868     7.8388     2.4861     0.0908     0.0478   -49.4012     7.1567     6.8104
  683.0000  -999.2500   100.2676     7.8784     2.4630     0.1063     0.0442   -49.4012     7.1335     6.7988
  683.5000  -999.2500    99.6469     7.8918     2.4635     0.1091     0.0349   -49.4012     7.1104     6.7873
  684.0000  -999.2500    99.6729     7.8683     2.4642     0.1075     0.0398   -49.4012     7.0873     6.7758
  684.5000  -999.2500   101.7884     7.8451     2.4649     0.1051     0.0473   -49.4012     7.0644     6.7643
  685.0000  -999.2500   104.7863     7.8217     2.4650     0.1044     0.0495   -49.4012     7.0415     6.7529
  685.5000  -999.2500   106.1302     7.7994     2.4644     0.1051     0.0478   -49.4012     7.0187     6.7414
  686.0000  -999.2500   105.6026     7.7989     2.4637     0.1059     0.0461   -49.4012     6.9959     6.7300
  686.5000  -999.2500   106.2083     7.8112     2.4630     0.1060     0.0443   -49.4012     6.9732     6.7186
  687.0000  -999.2500   108.0467     7.8397     2.4625     0.1060     0.0426   -49.4012     6.9507     6.7072
  687.5000  -999.2500   108.9905     7.8682     2.4618     0.1060     0.0408   -49.4012     6.9281     6.6958
  688.0000  -999.2500   106.9471     7.8974     2.4577     0.1064     0.0391   -49.4012     6.9057     6.6845
  688.5000  -999.2500   102.8767     7.8837     2.4541     0.1094     0.0373   -49.4012     6.8833     6.6731
  689.0000  -999.2500   100.6895     7.8630     2.4540     0.1124     0.0373   -49.4012     6.8610     6.6620
  689.5000  -999.2500   102.0396     7.8413     2.4581     0.1154     0.0386   -49.4012     6.8396     6.6534
  690.0000  -999.2500   105.3262     7.8845     2.4625     0.1113     0.0400   -49.4012     6.8968     6.7179
  690.5000  -999.2500   107.2559     7.9355     2.4654     0.1069     0.0413   -49.4012     6.9525     6.7707
  691.0000  -999.2500   107.4633     7.8979     2.4663     0.1071     0.0425   -49.4012     7.0086     6.8241
  691.5000  -999.2500   109.2822     7.8573     2.4668     0.1055     0.0415   -49.4012     7.0651     6.8778
  692.0000  -999.2500   109.7070     7.8181     2.4633     0.1036     0.0405   -49.4012     7.1221     6.9320
  692.5000  -999.2500   108.8195     7.8560     2.4596     0.1068     0.0395   -49.4012     7.1796     6.9866
  693.0000  -999.2500   108.4623     7.8968     2.4555     0.1101     0.0385   -49.4012     7.2375     7.0416
