~VERSION INFORMATION
 VERS.                2.0:   CWLS LOG ASCII STANDARD - VERSION 2.0
 WRAP.                 NO:   ONE LINE PER DEPTH STEP
~WELL INFORMATION
#MNEM.UNIT      DATA TYPE    INFORMATION
#----------   ------------   ------------------------------
 STRT.F           34.0000:   START DEPTH
 STOP.F          576.0000:   STOP DEPTH
 STEP.F            0.5000:   STEP LENGTH
 NULL.          -999.2500:   NO VALUE
 COMP. FENIX & SCISSON INC:   COMPANY
 WELL.   NPR-3 #22 SX 3-3:   WELL
 FLD .             TEAPOT:   FIELD
 LOC .       S3 T38N R78W:   LOCATION
 CNTY.            NATRONA:   COUNTY
 STAT.            WYOMING:   STATE
 CTRY. UNITED STATES OF AMERICA:   COUNTRY
 SRVC.            Unknown:   SERVICE COMPANY
 DATE.        17-JUL-1978:   LOGDATE
 API .       490251066700:   API NUMBER
~CURVE INFORMATION
#MNEM.UNIT       API CODE    CURVE DESCRIPTION
#----------   ------------   ------------------------------
 DEPT.F                  :   
 SN  .OHMM   05 040 16 00:   SHORT NORMAL 16"
 ILD .OHMM   05 120 46 00:   INDUCTION LOG DEEP
 SPR .MV     05 010 01 00:   SPONTANEOUS POTENTIAL FROM RES.
 CALD.IN     45 280 60 00:   CALIPER FROM DENSITY LOG
 GRD .GAPI   45 310 01 00:   GAMMA RAY FROM DENSITY LOG
 CORR.G/C3   45 356 01 00:   DENSITY CORRECTION
 DPHI.DEC    45 890 12 00:   DENSITY POROSITY SANDSTONE
 DEN .G/C3   45 350 01 00:   COMPENSATED BULK DENSITY
~PARAMETER INFORMATION
#MNEM.UNIT          VALUE    DESCRIPTION
#----------   ------------   ------------------------------
 PD  .                 GL:   PERMANENT DATUM
 EPD .F              5193:   ELEVATION PERMANENT DATUM
 LMF .                 KB:   LOG MEASURED FROM
 DAPD.F                 4:   FEET ABOVE PERMANENT DATUM
 DMF .                 KB:   DRILLING MEASURED FROM
 EKB .F              5197:   KELLING BUSHING
 EGL .F              5193:   GROUND LEVEL
 DATE.        17-JUL-1978:   RUN DATE
 RUN .                  1:   RUN NUMBER
 DD  .F               570:   DEPTH DRILLER
 DL  .F               576:   DEPTH LOGGER
 BLI .F               576:   BOTTOM LOG INTERVAL
 CS  .IN            8.625:   CASING SIZE
 CBD .F                30:   CASING BOTTOM DRILLER
 BS  .IN            7.875:   BIT SIZE
 BSD .F               570:   BIT SIZE AT DEPTH
 DFT .            MUD KCL:   DRILLING FLUID TYPE
 DFD .                8.6:   DRILLING FLUID DENSITY
 DFV .                 32:   DRILLING FLUID VISCOSITY
 DFL .                 15:   DRILLING FLUID LOSS
 MSS .           FLOWLINE:   MUD SAMPLE SOURCE
 RMS .OHMM            .18:   RESISTIVITY MUD SAMPLE
 MST .F                86:   MUD SAMPLE TEMPERATURE
 RMF .OHMM            .17:   RESISTIVITY MUD FILTRATE SAMPLE
 MFST.F                94:   MUD FILTRATE SAMPLE TEMPERATURE
 RMC .OHMM            .34:   RESISTIVITY MUD CAKE
 MCST.F                94:   MUD CAKE SAMPLE TEMPERATURE
 MFSS.               MEAS:   MUD FILTRATE SAMPLE SOURCE
 TCS .HRS            0300:   TIME CURCULATED STOPPED
 LUN .               2958:   LOGGING UNIT NUMBER
 LUL .               CASP:   LOGGING UNIT LOCATION
 ENGI.             MILLER:   RECORDING ENGINEER
 WITN.           MCGINLEY:   WITNESSED BY
 CLNT.            A2DTECH:   CLIENT CODE
 ORIG.           5" PRINT:   ORIGIN OF DATA
 UWI .       490251066700:   UNIQUE WELL ID
 DICO. A2D Technologies, Inc.:   DIGITIZING COMPANY
~OTHER INFORMATION
~A   DEPT       SN        ILD        SPR       CALD         GRD      CORR       DPHI        DEN   
# ...
  439.0000    16.2084    25.6774   -37.2319     7.7536    54.6518     0.0095     0.2334     2.2751
  439.5000    16.2160    25.8577   -36.7708     7.7246    54.4999     0.0124     0.2250     2.2996
  440.0000    16.3357    25.3462   -36.4583     7.6667    53.9035     0.0124     0.2298     2.3033
  440.5000    16.3436    25.0131   -36.2918     7.6347    53.1798     0.0123     0.2289     2.2929
  441.0000    16.2389    24.6810   -35.9797     7.5072    52.5931     0.0078     0.2202     2.2981
  441.5000    16.2484    25.0399   -35.8163     7.3768    52.2962     0.0003     0.2129     2.3154
  442.0000    16.2561    25.5761   -35.6530     7.8986    52.1443    -0.0102     0.2153     2.3294
  442.5000    16.2637    25.9446   -35.4896     6.8551    51.8475    -0.0043     0.2432     2.3056
  443.0000    16.2714    25.9585   -35.4751     7.2464    51.5506     0.0063     0.2474     2.2743
  443.5000    16.2790    25.9725   -35.3117     7.2140    51.3985     0.0179     0.2453     2.2662
  444.0000    16.2867    25.8082   -35.2972     7.1304    51.2450     0.0253     0.2426     2.2729
  444.5000    16.2943    25.1241   -35.2826     7.7536    51.0931     0.0327     0.2420     2.2758
  445.0000    16.1902    24.4549   -35.1190     7.8116    51.2328     0.0356     0.2194     2.2782
  445.5000    16.1980    24.1302   -35.1042     7.9565    51.3708     0.0356     0.2129     2.3175
  446.0000    16.2073    23.9775   -35.0866     8.0725    51.6536     0.0325     0.2095     2.3331
  446.5000    16.2149    24.1594   -35.0720     8.0580    52.6594     0.0414     0.2073     2.3338
  447.0000    16.2225    24.1723   -35.0575     8.0580    53.8638     0.0428     0.2070     2.3361
  447.5000    16.1169    24.1853   -34.8978     8.0580    55.5439     0.0413     0.1998     2.3494
  448.0000    16.1264    23.2192   -35.0320     8.0580    52.6367     0.0293     0.1871     2.3643
  448.5000    16.1340    22.7569   -34.8651     8.0580    51.6152     0.0128     0.2037     2.3524
  449.0000    16.0308    22.6129   -34.8505     8.0290    52.4777     0.0038     0.2395     2.3190
  449.5000    15.8189    22.6281   -34.6872     8.0000    57.1084     0.0053     0.2423     2.2781
  450.0000    15.5030    22.4669   -34.3750     7.9690    61.0145     0.0072     0.2389     2.2729
  450.5000    15.4305    22.2829   -34.3601     7.9571    59.9725     0.0127     0.2367     2.2773
  451.0000    15.3100    22.3624   -34.1947     7.9721    58.0106     0.0126     0.2344     2.2744
  451.5000    15.3195    22.3774   -34.0314     8.0018    53.6555     0.0126     0.2321     2.2803
  452.0000    15.1191    22.2351   -33.8681     8.0024    52.0712     0.0126     0.2305     2.2922
  452.5000    15.1305    22.2537   -34.0030     8.0030    52.6608     0.0126     0.2311     2.2945
  453.0000    15.0335    22.1159   -33.9879     8.0035    54.5548     0.0126     0.2233     2.2937
  453.5000    14.8391    21.9753   -33.9732     8.0041    57.3184     0.0126     0.2174     2.2961
  454.0000    14.4448    21.3964   -33.8095     8.0047    58.3428     0.0125     0.2113     2.3069
  454.5000    13.9645    20.8290   -33.6431     7.9906    57.1933     0.0125     0.2105     2.3220
  455.0000    13.8767    20.2726   -33.6285     7.9768    56.1887     0.0110     0.2132     2.3272
  455.5000    13.7900    19.7397   -33.6140     7.9774    54.7494     0.0110     0.2159     2.3213
  456.0000    13.7986    19.4828   -34.0459     7.9786    53.7391     0.0110     0.2177     2.3153
  456.5000    13.7120    19.4992   -34.1838     7.9930    53.3200     0.0110     0.2180     2.3124
  457.0000    13.6262    19.3752   -34.3181     7.9937    53.3324     0.0110     0.2150     2.3146
  457.5000    13.5408    19.3914   -34.4494     8.0088    53.3423     0.0110     0.2105     2.3183
  458.0000    13.4560    19.5385   -34.5831     8.0239    52.7725     0.0109     0.2141     2.3280
  458.5000    13.3718    19.5516   -34.4196     8.0679    52.0578     0.0109     0.2174     2.3211
  459.0000    13.3818    19.4301   -34.4048     8.0830    51.9203     0.0109     0.2162     2.3176
  459.5000    13.2066    19.4436   -34.3871     8.0835    51.7854     0.0109     0.2144     2.3213
  460.0000    13.2148    19.3231   -34.5250     8.0695    52.2325     0.0109     0.2177     2.3228
  460.5000    13.2230    19.3367   -34.6593     8.0412    54.5613     0.0109     0.2210     2.3199
  461.0000    13.1399    19.0877   -34.9424     8.0273    56.8901     0.0108     0.2221     2.3124
  461.5000    13.1498    18.7070   -35.0767     8.0278    57.0449     0.0108     0.2242     2.3020
  462.0000    13.0655    18.5911   -34.9097     8.0284    56.9099     0.0108     0.2251     2.2998
  462.5000    12.9837    18.4760   -33.8536     8.0290    56.9203     0.0093     0.2189     2.3028
  463.0000    12.9935    18.6192   -33.8390     8.0297    57.0772     0.0078     0.2114     2.3095
  463.5000    13.0013    18.5039   -33.8244     8.0302    57.5219     0.0063     0.2103     2.3157
  464.0000    13.0091    18.3890   -33.9588     8.0308    58.6913     0.0063     0.2126     2.3311
  464.5000    12.9277    18.2754   -34.5359     8.0314    59.8606     0.0063     0.2153     2.3274
  465.0000    12.9358    17.8897   -34.3726     8.0319    61.6097     0.0063     0.2139     2.3222
  465.5000    12.8544    17.3223   -33.9116     8.0470    63.0689     0.0062     0.2070     2.3184
  466.0000    12.6882    17.2122   -33.7483     8.0476    63.2238     0.0062     0.2070     2.3296
  466.5000    12.5223    16.9911   -34.0314     8.0481    62.9438     0.0062     0.2007     2.3385
  467.0000    12.2737    16.7672   -34.4669     8.0487    62.8087     0.0062     0.1954     2.3333
  467.5000    12.1950    16.3255   -34.8952     8.0493    62.6738     0.0062     0.1903     2.3386
  468.0000    12.1205    16.1104   -35.4759     8.0498    62.9913     0.0062     0.1865     2.3572
  468.5000    12.0446    15.6855   -35.9127     8.0505    64.0005     0.0062     0.1841     2.3639
  469.0000    11.9611    15.0614   -36.3398     8.0511    65.4597     0.0061     0.1820     2.3683
  469.5000    11.4935    14.4559   -36.7717     8.0370    66.9189     0.0061     0.1817     2.3772
  470.0000    11.2654    13.8735   -36.7535     8.0378    66.7814     0.0061     0.1811     2.3750
  470.5000    11.1164    13.4274   -36.8878     8.0383    66.0692     0.0061     0.1805     2.3691
  471.0000    11.0468    13.1618   -37.3197     8.0389    65.4994     0.0061     0.1796     2.3788
  471.5000    10.9792    12.9883   -37.4577     8.0395    65.5094     0.0061     0.1788     2.3780
  472.0000    10.9105    12.7335   -37.8859     8.0400    65.6642     0.0046     0.1782     2.3698
  472.5000    10.8422    12.6526   -37.8714     8.0406    64.6597     0.0045     0.1782     2.3713
  473.0000    10.7743    12.4900   -37.8569     8.0412    63.3652     0.0015     0.1790     2.3832
  473.5000    10.7068    12.3275   -37.5397     8.0417    62.3396     0.0000     0.1788     2.3833
  474.0000    10.4959    12.3358   -37.0635     8.0423    60.4695     0.0047     0.1773     2.3825
  474.5000    10.4286    12.2542   -37.8097     8.0430    64.8468     0.0194     0.1692     2.3952
  475.0000    10.3633    12.1835   -38.3904     8.0581    64.7093     0.0224     0.1532     2.4048
  475.5000    10.2293    12.1080   -38.9748     8.0586    64.4319     0.0208     0.1483     2.4227
  476.0000    10.2354    12.0330   -39.1091     8.0737    64.0070     0.0313     0.1422     2.4294
  476.5000    10.2416    12.0431   -38.7933     8.0743    63.2923     0.0342     0.1366     2.4391
  477.0000    10.1774    12.0512   -38.4812     8.0893    61.9979     0.0297     0.1354     2.4465
  477.5000    10.1836    12.0593   -38.3178     8.0899    60.5586     0.0238     0.1360     2.4554
  478.0000    10.1198    12.0674   -38.6012     8.0759    57.2351     0.0178     0.1371     2.4569
  478.5000    10.1274    12.0755   -39.0329     8.0765    55.6507     0.0118     0.1410     2.4458
  479.0000    10.1335    12.0007   -39.3160     8.0771    57.8504     0.0103     0.1520     2.4488
