~VERSION INFORMATION
 VERS.                2.0:   CWLS LOG ASCII STANDARD - VERSION 2.0
 WRAP.                 NO:   ONE LINE PER DEPTH STEP
~WELL INFORMATION
#MNEM.UNIT      DATA TYPE    INFORMATION
#----------   ------------   ------------------------------
 STRT.F           95.0000:   START DEPTH
 STOP.F          922.0000:   STOP DEPTH
 STEP.F            0.5000:   STEP LENGTH
 NULL.          -999.2500:   NO VALUE
 COMP.          U.S. NAVY:   COMPANY
 WELL. RES 3 TEAPOT DOM #57S-11:   WELL
 FLD .             TEAPOT:   FIELD
 LOC .      S11 T38N R78W:   LOCATION
 CNTY.            NATRONA:   COUNTY
 STAT.            WYOMING:   STATE
 CTRY. UNITED STATES OF AMERICA:   COUNTRY
 SRVC.       Schlumberger:   SERVICE COMPANY
 DATE.        02-AUG-1961:   LOGDATE
 API .       490250632800:   API NUMBER
~CURVE INFORMATION
#MNEM.UNIT       API CODE    CURVE DESCRIPTION
#----------   ------------   ------------------------------
 DEPT.F                  :   
 GR  .GAPI   30 310 01 00:   GAMMA RAY
 SPR .MV     05 010 01 00:   SPONTANEOUS POTENTIAL FROM RES.
 CILD.MMHO   05 110 46 00:   CONDUCTIVITY INDUCTION LOG DEEP
 ASN .OHMM   05 041 16 00:   AMPLIFIED SHORT NORMAL 16"
 ILD .OHMM   05 120 46 00:   INDUCTION LOG DEEP
~PARAMETER INFORMATION
#MNEM.UNIT          VALUE    DESCRIPTION
#----------   ------------   ------------------------------
 PD  .                 GL:   PERMANENT DATUM
 EPD .F              5213:   ELEVATION PERMANENT DATUM
 LMF .                 KB:   LOG MEASURED FROM
 DAPD.F                 6:   FEET ABOVE PERMANENT DATUM
 DMF .                 KB:   DRILLING MEASURED FROM
 EKB .F              5219:   KELLING BUSHING
 EGL .F              5213:   GROUND LEVEL
 DATE.             8-2-61:   RUN DATE
 RUN .                  1:   RUN NUMBER
 DD  .F               920:   DEPTH DRILLER
 DL  .F               921:   DEPTH LOGGER
 BLI .F               920:   BOTTOM LOG INTERVAL
 TLI .F               100:   TOP LOG INTERVAL
 BS  .IN             6.75:   BIT SIZE
 BSD .F               920:   BIT SIZE AT DEPTH
 DFT .       OIL EMULSION:   DRILLING FLUID TYPE
 DFD .                9.2:   DRILLING FLUID DENSITY
 DFV .                 55:   DRILLING FLUID VISCOSITY
 MFSS.                  M:   MUD FILTRATE SAMPLE SOURCE
 MCSS.                  M:   MUD CAKE SAMPLE SOURCE
 RMB .OHMM            .75:   RESISTIVITY MUD AT BHT
 BHT .F                80:   BOTTOM HOLE TEMPERATURE
 TCS .HRS               1:   TIME CURCULATED STOPPED
 MRT .F                80:   MAXIMUM RECORDED TEMPERATURE
 LUN .               2552:   LOGGING UNIT NUMBER
 LUL .                RIV:   LOGGING UNIT LOCATION
 ENGI.             RANDLE:   RECORDING ENGINEER
 WITN.          VORGENSEN:   WITNESSED BY
 CLNT.            A2DTECH:   CLIENT CODE
 ORIG.       2", 5" PRINT:   ORIGIN OF DATA
 UWI .       490250632800:   UNIQUE WELL ID
 DICO. A2D Technologies, Inc.:   DIGITIZING COMPANY
~OTHER INFORMATION
~A   DEPT       GR        SPR       CILD        ASN        ILD   
# ...
  461.0000  -999.2500   -48.6681   153.3066     7.7758     6.3017
  461.5000  -999.2500   -48.6002   153.8076     7.7562     6.2614
  462.0000  -999.2500   -48.5350   153.8076     7.7462     6.2535
  462.5000  -999.2500   -48.4654   153.8076     7.7433     6.3380
  463.0000  -999.2500   -48.4048   151.8036     7.7594     6.4584
  463.5000  -999.2500   -48.3899   148.5664     7.8472     6.5935
  464.0000  -999.2500   -48.4454   144.2500     7.9615     6.6560
  464.5000  -999.2500   -48.5687   139.9652     8.0549     6.8200
  465.0000  -999.2500   -48.6892   135.5749     8.2528     7.1146
  465.5000  -999.2500   -48.8059   131.2030     8.4285     7.3463
  466.0000  -999.2500   -48.9371   126.8677     8.6281     7.6348
  466.5000  -999.2500   -49.0042   123.6500     8.7782     7.6787
  467.0000  -999.2500   -48.9982   123.6961     8.8839     7.7636
  467.5000  -999.2500   -48.9977   123.7407     8.9273     7.7358
  468.0000  -999.2500   -49.0057   127.9992     8.8016     7.4824
  468.5000  -999.2500   -48.9281   131.3565     8.6463     7.2453
  469.0000  -999.2500   -48.7359   134.7382     8.4140     7.0143
  469.5000  -999.2500   -48.5550   138.1200     8.1961     6.8861
  470.0000  -999.2500   -48.3682   141.5018     7.9498     6.6292
  470.5000  -999.2500   -48.1833   144.8835     7.7825     6.5271
  471.0000  -999.2500   -47.9996   148.2653     7.7401     6.3993
  471.5000  -999.2500   -47.8095   150.8016     7.6698     6.2826
  472.0000  -999.2500   -47.8333   151.8036     7.6625     6.2443
  472.5000  -999.2500   -47.9560   153.8076     7.6947     6.1878
  473.0000  -999.2500   -48.0669   153.3066     7.7685     6.2953
  473.5000  -999.2500   -48.1823   150.3006     7.8542     6.4088
  474.0000  -999.2500   -48.2990   147.7956     7.9657     6.5156
  474.5000  -999.2500   -48.4081   144.7896     8.0764     6.6285
  475.0000  -999.2500   -48.5373   142.3848     8.1628     6.7427
  475.5000  -999.2500   -48.5839   139.9800     8.2259     6.8181
  476.0000  -999.2500   -48.5162   137.4816     8.2968     6.9054
  476.5000  -999.2500   -48.4649   135.1757     8.3606     6.9833
  477.0000  -999.2500   -48.3935   133.6821     8.4278     7.0648
  477.5000  -999.2500   -48.2278   132.1625     8.4938     7.1443
  478.0000  -999.2500   -48.0216   130.9543     8.5593     7.2250
  478.5000  -999.2500   -47.8212   129.7446     8.6270     7.3048
  479.0000  -999.2500   -47.8270   128.5237     8.6904     7.3859
  479.5000  -999.2500   -47.8807   127.2897     8.7645     7.4650
  480.0000  -999.2500   -47.9194   125.7515     8.8169     7.5555
  480.5000  -999.2500   -47.9711   125.7515     8.8386     7.5670
  481.0000  -999.2500   -47.9967   126.9278     8.8733     7.5684
  481.5000  -999.2500   -47.9715   128.4961     8.8883     7.5515
  482.0000  -999.2500   -47.9437   130.0645     8.8903     7.4415
  482.5000  -999.2500   -47.9148   131.6328     8.8503     7.3347
  483.0000  -999.2500   -47.8865   133.2012     8.6889     7.2352
  483.5000  -999.2500   -47.8577   134.7695     8.5480     7.0668
  484.0000  -999.2500   -47.8292   136.3440     8.4038     6.8858
  484.5000  -999.2500   -47.7983   137.9225     8.2486     6.8537
  485.0000  -999.2500   -47.7780   139.5041     8.2030     6.7991
  485.5000  -999.2500   -47.7572   141.0884     8.1773     6.7549
  486.0000  -999.2500   -47.7361   142.6699     8.1440     6.6882
  486.5000  -999.2500   -47.7151   143.8514     8.1217     6.7109
  487.0000  -999.2500   -47.6942   143.8458     8.1089     6.7474
  487.5000  -999.2500   -47.6730   143.3319     8.1031     6.6819
  488.0000  -999.2500   -47.6525   142.6186     8.1169     6.6697
  488.5000  -999.2500   -47.6307   141.9506     8.1326     6.7186
  489.0000  -999.2500   -47.6110   141.2826     8.1884     6.7631
  489.5000  -999.2500   -47.5677   140.6146     8.2563     6.8085
  490.0000  -999.2500   -47.4838   139.9466     8.3246     6.8558
  490.5000  -999.2500   -47.3973   139.2786     8.3744     6.8805
  491.0000  -999.2500   -47.3130   138.6105     8.3930     6.9061
  491.5000  -999.2500   -47.2241   137.7852     8.4185     6.9298
  492.0000  -999.2500   -47.1441   138.2799     8.4395     6.9541
  492.5000  -999.2500   -47.0440   136.7690     8.4627     6.9780
  493.0000  -999.2500   -47.0067   136.2638     8.4851     7.0019
  493.5000  -999.2500   -47.0771   135.8641     8.5071     7.0259
  494.0000  -999.2500   -47.1361   135.4668     8.5314     7.0496
  494.5000  -999.2500   -47.2017   135.0722     8.5553     7.0740
  495.0000  -999.2500   -47.2637   134.6823     8.6263     7.0969
  495.5000  -999.2500   -47.3276   134.2982     8.6793     7.1229
  496.0000  -999.2500   -47.3902   133.8156     8.7406     7.1434
  496.5000  -999.2500   -47.4544   131.8245     8.8026     7.1889
  497.0000  -999.2500   -47.5161   130.5229     8.8625     7.3630
  497.5000  -999.2500   -47.5898   128.7738     8.9235     7.5275
  498.0000  -999.2500   -47.6301   127.0145     8.9931     7.6805
  498.5000  -999.2500   -47.6908   125.2506     9.1192     7.8616
  499.0000  -999.2500   -47.7195   123.4874     9.2645     7.9856
  499.5000  -999.2500   -47.8419   121.7769     9.4567     8.0531
  500.0000  -999.2500   -47.9865   120.0401     9.6424     8.0710
  500.5000  -999.2500   -47.8736   118.7375     9.6762     8.0645
  501.0000  -999.2500   -47.7921   118.7375     9.6579     8.0676
  501.5000  -999.2500   -47.6936   118.7375     9.6416     8.0652
  502.0000  -999.2500   -47.6032   118.7375     9.6315     8.0668
  502.5000  -999.2500   -47.5107   118.7375     9.6038     8.0641
  503.0000  -999.2500   -47.4059   119.7395     9.6532     8.0676
  503.5000  -999.2500   -47.3998   118.7375     9.7473     8.0598
  504.0000  -999.2500   -47.4728   116.8170     9.9792     8.0913
  504.5000  -999.2500   -47.5311   115.2806    10.3148     8.2964
  505.0000  -999.2500   -47.5967   113.7441    10.4109     8.4795
  505.5000  -999.2500   -47.6530   112.2077    10.5529     8.6650
  506.0000  -999.2500   -47.7243   110.6713    10.6648     8.8490
  506.5000  -999.2500   -47.7742   109.1349    10.7936     9.0338
  507.0000  -999.2500   -47.8469   107.5985    10.9121     9.2185
  507.5000  -999.2500   -48.0152   106.0621    11.0384     9.4031
  508.0000  -999.2500   -48.0554   104.5257    11.1552     9.5881
  508.5000  -999.2500   -48.1095   102.9893    11.2919     9.7718
  509.0000  -999.2500   -48.1666   101.4529    11.3936     9.9580
  509.5000  -999.2500   -48.1856    99.9165    11.4847    10.1400
  510.0000  -999.2500   -48.0582    98.3801    11.5792    10.3476
  510.5000  -999.2500   -47.9523    96.8437    11.6705    10.3691
  511.0000  -999.2500   -47.8407    95.6914    11.7585    10.2981
  511.5000  -999.2500   -47.7319    95.6914    11.8681    10.2438
  512.0000  -999.2500   -47.6120    96.1788    11.8211    10.1804
  512.5000  -999.2500   -47.5757    96.8288    11.7167    10.1604
  513.0000  -999.2500   -47.5511    97.4787    11.6355    10.0873
  513.5000  -999.2500   -47.5256    98.1287    11.5442    10.0206
  514.0000  -999.2500   -47.5000    98.7786    11.4581     9.9526
  514.5000  -999.2500   -47.4764    99.4286    11.3696     9.8877
  515.0000  -999.2500   -47.4484   100.0785    11.2814     9.8147
  515.5000  -999.2500   -47.4290   100.7285    11.1865     9.7550
  516.0000  -999.2500   -47.3905   101.3784    11.1480     9.6826
  516.5000  -999.2500   -47.4782   102.0284    11.1135     9.6430
  517.0000  -999.2500   -47.6368   102.6783    11.0802     9.6054
  517.5000  -999.2500   -47.7545   103.3283    11.0470     9.5690
  518.0000  -999.2500   -47.9135   103.9782    11.0131     9.5326
  518.5000  -999.2500   -48.0026   104.6282    10.9775     9.4962
  519.0000  -999.2500   -47.9978   105.2781    10.9601     9.4598
  519.5000  -999.2500   -47.9781   105.9281    10.9424     9.4234
  520.0000  -999.2500   -47.8128   106.5780    10.9260     9.3869
  520.5000  -999.2500   -47.6696   107.2280    10.9092     9.3505
  521.0000  -999.2500   -47.5215   107.7154    10.8926     9.3138
  521.5000  -999.2500   -47.3767   108.2164    10.8760     9.2781
