~VERSION INFORMATION
 VERS.                2.0:   CWLS LOG ASCII STANDARD - VERSION 2.0
 WRAP.                 NO:   ONE LINE PER DEPTH STEP
~WELL INFORMATION
#MNEM.UNIT      DATA TYPE    INFORMATION
#----------   ------------   ------------------------------
 STRT.F           27.0000:   START DEPTH
 STOP.F          760.0000:   STOP DEPTH
 STEP.F            0.5000:   STEP LENGTH
 NULL.          -999.2500:   NO VALUE
 COMP. FENIX & SCISSON INC:   COMPANY
 WELL.    NPR #3 #33-S-14:   WELL
 FLD .             TEAPOT:   FIELD
 LOC .      S14 T38N R78W:   LOCATION
 CNTY.            NATRONA:   COUNTY
 STAT.            WYOMING:   STATE
 CTRY. UNITED STATES OF AMERICA:   COUNTRY
 SRVC.              Welex:   SERVICE COMPANY
 DATE.        02-FEB-1977:   LOGDATE
 API .       490251027700:   API NUMBER
~CURVE INFORMATION
#MNEM.UNIT       API CODE    CURVE DESCRIPTION
#----------   ------------   ------------------------------
 DEPT.F                  :   
 SPR .MV     07 010 01 00:   SPONTANEOUS POTENTIAL
 SGRD.OHMM   07 220 05 00:   SHALLOW RESISTIVITY
 ILD .OHMM   07 120 46 00:   INDUCTION LOG DEEP
 ILM .OHMM   07 120 44 00:   INDUCTION LOG MEDIUM
 GRD .GAPI   45 310 01 00:   GAMMA RAY FROM DENSITY LOG
 CALD.IN     45 280 60 00:   CALIPER
 RHOB.G/C3   45 350 01 00:   BULK DENSITY
 CORR.G/C3   45 356 01 00:   DENSITY CORRECTION
 DPHI.DEC    45 890 00 00:   DENSITY POROSITY
~PARAMETER INFORMATION
#MNEM.UNIT          VALUE    DESCRIPTION
#----------   ------------   ------------------------------
 PD  .                 GL:   PERMANENT DATUM
 EPD .F              5219:   ELEVATION PERMANENT DATUM
 LMF .                 GL:   LOG MEASURED FROM
 DMF .                 GL:   DRILLING MEASURED FROM
 EKB .F              5224:   KELLING BUSHING
 EGL .F              5219:   GROUND LEVEL
 DATE.           2-2-1977:   RUN DATE
 RUN .                  1:   RUN NUMBER
 DD  .F               761:   DEPTH DRILLER
 DL  .F               762:   DEPTH LOGGER
 BLI .F               760:   BOTTOM LOG INTERVAL
 TLI .F                25:   TOP LOG INTERVAL
 CS  .IN            8.625:   CASING SIZE
 CBD .F              42.5:   CASING BOTTOM DRILLER
 CBL .F                46:   CASING BOTTOM LOGGER
 BS  .IN            7.875:   BIT SIZE
 BSD .F               761:   BIT SIZE AT DEPTH
 DFT .           CHEM-GEL:   DRILLING FLUID TYPE
 DFD .                8.9:   DRILLING FLUID DENSITY
 DFV .                 37:   DRILLING FLUID VISCOSITY
 DFPH.                  7:   DRILLING FLUID PH
 DFL .                8.4:   DRILLING FLUID LOSS
 MSS .          FLOW LINE:   MUD SAMPLE SOURCE
 RMS .OHMM           .231:   RESISTIVITY MUD SAMPLE
 MST .F                45:   MUD SAMPLE TEMPERATURE
 RMF .OHMM           .322:   RESISTIVITY MUD FILTRATE SAMPLE
 MFST.F                45:   MUD FILTRATE SAMPLE TEMPERATURE
 RMC .OHMM           .439:   RESISTIVITY MUD CAKE
 MCST.F                45:   MUD CAKE SAMPLE TEMPERATURE
 MFSS.           MEASURED:   MUD FILTRATE SAMPLE SOURCE
 MCSS.           MEASURED:   MUD CAKE SAMPLE SOURCE
 RMB .OHMM           .182:   RESISTIVITY MUD AT BHT
 BHT .F                57:   BOTTOM HOLE TEMPERATURE
 TCS .HRS             5.5:   TIME CURCULATED STOPPED
 MRT .F                57:   MAXIMUM RECORDED TEMPERATURE
 LUN .               8611:   LOGGING UNIT NUMBER
 LUL .           GILLETTE:   LOGGING UNIT LOCATION
 ENGI.             LAWSON:   RECORDING ENGINEER
 WITN. VOORHEES/RHOADES/JAPP/PETTINGILL/STUEBINGER:   WITNESSED BY
 CLNT.            A2DTECH:   CLIENT CODE
 ORIG.     1", 2.5" PRINT:   ORIGIN OF DATA
 UWI .       490251027700:   UNIQUE WELL ID
 DICO. A2D Technologies, Inc.:   DIGITIZING COMPANY
~OTHER INFORMATION
~A   DEPT      SPR       SGRD        ILD        ILM        GRD       CALD         RHOB      CORR      DPHI   
# ...
  209.5000   -16.9257    15.8939    11.9546    12.5177    98.6452     8.6883     2.4046     0.0586     0.1435
  210.0000   -16.5586    14.1950    11.9759    12.4763   100.0139     8.6855     2.4067     0.0615     0.1429
  210.5000   -16.1914    13.5524    11.9973    12.4351   101.3878     8.6828     2.4141     0.0644     0.1400
  211.0000   -15.9924    13.9160    12.0187    12.3940   101.0698     8.6799     2.4218     0.0673     0.1370
  211.5000   -15.8764    14.2893    12.0401    12.3531   100.0016     8.6771     2.4210     0.0703     0.1351
  212.0000   -15.7624    14.5277    12.0616    12.5101    98.8882     8.6742     2.4158     0.0732     0.1383
  212.5000   -15.6472    14.3272    12.0831    12.6692    97.7769     8.6714     2.4107     0.0761     0.1415
  213.0000   -15.5328    14.7994    12.1046    12.8303    96.6519     8.6686     2.4056     0.0790     0.1446
  213.5000   -15.4181    15.0066    12.1262    12.9935    95.5129     8.6657     2.4022     0.0820     0.1466
  214.0000   -15.3037    15.1814    12.2770    13.6785    96.4372     8.6629     2.4001     0.0833     0.1478
  214.5000   -15.1886    15.3582    12.4296    14.3610    98.7222     8.6600     2.3936     0.0768     0.1506
  215.0000   -15.0743    15.4296    12.5841    14.4400    97.2880     8.6572     2.3823     0.0704     0.1563
  215.5000   -14.9586    15.4296    12.7406    14.5178    95.5330     8.6544     2.3707     0.0640     0.1619
  216.0000   -14.7609    15.4296    12.8989    14.5945    93.7913     8.6515     2.3706     0.0577     0.1677
  216.5000   -14.4077    15.4296    13.0593    14.6712    92.6454     8.6487     2.3748     0.0513     0.1643
  217.0000   -14.0541    15.4296    13.2361    14.7486    94.9013     8.6458     2.3792     0.0496     0.1606
  217.5000   -13.6943    15.4296    13.4154    14.8278    97.0671     8.6430     2.3835     0.0511     0.1570
  218.0000   -13.3450    16.0122    13.5970    15.2779   100.7788     8.6403     2.3879     0.0528     0.1565
  218.5000   -12.9873    16.6168    13.7811    16.0122    89.6969     8.6374     2.3836     0.0544     0.1600
  219.0000   -12.9509    17.4048    13.9678    16.7715    90.7843     8.6241     2.3779     0.0560     0.1635
  219.5000   -13.0399    18.5559    14.1569    17.5668    91.6883     8.5692     2.3721     0.0576     0.1670
  220.0000   -13.1251    18.3051    14.3486    18.1098    92.4220     8.5126     2.3665     0.0592     0.1704
  220.5000   -13.2058    17.8398    14.5429    17.5203    92.4157     8.5338     2.3607     0.0602     0.1727
  221.0000   -13.2904    17.3854    14.7398    16.6168    91.9939     8.5810     2.3586     0.0583     0.1704
  221.5000   -13.3734    16.9431    14.9394    17.0852    91.5575     8.6289     2.3586     0.0564     0.1681
  222.0000   -13.4566    17.4745    15.1417    18.3147    91.3296     8.6764     2.3654     0.0545     0.1646
  222.5000   -13.5399    18.2119    15.3468    19.6328    91.9913     8.7109     2.3750     0.0527     0.1583
  223.0000   -13.6228    17.2201    15.5012    20.0000    92.6258     8.6992     2.3846     0.0560     0.1521
  223.5000   -13.7059    17.4862    15.6214    20.3202    92.6897     8.6885     2.3942     0.0597     0.1458
  224.0000   -13.7883    18.3954    15.7036    20.7277    92.1586     8.6778     2.4040     0.0634     0.1476
  224.5000   -13.8717    21.8992    15.6310    21.1434    91.6349     8.6672     2.4043     0.0671     0.1498
  225.0000   -13.9544    20.2303    15.5588    21.0213    91.8474     8.6565     2.4000     0.0704     0.1512
  225.5000   -14.0344    17.5926    15.4869    20.8999    92.9853     8.6459     2.3955     0.0705     0.1534
  226.0000   -14.1781    16.1703    15.3654    20.7792    94.1434     8.6352     2.3911     0.0704     0.1555
  226.5000   -14.4083    18.5689    15.0484    19.7893    93.8967     8.6246     2.3866     0.0704     0.1577
  227.0000   -14.6399    17.7197    14.7379    18.6450    93.0321     8.6140     2.3819     0.0704     0.1557
  227.5000   -14.8662    16.9276    14.4338    17.5668    92.1723     8.6031     2.3893     0.0704     0.1510
  228.0000   -15.0905    16.1612    14.1360    16.5509    92.3123     8.5771     2.3987     0.0704     0.1462
  228.5000   -15.4639    15.4296    13.8444    15.5938    94.3262     8.5229     2.4082     0.0704     0.1414
  229.0000   -16.2744    14.9095    13.5591    14.7310    96.3127     8.4692     2.4176     0.0704     0.1375
  229.5000   -17.0741    15.1182    13.2800    14.3272    98.3152     8.4714     2.4271     0.0704     0.1352
  230.0000   -17.8851    15.3298    13.0347    14.0829    99.5678     8.5183     2.4366     0.0704     0.1329
  230.5000   -18.7022    15.6528    12.9027    14.8847   100.4835     8.5636     2.4392     0.0693     0.1308
  231.0000   -19.4961    15.5938    12.7719    15.6336   101.3388     8.6091     2.4381     0.0666     0.1313
  231.5000   -20.3994    14.9867    12.6417    15.1520   101.7469     8.6531     2.4370     0.0639     0.1319
  232.0000   -21.3917    14.0641    12.3298    14.6862   102.1788     8.6535     2.4371     0.0612     0.1319
  232.5000   -22.5535    14.5566    11.9077    14.2365   102.8788     8.6516     2.4450     0.0586     0.1292
  233.0000   -23.6814    15.8645    11.4998    13.7702   103.9539     8.6500     2.4528     0.0587     0.1264
  233.5000   -24.8239    17.8953    10.9998    13.2997   105.3116     8.6483     2.4607     0.0589     0.1236
  234.0000   -25.9737    17.0852    10.3715    11.8486   108.5868     8.6468     2.4686     0.0591     0.1208
  234.5000   -26.9397    12.3531     9.7789    10.5527   111.9088     8.6452     2.4763     0.0593     0.1181
  235.0000   -27.4908    10.1923     9.2203     9.3986   114.8164     8.6435     2.4812     0.0595     0.1158
  235.5000   -28.0473     9.1834     8.6935     8.9592   115.6443     8.6419     2.4771     0.0598     0.1170
  236.0000   -28.5969     9.5081     8.1971     8.6867   116.5128     8.6403     2.4731     0.0600     0.1182
  236.5000   -28.8603     9.8443     7.7316     8.4225   117.3804     8.6387     2.4729     0.0602     0.1187
  237.0000   -28.9836    10.1923     7.2845     8.1980   117.2644     8.6371     2.4781     0.0604     0.1178
  237.5000   -29.1058    10.0750     6.8632     8.1036   116.9435     8.6355     2.4812     0.0602     0.1170
  238.0000   -29.2312     9.8443     6.6768     8.0102   117.4774     8.6339     2.4676     0.0586     0.1161
  238.5000   -29.3546     9.6188     6.6357     7.9180   118.2511     8.6323     2.4537     0.0572     0.1185
  239.0000   -29.4792     9.4007     6.5949     7.8268   119.0325     8.6307     2.4399     0.0557     0.1229
  239.5000   -29.6030     9.1857     6.5542     7.7367   119.5593     8.6291     2.4259     0.0542     0.1260
  240.0000   -29.7281     9.2431     6.5139     7.6476   118.4363     8.6275     2.4225     0.0527     0.1238
  240.5000   -29.8526     9.3006     6.4578     7.5159   117.3292     8.6259     2.4341     0.0561     0.1198
  241.0000   -29.9586     9.3582     6.4896     7.5214   117.4215     8.6243     2.4422     0.0603     0.1158
  241.5000   -29.9803     9.4165     6.5428     7.6815   117.6061     8.6227     2.4500     0.0644     0.1118
  242.0000   -30.0000     9.4753     6.5965     7.8450   116.8268     8.6211     2.4553     0.0686     0.1078
  242.5000   -30.0171     9.5348     6.6507     8.0119   115.4617     8.6194     2.4624     0.0727     0.1038
  243.0000   -30.0354     9.5948     6.7053     8.2075   114.0818     8.6179     2.4705     0.0768     0.0997
  243.5000   -30.0535     9.6550     6.7603     8.1916   112.7074     8.6161     2.4787     0.0810     0.0957
  244.0000   -30.0714     9.7157     6.8158     8.1601   111.3241     8.6488     2.4869     0.0851     0.0917
  244.5000   -30.0895     9.7767     6.8740     8.1286   110.9505     8.7115     2.4952     0.0895     0.0882
  245.0000   -30.1076     9.8381     6.9332     8.0973   111.3439     8.7743     2.5034     0.0873     0.0874
  245.5000   -30.1257     9.8999     6.9930     8.0674   111.7555     8.8371     2.4968     0.0834     0.0867
