~VERSION INFORMATION
 VERS.                2.0:   CWLS LOG ASCII STANDARD - VERSION 2.0
 WRAP.                 NO:   ONE LINE PER DEPTH STEP
~WELL INFORMATION
#MNEM.UNIT      DATA TYPE    INFORMATION
#----------   ------------   ------------------------------
 STRT.F          190.0000:   START DEPTH
 STOP.F         3246.0000:   STOP DEPTH
 STEP.F            0.5000:   STEP LENGTH
 NULL.          -999.2500:   NO VALUE
 COMP. BROWN JOHN E&C INC:   COMPANY
 WELL.      STX-15 #84-15:   WELL
 FLD .             TEAPOT:   FIELD
 LOC .      S15 T38N R78W:   LOCATION
 CNTY.            NATRONA:   COUNTY
 STAT.            WYOMING:   STATE
 CTRY. UNITED STATES OF AMERICA:   COUNTRY
 SRVC.           BIRDWELL:   SERVICE COMPANY
 DATE.        17-MAR-1978:   LOGDATE
 API .       490251111600:   API NUMBER
~CURVE INFORMATION
#MNEM.UNIT       API CODE    CURVE DESCRIPTION
#----------   ------------   ------------------------------
 DEPT.F                  :   
 ILD .OHMM   05 120 46 00:   INDUCTION LOG DEEP
 SN  .OHMM   05 040 16 00:   SHORT NORMAL 16"
 SPR .MV     05 010 01 00:   SPONTANEOUS POTENTIAL FROM RES.
 GRD .GAPI   45 310 01 00:   GAMMA RAY FROM DENSITY LOG
 CALD.IN     45 280 60 00:   CALIPER
 RHOB.G/C3   45 350 01 00:   BULK DENSITY
 CORR.G/C3   45 356 01 00:   DENSITY CORRECTION
 DPHI.DEC    45 890 12 00:   DENSITY POROSITY SANDSTONE
~PARAMETER INFORMATION
#MNEM.UNIT          VALUE    DESCRIPTION
#----------   ------------   ------------------------------
 PD  .                 GL:   PERMANENT DATUM
 EPD .F              5241:   ELEVATION PERMANENT DATUM
 LMF .                 KB:   LOG MEASURED FROM
 DAPD.F                10:   FEET ABOVE PERMANENT DATUM
 DMF .                 KB:   DRILLING MEASURED FROM
 EKB .F              5251:   KELLING BUSHING
 EGL .F              5241:   GROUND LEVEL
 DATE.            3-17-78:   RUN DATE
 RUN .                  1:   RUN NUMBER
 DD  .F              3250:   DEPTH DRILLER
 DL  .F              3250:   DEPTH LOGGER
 BLI .F              3244:   BOTTOM LOG INTERVAL
 TLI .F               224:   TOP LOG INTERVAL
 CS  .IN            8.625:   CASING SIZE
 CBL .F               224:   CASING BOTTOM LOGGER
 BS  .IN            7.875:   BIT SIZE
 BSD .F              3250:   BIT SIZE AT DEPTH
 DFD .                8.9:   DRILLING FLUID DENSITY
 DFV .                 31:   DRILLING FLUID VISCOSITY
 DFPH.               10.5:   DRILLING FLUID PH
 DFL .                  8:   DRILLING FLUID LOSS
 MSS .           FLOWLINE:   MUD SAMPLE SOURCE
 RMS .OHMM            1.3:   RESISTIVITY MUD SAMPLE
 MST .F                70:   MUD SAMPLE TEMPERATURE
 RMF .OHMM            1.1:   RESISTIVITY MUD FILTRATE SAMPLE
 MFST.F                70:   MUD FILTRATE SAMPLE TEMPERATURE
 RMC .OHMM            1.4:   RESISTIVITY MUD CAKE
 MCST.F                70:   MUD CAKE SAMPLE TEMPERATURE
 MFSS.               MEAS:   MUD FILTRATE SAMPLE SOURCE
 MCSS.               MEAS:   MUD CAKE SAMPLE SOURCE
 RMB .OHMM            .77:   RESISTIVITY MUD AT BHT
 BHT .F               118:   BOTTOM HOLE TEMPERATURE
 TCS .HRS               6:   TIME CURCULATED STOPPED
 MRT .F               118:   MAXIMUM RECORDED TEMPERATURE
 LUN .               2958:   LOGGING UNIT NUMBER
 LUL .               CASP:   LOGGING UNIT LOCATION
 ENGI.             MILLER:   RECORDING ENGINEER
 WITN.           MCGINLEY:   WITNESSED BY
 CLNT.            A2DTECH:   CLIENT CODE
 ORIG.     1", 2.5" PRINT:   ORIGIN OF DATA
 UWI .       490251111600:   UNIQUE WELL ID
 DICO. A2D Technologies, Inc.:   DIGITIZING COMPANY
~OTHER INFORMATION
~A   DEPT      ILD         SN        SPR         GRD      CALD       RHOB       CORR       DPHI   
# ...
 3187.0000     6.9121     7.6963   -43.0182    61.3872     7.5258     2.4034     0.0409     0.1567
 3187.5000     6.8983     7.7989   -44.9308    56.6315     7.5424     2.3918     0.0480     0.1610
 3188.0000     6.8841     7.9029   -45.0766    54.8969     7.5611     2.3844     0.0576     0.1651
 3188.5000     6.8537     7.9759   -42.8772    57.2534     7.5213     2.3949     0.0580     0.1617
 3189.0000     6.7686     7.7768   -40.8986    62.2678     7.4527     2.4038     0.0525     0.1548
 3189.5000     6.6847     7.5634   -38.7759    73.0295     7.3862     2.4109     0.0594     0.1474
 3190.0000     6.6017     7.3559   -37.3300    80.0931     7.3294     2.4145     0.0864     0.1428
 3190.5000     6.5198     7.1389   -36.7998    79.2244     7.3161     2.4423     0.0968     0.1373
 3191.0000     6.4389     7.0835   -36.1212    75.2111     7.3045     2.4371     0.0791     0.1308
 3191.5000     6.3590     7.0241   -35.4607    71.4457     7.2925     2.4328     0.0629     0.1305
 3192.0000     6.2801     6.9651   -34.9327    69.7015     7.2960     2.4281     0.0588     0.1325
 3192.5000     6.2022     6.9066   -34.5669    73.2763     7.3140     2.4396     0.0659     0.1292
 3193.0000     6.1252     6.8486   -33.9276    78.1670     7.3304     2.4495     0.0728     0.1240
 3193.5000     6.0453     6.7911   -33.4161    80.5701     7.3471     2.4609     0.0749     0.1215
 3194.0000     5.9924     6.7341   -32.9327    83.1651     7.3639     2.4645     0.0694     0.1198
 3194.5000     5.9371     6.6776   -32.0922    85.7716     7.3926     2.4616     0.0645     0.1187
 3195.0000     5.8823     6.6304   -33.7070    93.1479     7.4258     2.4598     0.0604     0.1135
 3195.5000     5.8260     6.5886   -33.9878    97.4076     7.4598     2.4600     0.0640     0.1081
 3196.0000     5.8074     6.5527   -32.4296    95.9993     7.4919     2.4747     0.0690     0.1036
 3196.5000     5.7882     6.5171   -32.2499    96.3581     7.5243     2.4904     0.0745     0.0968
 3197.0000     5.7691     6.4816   -33.0431    96.9187     7.5201     2.5083     0.0742     0.0911
 3197.5000     5.7500     6.4464   -33.8610    96.4181     7.5148     2.5154     0.0689     0.0829
 3198.0000     5.7310     6.3877   -34.4468    95.0456     7.5078     2.5064     0.0650     0.0856
 3198.5000     5.6288     6.3944   -34.9818    91.9165     7.5019     2.5042     0.0611     0.0903
 3199.0000     5.4010     6.3375   -31.7075    89.1248     7.4956     2.5094     0.0718     0.0940
 3199.5000     5.1825     6.1638   -32.0229    92.3050     7.4893     2.5134     0.0843     0.0918
 3200.0000     4.9728     5.7960   -31.8943   105.3880     7.4831     2.5168     0.0829     0.0889
 3200.5000     4.7715     5.3927   -30.8531   109.7449     7.4769     2.5143     0.0701     0.0861
 3201.0000     4.5785     5.0173   -29.7565   112.7520     7.4706     2.5108     0.0593     0.0887
 3201.5000     4.3932     4.6681   -29.9493   111.4403     7.4645     2.5078     0.0491     0.0914
 3202.0000     4.1778     4.4139   -30.3314   110.2258     7.4582     2.5035     0.0527     0.0917
 3202.5000     4.1778     4.4053   -30.7486   108.9302     7.4518     2.5054     0.0568     0.0905
 3203.0000     4.1691     4.3968   -31.1152   109.7963     7.4528     2.5080     0.0603     0.0893
 3203.5000     4.1608     4.3883   -31.5425   112.2003     7.4785     2.5110     0.0599     0.0881
 3204.0000     4.1525     4.3798   -31.4419   113.3879     7.4754     2.5092     0.0593     0.0895
 3204.5000     4.1442     4.3713   -31.0142   111.6351     7.4477     2.5057     0.0587     0.0924
 3205.0000     4.1360     4.3628   -30.6239   109.9024     7.4833     2.5027     0.0581     0.0912
 3205.5000     4.1277     4.3544   -30.4555   108.9318     7.4177     2.5017     0.0574     0.0892
 3206.0000     4.1195     4.3459   -30.8423   109.4179     7.3294     2.5083     0.0569     0.0919
 3206.5000     4.1113     4.3375   -31.1860   110.1399     7.2995     2.5050     0.0565     0.0956
 3207.0000     4.1031     4.3291   -31.5537   111.0470     7.3364     2.5023     0.0609     0.0956
 3207.5000     4.0949     4.3207   -31.9075   111.9621     7.3636     2.4992     0.0652     0.0964
 3208.0000     4.0868     4.3123   -32.2657   112.5434     7.2906     2.4969     0.0697     0.0964
 3208.5000     4.0786     4.3040   -32.6521   111.9337     7.2568     2.4982     0.0741     0.0964
 3209.0000     4.0705     4.2956   -32.8802   111.1461     7.2123     2.5011     0.0784     0.0957
 3209.5000     4.0624     4.2873   -32.7554   112.8751     7.1756     2.5038     0.0831     0.0948
 3210.0000     4.0543     4.2790   -32.6535   114.9246     7.1326     2.5063     0.0835     0.0938
 3210.5000     4.0462     4.2707   -32.5448   117.6014     7.1229     2.5094     0.0820     0.0927
 3211.0000     4.0381     4.2624   -32.4330   116.7611     7.1133     2.5040     0.0805     0.0947
 3211.5000     4.0301     4.2542   -32.3256   114.7836     7.1064     2.4959     0.0833     0.0980
 3212.0000     4.0220     4.2459   -32.2149   113.0193     7.0977     2.4877     0.0869     0.1004
 3212.5000     4.0140     4.2377   -32.1071   111.2701     7.0878     2.4889     0.0871     0.0980
 3213.0000     4.0060     4.2295   -31.9991   109.4411     7.1216     2.4905     0.0838     0.1011
 3213.5000     3.9981     4.2213   -31.8846   108.2315     7.2188     2.4824     0.0808     0.1043
 3214.0000     3.9901     4.2131   -31.7892   109.4413     7.3210     2.4780     0.0776     0.1044
 3214.5000     3.9822     4.2050   -31.6635   111.9722     7.3272     2.4829     0.0779     0.1027
 3215.0000     3.9741     4.1968   -31.9413   114.6293     7.3297     2.4872     0.0821     0.0993
 3215.5000     3.9662     4.1889   -32.2772   115.8879     7.3276     2.4915     0.0862     0.0960
 3216.0000     3.9583     4.1807   -32.4332   113.9567     7.3197     2.4960     0.0875     0.0927
 3216.5000     3.9430     4.1772   -31.7350   111.3025     7.3070     2.5003     0.0841     0.0893
 3217.0000     3.9074     4.1790   -31.0596   110.5339     7.2942     2.5048     0.0809     0.0892
 3217.5000     3.8723     4.1771   -30.9809   110.4939     7.2820     2.5028     0.0778     0.0924
 3218.0000     3.8374     4.1789   -31.5562   110.4393     7.2695     2.4957     0.0746     0.0953
 3218.5000     3.8029     4.0956   -32.0817   110.3213     7.2560     2.4894     0.0714     0.0983
 3219.0000     3.7686     4.0223   -32.6546   110.2661     7.2494     2.4831     0.0683     0.1012
 3219.5000     3.7347     3.9504   -33.1928   110.3249     7.2542     2.4767     0.0651     0.1041
 3220.0000     3.7010     3.8799   -33.5429   112.1197     7.2578     2.4775     0.0659     0.1049
 3220.5000     3.6677     3.8105   -32.5374   113.5975     7.2616     2.4808     0.0682     0.1028
 3221.0000     3.6346     3.7423   -31.7816   111.6829     7.2656     2.4852     0.0704     0.1042
 3221.5000     3.6019     3.6709   -33.1845   110.6048     7.2693     2.4816     0.0723     0.1055
 3222.0000     3.5694     3.6709   -32.1708   109.8866     7.2732     2.4755     0.0676     0.1068
 3222.5000     3.5372     3.6709   -31.9673   109.1844     7.2770     2.4688     0.0624     0.1057
 3223.0000     3.5054     3.6709   -33.0069   109.9976     7.2808     2.4633     0.0571     0.1039
 3223.5000     3.4730     3.6709   -32.1176   111.3308     7.2847     2.4816     0.0678     0.1021
 3224.0000     3.4990     3.6709   -30.9074   112.6289     7.2887     2.5043     0.0801     0.1003
 3224.5000     3.5442     3.7210   -32.0465   113.8867     7.2959     2.5096     0.0804     0.0996
 3225.0000     3.5900     3.7857   -33.2003   112.3699     7.3032     2.5133     0.0714     0.1008
 3225.5000     3.6364     3.8516   -32.7843   107.7338     7.3106     2.5098     0.0635     0.1020
 3226.0000     3.6834     3.9186   -32.4464   106.6501     7.3180     2.5031     0.0551     0.1028
 3226.5000     3.7310     3.9867   -32.0700   105.7277     7.3254     2.5120     0.0536     0.1022
 3227.0000     3.7792     4.0561   -32.0605   105.4685     7.3327     2.5238     0.0568     0.0997
