~VERSION INFORMATION
 VERS.                2.0:   CWLS LOG ASCII STANDARD - VERSION 2.0
 WRAP.                 NO:   ONE LINE PER DEPTH STEP
~WELL INFORMATION
#MNEM.UNIT      DATA TYPE    INFORMATION
#----------   ------------   ------------------------------
 STRT.F            0.0000:   START DEPTH
 STOP.F         3139.0000:   STOP DEPTH
 STEP.F            0.5000:   STEP LENGTH
 NULL.          -999.2500:   NO VALUE
 COMP. BROWN JOHN E&C INC:   COMPANY
 WELL.       TX-10 #63-10:   WELL
 FLD .             TEAPOT:   FIELD
 LOC .      S10 T38N R78W:   LOCATION
 CNTY.            NATRONA:   COUNTY
 STAT.            WYOMING:   STATE
 CTRY. UNITED STATES OF AMERICA:   COUNTRY
 SRVC.       Schlumberger:   SERVICE COMPANY
 DATE.        05-OCT-1982:   LOGDATE
 API .       490251090100:   API NUMBER
~CURVE INFORMATION
#MNEM.UNIT       API CODE    CURVE DESCRIPTION
#----------   ------------   ------------------------------
 DEPT.F                  :   
 DPHI.DEC    45 890 12 00:   DENSITY POROSITY  SANDSTONE
 GRD .GAPI   45 310 01 00:   GAMMA RAY FROM DENSITY LOG
 NPHI.DEC    42 890 03 00:   NEUTRON POROSITY SANDSTONE
 CALD.IN     45 280 60 00:   CALIPER FROM DENSITY LOG
 CORR.G/C3   45 356 01 00:   DENSITY CORRECTION
 RHOB.G/C3   45 350 01 00:   BULK DENSITY
 ILD .OHMM   07 120 46 00:   INDUCTION LOG DEEP
 ILM .OHMM   07 120 44 00:   INDUCTION LOG MEDIUM
 SFLU.OHMM   07 220 01 00:   SPHERICALLY FOCUSED LOG UNAVERAGED RESISTIVITY
 SPR .MV     07 010 01 00:   SPONTANEOUS POTENTIAL
~PARAMETER INFORMATION
#MNEM.UNIT          VALUE    DESCRIPTION
#----------   ------------   ------------------------------
 PD  .                 GL:   PERMANENT DATUM
 EPD .F              5189:   ELEVATION PERMANENT DATUM
 LMF .                 KB:   LOG MEASURED FROM
 DAPD.F                10:   FEET ABOVE PERMANENT DATUM
 DMF .                 KB:   DRILLING MEASURED FROM
 EKB .F              5199:   KELLING BUSHING
 EGL .F              5189:   GROUND LEVEL
 DATE.        05-OCT-1982:   RUN DATE
 RUN .                  1:   RUN NUMBER
 DD  .F              3200:   DEPTH DRILLER
 DL  .F              3142:   DEPTH LOGGER
 BLI .F              3139:   BOTTOM LOG INTERVAL
 TLI .F               484:   TOP LOG INTERVAL
 CS  .IN            9.625:   CASING SIZE
 CBD .F               482:   CASING BOTTOM DRILLER
 CBL .F               484:   CASING BOTTOM LOGGER
 BS  .IN            7.875:   BIT SIZE
 BSD .F              3200:   BIT SIZE AT DEPTH
 DFT .        KCL/POLYMER:   DRILLING FLUID TYPE
 DFD .                8.6:   DRILLING FLUID DENSITY
 DFV .                 38:   DRILLING FLUID VISCOSITY
 DFPH.                8.5:   DRILLING FLUID PH
 DFL .                6.8:   DRILLING FLUID LOSS
 MSS .           MUD TANK:   MUD SAMPLE SOURCE
 RMS .OHMM            .40:   RESISTIVITY MUD SAMPLE
 MST .F                64:   MUD SAMPLE TEMPERATURE
 RMF .OHMM            .34:   RESISTIVITY MUD FILTRATE SAMPLE
 MFST.F                64:   MUD FILTRATE SAMPLE TEMPERATURE
 RMC .OHMM            .36:   RESISTIVITY MUD CAKE
 MCST.F                64:   MUD CAKE SAMPLE TEMPERATURE
 MFSS.               MEAS:   MUD FILTRATE SAMPLE SOURCE
 MCSS.               CALC:   MUD CAKE SAMPLE SOURCE
 RMB .OHMM             .2:   RESISTIVITY MUD AT BHT
 BHT .F               125:   BOTTOM HOLE TEMPERATURE
 TCS .HRS            2300:   TIME CURCULATED STOPPED
 TLAB.HRS            0500:   TIME LOGGER AT BOTTOM
 MRT .F               125:   MAXIMUM RECORDED TEMPERATURE
 LUN .               8043:   LOGGING UNIT NUMBER
 LUL .                GLT:   LOGGING UNIT LOCATION
 ENGI.            NEUFFER:   RECORDING ENGINEER
 WITN.             STRONG:   WITNESSED BY
 CLNT.            A2DTECH:   CLIENT CODE
 ORIG.           5" PRINT:   ORIGIN OF DATA
 UWI .       490251090100:   UNIQUE WELL ID
 DICO. A2D Technologies, Inc.:   DIGITIZING COMPANY
~OTHER INFORMATION
~A    DEPT    DPHI          GRD     NPHI       CALD       CORR       RHOB        ILD        ILM       SFLU        SPR   
# ...
 1172.5000     0.0614    88.8196     0.2743    11.6369     0.0776     2.5564    10.0605     7.6997     8.8650   -78.0175
 1173.0000     0.0685    89.4041     0.2764    11.6362     0.0760     2.5473     9.9848     7.6442     8.6803   -78.0218
 1173.5000     0.0776    89.6936     0.2814    11.6356     0.0646     2.5323     9.7738     7.6946     8.4403   -78.0260
 1174.0000     0.0876    89.9831     0.2900    11.6348     0.0539     2.5083     9.6335     7.7448     8.3795   -78.0304
 1174.5000     0.0929    90.0167     0.2861    11.6646     0.0532     2.5015     9.4284     7.7966     8.4355   -78.0356
 1175.0000     0.0918    87.0195     0.2800    11.6792     0.0561     2.5022     9.4223     7.9565     8.6684   -77.8879
 1175.5000     0.0873    86.4240     0.2785    11.6936     0.0591     2.5039     9.3514     8.1204     8.9084   -77.7401
 1176.0000     0.0812    86.7136     0.2826    11.6928     0.0637     2.5157     9.3454     8.2870     9.1544   -77.4416
 1176.5000     0.0753    87.6156     0.2847    11.7226     0.0701     2.5366     9.7328     8.3424     9.2795   -77.4458
 1177.0000     0.0717    87.8825     0.2838    11.7218     0.0772     2.5419     9.8633     8.2247     9.4091   -77.1451
 1177.5000     0.0776    85.2208     0.2847    11.7380     0.0772     2.5246     9.8554     8.1092     9.1447   -76.9984
 1178.0000     0.0860    84.3304     0.2871    11.7509     0.0741     2.5126     9.8488     7.8852     8.8926   -76.8507
 1178.5000     0.0874    85.7984     0.2886    11.7804     0.0670     2.5133     9.8410     7.7745     8.9513   -76.8560
 1179.0000     0.0865    88.1528     0.2856    11.8102     0.0574     2.5148     9.6998     7.6654     9.0187   -76.8603
 1179.5000     0.0877    89.9174     0.2797    11.8852     0.0520     2.5110     9.5606     7.6026     8.8832   -76.8656
 1180.0000     0.0909    88.7305     0.2806    11.8999     0.0436     2.5042     9.4219     7.5548     8.4611   -77.0218
 1180.5000     0.0936    84.5952     0.2856    11.9296     0.0375     2.4997     9.2867     7.5003     8.2278   -77.1781
 1181.0000     0.0959    81.9348     0.2909    11.9897     0.0375     2.4981     9.1534     7.4463     8.1678   -77.4863
 1181.5000     0.0951    81.6344     0.2939    12.0496     0.0420     2.4989     8.9599     7.4433     8.0531   -77.4916
 1182.0000     0.0918    84.2824     0.2877    12.1247     0.0541     2.5033     8.8911     7.4409     8.1070   -77.6479
 1182.5000     0.0871    85.1619     0.2842    12.1999     0.0662     2.5190     8.8854     7.3365     8.1599   -77.8041
 1183.0000     0.0824    85.7581     0.2857    12.2614     0.0710     2.5258     8.8796     7.2836     8.2707   -77.9614
 1183.5000     0.0795    88.6893     0.2936    12.3502     0.0767     2.5280     8.8737     7.2306     8.3831   -78.1176
 1184.0000     0.0839    92.2237     0.3007    12.3951     0.0797     2.5211     8.8057     7.1785     8.3797   -78.1219
 1184.5000     0.0880    94.5781     0.3101    12.4400     0.0797     2.5136     8.7394     7.1268     8.2620   -78.1262
 1185.0000     0.0898    92.8013     0.3134    12.4999     0.0797     2.5091     8.6140     7.0755     8.1453   -77.9784
 1185.5000     0.0883    87.4861     0.3087    12.5297     0.0857     2.5121     8.4890     7.0239     8.1427   -77.8307
 1186.0000     0.0869    85.4157     0.3029    12.5746     0.0932     2.5106     8.4835     6.9733     8.1401   -77.8361
 1186.5000     0.0910    85.9988     0.2998    12.6345     0.0811     2.4821     8.4197     6.8282     8.2013   -77.6883
 1187.0000     0.1110    88.0582     0.3019    12.7096     0.0734     2.4610     8.4143     6.8257     8.1341   -77.5406
 1187.5000     0.1181    90.1190     0.3116    12.7697     0.0825     2.4573     8.4075     7.0148     7.9098   -77.5459
 1188.0000     0.0990    90.4072     0.3034    12.8297     0.1022     2.4799     8.4616     7.2089     7.7451   -77.3982
 1188.5000     0.0925    89.2204     0.2981    12.8924     0.1067     2.5014     8.5723     7.2060     7.6886   -77.2505
 1189.0000     0.0893    86.2650     0.2933    12.9952     0.1165     2.5074     8.6858     7.0074     7.6861   -77.2558
 1189.5000     0.0837    83.8997     0.2854    13.0402     0.1241     2.5141     8.9219     7.0046     7.8446   -77.4121
 1190.0000     0.0789    79.7630     0.2796    13.1001     0.1271     2.5283     9.1028     7.1984     8.1177   -77.4164
 1190.5000     0.0746    79.1675     0.2757    13.1752     0.1278     2.5358     9.1601     7.3467     8.4579   -77.5736
 1191.0000     0.0819    79.1621     0.2778    13.2353     0.1262     2.5328     9.1538     7.3419     8.5144   -77.5779
 1191.5000     0.0925    80.9251     0.2902    13.2953     0.1224     2.5152     9.1474     7.1908     8.3364   -77.5822
 1192.0000     0.1020    83.2795     0.3056    13.3554     0.1125     2.4832     9.1407     7.0899     8.2193   -77.5875
 1192.5000     0.1011    85.9289     0.3067    13.4305     0.1079     2.4847     9.1348     7.0876     8.1594   -77.5918
 1193.0000     0.0908    87.4237     0.3007    13.4907     0.1155     2.4974     9.0022     6.9881     8.1568   -77.7480
 1193.5000     0.0752    85.6216     0.2931    13.5657     0.1261     2.5221     8.8730     6.9853     8.0980   -77.9043
 1194.0000     0.0702    82.3713     0.2855    13.6351     0.1366     2.5356     8.8063     7.0320     8.0953   -77.7576
 1194.5000     0.0652    79.7109     0.2904    13.7919     0.1715     2.5461     8.7987     7.0784     8.1482   -77.6099
 1195.0000     0.0628    77.9341     0.3026    13.8975     0.1912     2.5528     8.7329     7.1246     8.2589   -77.6141
 1195.5000     0.0796    77.6337     0.3105    13.9727     0.1881     2.5445     8.6672     7.0727     8.3135   -77.3144
 1196.0000     0.0991    77.9233     0.3215    14.1085     0.1509     2.4920     8.6021     6.9734     8.4264   -77.1667
 1196.5000     0.1035    80.2762     0.3279    14.1969     0.1182     2.4822     8.5963     6.7346     8.4230   -77.0190
 1197.0000     0.0908    82.9256     0.3277    14.3197     0.1121     2.4859     8.5304     6.4926     8.3623   -76.8723
 1197.5000     0.0879    83.2165     0.3238    14.3949     0.1300     2.5076     8.5249     6.3242     8.1317   -76.7246
 1198.0000     0.0929    82.5488     0.3265    14.5459     0.1386     2.5121     8.5194     6.3222     7.9617   -76.5769
 1198.5000     0.0983    79.0730     0.3347    14.6818     0.1189     2.4982     8.5729     6.4080     7.7421   -76.4292
 1199.0000     0.1012    77.2976     0.3431    14.7722     0.1067     2.4903     8.5660     6.6763     7.9017   -76.4346
 1199.5000     0.0935    76.4071     0.3442    14.8483     0.1180     2.4978     8.6794     6.9565     8.2373   -76.4399
 1200.0000     0.0732    76.6966     0.3368    14.9112     0.1369     2.5232     8.7944     7.1489     8.3447   -76.7481
 1200.5000     0.0652    76.0996     0.3345    14.9808     0.1453     2.5480     9.1634     7.3467     8.3420   -76.7951
 1201.0000     0.0635    75.7990     0.3398    14.9988     0.1414     2.5517     9.2890     7.6542     8.2276   -76.9130
 1201.5000     0.0656    73.7285     0.3442    15.0314     0.1280     2.5509     9.6122     7.6505     8.5886   -77.3747
 1202.0000     0.0697    72.2240     0.3377    15.0294     0.1110     2.5449     9.7433     7.4392     9.2485   -77.6844
 1202.5000     0.0732    72.5358     0.3249    15.0296     0.1072     2.5366     9.8762     7.3336     9.5063   -77.6901
 1203.0000     0.0776    75.4801     0.3142    15.0298     0.1140     2.5298     9.8050     7.2803     9.1180   -77.6972
 1203.5000     0.0819    75.7708     0.3174    15.0147     0.1193     2.5216     9.7350     7.3286     8.7410   -77.7030
 1204.0000     0.0864    75.7638     0.3308    14.9997     0.1079     2.5111     9.6655     7.3250     8.5056   -77.8607
 1204.5000     0.0899    76.6431     0.3478    14.9847     0.0969     2.5020     9.5299     7.4239     8.5039   -77.8789
 1205.0000     0.0933    77.2274     0.3552    14.9545     0.0881     2.5005     9.3967     7.5235     8.3856   -77.7201
 1205.5000     0.0951    77.8118     0.3641    14.9243     0.0934     2.5020     9.3943     7.5734     8.3262   -77.7273
