~VERSION INFORMATION
 VERS.                2.0:   CWLS LOG ASCII STANDARD - VERSION 2.0
 WRAP.                 NO:   ONE LINE PER DEPTH STEP
~WELL INFORMATION
#MNEM.UNIT      DATA TYPE    INFORMATION
#----------   ------------   ------------------------------
 STRT.F            0.0000:   START DEPTH
 STOP.F         1027.0000:   STOP DEPTH
 STEP.F            0.1000:   STEP LENGTH
 NULL.          -999.2500:   NO VALUE
 COMP.       F D SERV INC:   COMPANY
 WELL.   77-1 X 27 #77-27:   WELL
 FLD .             TEAPOT:   FIELD
 LOC .      S27 T39N R78W:   LOCATION
 CNTY.            NATRONA:   COUNTY
 STAT.            WYOMING:   STATE
 CTRY. UNITED STATES OF AMERICA:   COUNTRY
 SRVC.      Western Atlas:   SERVICE COMPANY
 DATE.        04-NOV-1991:   LOGDATE
 API .       490252248600:   API NUMBER
~CURVE INFORMATION
#MNEM.UNIT       API CODE    CURVE DESCRIPTION
#----------   ------------   ------------------------------
 DEPT.F                  :   
 GRR .GAPI   07 310 01 00:   GAMMA RAY
 RILD.OHMM   07 120 46 00:   INDUCTION LOG DEEP RESISTIVITY
 RFOC.OHMM   07 220 04 00:   RESISTIVITY FOCUSED LOG
 RILM.OHMM   07 120 44 00:   INDUCTION LOG MEDIUM RESISTIVITY
 SPR .MV     07 010 01 00:   SPONTANEOUS POTENTIAL
~PARAMETER INFORMATION
#MNEM.UNIT          VALUE    DESCRIPTION
#----------   ------------   ------------------------------
 PD  .                 GL:   PERMANENT DATUM
 EPD .F              5077:   ELEVATION PERMANENT DATUM
 LMF .                 KB:   LOG MEASURED FROM
 DAPD.F                10:   FEET ABOVE PERMANENT DATUM
 DMF .                 KB:   DRILLING MEASURED FROM
 EKB .F              5087:   KELLING BUSHING
 EDF .F              5086:   DRILLING FLOOR
 EGL .F              5077:   GROUND LEVEL
 DATE.        04-NOV-1991:   RUN DATE
 RUN .                  1:   RUN NUMBER
 DD  .F              1030:   DEPTH DRILLER
 DL  .F              1030:   DEPTH LOGGER
 BLI .F              1027:   BOTTOM LOG INTERVAL
 CS  .IN            9.625:   CASING SIZE
 CBD .F                50:   CASING BOTTOM DRILLER
 CBL .F                52:   CASING BOTTOM LOGGER
 BS  .IN             8.75:   BIT SIZE
 BSD .F              1030:   BIT SIZE AT DEPTH
 DFT .          KCL WATER:   DRILLING FLUID TYPE
 MSS .           FLOWLINE:   MUD SAMPLE SOURCE
 RMS .OHMM            .24:   RESISTIVITY MUD SAMPLE
 MST .F                72:   MUD SAMPLE TEMPERATURE
 RMB .OHMM            .19:   RESISTIVITY MUD AT BHT
 BHT .F                90:   BOTTOM HOLE TEMPERATURE
 TCS .HRS               2:   TIME CURCULATED STOPPED
 MRT .F                90:   MAXIMUM RECORDED TEMPERATURE
 LUN .            HL-6274:   LOGGING UNIT NUMBER
 LUL .             CASPER:   LOGGING UNIT LOCATION
 ENGI.             RAUTIO:   RECORDING ENGINEER
 WITN.             STRONG:   WITNESSED BY
 CLNT.            A2DTECH:   CLIENT CODE
 ORIG.           5" PRINT:   ORIGIN OF DATA
 UWI .       490252248600:   UNIQUE WELL ID
 DICO. A2D Technologies, Inc.:   DIGITIZING COMPANY
~OTHER INFORMATION
~A    DEPT      GRR      RILD       RFOC       RILM        SPR   
# ...
  561.2000   110.5277     8.6906     8.4855     8.0163   -33.1649
  561.3000   110.1103     8.6409     8.4500     8.0124   -33.2818
  561.4000   109.3179     8.6139     8.4474     7.9606   -33.2807
  561.5000   108.2786     8.6136     8.3913     7.9214   -33.2799
  561.6000   107.1737     8.6123     8.3912     7.8763   -33.3549
  561.7000   106.1471     8.5536     8.3617     7.8314   -33.4278
  561.8000   105.4078     8.5142     8.3140     7.7961   -33.4269
  561.9000   105.0433     8.4940     8.2753     7.7960   -33.4260
  562.0000   105.1077     8.4758     8.2752     7.7959   -33.4252
  562.1000   105.2950     8.4274     8.2751     7.7958   -33.4243
  562.2000   105.6098     8.3763     8.2396     7.7957   -33.4234
  562.3000   106.1663     8.3761     8.2176     7.7956   -33.4225
  562.4000   106.7715     8.3415     8.2027     7.7955   -33.4216
  562.5000   107.4473     8.2938     8.1606     7.7954   -33.4206
  562.6000   108.5735     8.2464     8.1605     7.7953   -33.4198
  562.7000   109.6915     8.1993     8.2017     7.7951   -33.4189
  562.8000   110.7141     8.1458     8.2171     7.7950   -33.4180
  562.9000   111.9920     8.1456     8.2382     7.7949   -33.4485
  563.0000   113.0753     8.1157     8.2740     7.7959   -33.5659
  563.1000   113.5368     8.0888     8.2748     7.8490   -33.5648
  563.2000   114.0932     8.0790     8.3314     7.8489   -33.5641
  563.3000   114.5765     8.0325     8.3695     7.8488   -33.5632
  563.4000   114.9484     7.9870     8.4172     7.8487   -33.5623
  563.5000   115.3339     7.9414     8.4652     7.8486   -33.5614
  563.6000   115.5144     7.8961     8.5061     7.8485   -33.5604
  563.7000   115.7016     7.8509     8.5059     7.8068   -33.6789
  563.8000   115.6932     7.8061     8.5514     7.7940   -33.7084
  563.9000   115.5113     7.7574     8.6002     7.7938   -33.7075
  564.0000   115.2757     7.7172     8.6244     7.7937   -33.7066
  564.1000   114.4521     7.6731     8.6384     7.7911   -33.7057
  564.2000   113.9668     7.6293     8.6842     7.7396   -33.7047
  564.3000   113.5384     7.5857     8.6840     7.7026   -33.8142
  564.4000   113.0895     7.5423     8.6839     7.6859   -33.8527
  564.5000   112.5810     7.4917     8.6838     7.6682   -33.8518
  564.6000   112.2118     7.4916     8.6837     7.6245   -33.8818
  564.7000   111.6608     7.4654     8.6836     7.5796   -33.9997
  564.8000   111.1096     7.4228     8.6835     7.5795   -33.9986
  564.9000   110.4514     7.3804     8.6833     7.5473   -33.9979
  565.0000   109.8504     7.3365     8.6832     7.5043   -33.9970
  565.1000   109.4838     7.2963     8.6831     7.4485   -33.9961
  565.2000   109.0924     7.2546     8.6830     7.3716   -33.9952
  565.3000   109.0949     7.2132     8.6769     7.3714   -33.9943
  565.4000   109.6261     7.1720     8.6227     7.3348   -33.9934
  565.5000   110.3670     7.1310     8.6226     7.2931   -33.9925
  565.6000   111.1078     7.0852     8.5888     7.2516   -33.9916
  565.7000   111.8489     7.0851     8.5399     7.2103   -34.0301
  565.8000   112.7016     7.0583     8.4790     7.1691   -34.1396
  565.9000   113.9582     7.0180     8.3826     7.1284   -34.1385
  566.0000   115.9051     6.9779     8.2706     7.0878   -34.1377
  566.1000   117.8154     6.9380     8.2319     7.0475   -34.2201
  566.2000   119.2578     6.8984     8.1569     7.0073   -34.2856
  566.3000   120.5740     6.8590     8.0643     6.9674   -34.2847
  566.4000   121.3025     6.8198     7.9804     6.9240   -34.2838
  566.5000   121.7606     6.7808     7.9329     6.8883   -34.2828
  566.6000   121.9293     6.7421     7.8470     6.8491   -34.2820
  566.7000   121.8704     6.7008     7.7906     6.8101   -34.2811
  566.8000   121.6885     6.6653     7.7462     6.7713   -34.2802
  566.9000   121.4886     6.6272     7.6888     6.7316   -34.2793
  567.0000   121.4910     6.5894     7.6052     6.6410   -34.2784
  567.1000   121.3675     6.5517     7.5564     6.5496   -34.2775
  567.2000   121.2719     6.5166     7.5188     6.4820   -34.2766
  567.3000   121.2746     6.5163     7.4482     6.4451   -34.2757
  567.4000   121.2772     6.4849     7.3637     6.4084   -34.2748
  567.5000   121.2804     6.4479     7.2892     6.3697   -34.2864
  567.6000   121.2826     6.4261     7.2476     6.3696   -34.4227
  567.7000   121.3963     6.4259     7.2063     6.3695   -34.4219
  567.8000   121.5126     6.4257     7.1332     6.3513   -34.4210
  567.9000   121.5463     6.4255     7.0752     6.3253   -34.4201
  568.0000   121.7426     6.4254     7.0349     6.3252   -34.4192
  568.1000   121.7452     6.4252     7.0004     6.3251   -34.4183
  568.2000   121.7479     6.4250     7.0003     6.3250   -34.4172
  568.3000   121.8463     6.4248     7.0002     6.3477   -34.4165
  568.4000   122.0893     6.4246     7.0001     6.3689   -34.4156
  568.5000   122.4770     6.4245     7.0000     6.3688   -34.4147
  568.6000   123.1063     6.4243     6.9999     6.3687   -34.4138
  568.7000   123.7504     6.4241     6.9998     6.3686   -34.4128
  568.8000   124.3708     6.4239     6.9997     6.3686   -34.4120
  568.9000   125.0075     6.4238     6.9996     6.3685   -34.4111
  569.0000   125.6677     6.4235     6.9995     6.3684   -34.4751
  569.1000   126.0386     6.4234     6.9994     6.3719   -34.5590
  569.2000   126.0413     6.4232     6.9993     6.4125   -34.5581
  569.3000   126.0440     6.4230     6.9992     6.4125   -34.5571
  569.4000   125.7313     6.4289     6.9991     6.4124   -34.5563
  569.5000   125.1153     6.4674     6.9990     6.4123   -34.5554
  569.6000   124.2828     6.4672     7.0206     6.4122   -34.4986
  569.7000   122.8372     6.4670     7.0738     6.4121   -34.4039
  569.8000   121.3916     6.4859     7.1503     6.4120   -34.4030
  569.9000   119.9460     6.5117     7.1955     6.4119   -34.4019
  570.0000   118.5005     6.5115     7.2691     6.4118   -34.4012
  570.1000   116.8594     6.5113     7.3524     6.4246   -34.4737
  570.2000   115.5052     6.5111     7.4170     6.4612   -34.5491
  570.3000   113.9392     6.5110     7.4593     6.5012   -34.5482
  570.4000   112.4924     6.5269     7.5029     6.5011   -34.5473
  570.5000   111.4012     6.5640     7.6054     6.5268   -34.5464
  570.6000   111.0341     6.6013     7.6053     6.5462   -34.5455
  570.7000   110.2996     6.6012     7.6569     6.5558   -34.5446
  570.8000   109.8526     6.6305     7.7113     6.5916   -34.5816
  570.9000   109.4862     6.6682     7.7182     6.5915   -34.6926
  571.0000   108.9912     6.6928     7.7647     6.6224   -34.6915
  571.1000   108.3286     6.7028     7.8065     6.6601   -34.6907
  571.2000   108.1314     6.7859     7.8186     6.7128   -34.7717
  571.3000   107.7958     6.8213     7.8184     6.7831   -34.8386
  571.4000   107.5583     6.8601     7.8183     6.8238   -34.8377
  571.5000   107.4656     6.9183     7.8182     6.8606   -34.8368
  571.6000   107.3702     7.0081     7.8181     6.9285   -34.8358
  571.7000   106.9854     7.1286     7.8180     6.9874   -34.8350
  571.8000   106.1268     7.2720     7.8179     7.0272   -34.8341
  571.9000   105.3603     7.3414     7.8178     7.0702   -34.8332
  572.0000   104.6676     7.4518     7.8177     7.1629   -34.8323
  572.1000   104.2642     7.5626     7.8176     7.1978   -34.8314
  572.2000   104.0824     7.6409     7.8175     7.2652   -34.8305
  572.3000   103.8944     7.6859     7.8174     7.3308   -34.8296
  572.4000   103.8970     7.7282     7.7923     7.3809   -34.8287
  572.5000   103.7612     7.7721     7.7479     7.4670   -34.8278
  572.6000   103.6778     7.7926     7.7094     7.5508   -34.8269
  572.7000   103.6805     7.8065     7.7092     7.5712   -34.8259
  572.8000   103.6647     7.8509     7.7091     7.5946   -34.8251
  572.9000   103.4617     7.9007     7.7090     7.6378   -34.8243
  573.0000   103.4641     7.9005     7.7089     7.6767   -34.8234
  573.1000   103.4668     7.9003     7.7204     7.6766   -34.8225
  573.2000   103.4695     7.9001     7.7624     7.6765   -34.8216
  573.3000   103.4289     7.8999     7.7622     7.6764   -34.8205
