~VERSION INFORMATION
 VERS.                2.0:   CWLS LOG ASCII STANDARD - VERSION 2.0
 WRAP.                 NO:   ONE LINE PER DEPTH STEP
~WELL INFORMATION
#MNEM.UNIT      DATA TYPE    INFORMATION
#----------   ------------   ------------------------------
 STRT.F           28.0000:   START DEPTH
 STOP.F          659.0000:   STOP DEPTH
 STEP.F            0.5000:   STEP LENGTH
 NULL.          -999.2500:   NO VALUE
 COMP. FENIX & SCISSON INC:   COMPANY
 WELL.    NPR 3 #46-SX-34:   WELL
 FLD .             TEAPOT:   FIELD
 LOC .      S34 T39N R78W:   LOCATION
 CNTY.            NATRONA:   COUNTY
 STAT.            WYOMING:   STATE
 CTRY. UNITED STATES OF AMERICA:   COUNTRY
 SRVC.              Welex:   SERVICE COMPANY
 DATE.        01-MAY-1977:   LOGDATE
 API .       490251035600:   API NUMBER
~CURVE INFORMATION
#MNEM.UNIT       API CODE    CURVE DESCRIPTION
#----------   ------------   ------------------------------
 DEPT.F                  :   
 CALD.IN     45 280 60 00:   CALIPER FROM DENSITY
 GRD .GAPI   45 310 01 00:   GAMMA RAY FROM DENSITY LOG
 CORR.G/C3   45 356 01 00:   DENSITY CORRECTION
 DPHI.DEC    45 890 12 00:   DENSITY POROSITY SANDSTONE
 RHOB.G/C3   45 350 01 00:   BULK DENSITY
 SPR .MV     07 010 01 00:   SPONTANEOUS POTENTIAL
 ILD .OHMM   07 120 46 00:   INDUCTION LOG DEEP
 ILM .OHMM   07 120 44 00:   INDUCTION LOG MEDIUM
 SGRD.OHMM   07 221 05 00:   SHALLOW SHORT GUARD RESISTIVITY
~PARAMETER INFORMATION
#MNEM.UNIT          VALUE    DESCRIPTION
#----------   ------------   ------------------------------
 PD  .                 GL:   PERMANENT DATUM
 EPD .F              5120:   ELEVATION PERMANENT DATUM
 LMF .                 GL:   LOG MEASURED FROM
 DMF .                 GL:   DRILLING MEASURED FROM
 EGL .F              5120:   GROUND LEVEL
 DATE.        01-MAY-1977:   RUN DATE
 RUN .                  1:   RUN NUMBER
 DD  .F               660:   DEPTH DRILLER
 DL  .F               663:   DEPTH LOGGER
 BLI .F               661:   BOTTOM LOG INTERVAL
 TLI .F                28:   TOP LOG INTERVAL
 CS  .IN            8.625:   CASING SIZE
 BS  .IN               12:   BIT SIZE
 BSD .F               660:   BIT SIZE AT DEPTH
 DFT .            KCL MUD:   DRILLING FLUID TYPE
 DFD .                8.7:   DRILLING FLUID DENSITY
 TCS .HRS            0100:   TIME CURCULATED STOPPED
 MRT .F                71:   MAXIMUM RECORDED TEMPERATURE
 ENGI.          T. JOYNER:   RECORDING ENGINEER
 WITN.            R. LYON:   WITNESSED BY
 CLNT.            A2DTECH:   CLIENT CODE
 ORIG.           5" PRINT:   ORIGIN OF DATA
 UWI .       490251035600:   UNIQUE WELL ID
 DICO. A2D Technologies, Inc.:   DIGITIZING COMPANY
~OTHER INFORMATION
~A   DEPT     CALD        GRD        CORR      DPHI       RHOB        SPR        ILD        ILM       SGRD   
# ...
  429.5000     7.8469   133.7838     0.0018     0.1340     2.4476   -40.9494     5.1510     9.4485    10.8048
  430.0000     7.8466   126.7966     0.0062     0.1280     2.4656   -40.6549     5.5941     9.9137    11.0293
  430.5000     7.8463   123.1026     0.0108     0.1222     2.4717   -40.6578     6.0754    10.4017    11.3294
  431.0000     7.8460   122.2001     0.0138     0.1168     2.4769   -40.5119     6.4629    10.6903    11.3262
  431.5000     7.8457   122.2268     0.0168     0.1147     2.4822   -40.3661     6.8280    11.0629    11.3231
  432.0000     7.8454   124.0240     0.0169     0.1123     2.4883   -40.3572     7.1641    11.2919    11.3984
  432.5000     7.8300   124.9249     0.0184     0.1156     2.4875   -40.2231     7.3629    11.3677    11.3951
  433.0000     7.8147   124.4745     0.0184     0.1165     2.4876   -40.2262     7.5152    11.3652    11.3914
  433.5000     7.7994   123.5736     0.0184     0.1165     2.4876   -40.2297     7.5136    11.3629    11.3882
  434.0000     7.7991   123.1231     0.0184     0.1162     2.4876   -40.2327     7.4604    11.3606    11.3851
  434.5000     7.7988   123.5736     0.0169     0.1146     2.4876   -40.2356     7.4589    11.3582    11.3820
  435.0000     7.7984   125.0751     0.0154     0.1122     2.4893   -40.2385     7.5090    11.3559    11.3789
  435.5000     7.8133   126.8769     0.0139     0.1146     2.4899   -40.2415     7.5594    11.3535    11.3757
  436.0000     7.7979   128.3784     0.0140     0.1146     2.4900   -40.2444     7.6100    11.3512    11.3726
  436.5000     7.7976   130.6306     0.0140     0.1143     2.4922   -40.2473     7.6611    11.3489    11.3695
  437.0000     7.7973   133.3333     0.0140     0.1143     2.4878   -40.2503     7.7125    11.3465    11.3664
  437.5000     7.7820   132.1321     0.0140     0.1180     2.4810   -40.2532     7.7643    11.4292    11.5210
  438.0000     7.7816   124.2141     0.0140     0.1197     2.4780   -40.2562     7.7627    11.5789    11.5984
  438.5000     7.7813   122.3724     0.0155     0.1200     2.4780   -40.2591     7.7611    11.4866    11.5944
  439.0000     7.7810   124.9249     0.0156     0.1200     2.4781   -40.2620     7.7594    11.3252    11.1985
  439.5000     7.7657   120.7207     0.0171     0.1200     2.4781   -40.2650     7.6516    11.1660    10.9662
  440.0000     7.7654   118.3183     0.0186     0.1200     2.4781   -40.2679     7.4934    11.1000    10.9632
  440.5000     7.7801   116.5165     0.0186     0.1200     2.4781   -40.2708     7.2881    11.3296    11.2667
  441.0000     7.7798   115.0150     0.0202     0.1209     2.4774   -40.2738     6.9433    11.5640    11.7392
  441.5000     7.7945   114.4144     0.0202     0.1218     2.4759   -40.4256     6.6148    11.3250    12.6606
  442.0000     7.7942   117.4174     0.0217     0.1233     2.4743   -40.4286     6.2156    10.7151    12.9225
  442.5000     7.7939   120.1201     0.0217     0.1248     2.4690   -40.4321     5.8405    10.1381    12.8294
  443.0000     7.7936   122.0721     0.0232     0.1269     2.4639   -40.2855     5.4503     9.4607    12.4770
  443.5000     7.8084   126.7267     0.0248     0.1302     2.4602   -40.2892     5.1568     8.5295    11.8043
  444.0000     7.8232   129.2793     0.0248     0.1326     2.4550   -39.9945     4.9468     8.1260     7.9117
  444.5000     7.8229   130.3303     0.0233     0.1359     2.4497   -39.6998     4.8780     8.3515     5.8400
  445.0000     7.8226   129.5796     0.0188     0.1410     2.4437   -39.2563     4.9108     8.5833     5.3012
  445.5000     7.8223   128.2282     0.0112     0.1468     2.4309   -38.6640     5.0123     9.1940     6.0415
  446.0000     7.8219   125.1731     0.0097     0.1494     2.4287   -38.3686     5.3321     9.8481    12.4565
  446.5000     7.8216   123.1246     0.0143     0.1109     2.4536   -37.9251     5.5946    10.6218    14.3930
  447.0000     7.8213   115.9159     0.0158     0.1030     2.4920   -37.4824     6.1602    11.6153    14.6899
  447.5000     7.8210   113.2132     0.0143     0.1058     2.5025   -37.0389     6.5531    12.7896    14.8896
  448.0000     7.8207   115.0150     0.0143     0.1097     2.4965   -36.5954     7.2656    13.5120    14.8855
  448.5000     7.8204   118.6186     0.0158     0.1163     2.4830   -35.8543     7.9451    13.8870    14.7792
  449.0000     7.8352   121.6216     0.0189     0.1193     2.4778   -35.2620     8.6286    14.1743    14.5728
  449.5000     7.8348   122.5225     0.0219     0.1184     2.4763   -34.5209     9.6328    14.1714    14.3693
  450.0000     7.8338   120.9931     0.0250     0.1196     2.4741   -33.7798    10.3182    14.0718    14.2667
  450.5000     7.8237   118.8891     0.0280     0.1226     2.4710   -33.0637    10.8064    14.0716    14.6047
  451.0000     7.8136   116.5165     0.0310     0.1252     2.4678   -32.3476    11.3637    14.0714    14.9831
  451.5000     7.8035   112.0120     0.0311     0.1290     2.4633   -31.6917    12.0911    14.3973    15.5143
  452.0000     7.7934   104.8045     0.0311     0.1332     2.4581   -31.0950    13.1339    15.1799    16.8337
  452.5000     7.7864    98.9490     0.0326     0.1380     2.4506   -30.4983    14.2667    16.4891    20.5592
  453.0000     7.7857    95.9459     0.0322     0.1434     2.4400   -29.6039    16.0406    18.5394    23.7619
  453.5000     7.7853    81.3814     0.0322     0.1492     2.4279   -28.5608    18.4120    20.2777    32.6291
  454.0000     7.7847    69.9700     0.0291     0.1555     2.4144   -27.5177    21.5757    22.9567    47.6733
  454.5000     7.7841    70.4204     0.0291     0.1648     2.4015   -26.7722    25.6339    25.9898    37.4529
  455.0000     7.7684    71.9219     0.0260     0.1763     2.3797   -25.8778    27.6534    29.4235    30.0384
  455.5000     7.7678    74.1742     0.0230     0.1935     2.3548   -25.1323    28.6232    33.0821    26.7164
  456.0000     7.7823    76.2763     0.0229     0.2085     2.3390   -24.5356    26.3506    34.7177    30.2462
  456.5000     7.7666    74.4745     0.0229     0.2131     2.3271   -24.5342    20.9888    34.9579    36.6862
  457.0000     7.7509    72.8729     0.0228     0.2140     2.3186   -24.5327    17.1855    32.4049    37.4529
  457.5000     7.7353    72.5225     0.0228     0.2146     2.3193   -24.6800    15.4971    30.0384    33.5414
  458.0000     7.7347    78.0781     0.0242     0.2051     2.3313   -24.8294    15.5144    27.6534    30.8783
  458.5000     7.7341    81.5315     0.0257     0.1871     2.3576   -25.1235    16.6620    25.8112    29.6271
  459.0000     7.7485    85.1351     0.0257     0.1764     2.3802   -25.1428    18.3518    24.0917    29.4235
  459.5000     7.7930    87.3874     0.0256     0.1691     2.3922   -25.4182    19.8626    22.1728    29.0153
  460.0000     7.8076    88.5886     0.0256     0.1707     2.3982   -25.4164    20.5592    20.6920    27.6156
  460.5000     7.8220    87.2372     0.0255     0.1755     2.3860   -25.4149    20.4179    20.0000    25.5918
  461.0000     7.8063    86.3363     0.0255     0.1794     2.3793   -25.1158    20.0000    20.0000    24.7653
  461.5000     7.8049    84.8348     0.0269     0.1830     2.3718   -24.9656    19.5906    20.5592    25.6339
  462.0000     7.7901    82.4324     0.0269     0.1861     2.3665   -24.5177    19.4560    21.1340    27.6534
  462.5000     7.7895    80.4805     0.0269     0.1900     2.3612   -24.3674    19.5906    21.7249    27.0874
  463.0000     7.7738    79.8549     0.0268     0.1951     2.3529   -23.9195    20.0000    22.7990    26.7164
  463.5000     7.7882    79.4294     0.0268     0.2018     2.3453   -23.6204    20.7014    23.7619    27.0874
  464.0000     7.7876    79.2793     0.0267     0.2066     2.3362   -23.3213    21.5757    24.7653    29.0206
  464.5000     7.7720    79.1291     0.0267     0.2118     2.3302   -23.0223    22.1789    25.6339    29.4235
  465.0000     7.7714    78.6787     0.0251     0.2172     2.3189   -22.8720    23.1156    26.5329    30.6661
  465.5000     7.7708    77.9279     0.0236     0.2250     2.3069   -22.5729    24.0917    27.4634    36.4342
