~VERSION INFORMATION
 VERS.                2.0:   CWLS LOG ASCII STANDARD - VERSION 2.0
 WRAP.                 NO:   ONE LINE PER DEPTH STEP
~WELL INFORMATION
#MNEM.UNIT      DATA TYPE    INFORMATION
#----------   ------------   ------------------------------
 STRT.F           30.0000:   START DEPTH
 STOP.F          637.0000:   STOP DEPTH
 STEP.F            0.5000:   STEP LENGTH
 NULL.          -999.2500:   NO VALUE
 COMP.    FENIX & SCISSON:   COMPANY
 WELL.        NPR #82-S-3:   WELL
 FLD .             TEAPOT:   FIELD
 LOC .       S3 T38N R78W:   LOCATION
 CNTY.            NATRONA:   COUNTY
 STAT.            WYOMING:   STATE
 CTRY. UNITED STATES OF AMERICA:   COUNTRY
 SRVC.              Welex:   SERVICE COMPANY
 DATE.        08-MAY-1977:   LOGDATE
 API .       490251035100:   API NUMBER
~CURVE INFORMATION
#MNEM.UNIT       API CODE    CURVE DESCRIPTION
#----------   ------------   ------------------------------
 DEPT.F                  :   
 SPR .MV     07 010 01 00:   SPONTANEOUS POTENTIAL FROM RES.
 ILD .OHMM   07 120 46 00:   INDUCTION LOG DEEP
 ILM .OHMM   07 120 44 00:   INDUCTION LOG MEDIUM
 SGRD.OHMM   07 220 05 00:   SHALLOW GUARD RESISTIVITY
 GRD .GAPI   45 310 01 00:   GAMMA RAY FROM DENSITY LOG
 CALD.IN     45 280 60 00:   CALIPER FROM DENSITY LOG
 CORR.G/C3   45 356 01 00:   DENSITY CORRECTION
 RHOB.G/C3   45 350 01 00:   BULK DENSITY
 DPHI.DEC    45 890 12 00:   DENSITY POROSITY SANDSTONE
~PARAMETER INFORMATION
#MNEM.UNIT          VALUE    DESCRIPTION
#----------   ------------   ------------------------------
 PD  .                 GL:   PERMANENT DATUM
 EPD .F              5100:   ELEVATION PERMANENT DATUM
 LMF .                 GL:   LOG MEASURED FROM
 DMF .                 GL:   DRILLING MEASURED FROM
 EGL .F              5100:   GROUND LEVEL
 DATE.        08-MAY-1977:   RUN DATE
 RUN .                  1:   RUN NUMBER
 DD  .F               635:   DEPTH DRILLER
 DL  .F               640:   DEPTH LOGGER
 BLI .F               638:   BOTTOM LOG INTERVAL
 TLI .F                30:   TOP LOG INTERVAL
 CS  .IN            8.625:   CASING SIZE
 CBD .F                40:   CASING BOTTOM DRILLER
 CBL .F                38:   CASING BOTTOM LOGGER
 BS  .IN            7.875:   BIT SIZE
 BSD .F               635:   BIT SIZE AT DEPTH
 DFT .            KCL MUD:   DRILLING FLUID TYPE
 DFD .                8.8:   DRILLING FLUID DENSITY
 DFV .                 32:   DRILLING FLUID VISCOSITY
 DFPH.                7.5:   DRILLING FLUID PH
 MSS .           FLOWLINE:   MUD SAMPLE SOURCE
 RMS .OHMM            .25:   RESISTIVITY MUD SAMPLE
 MST .F                80:   MUD SAMPLE TEMPERATURE
 RMF .OHMM            .22:   RESISTIVITY MUD FILTRATE SAMPLE
 MFST.F                80:   MUD FILTRATE SAMPLE TEMPERATURE
 RMC .OHMM            .31:   RESISTIVITY MUD CAKE
 MCST.F                80:   MUD CAKE SAMPLE TEMPERATURE
 MFSS.               MEAS:   MUD FILTRATE SAMPLE SOURCE
 MCSS.               MEAS:   MUD CAKE SAMPLE SOURCE
 RMB .OHMM            .23:   RESISTIVITY MUD AT BHT
 BHT .F                87:   BOTTOM HOLE TEMPERATURE
 TCS .HRS            0130:   TIME CURCULATED STOPPED
 MRT .F                87:   MAXIMUM RECORDED TEMPERATURE
 LUN .               8611:   LOGGING UNIT NUMBER
 LUL .             CASPER:   LOGGING UNIT LOCATION
 ENGI.            C. DOAK:   RECORDING ENGINEER
 WITN.            R. LYON:   WITNESSED BY
 CLNT.            A2DTECH:   CLIENT CODE
 ORIG.           5" PRINT:   ORIGIN OF DATA
 UWI .       490251035100:   UNIQUE WELL ID
 DICO. A2D Technologies, Inc.:   DIGITIZING COMPANY
~OTHER INFORMATION
~A   DEPT      SPR        ILD        ILM       SGRD         GRD      CALD        CORR        RHOB     DPHI   
# ...
  139.5000   -48.5067     8.3284    10.1023    12.9134   117.4598     7.9991     0.0407     2.4501     0.1332
  140.0000   -48.9338     8.4486     9.9121    12.8294   114.9419     8.0002     0.0452     2.4666     0.1182
  140.5000   -49.0717     8.6298    10.0578    12.7474   113.7603     8.0012     0.0453     2.4764     0.1206
  141.0000   -48.3153     8.8148    10.5563    12.4925   118.2393     8.0022     0.0423     2.4651     0.1248
  141.5000   -47.7103     8.9421    10.6344    12.5135   120.1857     8.0033     0.0409     2.4608     0.1287
  142.0000   -47.4010     8.9470    10.7131    12.8545   121.8344     8.0043     0.0395     2.4662     0.1209
  142.5000   -47.3877     9.0138    10.8670    12.9496   123.1856     7.9902     0.0395     2.4713     0.1203
  143.0000   -47.5256     9.0188    11.0231    13.3439   123.6409     7.9764     0.0396     2.4660     0.1244
  143.5000   -47.5089     9.0238    11.1815    13.9124   122.7628     7.9777     0.0352     2.4647     0.1262
  144.0000   -47.4955     9.0912    11.2642    14.6816   125.6020     7.9787     0.0322     2.4647     0.1262
  144.5000   -47.4821     9.0962    11.1923    13.9967   127.8460     7.9798     0.0278     2.4625     0.1277
  145.0000   -47.4687     9.1013    10.9687    13.8024   132.6197     7.9808     0.0279     2.4634     0.1253
  145.5000   -47.6066     9.1693    10.8985    13.6291   132.0363     7.9818     0.0309     2.4672     0.1240
  146.0000   -47.5899     9.2378    11.0682    13.6358   130.8577     7.9977     0.0340     2.4731     0.1201
  146.5000   -47.4286     9.3068    10.5399    13.5422   130.1255     7.9988     0.0355     2.4769     0.1195
  147.0000   -47.4153     9.4411    10.3994    13.3695   129.0957     7.9998     0.0371     2.4770     0.1195
  147.5000   -47.4019     9.5774    10.8448    13.2841   127.9170     8.0157     0.0401     2.4785     0.1195
  148.0000   -47.3885     9.7828    11.2303    14.0480   127.0360     8.0165     0.0402     2.4785     0.1192
  148.5000   -47.2272     9.9240    11.0060    14.4469   127.1966     8.0069     0.0402     2.4778     0.1192
  149.0000   -47.2139    10.0672    11.2412    14.5507   126.9109     7.9985     0.0418     2.4794     0.1189
  149.5000   -47.2005    10.2125    11.5609    14.5578   125.5834     7.9901     0.0449     2.4809     0.1165
  150.0000   -47.0244    10.3722    11.4857    14.8692   122.6190     7.9817     0.0449     2.4868     0.1124
  150.5000   -46.8077    10.5360    11.4921    15.2923   121.4447     7.9733     0.0450     2.4945     0.1089
  151.0000   -46.5730    10.7338    11.5781    15.1932   117.5904     7.9636     0.0435     2.4915     0.1119
  151.5000   -45.9694    10.8895    11.9896    14.9937   117.0101     7.9647     0.0422     2.4804     0.1191
  152.0000   -45.8097    11.1222    12.5016    15.6402   116.4297     7.9657     0.0407     2.4655     0.1274
  152.5000   -45.6499    11.2840    12.7688    16.6629   114.8039     7.9667     0.0377     2.4543     0.1322
  153.0000   -45.6381    11.4455    12.7749    19.9257   115.8641     7.9678     0.0334     2.4521     0.1348
  153.5000   -45.7742    11.4518    12.6062    16.9807   116.4742     7.9688     0.0289     2.4492     0.1390
  154.0000   -45.7623    11.4581    12.7872    14.8241   118.1259     7.9847     0.0233     2.4229     0.1575
  154.5000   -45.7505    11.3857    13.0605    16.0199   121.2658     7.9857     0.0219     2.4023     0.1635
  155.0000   -45.8895    11.2361    12.8880    16.7988   122.7687     7.9868     0.0190     2.4060     0.1575
  155.5000   -46.0227    11.0858    12.7163    16.1179   121.7419     7.9878     0.0176     2.4129     0.1544
  156.0000   -46.0108    10.9428    13.2609    15.6948   119.5246     7.9889     0.0222     2.4182     0.1517
  156.5000   -46.1499    10.8736    13.1762    15.9301   121.0275     7.9899     0.0238     2.4264     0.1481
  157.0000   -46.1351    10.8015    12.9129    16.0382   124.0186     7.9909     0.0254     2.4294     0.1466
  157.5000   -46.2742    10.6630    12.6533    15.7069   126.7120     7.9920     0.0255     2.4295     0.1478
  158.0000   -46.4103    10.5956    13.1046    15.3921   129.4054     7.9930     0.0256     2.4288     0.1457
  158.5000   -46.5464    10.5287    13.0209    15.3048   130.3131     7.9792     0.0257     2.4350     0.1405
  159.0000   -46.6824    10.4621    12.7607    15.3123   128.2446     7.9802     0.0259     2.4453     0.1366
  159.5000   -46.8185    10.3960    12.6777    15.4257   126.3249     7.9813     0.0260     2.4476     0.1363
  160.0000   -46.8037    10.3257    12.9502    15.6475   128.1255     7.9672     0.0245     2.4474     0.1390
  160.5000   -46.7919    10.2651    13.0444    15.6399   128.8844     7.9685     0.0232     2.4447     0.1384
  161.0000   -46.7801    10.2708    12.6975    15.3417   127.7088     7.9695     0.0218     2.4439     0.1380
  161.5000   -46.7682    10.2765    12.5283    15.3494   126.6819     7.9706     0.0189     2.4357     0.1419
  162.0000   -46.7564    10.2822    12.8861    15.3568   125.8036     7.9716     0.0175     2.4283     0.1473
  162.5000   -46.7446    10.2878    13.1615    15.2411   125.8309     7.9726     0.0176     2.4277     0.1487
  163.0000   -46.7327    10.3646    13.0775    15.0390   120.9229     7.9737     0.0177     2.4409     0.1403
  163.5000   -46.7209    10.3703    13.0838    14.9604   117.0687     7.9747     0.0223     2.4549     0.1331
  164.0000   -46.7091    10.3761    13.7367    14.9679   116.9029     7.9758     0.0284     2.4694     0.1212
  164.5000   -46.6972    10.3818    14.7235    15.6053   119.6281     7.9619     0.0330     2.4844     0.1086
  165.0000   -46.6854    10.3875    13.0127    20.0133   117.7085     7.9630     0.0376     2.4993     0.1005
  165.5000   -46.6736    10.3218    12.3209    15.6241   116.5328     7.9789     0.0392     2.5057     0.1025
  166.0000   -46.6617    10.3276    11.7465    14.4901   118.3334     7.9799     0.0378     2.4887     0.1100
  166.5000   -46.6499    10.3333    11.5900    14.1011   120.1339     7.9809     0.0319     2.4749     0.1195
  167.0000   -46.7890    10.3390    11.7578    14.5041   120.4464     7.9820     0.0275     2.4631     0.1291
  167.5000   -46.9250    10.3447    12.0077    15.0200   119.8660     7.9830     0.0246     2.4579     0.1329
  168.0000   -46.9103    10.3504    11.4493    14.3192   120.1785     7.9841     0.0232     2.4528     0.1356
  168.5000   -47.0493    10.2848    11.2192    14.8286   118.7052     7.9851     0.0233     2.4463     0.1353
  169.0000   -47.1854    10.2907    11.2259    14.9383   121.2707     7.9861     0.0234     2.4517     0.1323
  169.5000   -47.1706    10.2165    11.0016    14.5390   123.2248     7.9872     0.0251     2.4547     0.1308
  170.0000   -47.3097    10.0911    10.6342    14.1504   125.0397     7.9731     0.0266     2.4563     0.1298
  170.5000   -47.2949    10.0274    10.4217    13.9617   126.6632     7.9744     0.0298     2.4577     0.1301
  171.0000   -47.5819     9.9640    10.3539    14.2620   125.5735     7.9754     0.0343     2.4570     0.1307
  171.5000   -47.7179     9.8915    10.2878    14.0718   123.3644     7.9616     0.0361     2.4571     0.1310
  172.0000   -47.8511     9.7039    10.0834    14.2758   123.1246     7.9627     0.0390     2.4564     0.1294
  172.5000   -47.9901     9.6329     9.9490    14.5811   124.3476     7.9637     0.0422     2.4627     0.1257
  173.0000   -48.2742     9.4408     9.7502    14.5882   127.6587     7.9647     0.0453     2.4701     0.1205
  173.5000   -48.2594     9.1987     9.5565    14.2964   132.9918     7.9658     0.0469     2.4812     0.1140
  174.0000   -48.5434     9.1406     9.4292    13.5358   135.8340     7.9668     0.0485     2.4944     0.1077
  174.5000   -48.6824     9.0205     9.3046    12.8157   138.8251     7.9678     0.0501     2.5029     0.1048
  175.0000   -48.6677     8.9535     9.5046    12.2178   137.7982     7.9689     0.0502     2.4992     0.1054
  175.5000   -48.8067     8.7750     9.5750    11.8081   134.3905     7.9699     0.0488     2.4947     0.1087
