~VERSION INFORMATION
 VERS.                2.0:   CWLS LOG ASCII STANDARD - VERSION 2.0
 WRAP.                 NO:   ONE LINE PER DEPTH STEP
~WELL INFORMATION
#MNEM.UNIT      DATA TYPE    INFORMATION
#----------   ------------   ------------------------------
 STRT.F           18.0000:   START DEPTH
 STOP.F          501.0000:   STOP DEPTH
 STEP.F            0.5000:   STEP LENGTH
 NULL.          -999.2500:   NO VALUE
 COMP. FENIX & SCISSON INC:   COMPANY
 WELL.     NPR-3 SX #34-3:   WELL
 FLD .             TEAPOT:   FIELD
 LOC .       S3 T38N R78W:   LOCATION
 CNTY.            NATRONA:   COUNTY
 STAT.            WYOMING:   STATE
 CTRY. UNITED STATES OF AMERICA:   COUNTRY
 SRVC.            Unknown:   SERVICE COMPANY
 DATE.        13-JUL-1978:   LOGDATE
 API .       490251066600:   API NUMBER
~CURVE INFORMATION
#MNEM.UNIT       API CODE    CURVE DESCRIPTION
#----------   ------------   ------------------------------
 DEPT.F                  :   
 SPR .MV     05 010 01 00:   SPONTANEOUS POTENTIAL FROM RES.
 SN  .OHMM   05 040 16 00:   SHORT NORMAL 16"
 ILD .OHMM   05 120 46 00:   INDUCTION LOG DEEP
 CALD.IN     45 280 60 00:   CALIPER FROM DENSITY LOG
 GRD .GAPI   45 310 01 00:   GAMMA RAY FROM DENSITY LOG
 CORR.G/C3   45 356 01 00:   DENSITY CORRECTION
 DEN .G/C3   45 350 01 00:   COMPENSATED BULK DENSTIY
 DPHI.DEC    45 890 12 00:   DENSITY POROSITY SANDSTONE
~PARAMETER INFORMATION
#MNEM.UNIT          VALUE    DESCRIPTION
#----------   ------------   ------------------------------
 PD  .                 GL:   PERMANENT DATUM
 EPD .F              5209:   ELEVATION PERMANENT DATUM
 LMF .                 KB:   LOG MEASURED FROM
 DAPD.F                 4:   FEET ABOVE PERMANENT DATUM
 DMF .                 KB:   DRILLING MEASURED FROM
 EKB .F              5213:   KELLING BUSHING
 EGL .F              5209:   GROUND LEVEL
 DATE.            7-13-78:   RUN DATE
 RUN .                  1:   RUN NUMBER
 DD  .F               500:   DEPTH DRILLER
 DL  .F               507:   DEPTH LOGGER
 BLI .F               500:   BOTTOM LOG INTERVAL
 TLI .F                30:   TOP LOG INTERVAL
 CS  .IN            8.625:   CASING SIZE
 CBL .F                30:   CASING BOTTOM LOGGER
 BS  .IN            7.875:   BIT SIZE
 BSD .F               500:   BIT SIZE AT DEPTH
 DFT .                KCL:   DRILLING FLUID TYPE
 DFD .                8.6:   DRILLING FLUID DENSITY
 DFV .                 32:   DRILLING FLUID VISCOSITY
 DFPH.                  9:   DRILLING FLUID PH
 DFL .               12.2:   DRILLING FLUID LOSS
 MSS .          FLOW LINE:   MUD SAMPLE SOURCE
 RMS .OHMM            .22:   RESISTIVITY MUD SAMPLE
 MST .F                80:   MUD SAMPLE TEMPERATURE
 RMF .OHMM            .19:   RESISTIVITY MUD FILTRATE SAMPLE
 MFST.F                88:   MUD FILTRATE SAMPLE TEMPERATURE
 RMC .OHMM            .38:   RESISTIVITY MUD CAKE
 MCST.F                84:   MUD CAKE SAMPLE TEMPERATURE
 MFSS.               MEAS:   MUD FILTRATE SAMPLE SOURCE
 BHT .F                76:   BOTTOM HOLE TEMPERATURE
 TCS .HRS               1:   TIME CURCULATED STOPPED
 MRT .F                76:   MAXIMUM RECORDED TEMPERATURE
 LUN .               2958:   LOGGING UNIT NUMBER
 LUL .               CASP:   LOGGING UNIT LOCATION
 ENGI.             MILLER:   RECORDING ENGINEER
 WITN.           MCGINLEY:   WITNESSED BY
 CLNT.            A2DTECH:   CLIENT CODE
 ORIG. 2", 2.5", 5" PRINT:   ORIGIN OF DATA
 UWI .       490251066600:   UNIQUE WELL ID
 DICO. A2D Technologies, Inc.:   DIGITIZING COMPANY
~OTHER INFORMATION
~A   DEPT      SPR         SN        ILD       CALD        GRD       CORR        DEN       DPHI   
# ...
  261.0000   -36.7589     5.2347     5.2573     7.6371    97.9931     0.0667     2.4757     0.1177
  261.5000   -36.8952     5.3416     5.3696     7.6089    93.9836     0.1209     2.4248     0.1293
  262.0000   -37.0310     5.4938     5.5988     7.5507    88.8114     0.1091     2.4607     0.1299
  262.5000   -37.0147     5.6893     5.7977     7.5224    87.7756     0.0792     2.5635     0.1029
  263.0000   -37.1538     5.9326     6.1337     7.5241    87.9454     0.0816     2.5586     0.1385
  263.5000   -37.2896     6.1862     6.4357     7.5260    89.4585     0.1186     2.4680     0.1316
  264.0000   -37.2733     6.4508     6.7104     7.5725    92.3189     0.0377     2.4658     0.1279
  264.5000   -37.2603     6.7266     6.9969     7.5890    94.1314     0.0063     2.4824     0.1186
  265.0000   -37.2470     7.0207     7.2455     7.6205    95.3411     0.0049     2.4968     0.1221
  265.5000   -37.2310     7.4166     7.5029     7.6371    93.4151     0.0111     2.4856     0.1248
  266.0000   -37.2179     7.6806     7.7161     7.6387    90.4372     0.0008     2.4782     0.1214
  266.5000   -37.2049     7.7378     7.8269     7.6250    89.2440    -0.0021     2.4828     0.1205
  267.0000   -37.1919     7.7420     7.7768     7.6419    89.2725    -0.0019     2.4837     0.1231
  267.5000   -37.3309     7.6919     7.6740     7.6286    90.4895    -0.0017     2.4876     0.1195
  268.0000   -37.1658     7.5396     7.5637     7.6152    92.1523    -0.0016     2.4976     0.1164
  268.5000   -37.1528     7.3386     7.3710     7.6169    93.3660    -0.0014     2.4893     0.1272
  269.0000   -37.2887     7.1430     7.2237     7.6185    90.8372    -0.0027     2.4729     0.1352
  269.5000   -37.2753     7.0490     7.0306     7.6354    89.3562    -0.0056     2.4610     0.1370
  270.0000   -37.4114     7.1025     6.8893     7.6217    89.5220    -0.0114     2.4686     0.1333
  270.5000   -37.5471     7.2049     6.7059     7.6237    89.6878    -0.0097     2.4732     0.1303
  271.0000   -37.6797     7.2586     6.6173     7.6253    89.5539    -0.0081     2.4650     0.1335
  271.5000   -37.6667     7.3127     6.5749     7.6116    89.2690    -0.0049     2.4644     0.1344
  272.0000   -37.6536     6.5081     6.4423     7.6136    88.5229    -0.0047     2.4682     0.1349
  272.5000   -37.6406     6.2479     6.1687     7.6152    88.1055    -0.0046     2.4556     0.1463
  273.0000   -37.6276     6.0396     5.6981     7.6168    95.7603    -0.0029     2.4497     0.1442
  273.5000   -37.6146     5.7981     5.4324     7.6035    99.3692    -0.0026     2.4529     0.1408
  274.0000   -37.6012     5.5968     5.2509     7.6051   100.1298     0.0006     2.4429     0.1612
  274.5000   -37.5853     5.3079     5.1453     7.5917    97.6050     0.0186     2.4253     0.1734
  275.0000   -37.4234     5.2735     5.1483     7.5934    93.4295     0.0233     2.4059     0.1875
  275.5000   -37.2616     5.3503     5.2222     7.5951    92.9924     0.0325     2.3775     0.1676
  276.0000   -37.0998     5.5408     5.3706     7.5819    93.4617     0.0416     2.3730     0.1448
  276.5000   -36.9379     5.8176     5.5233     7.5686    94.3760     0.0778     2.3972     0.1525
  277.0000   -36.7761     6.1083     5.7308     7.5502    94.3921     0.1531     2.5030     0.1519
  277.5000   -36.4655     6.5025     6.2161     8.0800    92.8120     0.1187     2.4326     0.1287
  278.0000   -36.3036     7.0194     6.8016     7.7079    89.3384     0.0243     2.4748     0.1323
  278.5000   -36.1414     7.4777     7.1904     7.6348    89.9533    -0.0026     2.4689     0.1325
  279.0000   -35.8279     7.6321     7.4459     7.6365    91.4664    -0.0039     2.4675     0.1277
  279.5000   -35.8149     7.6890     7.5527     7.6384    91.0334    -0.0038     2.4739     0.1255
  280.0000   -35.8018     7.6931     7.6085     7.6400    90.4507    -0.0021     2.4789     0.1210
  280.5000   -35.6400     7.6972     7.6121     7.6416    89.7183     0.0026     2.4850     0.1179
  281.0000   -35.6270     7.7014     7.6156     7.6433    89.1356     0.0043     2.4896     0.1146
  281.5000   -35.6140     7.7055     7.6193     7.6449    89.4511     0.0074     2.4995     0.1118
  282.0000   -35.6009     7.6566     7.6229     7.6465    90.2157     0.0106     2.5041     0.1091
  282.5000   -35.5878     7.6608     7.5740     7.6481    91.3099     0.0107     2.5117     0.1063
  283.0000   -35.5744     7.6651     7.5785     7.6497    92.6916     0.0094     2.5088     0.1051
  283.5000   -35.5586     7.6700     7.5820     7.6513    93.8608     0.0066     2.5074     0.1075
  284.0000   -35.5456     7.6742     7.5856     7.6529    94.6254     0.0037     2.5090     0.1120
  284.5000   -35.5326     7.6256     7.5891     7.6546    95.2403     0.0022     2.5099     0.1133
  285.0000   -35.5195     7.6296     7.5927     7.6562    94.5079    -0.0019     2.5053     0.1148
  285.5000   -35.5065     7.6337     7.5963     7.6581    92.5779    -0.0048     2.4935     0.1168
  286.0000   -35.3447     7.6378     7.5999     7.6595    93.9412    -0.0061     2.4907     0.1192
  286.5000   -35.3316     7.5894     7.6035     7.6611    95.9035    -0.0059     2.4923     0.1113
  287.0000   -35.3185     7.5936     7.6079     7.6628    96.8177    -0.0058     2.5014     0.1059
  287.5000   -35.3051     7.5978     7.6115     7.6644    96.2350    -0.0086     2.5135     0.1119
  288.0000   -35.2893     7.6027     7.6150     7.6661    94.2635    -0.0130     2.4859     0.1196
  288.5000   -35.4284     7.5535     7.6186     7.6678    93.5726    -0.0113     2.4890     0.1217
  289.0000   -35.4121     7.5067     7.5690     7.6652    95.2394    -0.0051     2.4868     0.1207
  289.5000   -35.3991     7.4070     7.5205     7.6601    97.3513     0.0026     2.4839     0.1210
  290.0000   -35.3860     7.2105     7.3710     7.6549    96.3195     0.0057     2.4870     0.1221
  290.5000   -35.5218     6.9701     7.1741     7.6498    94.5392     0.0089     2.4864     0.1233
  291.0000   -35.3600     6.5546     6.7386     7.6460    93.6571     0.0106     2.4842     0.1235
  291.5000   -35.3467     6.2034     6.1717     7.6477    93.2241     0.0122     2.4799     0.1264
  292.0000   -35.3307     6.0003     5.9246     7.6493    92.6414     0.0139     2.4725     0.1396
  292.5000   -35.3177     5.9206     5.7267     7.6360    92.0584     0.0156     2.4486     0.1483
  293.0000   -35.3046     5.7636     5.6122     7.6377    92.5320     0.0172     2.4314     0.1557
  293.5000   -35.2916     5.7263     5.4993     7.6396    93.1387     0.0234     2.4097     0.1668
  294.0000   -35.1298     5.8498     5.5789     7.6412    92.4063     0.0341     2.4421     0.1698
  294.5000   -35.1168     5.9751     5.7771     7.6428    93.3246     0.0522     2.5097     0.1601
  295.0000   -35.2525     6.0613     5.9824     7.7790    96.0353     0.1171     2.4521     0.1501
  295.5000   -35.2395     6.0229     6.0682     8.0642    97.2450     0.1059     2.4392     0.1360
  296.0000   -35.3889     5.9399     5.8137     7.6024    95.6184     0.0092     2.4680     0.1356
  296.5000   -35.5111     5.7068     5.5162     7.6044    96.8321     0.0139     2.4612     0.1423
  297.0000   -35.4948     5.5166     5.3681     7.6060    98.9440     0.0155     2.4446     0.1537
  297.5000   -35.6339     5.4059     5.3713     7.6077    99.4092     0.0172     2.4183     0.1755
  298.0000   -35.6176     5.3348     5.3738     7.6093   100.0241     0.0219     2.3674     0.1951
  298.5000   -35.4557     5.3384     5.3763     7.5959   100.3398     0.0295     2.3532     0.1987
  299.0000   -35.1451     5.3412     5.4912     7.5976   100.3557     0.0488     2.3645     0.1578
  299.5000   -34.5368     5.6859     5.8855     7.5996    99.4776     0.0794     2.4853     0.1389
  300.0000   -34.5238     6.1368     6.3082     7.6012    95.2994     0.1787     2.4269     0.1139
  300.5000   -34.5466     6.6533     6.8818     7.6120    94.7111     0.0648     2.4698     0.1064
  301.0000   -34.5694     6.8601     7.1994     7.6216    93.5442     0.0199     2.5111     0.1040
