~VERSION INFORMATION
 VERS.                2.0:   CWLS LOG ASCII STANDARD - VERSION 2.0
 WRAP.                 NO:   ONE LINE PER DEPTH STEP
~WELL INFORMATION
#MNEM.UNIT      DATA TYPE    INFORMATION
#----------   ------------   ------------------------------
 STRT.F           20.0000:   START DEPTH
 STOP.F          677.0000:   STOP DEPTH
 STEP.F            0.5000:   STEP LENGTH
 NULL.          -999.2500:   NO VALUE
 COMP. FENIX & SCISSON INC:   COMPANY
 WELL. 11 WI NPR 3 #36-26 SX:   WELL
 FLD .             TEAPOT:   FIELD
 LOC .      S11 T38N R78W:   LOCATION
 CNTY.            NATRONA:   COUNTY
 STAT.            WYOMING:   STATE
 CTRY. UNITED STATES OF AMERICA:   COUNTRY
 SRVC.      Dresser Atlas:   SERVICE COMPANY
 DATE.        06-AUG-1980:   LOGDATE
 API .       490251084100:   API NUMBER
~CURVE INFORMATION
#MNEM.UNIT       API CODE    CURVE DESCRIPTION
#----------   ------------   ------------------------------
 DEPT.F                  :   
 SPR .MV     07 010 01 00:   SPONTANEOUS POTENTIAL
 SFL .OHMM   07 220 01 00:   SHALLOW FOCUSED LOG RESISTIVITY
 ILD .OHMM   07 120 46 00:   INDUCTION LOG DEEP
 ILM .OHMM   07 120 44 00:   INDUCTION LOG MEDIUM
 GRD .GAPI   45 310 01 00:   GAMMA RAY FROM DENSITY LOG
 RHOB.G/C3   45 350 01 00:   BULK DENSITY
 CALD.IN     45 280 60 00:   CALIPER
 CORR.G/C3   45 356 01 00:   DENSITY CORRECTION
 DPOR.DEC    45 890 12 00:   DENSITY POROSITY SANDSTONE
 NPOR.DEC    42 890 03 00:   NEUTRON POROSITY SANDSTONE
~PARAMETER INFORMATION
#MNEM.UNIT          VALUE    DESCRIPTION
#----------   ------------   ------------------------------
 PD  .                 GL:   PERMANENT DATUM
 EPD .F              5191:   ELEVATION PERMANENT DATUM
 LMF .                 KB:   LOG MEASURED FROM
 DAPD.F                 5:   FEET ABOVE PERMANENT DATUM
 DMF .                 KB:   DRILLING MEASURED FROM
 EKB .F              5196:   KELLING BUSHING
 EGL .F              5191:   GROUND LEVEL
 DATE.             8-6-80:   RUN DATE
 RUN .                  1:   RUN NUMBER
 DD  .F               680:   DEPTH DRILLER
 DL  .F               679:   DEPTH LOGGER
 BLI .F               676:   BOTTOM LOG INTERVAL
 TLI .F                20:   TOP LOG INTERVAL
 BS  .IN            7.875:   BIT SIZE
 BSD .F               680:   BIT SIZE AT DEPTH
 DFT .                KCL:   DRILLING FLUID TYPE
 DFD .                9.4:   DRILLING FLUID DENSITY
 DFV .                 45:   DRILLING FLUID VISCOSITY
 DFPH.                 12:   DRILLING FLUID PH
 MSS .           FLOWLINE:   MUD SAMPLE SOURCE
 RMS .OHMM            .11:   RESISTIVITY MUD SAMPLE
 MST .F                65:   MUD SAMPLE TEMPERATURE
 RMF .OHMM             .1:   RESISTIVITY MUD FILTRATE SAMPLE
 MFST.F                60:   MUD FILTRATE SAMPLE TEMPERATURE
 RMC .OHMM            .17:   RESISTIVITY MUD CAKE
 MCST.F                65:   MUD CAKE SAMPLE TEMPERATURE
 MFSS.               MEAS:   MUD FILTRATE SAMPLE SOURCE
 MCSS.              CHART:   MUD CAKE SAMPLE SOURCE
 TCS .HRS              .5:   TIME CURCULATED STOPPED
 MRT .F               100:   MAXIMUM RECORDED TEMPERATURE
 LUN .               6240:   LOGGING UNIT NUMBER
 LUL .               RVTN:   LOGGING UNIT LOCATION
 ENGI.            K. RALL:   RECORDING ENGINEER
 WITN.     AMAND/MCINTYRE:   WITNESSED BY
 CLNT.            A2DTECH:   CLIENT CODE
 ORIG.        2" 5" PRINT:   ORIGIN OF DATA
 UWI .       490251084100:   UNIQUE WELL ID
 DICO. A2D Technologies, Inc.:   DIGITIZING COMPANY
~OTHER INFORMATION
~A   DEPT       SPR       SFL         ILD         ILM      GRD       RHOB       CALD       CORR       DPOR       NPOR   
# ...
  355.0000   -70.8541     7.4724     6.8791     6.5090   107.0452     2.4325     8.0761     0.0093     0.1527     0.3030
  355.5000   -70.9441     7.2689     6.9316     6.5090   110.7812     2.4465     8.0777     0.0250     0.1401     0.3110
  356.0000   -70.7302     7.6374     6.9972     6.6462   114.6065     2.4411     8.0793     0.0267     0.1427     0.3114
  356.5000   -70.5257     8.3447     7.0639     6.7446   114.7332     2.4369     8.0809     0.0258     0.1441     0.2978
  357.0000   -70.3810     8.2784     7.1311     6.8445   113.1180     2.4439     8.0826     0.0261     0.1406     0.2906
  357.5000   -70.5400     8.1487     7.1990     6.9459   109.6153     2.4467     8.0842     0.0247     0.1385     0.2897
  358.0000   -70.7140     8.0431     7.2676     7.0718   106.2138     2.4322     8.0858     0.0167     0.1461     0.2861
  358.5000   -70.7789     8.1339     7.3368     7.0707   103.4953     2.4229     8.0873     0.0161     0.1516     0.2732
  359.0000   -70.6743     8.2896     7.4032     7.0710   104.2818     2.4584     8.0890     0.0428     0.1388     0.2679
  359.5000   -70.5646     8.4992     7.4639     7.0710   106.4344     2.4919     8.0906     0.0515     0.1198     0.2725
  360.0000   -70.4555     8.4211     7.5344     7.0710   108.8298     2.5093     8.0922     0.0541     0.1014     0.2800
  360.5000   -70.3466     8.3029     7.6062     7.1006   111.1045     2.5106     8.0939     0.0454     0.1010     0.2854
  361.0000   -70.2377     8.1881     7.6787     7.1937   112.7474     2.4812     8.0955     0.0282     0.1154     0.2873
  361.5000   -70.1289     8.1175     7.7518     7.2881   113.5622     2.4464     8.0971     0.0110     0.1325     0.2891
  362.0000   -70.0197     8.2471     7.8256     7.3837   112.3036     2.4214     8.0987    -0.0077     0.1496     0.2881
  362.5000   -70.0085     8.4671     7.9001     7.4805   108.8147     2.4161     8.1003    -0.0050     0.1574     0.2866
  363.0000   -70.0729     8.6930     7.9753     7.5786   105.9187     2.4124     8.1019    -0.0003     0.1580     0.2884
  363.5000   -70.1368     8.8998     8.0513     7.6781   106.2567     2.4069     8.1035    -0.0032     0.1613     0.2970
  364.0000   -70.1787     8.8593     8.1279     7.8237   109.9826     2.4068     8.1052    -0.0067     0.1633     0.3090
  364.5000   -70.1581     8.8229     8.1925     7.7798   110.3521     2.4199     8.1068    -0.0061     0.1565     0.3146
  365.0000   -70.1383     8.7866     8.1175     7.6974   109.9292     2.4316     8.1080    -0.0015     0.1497     0.3085
  365.5000   -70.1184     8.7505     8.0536     7.6166   109.5050     2.4357     8.1079     0.0032     0.1463     0.2827
  366.0000   -70.0985     8.7152     7.9903     7.5368   109.3786     2.4401     8.1079     0.0079     0.1434     0.2587
  366.5000   -70.0786     8.6271     7.9274     7.4579   109.5827     2.4447     8.1079     0.0112     0.1404     0.2539
  367.0000   -70.0587     8.5400     7.8651     7.3797   110.4018     2.4515     8.1079     0.0150     0.1383     0.2545
  367.5000   -70.0388     8.4241     7.8031     7.3024   112.3359     2.4580     8.1079     0.0188     0.1349     0.2571
  368.0000   -70.0189     8.2844     7.7413     7.2689   114.5142     2.4511     8.1079     0.0227     0.1317     0.2631
  368.5000   -69.9988     8.1470     7.6815     7.2804   116.6566     2.4339     8.1079     0.0212     0.1381     0.2725
  369.0000   -69.9790     8.0431     7.7361     7.2888   118.9544     2.4457     8.1079     0.0206     0.1465     0.2754
  369.5000   -70.0256     8.1678     7.7906     7.2973   120.3187     2.4744     8.1079     0.0274     0.1357     0.2801
  370.0000   -70.0802     8.2703     7.8455     7.3057   119.4707     2.4878     8.1079     0.0294     0.1194     0.2874
  370.5000   -70.1348     8.4218     7.9008     7.3142   117.4167     2.4371     8.1079     0.0088     0.1158     0.2939
  371.0000   -70.1892     8.3893     7.9695     7.3227   115.4789     2.4004     8.1079    -0.0184     0.1477     0.3007
  371.5000   -70.2436     8.3299     7.9582     7.3311   115.4032     2.3869     8.1079    -0.0167     0.1709     0.3034
  372.0000   -70.2980     8.2709     7.9440     7.3361   116.2430     2.4058     8.1079    -0.0118     0.1736     0.3006
  372.5000   -70.3525     8.1925     7.9294     7.2894   116.4351     2.4371     8.1080     0.0068     0.1552     0.2935
  373.0000   -70.4069     8.2311     7.9149     7.2511   115.0086     2.4501     8.1095     0.0217     0.1413     0.2889
  373.5000   -70.4612     8.2898     7.8969     7.2130   113.8926     2.4485     8.1111     0.0234     0.1374     0.2884
  374.0000   -70.5159     8.3489     7.9324     7.1873   113.9698     2.4440     8.1127     0.0154     0.1378     0.2886
  374.5000   -70.5710     8.4218     7.9827     7.1663   115.3649     2.4221     8.1144     0.0045     0.1444     0.2997
  375.0000   -70.6692     8.3473     8.0431     7.1455   114.7726     2.4135     8.1160    -0.0006     0.1569     0.3230
  375.5000   -70.8160     8.2524     7.9634     7.1247   114.0464     2.4371     8.1176     0.0110     0.1573     0.3230
  376.0000   -70.9638     8.1585     7.8656     7.1039   113.6532     2.4554     8.1192     0.0214     0.1427     0.3010
  376.5000   -71.1116     8.0656     7.7689     7.0832   113.4004     2.4516     8.1208     0.0164     0.1336     0.2769
  377.0000   -71.2594     7.9743     7.6735     7.0626   112.7168     2.4432     8.1224     0.0109     0.1394     0.2623
  377.5000   -71.4073     7.8974     7.5394     7.0420   112.9148     2.4434     8.1240     0.0114     0.1409     0.2877
  378.0000   -71.5603     7.9108     7.5251     7.0215   113.4333     2.4565     8.1257     0.0173     0.1351     0.3018
  378.5000   -71.5094     7.9233     7.5108     7.0011   112.0790     2.4636     8.1272     0.0190     0.1289     0.3038
  379.0000   -71.4109     7.9358     7.4966     6.9807   111.2006     2.4645     8.1253     0.0209     0.1284     0.2934
  379.5000   -71.3119     7.9484     7.4824     6.9604   111.4082     2.4651     8.1163     0.0171     0.1282     0.2774
  380.0000   -71.2054     7.9609     7.3738     6.9069   111.3943     2.4562     8.1081     0.0051     0.1380     0.2811
  380.5000   -71.3850     7.9695     7.0454     6.5551   110.5349     2.4220     8.1079    -0.0066     0.1583     0.2866
  381.0000   -71.6655     7.7596     6.7316     6.2211   110.6041     2.3984     8.1079    -0.0255     0.1716     0.2824
  381.5000   -71.9486     7.5188     6.4318     5.9042   112.3341     2.3923     8.1079    -0.0194     0.1627     0.2743
  382.0000   -72.2357     7.0247     6.1453     5.6034   112.4061     2.4126     8.1079     0.0025     0.1468     0.2746
  382.5000   -72.5847     6.5641     5.9050     5.3158   110.7912     2.4424     8.1079     0.0191     0.1353     0.2817
  383.0000   -72.6668     6.1352     5.7775     5.1721   107.0891     2.4510     8.1079     0.0268     0.1569     0.2839
  383.5000   -72.7343     5.7752     5.6184     5.3854   105.0344     2.4321     8.1079     0.0115     0.1876     0.2857
  384.0000   -72.7095     5.9725     5.7437     5.5382   104.2900     2.3812     8.1079    -0.0067     0.1876     0.2874
  384.5000   -72.0706     6.6783     5.9234     5.6942   106.8438     2.3641     8.1079    -0.0149     0.1550     0.2956
  385.0000   -71.4292     7.4675     6.1087     5.8546   111.2532     2.4008     8.1079     0.0107     0.1340     0.3042
  385.5000   -71.0815     7.9695     6.2997     6.0193   115.5146     2.4418     8.1079     0.0236     0.1317     0.3038
  386.0000   -70.9061     7.8814     6.4968     6.1495   119.1794     2.4588     8.1079     0.0254     0.1294     0.2763
  386.5000   -70.7343     7.8248     6.7000     6.2738   119.0528     2.4590     8.1079     0.0268     0.1238     0.2762
  387.0000   -70.5622     7.8240     6.9096     6.4009   114.6796     2.4709     8.1079     0.0322     0.1292     0.2762
  387.5000   -70.3897     7.8242     7.1364     6.5311   112.5623     2.4716     8.1079     0.0249     0.1354     0.2654
  388.0000   -70.2127     7.8242     7.1364     6.6608   112.6859     2.4614     8.1079     0.0180     0.1369     0.2534
