~VERSION INFORMATION
 VERS.                2.0:   CWLS LOG ASCII STANDARD - VERSION 2.0
 WRAP.                 NO:   ONE LINE PER DEPTH STEP
~WELL INFORMATION
#MNEM.UNIT      DATA TYPE    INFORMATION
#----------   ------------   ------------------------------
 STRT.F           64.0000:   START DEPTH
 STOP.F          795.0000:   STOP DEPTH
 STEP.F            0.5000:   STEP LENGTH
 NULL.          -999.2500:   NO VALUE
 COMP. LAWRENCE/ALLISON INC:   COMPANY
 WELL.      23-61 SX #2-2:   WELL
 FLD .             TEAPOT:   FIELD
 LOC .       S2 T38N R78W:   LOCATION
 CNTY.            NATRONA:   COUNTY
 STAT.            WYOMING:   STATE
 CTRY. UNITED STATES OF AMERICA:   COUNTRY
 SRVC.              Welex:   SERVICE COMPANY
 DATE.        14-AUG-1985:   LOGDATE
 API .       490251103800:   API NUMBER
~CURVE INFORMATION
#MNEM.UNIT       API CODE    CURVE DESCRIPTION
#----------   ------------   ------------------------------
 DEPT.F                  :   
 SPR .MV     07 010 01 00:   SPONTANEOUS POTENTIAL
 ILD .OHMM   07 120 46 00:   INDUCTION LOG DEEP
 ILM .OHMM   07 120 44 00:   INDUCTION LOG MEDIUM
 SGRD.OHMM   07 221 05 00:   SHALLOW SHORT GUARD RESISTIVITY
 DPHI.DEC    45 890 12 00:   DENSITY POROSITY SANDSTONE
 NPHI.DEC    42 890 03 00:   NEUTRON POROSITY SANDSTONE
 GRD .GAPI   45 310 01 00:   GAMMA RAY FROM DENSITY LOG
 CALD.IN     45 280 60 00:   CALIPER FROM DENSITY
 CORR.G/C3   45 356 01 00:   DENSITY CORRECTION
 RHOB.G/C3   45 350 01 00:   BULK DENSITY
~PARAMETER INFORMATION
#MNEM.UNIT          VALUE    DESCRIPTION
#----------   ------------   ------------------------------
 PD  .                 GL:   PERMANENT DATUM
 EPD .F              5112:   ELEVATION PERMANENT DATUM
 LMF .                 GL:   LOG MEASURED FROM
 DMF .                 GL:   DRILLING MEASURED FROM
 EGL .F              5112:   GROUND LEVEL
 DATE.        14-AUG-1985:   RUN DATE
 RUN .                  1:   RUN NUMBER
 DD  .F               800:   DEPTH DRILLER
 DL  .F               797:   DEPTH LOGGER
 BLI .F               795:   BOTTOM LOG INTERVAL
 TLI .F                76:   TOP LOG INTERVAL
 CS  .IN            8.625:   CASING SIZE
 CBD .F                76:   CASING BOTTOM DRILLER
 CBL .F                76:   CASING BOTTOM LOGGER
 BS  .IN            7.875:   BIT SIZE
 BSD .F               800:   BIT SIZE AT DEPTH
 DFT .                KCL:   DRILLING FLUID TYPE
 MSS .               TANK:   MUD SAMPLE SOURCE
 RMS .OHMM           0.22:   RESISTIVITY MUD SAMPLE
 MST .F                64:   MUD SAMPLE TEMPERATURE
 MFSS.               MEAS:   MUD FILTRATE SAMPLE SOURCE
 TCS .HRS            2230:   TIME CURCULATED STOPPED
 TLAB.HRS            0200:   TIME LOGGER AT BOTTOM
 LUN .               1892:   LOGGING UNIT NUMBER
 LUL .             CASPER:   LOGGING UNIT LOCATION
 ENGI.         T. QUINLAN:   RECORDING ENGINEER
 WITN.        N. JENNINGS:   WITNESSED BY
 CLNT.            A2DTECH:   CLIENT CODE
 ORIG.        2" 5" PRINT:   ORIGIN OF DATA
 UWI .       490251103800:   UNIQUE WELL ID
 DICO. A2D Technologies, Inc.:   DIGITIZING COMPANY
 R1  . POROSITY WITH SANDSTONE:   REMARKS 1
~OTHER INFORMATION
~A   DEPT      SPR        ILD        ILM       SGRD       DPHI       NPHI         GRD      CALD       CORR       RHOB   
# ...
  633.5000   -34.7300    11.4397    10.7939    14.8004     0.1800     0.2789    81.7429     7.9048     0.0202     2.3803
  634.0000   -35.1814    11.5126    10.5599    14.5943     0.1767     0.2765    79.3560     7.9048     0.0133     2.3908
  634.5000   -35.6328    11.5005    10.4763    14.5715     0.1668     0.2750    77.2668     7.8899     0.0162     2.4013
  635.0000   -36.0843    11.4110    10.4660    14.1589     0.1625     0.2744    76.3680     7.8899     0.0199     2.4089
  635.5000   -36.6851    11.2435    10.4558    13.7581     0.1605     0.2766    76.9573     7.8899     0.0229     2.4133
  636.0000   -38.9303    10.9249    10.5213    13.3771     0.1593     0.2781    78.1434     7.8899     0.0228     2.4133
  636.5000   -41.0259    10.7644    10.5846    13.5540     0.1590     0.2782    79.3279     7.8899     0.0227     2.4147
  637.0000   -42.5237    10.6064    10.6484    13.7330     0.1591     0.2776    81.4039     7.8899     0.0234     2.4154
  637.5000   -43.4235    10.5975    10.8630    13.7213     0.1594     0.2764    82.8875     7.8899     0.0256     2.4146
  638.0000   -43.8742    10.6650    10.9284    13.6145     0.1594     0.2776    83.4768     7.8899     0.0277     2.4122
  638.5000   -43.2800    10.6539    10.9150    13.6031     0.1619     0.2786    83.7685     7.8899     0.0284     2.4069
  639.0000   -42.3861    10.5710    10.7875    13.5917     0.1609     0.2789    82.8683     7.8899     0.0314     2.4098
  639.5000   -40.5954    10.5621    10.6484    13.6756     0.1568     0.2780    83.4576     7.8899     0.0396     2.4196
  640.0000   -40.1492    10.4799    10.5091    13.6639     0.1427     0.2771    86.1303     7.8899     0.0456     2.4339
  640.5000   -41.9466    10.4711    10.4258    13.6525     0.1377     0.2783    87.6124     7.8899     0.0470     2.4475
  641.0000   -42.6970    10.4624    10.4157    13.6410     0.1354     0.2790    88.5009     7.8899     0.0424     2.4550
  641.5000   -42.9989    10.4536    10.5517    13.6296     0.1371     0.2784    87.8982     7.8899     0.0363     2.4481
  642.0000   -43.1514    10.5180    10.6895    13.6182     0.1463     0.2754    89.6780     7.8899     0.0241     2.4314
  642.5000   -43.7523    10.6591    10.8318    13.6069     0.1568     0.2733    91.1602     7.8899     0.0179     2.4139
  643.0000   -44.0542    10.6480    11.0475    13.5955     0.1646     0.2742    92.3447     7.8899     0.0171     2.4078
  643.5000   -44.2067    10.6391    11.1918    13.5841     0.1562     0.2755    93.5293     7.8899     0.0200     2.4085
  644.0000   -44.2096    10.6302    11.4201    13.5727     0.1478     0.2758    93.8210     7.8899     0.0260     2.4236
  644.5000   -44.2126    10.6213    11.5665    13.6633     0.1405     0.2755    91.1365     7.8899     0.0350     2.4478
  645.0000   -44.2156    10.6124    11.6390    14.4385     0.1351     0.2731    87.5592     7.8899     0.0357     2.4575
  645.5000   -44.2186    10.5298    11.6247    15.5694     0.1336     0.2707    84.5771     7.8899     0.0326     2.4560
  646.0000   -43.6236    10.3752    11.4525    16.4461     0.1406     0.2689    82.7854     7.8899     0.0295     2.4453
  646.5000   -42.5803    10.2945    11.3617    14.6893     0.1494     0.2674    83.9702     7.8899     0.0263     2.4354
  647.0000   -42.1341    10.1433    11.0382    13.8850     0.1649     0.2678    84.6012     7.8899     0.0232     2.4141
  647.5000   -42.5863    10.0644    10.9508    13.8753     0.1686     0.2699    84.5534     7.8899     0.0201     2.3989
  648.0000   -43.9345    10.0559    10.6389    13.8624     0.1702     0.2714    84.8452     7.8899     0.0208     2.3935
  648.5000   -44.5354     9.7710    10.4084    13.4699     0.1714     0.2727    85.7320     7.8899     0.0177     2.3966
  649.0000   -44.2394     9.5606    10.1120    13.2730     0.1675     0.2742    86.6190     7.8899     0.0146     2.4047
  649.5000   -43.7932     9.2897     9.8241    13.2619     0.1630     0.2761    88.1012     7.8899     0.0137     2.4114
  650.0000   -43.4400     9.2186     9.5218    13.3436     0.1589     0.2782    88.3929     7.8902     0.0144     2.4174
  650.5000   -42.0099     9.2102     9.2742    13.3858     0.1555     0.2788    87.4284     7.8941     0.0169     2.4242
  651.0000   -41.5673     9.2020     9.2659    13.3194     0.1522     0.2753    86.3095     7.8981     0.0195     2.4279
  651.5000   -41.4223     9.1936     9.1933    13.2125     0.1516     0.2747    86.2203     7.9020     0.0209     2.4270
  652.0000   -42.4760     9.1837     9.2496    13.2961     0.1519     0.2768    86.9048     7.9035     0.0224     2.4285
  652.5000   -44.2756     9.2397     9.2411    13.2813     0.1504     0.2805    89.8810     7.9032     0.0253     2.4337
  653.0000   -44.8794     9.2961     9.2327    13.2694     0.1474     0.2818    91.9643     7.9030     0.0328     2.4382
  653.5000   -44.8853     9.3549     9.2892    13.2576     0.1441     0.2821    93.4524     7.9027     0.0395     2.4434
  654.0000   -45.0407     9.4120     9.4113    13.3415     0.1426     0.2825    93.7500     7.9024     0.0432     2.4456
  654.5000   -45.4950     9.6675     9.4687    13.5139     0.1412     0.2831    90.7738     7.9021     0.0439     2.4463
  655.0000   -46.0988     9.8632     9.6604    13.5995     0.1400     0.2834    89.5833     7.9018     0.0453     2.4462
  655.5000   -46.1047     9.9256     9.7852    13.5843     0.1376     0.2838    89.2857     7.9015     0.0399     2.4439
  656.0000   -45.8097    10.1265     9.9855    13.5722     0.1462     0.2832    89.8810     7.9012     0.0345     2.4407
  656.5000   -45.0597    10.1883    10.2567    13.7507     0.1485     0.2819    90.7738     7.9009     0.0299     2.4345
  657.0000   -44.4781    10.4650    10.4666    14.0291     0.1493     0.2800    91.6667     7.9006     0.0283     2.4300
  657.5000   -44.3346    10.7515    10.7508    14.2184     0.1501     0.2809    92.5595     7.9003     0.0274     2.4208
  658.0000   -43.2956    11.1233    11.1226    14.6147     0.1586     0.2800    93.4524     7.9000     0.0251     2.4147
  658.5000   -40.9099    11.7513    11.6689    15.3166     0.1605     0.2758    94.6429     7.8848     0.0338     2.4116
  659.0000   -38.3746    12.6826    12.2420    16.2948     0.1623     0.2719    94.0476     7.7952     0.0483     2.4009
  659.5000   -35.5405    13.5085    13.8679    20.0711     0.1732     0.2677    88.6905     7.6610     0.0626     2.3902
  660.0000   -33.7527    14.9133    16.2675    24.7225     0.1790     0.2657    77.3810     7.7202     0.0754     2.3848
  660.5000   -33.0112    16.2503    18.1726    24.3582     0.1818     0.2654    72.8717     7.8241     0.0837     2.3779
  661.0000   -32.8661    17.0484    18.9326    21.7657     0.1864     0.2679    69.6132     7.8982     0.0783     2.3665
  661.5000   -33.6209    17.5153    17.7417    21.0007     0.2073     0.2740    68.4524     7.8979     0.0623     2.3445
  662.0000   -34.8226    18.1209    16.2865    21.1289     0.2146     0.2834    68.4524     7.8976     0.0531     2.3247
  662.5000   -35.5759    18.3632    15.4045    21.7124     0.2180     0.2868    69.0476     7.8973     0.0454     2.3133
  663.0000   -35.7312    18.6046    14.9817    21.7440     0.2201     0.2886    69.6429     7.8970     0.0431     2.3094
  663.5000   -34.9897    18.8492    15.0765    21.5183     0.2216     0.2893    67.5595     7.8967     0.0430     2.3108
  664.0000   -34.3976    18.5672    15.2747    21.0537     0.2220     0.2890    66.0714     7.8964     0.0421     2.3115
  664.5000   -34.4036    18.0401    15.5804    21.0349     0.2254     0.2884    67.2619     7.8961     0.0352     2.3046
  665.0000   -34.2600    17.8986    15.7888    21.1778     0.2331     0.2876    73.2143     7.8958     0.0298     2.2856
  665.5000   -33.8175    17.6348    16.1083    21.4417     0.2409     0.2876    77.9762     7.8955     0.0260     2.2787
  666.0000   -33.8236    17.6190    15.5387    21.4178     0.2412     0.2879    82.1429     7.8952     0.0221     2.2779
  666.5000   -34.2792    17.7270    14.8883    21.2499     0.2385     0.2895    82.7381     7.8949     0.0182     2.2793
