~VERSION INFORMATION
 VERS.                2.0:   CWLS LOG ASCII STANDARD - VERSION 2.0
 WRAP.                 NO:   ONE LINE PER DEPTH STEP
~WELL INFORMATION
#MNEM.UNIT      DATA TYPE    INFORMATION
#----------   ------------   ------------------------------
 STRT.F           34.5000:   START DEPTH
 STOP.F          756.0000:   STOP DEPTH
 STEP.F            0.5000:   STEP LENGTH
 NULL.          -999.2500:   NO VALUE
 COMP. FENIX & SCISSON INC:   COMPANY
 WELL.    36 SX 11 #36-11:   WELL
 FLD .        TEAPOT DOME:   FIELD
 LOC .      S11 T38N R78W:   LOCATION
 CNTY.            NATRONA:   COUNTY
 STAT.            WYOMING:   STATE
 CTRY. UNITED STATES OF AMERICA:   COUNTRY
 SRVC.           BIRDWELL:   SERVICE COMPANY
 DATE.        21-FEB-1978:   LOGDATE
 API .       490251059700:   API NUMBER
~CURVE INFORMATION
#MNEM.UNIT       API CODE    CURVE DESCRIPTION
#----------   ------------   ------------------------------
 DEPT.F                  :   
 SPR .MV     05 010 01 00:   SPONTANEOUS POTENTIAL FROM RES.
 SN  .OHMM   05 040 16 00:   SHORT NORMAL 16"
 ILD .OHMM   05 120 46 00:   INDUCTION LOG DEEP
 RHOB.G/C3   45 350 01 00:   BULK DENSITY
 DPHI.DEC    45 890 12 00:   DENSITY POROSITY SANDSTONE
 GRD .GAPI   45 310 01 00:   GAMMA RAY FROM DENSITY LOG
 CALD.IN     45 280 60 00:   CALIPER
 CORR.G/C3   45 356 01 00:   DENSITY CORRECTION
~PARAMETER INFORMATION
#MNEM.UNIT          VALUE    DESCRIPTION
#----------   ------------   ------------------------------
 PD  .                 GL:   PERMANENT DATUM
 EPD .F              5175:   ELEVATION PERMANENT DATUM
 LMF .                 KB:   LOG MEASURED FROM
 DAPD.F                 4:   FEET ABOVE PERMANENT DATUM
 DMF .                 KB:   DRILLING MEASURED FROM
 EKB .F              5179:   KELLING BUSHING
 EGL .F              5175:   GROUND LEVEL
 DATE.          2-21-1978:   RUN DATE
 RUN .                  1:   RUN NUMBER
 DD  .F               765:   DEPTH DRILLER
 DL  .F               760:   DEPTH LOGGER
 BLI .F               754:   BOTTOM LOG INTERVAL
 TLI .F                40:   TOP LOG INTERVAL
 CS  .IN            8.625:   CASING SIZE
 CBD .F                39:   CASING BOTTOM DRILLER
 CBL .F                40:   CASING BOTTOM LOGGER
 BS  .IN            7.875:   BIT SIZE
 BSD .F               765:   BIT SIZE AT DEPTH
 DFT .         LIGNO/SULF:   DRILLING FLUID TYPE
 DFD .                8.6:   DRILLING FLUID DENSITY
 DFV .                 33:   DRILLING FLUID VISCOSITY
 DFPH.               10.5:   DRILLING FLUID PH
 DFL .                 84:   DRILLING FLUID LOSS
 MSS .          FLOW LINE:   MUD SAMPLE SOURCE
 RMS .OHMM            1.8:   RESISTIVITY MUD SAMPLE
 MST .F                56:   MUD SAMPLE TEMPERATURE
 RMF .OHMM            1.8:   RESISTIVITY MUD FILTRATE SAMPLE
 MFST.F                58:   MUD FILTRATE SAMPLE TEMPERATURE
 RMC .OHMM              4:   RESISTIVITY MUD CAKE
 MCST.F                62:   MUD CAKE SAMPLE TEMPERATURE
 MFSS.               MEAS:   MUD FILTRATE SAMPLE SOURCE
 RMB .OHMM           1.48:   RESISTIVITY MUD AT BHT
 BHT .F                68:   BOTTOM HOLE TEMPERATURE
 TCS .HRS               5:   TIME CURCULATED STOPPED
 MRT .F                68:   MAXIMUM RECORDED TEMPERATURE
 LUN .               2958:   LOGGING UNIT NUMBER
 LUL .               CASP:   LOGGING UNIT LOCATION
 ENGI.            POINTER:   RECORDING ENGINEER
 WITN.           MCGINLEY:   WITNESSED BY
 CLNT.            A2DTECH:   CLIENT CODE
 ORIG.       2", 5" PRINT:   ORIGIN OF DATA
 UWI .       490251059700:   UNIQUE WELL ID
 DICO. A2D Technologies, Inc.:   DIGITIZING COMPANY
~OTHER INFORMATION
~A   DEPT      SPR         SN        ILD       RHOB       DPHI         GRD      CALD       CORR   
# ...
  520.5000   -30.1812     9.8684     8.9191     2.4806     0.1094   103.4675     7.8833     0.0470
  521.0000   -30.2597     9.9170     8.9558     2.4819     0.1088   101.9129     7.8868     0.0470
  521.5000   -30.3368    10.0261     9.0327     2.4860     0.1080    96.9359     7.8902     0.0498
  522.0000   -30.2355    10.3407     9.4128     2.4847     0.1074    92.1193     7.8937     0.0589
  522.5000   -30.1473    11.1785    10.0457     2.4835     0.1087    87.3278     7.8971     0.0679
  523.0000   -30.6221    12.1455    10.7654     2.4875     0.1124    84.2566     7.9005     0.0772
  523.5000   -31.1314    13.3397    11.5365     2.4941     0.1174    82.4863     7.9040     0.0740
  524.0000   -31.6399    14.6450    12.3629     2.4825     0.1286    80.5971     7.9074     0.0654
  524.5000   -32.1355    16.0787    13.2485     2.4496     0.1402    74.3266     7.9109     0.0565
  525.0000   -33.0570    17.6528    14.2330     2.4220     0.1518    68.0740     7.9175     0.0546
  525.5000   -33.9712    18.2841    15.3167     2.4175     0.1594    65.9861     7.9344     0.0571
  526.0000   -34.8865    18.6599    16.4830     2.4085     0.1667    65.0320     7.9507     0.0585
  526.5000   -35.7547    19.3231    16.8775     2.3780     0.2020    62.6980     7.9669     0.0426
  527.0000   -35.6624    19.9963    16.9301     2.3393     0.1955    59.5857     7.9830     0.0270
  527.5000   -35.4464    20.6579    16.9829     2.3319     0.1856    55.9243     7.9935     0.0254
  528.0000   -35.8364    21.2390    17.0117     2.3506     0.1766    52.5842     7.9914     0.0368
  528.5000   -36.5079    20.7633    16.8201     2.3721     0.1688    52.5064     7.9895     0.0475
  529.0000   -36.4879    20.0933    16.7000     2.3889     0.1662    53.9587     7.9875     0.0360
  529.5000   -36.3369    19.9858    16.7000     2.3446     0.2138    59.3264     7.9856    -0.0073
  530.0000   -36.1382    19.7976    16.7000     2.3095     0.1867    64.7182     7.9837     0.0013
  530.5000   -35.7739    19.4312    16.7000     2.3602     0.1773    67.8482     7.9818     0.0162
  531.0000   -35.0182    19.0716    16.5532     2.3703     0.1784    70.0749     7.9799     0.0168
  531.5000   -34.3229    18.7187    16.3936     2.3676     0.1795    73.1962     7.9780     0.0160
  532.0000   -34.1954    18.3724    16.2355     2.3694     0.1750    77.1112     7.9761     0.0153
  532.5000   -34.9161    18.0308    16.0788     2.3749     0.1714    80.9693     7.9743     0.0124
  533.0000   -35.1989    17.7256    15.9237     2.3761     0.1826    79.0928     7.9680     0.0046
  533.5000   -34.6412    17.4676    15.7702     2.3608     0.1826    77.6702     7.9609    -0.0032
  534.0000   -34.0889    17.2145    15.6180     2.3600     0.1708    79.4118     7.9538    -0.0107
  534.5000   -34.1554    17.0102    15.4673     2.3805     0.1582    85.5352     7.9467    -0.0068
  535.0000   -34.7611    17.0121    15.3182     2.3984     0.1472    91.4842     7.9396     0.0046
  535.5000   -34.6375    17.0116    15.1705     2.4204     0.1358    96.6693     7.9325     0.0130
  536.0000   -34.3993    17.0117    15.0848     2.4388     0.1459    98.0183     7.9255     0.0170
  536.5000   -34.1658    17.0116    15.1770     2.4197     0.1608    92.8054     7.9187     0.0160
  537.0000   -34.6664    17.0121    15.2531     2.3957     0.1722    88.0969     7.9113     0.0150
  537.5000   -35.2565    17.0056    15.3296     2.3782     0.1688    85.0926     7.8729     0.0139
  538.0000   -35.5003    17.1787    15.4066     2.3860     0.1658    80.5891     7.8345     0.0130
  538.5000   -35.1084    17.4373    15.4838     2.3839     0.1767    73.8450     7.8364     0.0134
  539.0000   -35.4118    17.6999    15.7962     2.3682     0.1770    73.3685     7.8719     0.0140
  539.5000   -36.3394    17.9663    16.2325     2.3611     0.1752    71.3804     7.9074     0.0146
  540.0000   -37.2433    18.2368    16.6807     2.3777     0.1831    69.7181     7.9429     0.0123
  540.5000   -38.1928    18.4450    17.1414     2.3666     0.1955    68.9616     7.9789     0.0010
  541.0000   -37.9508    18.6272    17.6502     2.3452     0.2036    68.9993     8.0152    -0.0096
  541.5000   -37.4151    18.8113    17.5310     2.3247     0.2059    69.7613     8.0145    -0.0171
  542.0000   -37.4645    19.0082    17.3856     2.3242     0.2000    70.6263     8.0141    -0.0170
  542.5000   -36.4470    18.7225    17.1698     2.3286     0.1952    69.0123     8.0141    -0.0168
  543.0000   -35.5656    18.4234    16.9202     2.3345     0.1907    66.8784     8.0141    -0.0082
  543.5000   -35.7905    18.1291    16.5942     2.3542     0.1866    67.3265     8.0141     0.0011
  544.0000   -36.0177    17.8395    16.2744     2.4010     0.1824    67.7185     8.0141     0.0070
  544.5000   -36.3482    17.5546    15.9608     2.3786     0.1790    66.1609     8.0141     0.0067
  545.0000   -36.1774    17.2521    15.6532     2.3634     0.1810    65.0443     8.0141     0.0065
  545.5000   -35.8120    16.8675    15.3515     2.3610     0.1830    67.4917     8.0141     0.0062
  546.0000   -35.4413    16.4915    15.0555     2.3584     0.1850    70.7180     8.0141     0.0060
  546.5000   -35.4790    16.1239    14.8333     2.3579     0.1809    74.3249     8.0141     0.0058
  547.0000   -35.6303    15.7644    14.6549     2.3652     0.1732    77.2187     8.0141     0.0056
  547.5000   -35.7861    15.4122    14.4785     2.3732     0.1680    77.1471     8.0141     0.0053
  548.0000   -35.9280    15.2244    14.3041     2.3852     0.1641    75.9404     8.0141     0.0051
  548.5000   -36.1845    15.1307    14.1322     2.3969     0.1639    74.7257     8.0141     0.0048
  549.0000   -35.7930    15.0848    14.0093     2.3962     0.1660    74.2445     8.0141     0.0044
  549.5000   -35.4247    15.0848    14.0904     2.3858     0.1680    73.6068     8.0141     0.0041
  550.0000   -35.4212    15.0811    14.1543     2.3895     0.1715    72.8981     8.0170     0.0037
  550.5000   -35.5852    15.0687    14.2187     2.3837     0.1766    72.9481     8.0210     0.0033
  551.0000   -35.7452    15.0563    14.2833     2.3702     0.1713    75.0303     8.0250     0.0033
  551.5000   -35.9873    15.0440    14.3481     2.3779     0.1639    75.9999     8.0291     0.0056
  552.0000   -36.2638    15.0316    14.4032     2.3926     0.1618    74.4420     8.0331     0.0080
  552.5000   -36.2559    15.0192    14.3810     2.3983     0.1668    73.5453     8.0372     0.0104
  553.0000   -35.8580    15.0069    14.3617     2.3907     0.1722    73.9657     8.0412     0.0107
  553.5000   -35.4614    14.9946    14.3425     2.3762     0.1762    74.7809     8.0453     0.0097
  554.0000   -35.0552    14.9822    14.3233     2.3740     0.1759    75.5861     8.0493     0.0087
  554.5000   -35.0218    14.9700    14.3043     2.3723     0.1758    76.5109     8.0535     0.0076
  555.0000   -35.0745    14.9576    14.2848     2.3766     0.1799    82.2987     8.0544     0.0022
  555.5000   -35.1293    14.9460    14.2534     2.3640     0.1907    84.9891     8.0545    -0.0109
  556.0000   -35.1780    14.8409    14.1818     2.3490     0.1954    81.5835     8.0544    -0.0079
  556.5000   -35.0499    14.7418    14.1114     2.3407     0.1958    81.1769     8.0544    -0.0071
  557.0000   -34.7330    14.6434    14.0412     2.3437     0.1943    78.2783     8.0544    -0.0041
  557.5000   -34.4171    14.5457    13.9713     2.3445     0.1918    75.4857     8.0544     0.0010
  558.0000   -34.4496    14.4486    13.9018     2.3435     0.1875    74.0440     8.0544     0.0060
  558.5000   -34.5380    14.3521    13.8326     2.3512     0.1759    73.2269     8.0544     0.0111
  559.0000   -34.6273    14.2564    13.7640     2.3681     0.1682    74.4978     8.0544     0.0105
  559.5000   -34.7159    14.1608    13.6977     2.3903     0.1712    76.4317     8.0544     0.0066
  560.0000   -34.7983    14.0743    13.6258     2.3781     0.1803    78.3092     8.0544     0.0025
  560.5000   -34.8749    13.9897    13.4122     2.3570     0.1838    78.6526     8.0544     0.0017
