~VERSION INFORMATION
 VERS.                2.0:   CWLS LOG ASCII STANDARD - VERSION 2.0
 WRAP.                 NO:   ONE LINE PER DEPTH STEP
~WELL INFORMATION
#MNEM.UNIT      DATA TYPE    INFORMATION
#----------   ------------   ------------------------------
 STRT.F           35.0000:   START DEPTH
 STOP.F          736.0000:   STOP DEPTH
 STEP.F            0.5000:   STEP LENGTH
 NULL.          -999.2500:   NO VALUE
 COMP. US DEPTMNT OF ENRGY:   COMPANY
 WELL.       NPR 3 #73-15:   WELL
 FLD .   TEAPOT NAVAL RES:   FIELD
 LOC .      S15 T38N R78W:   LOCATION
 CNTY.            NATRONA:   COUNTY
 STAT.            WYOMING:   STATE
 CTRY. UNITED STATES OF AMERICA:   COUNTRY
 SRVC.           Gearhart:   SERVICE COMPANY
 DATE.        02-SEP-1987:   LOGDATE
 API .       490251122300:   API NUMBER
~CURVE INFORMATION
#MNEM.UNIT       API CODE    CURVE DESCRIPTION
#----------   ------------   ------------------------------
 DEPT.F                  :   
 GRR .GAPI   07 310 01 00:   GAMMA RAY
 RILD.OHMM   07 120 46 00:   INDUCTION LOG DEEP RESISTIVITY
 RILM.OHMM   07 120 44 00:   INDUCTION LOG MEDIUM RESISTIVITY
~PARAMETER INFORMATION
#MNEM.UNIT          VALUE    DESCRIPTION
#----------   ------------   ------------------------------
 PD  .                 GL:   PERMANENT DATUM
 LMF .                 KB:   LOG MEASURED FROM
 DAPD.F              10.5:   FEET ABOVE PERMANENT DATUM
 DMF .                 KB:   DRILLING MEASURED FROM
 DATE.        02-SEP-1987:   RUN DATE
 RUN .                  1:   RUN NUMBER
 DD  .F               740:   DEPTH DRILLER
 DL  .F               743:   DEPTH LOGGER
 BLI .F               735:   BOTTOM LOG INTERVAL
 TLI .F                30:   TOP LOG INTERVAL
 CS  .IN            9.625:   CASING SIZE
 CBD .F               740:   CASING BOTTOM DRILLER
 CBL .F                40:   CASING BOTTOM LOGGER
 BS  .IN             8.75:   BIT SIZE
 BSD .F               740:   BIT SIZE AT DEPTH
 DFT .                AIR:   DRILLING FLUID TYPE
 TCS .HRS            0230:   TIME CURCULATED STOPPED
 TLAB.HRS            0447:   TIME LOGGER AT BOTTOM
 MRT .F                80:   MAXIMUM RECORDED TEMPERATURE
 LUN .               7697:   LOGGING UNIT NUMBER
 LUL .           GILLETTE:   LOGGING UNIT LOCATION
 ENGI.         WEATHERMON:   RECORDING ENGINEER
 WITN.             STRONG:   WITNESSED BY
 CLNT.            A2DTECH:   CLIENT CODE
 ORIG.           5" PRINT:   ORIGIN OF DATA
 UWI .       490251122300:   UNIQUE WELL ID
 DICO. A2D Technologies, Inc.:   DIGITIZING COMPANY
~OTHER INFORMATION
~A   DEPT       GRR      RILD       RILM   
   35.0000    51.2702  -999.2500  -999.2500
   35.5000    51.9070  -999.2500  -999.2500
   36.0000    52.8459  -999.2500  -999.2500
   36.5000    54.4149  -999.2500  -999.2500
   37.0000    55.9839  -999.2500  -999.2500
   37.5000    56.5690  -999.2500  -999.2500
   38.0000    56.2994  -999.2500  -999.2500
   38.5000    58.4549  -999.2500  -999.2500
   39.0000    64.8319  -999.2500  -999.2500
   39.5000    75.4384  -999.2500  -999.2500
   40.0000    89.9725     5.9310  -999.2500
   40.5000    96.0473     2.7602    67.4707
   41.0000    98.4968     2.3852     5.6427
   41.5000   100.6442     3.3554     3.3509
   42.0000   102.4894     5.1316     2.6278
   42.5000   108.6405     5.7807     2.7980
   43.0000   112.0222     5.4603     3.2160
   43.5000   113.1611     4.2843     3.5454
   44.0000   111.9852     3.6511     3.4489
   44.5000   113.5365     3.4061     3.3087
   45.0000   115.9859     3.3594     3.1493
   45.5000   118.1333     3.4073     3.0664
   46.0000   114.5405     3.5532     3.0886
   46.5000   108.5307     3.7836     3.1543
   47.0000   104.9379     4.0571     3.2893
   47.5000   103.7620     4.2902     3.4781
   48.0000   104.0967     4.5367     3.6777
   48.5000   105.3635     4.6982     3.9433
   49.0000   106.9325     4.8654     4.1696
   49.5000   107.5257     5.0037     4.3784
   50.0000   105.4435     5.0807     4.5977
   50.5000   104.2676     5.1470     4.7976
   51.0000   103.9899     5.1478     4.9653
   51.5000   106.1454     5.1487     5.0358
   52.0000   110.1054     5.0782     5.0720
   52.5000   113.7634     4.9398     5.0027
   53.0000   114.8016     4.8385     4.9349
   53.5000   112.6200     4.6738     4.8341
   54.0000   110.8399     4.5780     4.7353
   54.5000   110.2437     4.4530     4.6385
   55.0000   109.6475     4.3314     4.2980
   55.5000   108.5206     4.1840     3.9274
   56.0000   105.5402     4.0117     3.7678
   56.5000   106.4791     3.8731     3.6146
   57.0000   108.6264     3.7450     3.5407
   57.5000   110.4717     3.6427     3.5414
   58.0000   107.7852     3.5434     3.5422
   58.5000   103.5881     3.4948     3.5431
   59.0000   101.8080     3.3996     3.4949
   59.5000   101.5378     3.3066     3.3528
   60.0000   102.1752     3.1720     3.1721
   60.5000   103.1148     3.0217     3.0220
   61.0000   103.8026     2.8785     2.8791
   61.5000   105.6043     2.7230     2.6863
   62.0000   108.0538     2.7039     2.5415
   62.5000   114.4307     2.8017     2.4552
   63.0000   118.9950     2.9256     2.4218
   63.5000   119.6236     3.1103     2.4907
   64.0000   115.4347     3.2662     2.7079
   64.5000   108.8208     3.4539     2.9853
   65.0000   104.6237     3.6778     3.2457
   65.5000   101.3330     3.8891     3.5287
   66.0000    97.7402     4.1126     3.7835
   66.5000    99.0322     4.2887     4.0286
   67.0000   102.1370     4.3800     4.2011
   67.5000   105.3988     4.2417     4.2019
   68.0000   105.7335     4.1552     4.1160
   68.5000   105.7661     4.0424     4.0533
   69.0000   106.1007     3.8248     3.8682
   69.5000   106.4354     3.5689     3.6343
   70.0000   107.9785     3.2388     3.3675
   70.5000   111.3344     2.8927     3.1420
   71.0000   115.5965     2.6308     2.9316
   71.5000   118.9523     2.5770     2.6789
   72.0000   123.8187     2.5959     2.4141
   72.5000   127.8298     2.6147     2.2214
   73.0000   127.7623     2.6520     2.1163
   73.5000   125.1330     2.7086     2.1323
   74.0000   122.1444     2.7858     2.2973
   74.5000   117.6452     3.0080     2.7388
   75.0000   114.6566     3.3163     3.1045
   75.5000   110.1575     3.5858     3.4225
   76.0000   107.1689     4.0034     3.7469
   76.5000   103.8782     4.3227     4.1595
   77.0000   102.0967     4.7000     4.6176
   77.5000   103.3391     5.0748     5.0554
   78.0000   105.7885     5.4796     5.2352
   78.5000   108.2639     5.9166     5.2728
   79.0000   107.0131     6.2133     5.4256
   79.5000   103.4774     6.5249     5.6292
   80.0000    99.8846     6.7107     5.9381
   80.5000    98.7005     6.9066     6.2355
   81.0000   100.5539     7.1483     6.5934
   81.5000   102.7013     7.3518     6.9236
   82.0000   102.1296     7.5611     7.1699
   82.5000   100.0473     7.7226     7.4250
   83.0000    99.4743     7.6712     7.6359
   83.5000   100.4146     7.6196     7.5845
   84.0000   104.0725     7.5164     7.5335
   84.5000   107.4542     7.4151     7.4774
   85.0000   108.7211     7.3148     7.3811
   85.5000   111.1270     7.2661     7.2810
   86.0000   110.2532     7.2177     7.2317
   86.5000   108.1709     7.3212     7.1831
   87.0000   107.5911     7.3743     7.1849
   87.5000   108.2360     7.4277     7.1366
   88.0000   110.6855     7.4816     7.2885
   88.5000   114.9476     7.4318     7.2899
   89.0000   117.3971     7.4338     7.2914
   89.5000   114.7106     7.3842     7.2929
   90.0000   112.0242     7.3351     7.2439
   90.5000   110.5217     7.1857     7.0962
   91.0000   110.2766     7.1379     6.9993
   91.5000   110.9215     7.1403     6.9522
   92.0000   111.5583     7.1422     7.0025
   92.5000   112.4972     7.1441     7.0039
   93.0000   113.7382     7.1959     7.0542
   93.5000   114.6771     7.1979     7.0556
   94.0000   115.9181     7.2501     7.2058
   94.5000   113.5338     7.3026     7.2575
   95.0000   109.0346     7.4069     7.4120
   95.5000   103.3270     7.6231     7.5257
   96.0000   100.9426     7.8898     7.7312
   96.5000   101.0010     8.0583     7.8410
   97.0000   102.6707     8.2303     8.0637
   97.5000   105.8822     8.2900     8.1783
   98.0000   108.3317     8.2922     8.2945
   98.5000   111.0833     8.2370     8.2962
   99.0000   114.4391     8.1816     8.2400
   99.5000   115.0678     8.1277     8.1849
  100.0000   107.2562     8.0177     8.0736
  100.5000    99.1317     8.0759     8.0197
  101.0000    98.8541     7.8034     7.9116
  101.5000   100.7076     7.4871     7.6968
  102.0000   103.1571     6.9811     7.4878
  102.5000   105.6067     5.6189     7.1838
  103.0000   104.7248     4.5757     6.6107
  103.5000   102.9529     3.8739     5.7144
  104.0000   101.1729     3.3958     4.9767
  104.5000   102.4140     2.9560     3.5592
  105.0000   107.4017     2.7777     2.9550
  105.5000   113.6526     2.4690     2.5722
  106.0000   120.6469     2.2253     2.0886
  106.5000   124.9091     2.1650     1.9489
  107.0000   127.9629     2.1808     1.8568
  107.5000   126.7871     2.2431     1.8443
  108.0000   125.6031     2.3923     1.8838
  108.5000   125.0315     2.7053     2.1060
  109.0000   123.2596     3.2912     2.6910
  109.5000   118.1563     3.9172     3.7170
  110.0000   104.8959     4.7605     4.6883
  110.5000    97.9799     5.6267     5.8987
  111.0000    94.6893     6.9338     6.8276
  111.5000    95.6405     8.3101     7.7398
  112.0000    98.1632     9.4867     8.5927
  112.5000    97.1047    10.1731     9.8770
  113.0000    94.2237    10.1821    10.8895
  113.5000    89.4225     9.8999    11.9226
  114.0000    88.5407     9.2916    10.7450
  114.5000    89.1857     7.9380     9.1449
  115.0000    89.5204     7.0998     7.4357
  115.5000    89.8552     6.7180     6.1671
  116.0000    91.7005     6.0130     5.1847
  116.5000   100.4945     5.8501     4.7380
  117.0000   111.1011     5.8110     4.6412
  117.5000   120.4993     5.8135     4.6428
  118.0000   123.5531     5.8969     4.8418
  118.5000   118.7100     6.0232     5.3382
  119.0000   110.9064     6.3257     6.0094
  119.5000    99.1878     6.8397     6.8597
  120.0000    91.3655     7.5889     8.0143
  120.5000    90.1815     9.6099     9.1680
  121.0000    91.4308    10.3771    10.2039
  121.5000    92.9740    10.9742    10.8656
  122.0000    94.2151    11.6867    11.4901
  122.5000    95.4562    12.3592    12.1504
  123.0000    96.6973    12.9798    13.0286
  123.5000    97.6362    13.6317    13.6819
  124.0000    98.2731    14.1186    14.1697
  124.5000    99.2121    14.5216    14.7772
  125.0000   100.1511    14.9361    15.0927
  125.5000   101.1128    15.1596    15.4250
