~VERSION INFORMATION
 VERS.                2.0:   CWLS LOG ASCII STANDARD - VERSION 2.0
 WRAP.                 NO:   ONE LINE PER DEPTH STEP
~WELL INFORMATION
#MNEM.UNIT      DATA TYPE    INFORMATION
#----------   ------------   ------------------------------
 STRT.F           20.0000:   START DEPTH
 STOP.F          500.0000:   STOP DEPTH
 STEP.F            0.5000:   STEP LENGTH
 NULL.          -999.2500:   NO VALUE
 COMP.    FENIX & SCISSON:   COMPANY
 WELL. RES 3 TEAPOT DOM #81SX10-10:   WELL
 FLD .             TEAPOT:   FIELD
 LOC .      S10 T38N R78W:   LOCATION
 CNTY.            NATRONA:   COUNTY
 STAT.            WYOMING:   STATE
 CTRY. UNITED STATES OF AMERICA:   COUNTRY
 SRVC.           BIRDWELL:   SERVICE COMPANY
 DATE.        22-NOV-1978:   LOGDATE
 API .       490251075100:   API NUMBER
~CURVE INFORMATION
#MNEM.UNIT       API CODE    CURVE DESCRIPTION
#----------   ------------   ------------------------------
 DEPT.F                  :   
 ILD .OHMM   05 120 46 00:   INDUCTION LOG DEEP
 SN  .OHMM   05 040 16 00:   SHORT NORMAL 16"
 SPR .MV     05 010 01 00:   SPONTANEOUS POTENTIAL FROM RES.
 CALD.IN     45 280 60 00:   CALIPER FROM DENSITY LOG
 CORR.G/C3   45 356 01 00:   DENSITY CORRECTION
 DPHI.DEC    45 890 10 00:   DENSITY POROSITY LIMESTONE
 GRD .GAPI   45 310 01 00:   GAMMA RAY FROM DENSITY LOG
 RHOB.G/C3   45 350 01 00:   BULK DENSITY
~PARAMETER INFORMATION
#MNEM.UNIT          VALUE    DESCRIPTION
#----------   ------------   ------------------------------
 PD  .                 GL:   PERMANENT DATUM
 EPD .F              5129:   ELEVATION PERMANENT DATUM
 LMF .                 KB:   LOG MEASURED FROM
 DAPD.F                 4:   FEET ABOVE PERMANENT DATUM
 DMF .                 KB:   DRILLING MEASURED FROM
 EKB .F              5133:   KELLING BUSHING
 EGL .F              5129:   GROUND LEVEL
 DATE.        22-NOV-1978:   RUN DATE
 RUN .                  1:   RUN NUMBER
 DD  .F               500:   DEPTH DRILLER
 DL  .F               500:   DEPTH LOGGER
 BLI .F               500:   BOTTOM LOG INTERVAL
 TLI .F                20:   TOP LOG INTERVAL
 CS  .IN            8.625:   CASING SIZE
 CBD .F                40:   CASING BOTTOM DRILLER
 CBL .F                40:   CASING BOTTOM LOGGER
 BS  .IN            7.875:   BIT SIZE
 BSD .F               500:   BIT SIZE AT DEPTH
 DFT .                KCL:   DRILLING FLUID TYPE
 DFD .                8.7:   DRILLING FLUID DENSITY
 DFV .                 36:   DRILLING FLUID VISCOSITY
 DFPH.               11.2:   DRILLING FLUID PH
 DFL .                 94:   DRILLING FLUID LOSS
 MSS .            MUD PIT:   MUD SAMPLE SOURCE
 RMS .OHMM           0.28:   RESISTIVITY MUD SAMPLE
 MST .F                62:   MUD SAMPLE TEMPERATURE
 RMF .OHMM           0.24:   RESISTIVITY MUD FILTRATE SAMPLE
 MFST.F                66:   MUD FILTRATE SAMPLE TEMPERATURE
 RMC .OHMM           0.31:   RESISTIVITY MUD CAKE
 MCST.F                66:   MUD CAKE SAMPLE TEMPERATURE
 MFSS.               MEAS:   MUD FILTRATE SAMPLE SOURCE
 MCSS.               MEAS:   MUD CAKE SAMPLE SOURCE
 RMB .OHMM            0.3:   RESISTIVITY MUD AT BHT
 BHT .F                58:   BOTTOM HOLE TEMPERATURE
 TCS .HRS               1:   TIME CURCULATED STOPPED
 MRT .F                58:   MAXIMUM RECORDED TEMPERATURE
 LUN .               3029:   LOGGING UNIT NUMBER
 LUL .               CASP:   LOGGING UNIT LOCATION
 ENGI.           REYNOLDS:   RECORDING ENGINEER
 WITN.              AMEND:   WITNESSED BY
 CLNT.            A2DTECH:   CLIENT CODE
 ORIG.           5" PRINT:   ORIGIN OF DATA
 UWI .       490251075100:   UNIQUE WELL ID
 DICO. A2D Technologies, Inc.:   DIGITIZING COMPANY
~OTHER INFORMATION
~A   DEPT      ILD         SN        SPR       CALD       CORR       DPHI         GRD      RHOB   
# ...
   60.5000     8.1183    11.5002   -43.9595     7.7213     0.0036     0.1367   128.7556     2.4562
   61.0000     8.0622    11.1087   -43.9610     7.7210     0.0063     0.1367   128.6057     2.4535
   61.5000     8.0622    10.5832   -43.9027     7.7206     0.0088     0.1364   126.7901     2.4542
   62.0000     8.0064    10.2203   -43.6642     7.7203     0.0093     0.1361   124.8576     2.4565
   62.5000     8.0064     9.4730   -43.5157     7.7201     0.0094     0.1376   125.3073     2.4580
   63.0000     7.8962     9.1507   -43.3672     7.7198     0.0093     0.1373   127.2564     2.4494
   63.5000     7.5743     8.7783   -43.6688     7.7194     0.0079     0.1439   128.4558     2.4422
   64.0000     7.3162     8.5387   -44.1200     7.7192     0.0064     0.1448   127.5562     2.4407
   64.5000     7.1160     8.4216   -44.5712     7.7189     0.0064     0.1448   127.1064     2.4444
   65.0000     6.9213     8.4223   -44.8728     7.7186     0.0079     0.1445   127.7061     2.4437
   65.5000     6.8734     8.3645   -45.3240     7.7183     0.0124     0.1385   128.0060     2.4455
   66.0000     6.8734     8.3652   -45.7752     7.7179     0.0155     0.1292   127.5562     2.4685
   66.5000     6.9213     8.4240   -46.3808     7.7177     0.0185     0.1199   111.3643     2.4752
   67.0000     7.1160     8.5423   -47.5775     7.7174     0.0185     0.1190   112.0400     2.4835
   67.5000     7.3162     8.6622   -48.0287     7.7170     0.0170     0.1186   114.6627     2.4932
   68.0000     7.4700     8.6628   -48.1800     7.7167     0.0155     0.1189   116.1619     2.4840
   68.5000     7.5743     8.6634   -47.7316     7.7165     0.0121     0.1279   117.0615     2.4700
   69.0000     7.5743     8.6641   -46.9838     7.7162     0.0090     0.1345   116.7616     2.4670
   69.5000     7.5743     8.6646   -46.5351     7.7158     0.0051     0.1288   112.6217     2.4685
   70.0000     7.5743     8.6652   -46.3865     7.7155     0.0036     0.1305   105.0675     2.4685
   70.5000     7.6270     8.7261   -46.5382     7.7153     0.0036     0.1375   101.1694     2.4646
   71.0000     7.7336     8.7268   -46.2402     7.7150     0.0040     0.1414   104.9175     2.4542
   71.5000     7.7336     8.7428   -45.7914     7.7146     0.0051     0.1330   105.9670     2.4527
   72.0000     7.7336     8.8593   -45.3431     7.7143     0.0058     0.1318   108.7056     2.4655
   72.5000     7.7336     8.9120   -45.1949     7.7141     0.0082     0.1318   113.7631     2.4678
   73.0000     7.7336     8.9127   -45.7964     7.7138     0.0097     0.1305   113.1634     2.4662
   73.5000     7.7874     8.9274   -45.9477     7.7135     0.0112     0.1258   112.8636     2.4692
   74.0000     7.7874     8.9759   -46.2486     7.7131     0.0112     0.1231   113.3133     2.4722
   74.5000     7.7874     9.0390   -45.6507     7.7129     0.0112     0.1210   115.8621     2.4752
   75.0000     7.8416     8.9771   -44.7529     7.7126     0.0097     0.1207   119.9100     2.4782
   75.5000     7.8962     8.9779   -44.6041     7.7272     0.0053     0.1225   115.5622     2.4790
   76.0000     7.8416     8.9784   -44.7557     7.7269     0.0038     0.1300   107.7661     2.4692
   76.5000     7.8416     8.9790   -45.3569     7.7416     0.0023     0.1327   103.7181     2.4640
   77.0000     7.7874     8.9796   -45.8081     7.7596     0.0023     0.1294    98.7706     2.4625
   77.5000     7.7874     8.9804   -45.8098     7.7710     0.0008     0.1285   105.6647     2.4692
   78.0000     7.7874     8.9809   -44.7618     7.7706     0.0008     0.1354   115.2624     2.4654
   78.5000     7.8416     8.9815   -44.1635     7.7704     0.0009     0.1351   119.3103     2.4595
   79.0000     7.9214     8.9821   -44.0150     7.7700     0.0024     0.1339   119.7601     2.4632
   79.5000     8.0064     8.9828   -44.3166     7.7697     0.0054     0.1285   115.7121     2.4692
   80.0000     8.1183     9.0460   -44.6178     7.7694     0.0099     0.1246   113.6132     2.4745
   80.5000     8.1183     9.0673   -44.6192     7.7692     0.0159     0.1198   113.7631     2.4782
   81.0000     8.1183     9.1101   -44.4707     7.7689     0.0219     0.1180   114.3628     2.4835
   81.5000     8.1183     9.1107   -44.3058     7.7685     0.0264     0.1191   115.5622     2.4865
   82.0000     8.1183     9.1115   -44.1739     7.7682     0.0309     0.1222   117.5112     2.4812
   82.5000     8.0622     9.0491   -43.7257     7.7530     0.0339     0.1186   120.3723     2.4805
   83.0000     8.0622     9.0497   -43.4977     7.7377     0.0384     0.1153   121.8591     2.4865
   83.5000     8.1183     9.0503   -42.9789     7.7374     0.0414     0.1177   118.4108     2.4902
   84.0000     8.1183     8.9884   -42.3810     7.7371     0.0369     0.1204   114.9625     2.4805
   84.5000     8.1748     8.9890   -42.3824     7.7368     0.0415     0.1155   113.7631     2.4850
   85.0000     8.1183     8.9896   -42.5337     7.7365     0.0460     0.1134   113.4633     2.4925
   85.5000     8.1748     8.9902   -42.6854     7.7212     0.0430     0.1146   113.9835     2.4977
   86.0000     8.1748     8.9909   -42.6868     7.7210     0.0322     0.1392   116.9115     2.4668
   86.5000     8.1183     8.9915   -42.3884     7.7057     0.0280     0.1422   119.1604     2.4482
   87.0000     8.1183     8.9921   -41.9390     7.7053     0.0296     0.1387   121.1094     2.4535
   87.5000     8.1183     8.9306   -41.0422     7.7051     0.0311     0.1233   122.6087     2.4692
   88.0000     8.0622     8.8696   -40.4436     7.7048     0.0386     0.1116   121.9610     2.4812
   88.5000     8.0622     8.7478   -44.1935     7.7045     0.0401     0.1113   119.1604     2.4927
   89.0000     8.0064     8.6879   -45.0945     7.7042     0.0341     0.1125   116.9115     2.4955
   89.5000     8.0064     8.5689   -45.3961     7.7038     0.0236     0.1197   119.0105     2.4857
   90.0000     8.0064     8.5103   -45.2476     7.7036     0.0162     0.1271   121.2594     2.4775
   90.5000     8.0064     8.5109   -44.7989     7.7033     0.0072     0.1299   120.9340     2.4722
   91.0000     8.0064     8.5115   -44.3508     7.7030     0.0027     0.1302   118.7106     2.4707
   91.5000     8.0064     8.4830   -45.1022     7.7027     0.0012     0.1263   118.1109     2.4692
   92.0000     7.9511     8.4538   -45.4035     7.7023     0.0043     0.1227   122.7586     2.4715
   92.5000     7.8416     8.3961   -45.4049     7.7021     0.0088     0.1172   127.8561     2.4775
   93.0000     7.7336     8.3966   -45.2564     7.7018     0.0193     0.1080   127.4033     2.4835
   93.5000     7.6270     8.4241   -44.8080     7.7015     0.0282     0.1017   124.1079     2.4962
   94.0000     7.5680     8.3977   -44.3883     7.7012     0.0343     0.0981   122.7586     2.5248
   94.5000     7.5220     8.3984   -44.0616     7.7008     0.0283     0.0957   123.9580     2.5263
   95.0000     7.4700     8.4574   -43.7632     7.7006     0.0268     0.0957   123.5082     2.5270
   95.5000     7.4700     8.5426   -43.6146     7.7003     0.0298     0.0957   122.7586     2.5233
   96.0000     7.5220     8.5987   -43.6164     7.7000     0.0331     0.1167   120.7216     2.4890
   96.5000     7.5220     8.6371   -43.7677     7.7147     0.0238     0.1227   117.5112     2.4797
   97.0000     7.5220     8.6376   -44.2189     7.7143     0.0164     0.1245   116.9115     2.4782
   97.5000     7.5743     8.5664   -44.2204     7.7141     0.0119     0.1257   119.3103     2.4775
   98.0000     7.5743     8.5198   -44.0718     7.7137     0.0074     0.1269   120.9595     2.4730
   98.5000     7.5743     8.6395   -43.6235     7.7135     0.0059     0.1281   121.5592     2.4676
   99.0000     7.5743     8.7002   -43.1755     7.7132     0.0104     0.1317   120.9595     2.4655
   99.5000     7.7336     8.7007   -43.0270     7.7150     0.0102     0.1347   121.4093     2.4625
  100.0000     7.8962     8.7619   -43.1786     7.7276     0.0045     0.1307   122.0090     2.4602
  100.5000     7.7341     8.8951   -43.3346     7.7238     0.0075     0.1246   119.6119     2.4790
