~VERSION INFORMATION
 VERS.                2.0:   CWLS LOG ASCII STANDARD - VERSION 2.0
 WRAP.                 NO:   ONE LINE PER DEPTH STEP
~WELL INFORMATION
#MNEM.UNIT      DATA TYPE    INFORMATION
#----------   ------------   ------------------------------
 STRT.F            6.0000:   START DEPTH
 STOP.F         4020.0000:   STOP DEPTH
 STEP.F            0.5000:   STEP LENGTH
 NULL.          -999.2500:   NO VALUE
 COMP. LAWRENCE/ALLISON INC:   COMPANY
 WELL.       66 JX #33-33:   WELL
 FLD .              NPR-3:   FIELD
 LOC .      S33 T39N R78W:   LOCATION
 CNTY.            NATRONA:   COUNTY
 STAT.            WYOMING:   STATE
 CTRY. UNITED STATES OF AMERICA:   COUNTRY
 SRVC.      Dresser Atlas:   SERVICE COMPANY
 DATE.        02-DEC-1983:   LOGDATE
 API .       490251095100:   API NUMBER
~CURVE INFORMATION
#MNEM.UNIT       API CODE    CURVE DESCRIPTION
#----------   ------------   ------------------------------
 DEPT.F                  :   
 CALD.IN     45 280 60 00:   CALIPER
 CNC .DEC    42 890 03 00:   NEUTRON POROSITY SANDSTONE
 PORD.DEC    45 890 12 00:   POROSITY DENSITY SANDSTONE
 DEN .G/C3   45 350 01 00:   COMPENSATED BULK DENSTIY
 CORR.G/C3   45 356 01 00:   DENSITY CORRECTION
 RFOC.OHMM   07 220 04 00:   RESISTIVITY FOCUSED LOG
 RILD.OHMM   07 120 46 00:   INDUCTION LOG DEEP RESISTIVITY
 RILM.OHMM   07 120 44 00:   INDUCTION LOG MEDIUM RESISTIVITY
 GRR .GAPI   07 310 01 00:   GAMMA RAY FROM RES. LOG.
 DT  .US/F   60 520 00 00:   INTERVAL TRANSIT TIME
 SPR .MV     07 010 01 00:   SPONTANEOUS POTENTIAL
~PARAMETER INFORMATION
#MNEM.UNIT          VALUE    DESCRIPTION
#----------   ------------   ------------------------------
 PD  .                 GL:   PERMANENT DATUM
 EPD .F              5141:   ELEVATION PERMANENT DATUM
 LMF .                 KB:   LOG MEASURED FROM
 DAPD.F                10:   FEET ABOVE PERMANENT DATUM
 DMF .                 KB:   DRILLING MEASURED FROM
 EKB .F              5151:   KELLING BUSHING
 EGL .F              5141:   GROUND LEVEL
 DATE.            12-2-83:   RUN DATE
 RUN .                  1:   RUN NUMBER
 DD  .F              4025:   DEPTH DRILLER
 DL  .F              4020:   DEPTH LOGGER
 BLI .F              4018:   BOTTOM LOG INTERVAL
 TLI .F                10:   TOP LOG INTERVAL
 CS  .IN            8.625:   CASING SIZE
 CBD .F               718:   CASING BOTTOM DRILLER
 CBL .F               722:   CASING BOTTOM LOGGER
 BS  .IN            7.875:   BIT SIZE
 BSD .F              4025:   BIT SIZE AT DEPTH
 DFT .            GEL/KCL:   DRILLING FLUID TYPE
 DFD .                  9:   DRILLING FLUID DENSITY
 DFV .                 45:   DRILLING FLUID VISCOSITY
 DFPH.                8.5:   DRILLING FLUID PH
 DFL .                 12:   DRILLING FLUID LOSS
 MSS .           FLOWLINE:   MUD SAMPLE SOURCE
 RMS .OHMM            .37:   RESISTIVITY MUD SAMPLE
 MST .F                88:   MUD SAMPLE TEMPERATURE
 RMF .OHMM            .29:   RESISTIVITY MUD FILTRATE SAMPLE
 MFST.F                88:   MUD FILTRATE SAMPLE TEMPERATURE
 RMC .OHMM            .46:   RESISTIVITY MUD CAKE
 MCST.F                88:   MUD CAKE SAMPLE TEMPERATURE
 MFSS.               MEAS:   MUD FILTRATE SAMPLE SOURCE
 MCSS.               CALC:   MUD CAKE SAMPLE SOURCE
 RMB .OHMM            .26:   RESISTIVITY MUD AT BHT
 BHT .F               127:   BOTTOM HOLE TEMPERATURE
 TCS .HRS               4:   TIME CURCULATED STOPPED
 MRT .F               127:   MAXIMUM RECORDED TEMPERATURE
 LUN .               6264:   LOGGING UNIT NUMBER
 LUL .              WLSTN:   LOGGING UNIT LOCATION
 ENGI.            PANASUK:   RECORDING ENGINEER
 WITN.              SCOTT:   WITNESSED BY
 CLNT.            A2DTECH:   CLIENT CODE
 ORIG.       2", 5" PRINT:   ORIGIN OF DATA
 UWI .       490251095100:   UNIQUE WELL ID
 DICO. A2D Technologies, Inc.:   DIGITIZING COMPANY
~OTHER INFORMATION
~A    DEPT    CALD        CNC       PORD        DEN       CORR       RFOC       RILD       RILM          GRR       DT        SPR   
# ...
  707.5000  -999.2500     0.3392  -999.2500  -999.2500  -999.2500  -999.2500  -999.2500  -999.2500    78.2850  -999.2500  -999.2500
  708.0000  -999.2500     0.3347  -999.2500  -999.2500  -999.2500  -999.2500  -999.2500  -999.2500    77.2306  -999.2500  -999.2500
  708.5000  -999.2500     0.3302  -999.2500  -999.2500  -999.2500  -999.2500  -999.2500  -999.2500    77.0183  -999.2500  -999.2500
  709.0000  -999.2500     0.3266  -999.2500  -999.2500  -999.2500  -999.2500  -999.2500  -999.2500    76.9584  -999.2500  -999.2500
  709.5000  -999.2500     0.3252  -999.2500  -999.2500  -999.2500  -999.2500  -999.2500  -999.2500    76.8508  -999.2500  -999.2500
  710.0000  -999.2500     0.3403  -999.2500  -999.2500  -999.2500  -999.2500  -999.2500  -999.2500    76.4208  -999.2500  -999.2500
  710.5000  -999.2500     0.3832  -999.2500  -999.2500  -999.2500  -999.2500  -999.2500  -999.2500    75.3928  -999.2500  -999.2500
  711.0000  -999.2500     0.4166  -999.2500  -999.2500  -999.2500  -999.2500  -999.2500  -999.2500    73.4764  -999.2500  -999.2500
  711.5000  -999.2500     0.3986  -999.2500  -999.2500  -999.2500  -999.2500  -999.2500  -999.2500    71.6441  -999.2500  -999.2500
  712.0000  -999.2500     0.3676  -999.2500  -999.2500  -999.2500  -999.2500  -999.2500  -999.2500    69.7399  -999.2500  -999.2500
  712.5000  -999.2500     0.3367  -999.2500  -999.2500  -999.2500  -999.2500  -999.2500  -999.2500    68.7636  -999.2500  -999.2500
  713.0000  -999.2500     0.3294  -999.2500  -999.2500  -999.2500  -999.2500  -999.2500  -999.2500    68.9487  -999.2500  -999.2500
  713.5000  -999.2500     0.3390  -999.2500  -999.2500  -999.2500  -999.2500  -999.2500  -999.2500    69.7139  -999.2500  -999.2500
  714.0000  -999.2500     0.3527  -999.2500  -999.2500  -999.2500  -999.2500  -999.2500  -999.2500    72.1499  -999.2500  -999.2500
  714.5000  -999.2500     0.3428  -999.2500  -999.2500  -999.2500  -999.2500  -999.2500  -999.2500    75.1932  -999.2500  -999.2500
  715.0000  -999.2500     0.3253  -999.2500  -999.2500  -999.2500  -999.2500  -999.2500  -999.2500    74.9799  -999.2500  -999.2500
  715.5000  -999.2500     0.3105  -999.2500  -999.2500  -999.2500  -999.2500  -999.2500  -999.2500    73.1501  -999.2500  -999.2500
  716.0000  -999.2500     0.3220  -999.2500  -999.2500  -999.2500  -999.2500  -999.2500  -999.2500    70.7793  -999.2500  -999.2500
  716.5000  -999.2500     0.3515  -999.2500  -999.2500  -999.2500  -999.2500  -999.2500  -999.2500    67.7080  -999.2500  -999.2500
  717.0000  -999.2500     0.3891  -999.2500  -999.2500  -999.2500  -999.2500  -999.2500  -999.2500    65.5924  -999.2500  -999.2500
  717.5000  -999.2500     0.3898  -999.2500  -999.2500  -999.2500  -999.2500  -999.2500  -999.2500    65.6494  -999.2500  -999.2500
  718.0000  -999.2500     0.3744  -999.2500  -999.2500  -999.2500  -999.2500  -999.2500  -999.2500    67.1571  -999.2500  -999.2500
  718.5000  -999.2500     0.3585  -999.2500  -999.2500  -999.2500  -999.2500  -999.2500  -999.2500    70.1454  -999.2500  -999.2500
  719.0000  -999.2500     0.3486  -999.2500  -999.2500  -999.2500  -999.2500  -999.2500  -999.2500    71.5732  -999.2500  -999.2500
  719.5000  -999.2500     0.3584  -999.2500  -999.2500  -999.2500  -999.2500  -999.2500  -999.2500    71.6733  -999.2500  -999.2500
  720.0000  -999.2500     0.3753  -999.2500  -999.2500  -999.2500  -999.2500  -999.2500  -999.2500    71.9800  -999.2500  -999.2500
  720.5000  -999.2500     0.3880  -999.2500  -999.2500  -999.2500  -999.2500  -999.2500  -999.2500    72.1626  -999.2500  -999.2500
  721.0000  -999.2500     0.3938  -999.2500  -999.2500  -999.2500  -999.2500  -999.2500  -999.2500    72.6699  -999.2500  -999.2500
  721.5000  -999.2500     0.3986  -999.2500  -999.2500  -999.2500  -999.2500  -999.2500  -999.2500    73.5519  -999.2500  -999.2500
  722.0000     8.8092     0.3880     0.2779     2.2565    -0.7220     0.2223  1972.5862  1901.3058    74.0452  -999.2500    37.8656
  722.5000     9.0555     0.3754     0.1749     2.3782    -0.1574     0.2328  1972.5862  1901.3058    73.6534  -999.2500    37.5150
  723.0000     9.3018     0.3742     0.1022     2.4835     0.0759     0.2600  1972.5862  1901.3058    72.2375  -999.2500    37.0160
  723.5000     9.4989     0.3879     0.1001     2.4874     0.1187     0.6180   150.0220   187.0936    71.0701  -999.2500    36.6268
  724.0000     9.7546     0.4111     0.0900     2.5031     0.0818     1.8458    10.5010    13.5893    70.5573  -999.2500    36.4328
  724.5000    10.0889     0.4154     0.0812     2.5198     0.0513     5.0307     2.6177     5.7752    70.1304  -999.2500    35.5788
  725.0000    10.5395     0.3786     0.0747     2.5254     0.0203     5.1808     2.1978     5.6180    66.8458  -999.2500    35.2319
  725.5000    11.1884     0.3470     0.0738     2.5210     0.0179     5.0934     2.2603     5.8116    63.8300  -999.2500    32.5764
  726.0000    11.8379     0.3556     0.0838     2.5068     0.0216     5.3146     2.8699     8.5782    69.7915  -999.2500    27.2816
  726.5000    12.4255     0.3698     0.0862     2.5064     0.0179     5.4021     4.7040    37.3902    78.8607  -999.2500    18.2218
  727.0000    12.4390     0.3782     0.0833     2.5135     0.0151     5.4928     7.6946    52.6669    86.2444  -999.2500     1.2632
  727.5000    12.4390     0.3534     0.0795     2.5187     0.0153     5.6697    15.5804    85.5852    87.5093  -999.2500    -4.0093
  728.0000    12.4915     0.3291     0.0798     2.5048     0.0021     5.9077    14.1627    80.9884    86.3295  -999.2500    -9.2094
  728.5000    12.5384     0.3291     0.0935     2.4838    -0.0137     6.1562    10.3263    37.9995    86.7360  -999.2500   -14.4711
  729.0000    12.5380     0.3547     0.1071     2.4632    -0.0086     6.3924     7.2773    20.5598    88.9489  -999.2500   -17.3269
  729.5000    12.5322     0.3578     0.1164     2.4549     0.0071     6.3904     7.3008    16.0371    90.3162  -999.2500   -20.6587
  730.0000    12.3151     0.3433     0.1178     2.4506     0.0231     6.3904     7.2689    16.8022    91.0696  -999.2500   -22.0702
  730.5000    11.9093     0.3290     0.1202     2.4435     0.0390     6.2425     7.2689    17.9093    91.9822  -999.2500   -23.6741
  731.0000    11.4465     0.3146     0.1273     2.4330     0.0396     6.0880     7.5779    15.2916    91.8931  -999.2500   -25.2780
  731.5000    10.7084     0.3129     0.1344     2.4237     0.0247     6.0250     7.8965    11.9879    90.6663  -999.2500   -26.8820
  732.0000     9.9824     0.3174     0.1362     2.4307    -0.0285     5.9917     8.5670     9.5796    91.9994  -999.2500   -28.4869
  732.5000     9.4010     0.3209     0.1290     2.4435    -0.0749     6.1080     9.8478     8.8335    95.5612  -999.2500   -30.1353
  733.0000     9.3941     0.3079     0.1209     2.4563    -0.0787     6.2924     9.5641     8.3447    93.9785  -999.2500   -31.4043
  733.5000     9.3892     0.2958     0.1126     2.4692    -0.0710     6.6158     9.1164     8.0386    88.5406  -999.2500   -31.6304
  734.0000     9.3822     0.2926     0.1044     2.4820    -0.0357     6.9558     8.6897     7.8005    86.2310  -999.2500   -31.7711
  734.5000     9.3749     0.2990     0.0961     2.4954    -0.0102     7.0883     8.2830     7.6698    89.0763  -999.2500   -31.9342
  735.0000     9.3675     0.3078     0.0898     2.4952    -0.0254     7.1240     8.0431     7.6314    94.0260  -999.2500   -32.0129
  735.5000     9.3602     0.2957     0.0958     2.4879    -0.0463     7.1364     8.3041     7.5933    98.3363  -999.2500   -31.7945
  736.0000     9.3528     0.2955     0.0998     2.4839    -0.0313     7.3767     8.5273     7.5553   103.6192  -999.2500   -31.3236
  736.5000     9.3451     0.3073     0.0964     2.4903    -0.0065     7.5414     8.7375     7.5175   106.9122  -999.2500   -29.7070
  737.0000     9.3433     0.3206     0.0924     2.4978    -0.0023     7.3499     8.6740     7.4800   108.8368  -999.2500   -27.2365
  737.5000     9.3433     0.3040     0.0884     2.5053    -0.0091     7.1409     8.4936     7.4462   109.0432  -999.2500   -24.7005
