~VERSION INFORMATION
 VERS.                2.0:   CWLS LOG ASCII STANDARD - VERSION 2.0
 WRAP.                 NO:   ONE LINE PER DEPTH STEP
~WELL INFORMATION
#MNEM.UNIT      DATA TYPE    INFORMATION
#----------   ------------   ------------------------------
 STRT.F           32.0000:   START DEPTH
 STOP.F          557.0000:   STOP DEPTH
 STEP.F            0.5000:   STEP LENGTH
 NULL.          -999.2500:   NO VALUE
 COMP. FENIX & SCISSON U.S. NAVY:   COMPANY
 WELL.   S-3 NPR #3 #31-3:   WELL
 FLD .              NPR-3:   FIELD
 LOC .       S3 T38N R78W:   LOCATION
 CNTY.            NATRONA:   COUNTY
 STAT.            WYOMING:   STATE
 CTRY. UNITED STATES OF AMERICA:   COUNTRY
 SRVC.              Welex:   SERVICE COMPANY
 DATE.        05-MAR-1977:   LOGDATE
 API .       490251039500:   API NUMBER
~CURVE INFORMATION
#MNEM.UNIT       API CODE    CURVE DESCRIPTION
#----------   ------------   ------------------------------
 DEPT.F                  :   
 CALD.IN     45 280 60 00:   CALIPER FROM DENSITY LOG
 DPHI.DEC    45 890 12 00:   DENSITY POROSITY SANDSTONE
 DRHO.G/C3   45 356 01 00:   DENSITY CORRECTION
 GRD .GAPI   45 310 01 00:   GAMMA RAY FROM DENSITY LOG
 RHOB.G/C3   45 350 01 00:   BULK DENSITY
 ILD .OHMM   07 120 46 00:   INDUCTION LOG DEEP
 ILM .OHMM   07 120 44 00:   INDUCTION LOG MEDIUM
 SGRD.OHMM   07 220 05 00:   SHALLOW GUARD RESISTIVITY
 SPR .MV     07 010 01 00:   SPONTANEOUS POTENTIAL FROM RES.
~PARAMETER INFORMATION
#MNEM.UNIT          VALUE    DESCRIPTION
#----------   ------------   ------------------------------
 PD  .                 GL:   PERMANENT DATUM
 EPD .F              5178:   ELEVATION PERMANENT DATUM
 LMF .                 GL:   LOG MEASURED FROM
 DMF .                 GL:   DRILLING MEASURED FROM
 EGL .F              5178:   GROUND LEVEL
 DATE.        05-MAR-1977:   RUN DATE
 RUN .                  1:   RUN NUMBER
 DD  .F               560:   DEPTH DRILLER
 DL  .F               560:   DEPTH LOGGER
 BLI .F               558:   BOTTOM LOG INTERVAL
 TLI .F                40:   TOP LOG INTERVAL
 CS  .IN            8.625:   CASING SIZE
 CBD .F                43:   CASING BOTTOM DRILLER
 CBL .F                43:   CASING BOTTOM LOGGER
 BS  .IN            7.875:   BIT SIZE
 BSD .F               560:   BIT SIZE AT DEPTH
 DFT .                KCL:   DRILLING FLUID TYPE
 DFD .                8.8:   DRILLING FLUID DENSITY
 DFV .                 32:   DRILLING FLUID VISCOSITY
 MSS .           FLOWLINE:   MUD SAMPLE SOURCE
 RMS .OHMM           1.46:   RESISTIVITY MUD SAMPLE
 MST .F                48:   MUD SAMPLE TEMPERATURE
 RMF .OHMM          0.972:   RESISTIVITY MUD FILTRATE SAMPLE
 MFST.F                48:   MUD FILTRATE SAMPLE TEMPERATURE
 RMC .OHMM           2.32:   RESISTIVITY MUD CAKE
 MCST.F                48:   MUD CAKE SAMPLE TEMPERATURE
 MFSS.               MEAS:   MUD FILTRATE SAMPLE SOURCE
 MCSS.               MEAS:   MUD CAKE SAMPLE SOURCE
 RMB .OHMM           1.03:   RESISTIVITY MUD AT BHT
 BHT .F                68:   BOTTOM HOLE TEMPERATURE
 TCS .HRS               2:   TIME CURCULATED STOPPED
 MRT .F                68:   MAXIMUM RECORDED TEMPERATURE
 LUN .               8611:   LOGGING UNIT NUMBER
 LUL .           GILLETTE:   LOGGING UNIT LOCATION
 ENGI.          D. LAWSON:   RECORDING ENGINEER
 WITN.     MR. STUEBINGER:   WITNESSED BY
 CLNT.            A2DTECH:   CLIENT CODE
 ORIG.           5" PRINT:   ORIGIN OF DATA
 UWI .       490251039500:   UNIQUE WELL ID
 DICO. A2D Technologies, Inc.:   DIGITIZING COMPANY
~OTHER INFORMATION
~A   DEPT       CALD     DPHI        DRHO        GRD        RHOB      ILD        ILM       SGRD        SPR   
# ...
  214.5000     8.3139     0.1095     0.0066   115.7911     2.4629     7.3335     8.9878     9.3040   -19.8064
  215.0000     8.3157     0.1041     0.0113   112.8323     2.4730     7.4406     8.9926     9.4400   -19.7917
  215.5000     8.3323     0.1047     0.0145   110.7634     2.4738     7.4456     8.9354     9.5779   -19.7740
  216.0000     8.3340     0.1022     0.0146   112.5693     2.4762     7.5555     8.8786     9.7271   -19.7596
  216.5000     8.3507     0.1010     0.0132   114.0775     2.4777     7.6658     8.8845     9.7244   -19.7453
  217.0000     8.3524     0.1028     0.0134   115.0392     2.4762     7.6709     9.0130     9.5309   -19.7309
  217.5000     8.3542     0.1063     0.0135   116.7991     2.4718     7.7829     9.0178    10.0123   -19.7165
  218.0000     8.3560     0.1171     0.0092   116.3695     2.4585     7.7881     9.0227    10.1569   -19.9997
  218.5000     8.3134     0.1195     0.0061   115.1904     2.4511     7.9018     9.0275    10.0255   -19.9851
  219.0000     8.2854     0.1206     0.0004   116.2555     2.4459     7.9073     9.0324     9.8945   -19.9673
  219.5000     8.2719     0.1197     0.0006   117.7634     2.4452     8.0239     9.0383    10.2514   -19.9529
  220.0000     8.2740     0.1157     0.0008   118.5217     2.4505     8.0292     9.0432    10.3294   -19.9386
  220.5000     8.2758     0.1073     0.0039   116.6062     2.4678     8.1464     9.0480    10.3363   -19.9242
  221.0000     8.2622     0.0998     0.0086   117.0708     2.4814     8.1519     9.1156    10.2010   -19.7610
  221.5000     8.2491     0.0959     0.0102   119.6218     2.4875     8.1573     9.1838    10.3501   -19.8958
  222.0000     8.2513     0.0902     0.0104   120.8316     2.4936     8.1628     9.1887    10.7216   -19.8790
  222.5000     8.2530     0.0874     0.0135   121.2962     2.4996     8.1695     9.1936    10.9540   -19.7173
  223.0000     8.2548     0.0874     0.0167   116.4460     2.5012     8.1750     9.0722    10.5171   -19.5510
  223.5000     8.2565     0.0910     0.0168   112.8365     2.4979     8.1227     9.0782    10.2351   -19.5366
  224.0000     8.2583     0.0981     0.0170   114.3487     2.4836     8.0721     9.0831    10.1012   -19.5222
  224.5000     8.2753     0.1131     0.0109   116.6017     2.4610     7.9677     9.0879     9.9690   -19.2102
  225.0000     8.2920     0.1133     0.0053   120.6430     2.4520     7.9732     9.0928     9.8399   -19.4940
  225.5000     8.2937     0.1130     0.0054   123.4921     2.4619     7.9235     9.0977     9.8467   -19.6279
  226.0000     8.2955     0.1147     0.0056   122.4664     2.4522     7.8741     9.0325     9.9220   -19.7623
  226.5000     8.2972     0.1153     0.0057   120.9936     2.4507     7.8807     8.9216     9.9973   -19.7443
  227.0000     8.2989     0.1081     0.0059   120.4150     2.4658     7.8303     8.8637     9.8665   -19.7299
  227.5000     8.3007     0.1039     0.0090   120.1341     2.4734     7.7815     8.8696     9.8747   -19.7155
  228.0000     8.3024     0.1050     0.0122   118.9598     2.4720     7.7880     8.8743     9.8813   -19.7011
  228.5000     8.3042     0.1050     0.0093   117.7481     2.4719     7.7933     8.8791     9.6179   -19.6867
  229.0000     8.3060     0.1071     0.0080   116.2384     2.4706     7.7997     8.9454     9.6244   -19.6724
  229.5000     8.3077     0.1079     0.0066   114.2477     2.4662     7.8049     9.0125     9.9027   -19.6577
  230.0000     8.2801     0.1061     0.0068   113.6691     2.4681     7.8101     9.0183    10.4734   -19.6400
  230.5000     8.2819     0.1037     0.0069   113.3885     2.4754     7.8153     8.8980    10.1942   -19.4768
  231.0000     8.2687     0.1013     0.0071   110.7191     2.4784     7.8205     8.9044     9.9209   -19.6148
  231.5000     8.2556     0.1054     0.0072   110.7410     2.4710     7.7182     8.9091     9.7927   -19.5968
  232.0000     8.2573     0.1105     0.0074   110.7585     2.4651     7.6626     8.7915     9.7992   -19.5824
  232.5000     8.2591     0.1137     0.0075   108.6896     2.4629     7.6224     8.7962     9.6710   -19.5680
  233.0000     8.2608     0.1149     0.0077   109.6013     2.4622     7.5227     8.6788     9.6791   -19.5536
  233.5000     8.2626     0.1155     0.0078   110.2150     2.4526     7.4243     8.5654     9.8205   -19.5387
  234.0000     8.2792     0.1169     0.0110   110.8286     2.4504     7.3272     8.4522     9.1700   -19.5213
  234.5000     8.2958     0.1196     0.0111   110.8465     2.4475     7.2325     8.2842     9.1114   -19.6593
  235.0000     8.3889     0.1219     0.0113   109.9205     2.4445     7.1380     8.2304     9.1823   -19.6413
  235.5000     8.5512     0.1213     0.0114   108.5011     2.4424     7.0447     8.0669     9.5119   -19.6269
  236.0000     8.7922     0.1177     0.0146   107.9181     2.4601     6.8582     7.9603     9.7181   -19.7619
  236.5000     8.1094     0.1120     0.0177   109.4303     2.4729     6.6756     7.6939     9.2022   -19.7469
  237.0000     8.1116     0.1002     0.0209   110.7891     2.4823     6.4085     7.3852     8.4746   -19.7321
  237.5000     8.1282     0.0993     0.0241   111.2537     2.4809     6.2379     7.0360     7.8045   -19.7146
  238.0000     8.1146     0.1104     0.0242   112.1654     2.4712     6.1563     6.9952     7.2876   -19.7002
  238.5000     8.1317     0.1202     0.0183   113.6732     2.4526     6.1605     6.8089     6.5281   -19.6858
  239.0000     8.1037     0.1238     0.0155   114.5849     2.4421     6.1655     7.0036     6.6329   -19.6714
  239.5000     8.1054     0.1228     0.0126   115.6457     2.4407     6.1696     7.1049     8.9884   -19.6570
  240.0000     8.1072     0.1114     0.0143   114.0238     2.4573     6.2597     7.3081     8.7488   -19.6426
  240.5000     8.1089     0.1078     0.0175   111.3343     2.4663     6.3952     7.5171     8.6329   -19.6280
  241.0000     8.1107     0.1090     0.0191   109.4397     2.4664     6.5336     7.6259     8.7605   -19.6102
  241.5000     8.1129     0.1137     0.0162   106.9273     2.4545     6.7213     7.7372     9.0124   -19.5959
  242.0000     8.1295     0.1128     0.0149   105.9016     2.4531     6.8206     7.8491     9.2715   -19.5815
  242.5000     8.1461     0.1070     0.0150   106.9623     2.4668     6.9201     7.8533     9.1502   -19.5671
  243.0000     8.1479     0.1059     0.0167   110.8546     2.4712     7.0212     7.8575     9.1578   -19.5527
  243.5000     8.1496     0.1058     0.0199   113.5547     2.4713     7.1237     7.9712     9.1639   -19.5383
  244.0000     8.1514     0.1064     0.0200   114.4621     2.4699     7.1284     7.9754     9.1700   -19.5198
  244.5000     8.1531     0.1088     0.0171   112.3975     2.4655     7.0840     7.9798     9.1762   -19.3601
  245.0000     8.1548     0.1111     0.0143   110.9247     2.4610     7.0399     7.9850     9.1823   -19.3427
  245.5000     8.1268     0.1084     0.0145   111.9855     2.4656     6.9478     7.8796     9.0621   -19.3283
  246.0000     8.1286     0.1110     0.0176   113.9404     2.4687     6.8581     7.8838     8.9435   -19.4663
  246.5000     8.1304     0.1116     0.0193   116.6657     2.4597     6.6755     7.7260     8.7052   -19.4484
  247.0000     8.1321     0.1110     0.0209   117.1051     2.4636     6.4529     7.6759     8.5913   -19.4340
  247.5000     8.1343     0.1053     0.0241   114.8871     2.4689     6.2377     7.5754     8.3623   -19.4196
  248.0000     8.1360     0.1031     0.0272   114.6066     2.4735     5.9883     7.3174     8.2529   -19.4048
  248.5000     8.1378     0.1067     0.0290   115.8207     2.4704     5.8288     7.0769     8.1462   -19.3872
  249.0000     8.1246     0.1120     0.0305   118.2228     2.4629     5.5966     6.7939     7.8166   -19.3728
  249.5000     8.1111     0.1174     0.0307   119.7306     2.4497     5.3727     6.4317     7.6117   -19.3584
  250.0000     8.1132     0.1257     0.0309   119.0029     2.4400     5.1223     6.0888     7.4089   -19.3440
  250.5000     8.1143     0.1392     0.0231   116.1889     2.4158     5.0196     5.7642     6.4328   -19.3671
