~VERSION INFORMATION
 VERS.                2.0:   CWLS LOG ASCII STANDARD - VERSION 2.0
 WRAP.                 NO:   ONE LINE PER DEPTH STEP
~WELL INFORMATION
#MNEM.UNIT      DATA TYPE    INFORMATION
#----------   ------------   ------------------------------
 STRT.F           29.0000:   START DEPTH
 STOP.F          500.0000:   STOP DEPTH
 STEP.F            0.5000:   STEP LENGTH
 NULL.          -999.2500:   NO VALUE
 COMP.    FENIX & SCISSON:   COMPANY
 WELL.        NPR #48-S-3:   WELL
 FLD .             TEAPOT:   FIELD
 LOC .       S3 T38N R78W:   LOCATION
 CNTY.            NATRONA:   COUNTY
 STAT.            WYOMING:   STATE
 CTRY. UNITED STATES OF AMERICA:   COUNTRY
 SRVC.              Welex:   SERVICE COMPANY
 DATE.        24-APR-1977:   LOGDATE
 API .       490251034900:   API NUMBER
~CURVE INFORMATION
#MNEM.UNIT       API CODE    CURVE DESCRIPTION
#----------   ------------   ------------------------------
 DEPT.F                  :   
 SPR .MV     07 010 01 00:   SPONTANEOUS POTENTIAL
 ILD .OHMM   07 120 46 00:   INDUCTION LOG DEEP
 ILM .OHMM   07 120 44 00:   INDUCTION LOG MEDIUM
 SGRD.OHMM   07 221 05 00:   SHALLOW SHORT GUARD RESISTIVITY
 GRD .GAPI   45 310 01 00:   GAMMA RAY FROM DENSITY LOG
 CALD.IN     45 280 60 00:   CALIPER FROM DENSITY LOG
 CORR.G/C3   45 356 01 00:   DENSITY CORRECTION
 RHOB.G/C3   45 350 01 00:   BULK DENSITY
 DPHI.DEC    45 890 12 00:   DENSITY POROSITY SANDSTONE
~PARAMETER INFORMATION
#MNEM.UNIT          VALUE    DESCRIPTION
#----------   ------------   ------------------------------
 PD  .                 GL:   PERMANENT DATUM
 EPD .F              5199:   ELEVATION PERMANENT DATUM
 LMF .                 GL:   LOG MEASURED FROM
 DMF .                 GL:   DRILLING MEASURED FROM
 EGL .F              5199:   GROUND LEVEL
 DATE.        24-APR-1977:   RUN DATE
 RUN .                  1:   RUN NUMBER
 DD  .F               500:   DEPTH DRILLER
 DL  .F               499:   DEPTH LOGGER
 BLI .F               497:   BOTTOM LOG INTERVAL
 TLI .F                30:   TOP LOG INTERVAL
 CS  .IN            8.625:   CASING SIZE
 BS  .IN               12:   BIT SIZE
 BSD .F               500:   BIT SIZE AT DEPTH
 DFT .             KCLMUD:   DRILLING FLUID TYPE
 DFD .                8.9:   DRILLING FLUID DENSITY
 TCS .HRS               1:   TIME CURCULATED STOPPED
 MRT .F                70:   MAXIMUM RECORDED TEMPERATURE
 ENGI.          T. JOYNER:   RECORDING ENGINEER
 WITN.            R. LYON:   WITNESSED BY
 CLNT.            A2DTECH:   CLIENT CODE
 ORIG.           5" PRINT:   ORIGIN OF DATA
 UWI .       490251034900:   UNIQUE WELL ID
 DICO. A2D Technologies, Inc.:   DIGITIZING COMPANY
~OTHER INFORMATION
~A   DEPT      SPR        ILD        ILM       SGRD        GRD         CALD      CORR        RHOB     DPHI   
# ...
  467.0000   -37.0940     9.8957    10.7532    16.5973   114.1032     7.7234     0.0044     2.5118     0.0820
  467.5000   -37.2327     9.6362    10.5415    15.9333   113.5130     7.7227     0.0059     2.5155     0.0808
  468.0000   -37.3682     9.4465    10.4756    16.6172   112.9216     7.7220     0.0067     2.5185     0.0805
  468.5000   -37.5037     9.3248    10.2716    16.2864   112.7762     7.7211     0.0059     2.5147     0.0820
  469.0000   -37.6392     9.2027    10.2096    15.8522   113.8253     7.7204     0.0066     2.5071     0.0845
  469.5000   -37.7747     9.1471    10.2184    15.4297   114.7393     7.7346     0.0066     2.4982     0.0874
  470.0000   -37.9102     9.0919    10.2271    15.2250   115.9224     7.7339     0.0074     2.4974     0.0904
  470.5000   -37.8941     9.1017    10.2359    15.5553   116.5233     7.7384     0.0073     2.5026     0.0916
  471.0000   -37.8812     9.1096    10.3158    15.8904   117.2732     7.7430     0.0073     2.5048     0.0904
  471.5000   -37.8683     9.0527    10.3963    16.1210   118.1721     7.7475     0.0073     2.5047     0.0910
  472.0000   -37.8554     9.0624    10.4775    15.9095   118.9220     7.7521     0.0073     2.5002     0.0929
  472.5000   -37.9915     9.0058    10.5593    15.8072   120.1202     7.7566     0.0073     2.4942     0.0967
  473.0000   -38.1268     8.9534    10.7899    15.9286   121.7643     7.7612     0.0065     2.4897     0.1012
  473.5000   -38.1136     8.9611    10.8741    16.0486   122.9613     7.7657     0.0050     2.4874     0.1015
  474.0000   -38.2490     8.8457    10.7340    15.9454   123.4119     7.7699     0.0042     2.4851     0.1019
  474.5000   -38.2362     8.7298    10.4487    15.7386   118.7979     7.7706     0.0035     2.4828     0.1013
  475.0000   -38.2233     8.6772    10.1738    15.4252   117.1469     7.7714     0.0019     2.4745     0.1007
  475.5000   -38.2103     8.5082    10.0427    15.0140   116.8700     7.7721     0.0012     2.4808     0.1001
  476.0000   -38.3459     8.4550     9.8450    14.7151   117.3230     7.7728     0.0012     2.4834     0.1001
  476.5000   -38.3330     8.3461     9.7787    14.6204   118.3710     7.7736     0.0012     2.4804     0.1019
  477.0000   -38.4685     8.2404     9.5849    14.5286   120.0151     7.7743     0.0004     2.4781     0.1040
  477.5000   -38.6040     8.1342     9.4601    14.4390   121.5353     7.7750    -0.0011     2.4751     0.1073
  478.0000   -38.5879     8.0834     9.2828    14.3484   124.3476     7.7758    -0.0019     2.4661     0.1097
  478.5000   -38.7266     7.9792     9.1001    14.1601   122.7130     7.7765    -0.0019     2.4585     0.1133
  479.0000   -38.8621     7.8239     9.0452    14.0712   121.5255     7.7623    -0.0019     2.4495     0.1223
  479.5000   -38.8460     7.6170     9.0549    14.0799   121.8283     7.7333    -0.0019     2.4382     0.1268
  480.0000   -38.6848     7.3645     8.8766    14.0884   122.7273     7.7359    -0.0020     2.4291     0.1292
  480.5000   -38.6719     7.1204     8.8211    13.9997   123.0301     7.7603    -0.0020     2.4254     0.1292
  481.0000   -38.5107     6.8843     8.7698    14.0083   118.8631     7.7889    -0.0020     2.4374     0.1274
  481.5000   -38.3494     6.7023     8.6568    14.0167    96.2151     7.7868    -0.0020     2.4276     0.1289
  482.0000   -38.1882     6.5704     8.5452    13.8328    50.9140     7.7847    -0.0020     2.4186     0.1334
  482.5000   -38.0270     6.4857     8.2619    13.5535  -999.2500     7.8125    -0.0013     2.4077     0.1397
  483.0000   -38.0141     6.4913     7.9330    11.6989  -999.2500     7.8248    -0.0005     2.4133     0.1370
  483.5000   -38.0012     6.4969     7.9949     8.7219  -999.2500     7.8078     0.0002     2.4312     0.1335
  484.0000   -37.8400     6.5931     8.4569     9.0859  -999.2500     7.7908     0.0002     2.4484     0.1275
  484.5000   -37.8271     6.7371     9.0076    12.9556  -999.2500     7.7732     0.0009     2.4641     0.1212
  485.0000   -37.6658     6.9320     9.5281    14.7859  -999.2500     7.7711     0.0017     2.4813     0.1120
  485.5000   -37.5046     7.1820    10.0093    15.1066  -999.2500     7.7690     0.0031     2.4925     0.1063
  486.0000   -37.4917     7.4411    10.4423    15.4165  -999.2500     7.7664     0.0046     2.4969     0.1039
  486.5000   -37.4788     7.7630    10.8189    15.6403  -999.2500     7.7643     0.0069     2.4976     0.1042
  487.0000   -37.7627     8.1091    11.1319    16.2014  -999.2500     7.7623     0.0076     2.4946     0.1052
  487.5000   -38.0471     8.5669    11.4539    16.6651  -999.2500     7.7597     0.0091     2.4886     0.1064
  488.0000   -38.6272     8.6937    11.7040    16.9070  -999.2500     7.7576     0.0098     2.4825     0.1076
  488.5000   -39.2078     8.7615    11.7954    17.0343  -999.2500     7.7555     0.0121     2.4735     0.1100
  489.0000   -39.9367     8.7691    11.8055    17.0446  -999.2500     7.7385     0.0135     2.4645     0.1136
  489.5000   -41.1108     8.8376    11.8157    16.8209  -999.2500     7.7358     0.0150     2.4584     0.1199
  490.0000   -42.2849     8.9684    11.9079    16.5977  -999.2500     7.7338     0.0165     2.4577     0.1187
  490.5000   -42.7171     9.1642    12.1680    16.4959  -999.2500     7.7317     0.0188     2.4636     0.1172
  491.0000   -42.3876     9.6270    12.5200    16.5058  -999.2500     7.7291     0.0195     2.4644     0.1151
  491.5000   -41.3260    10.3968    13.0616    16.3997  -999.2500     7.7270     0.0217     2.4643     0.1166
  492.0000   -40.4327    11.3845    14.4016    16.2966  -999.2500     7.7249     0.0232     2.4515     0.1220
  492.5000   -39.6977    12.7273    16.5518    16.1942  -999.2500     7.6924     0.0247     2.4373     0.1271
  493.0000   -39.0887    14.5267    18.5040    16.0925  -999.2500     7.6754     0.0269     2.4215     0.1367
  493.5000   -38.4823    16.9281    20.6865    16.1045  -999.2500     7.6733     0.0277     2.4072     0.1450
  494.0000   -37.8760    19.5905    26.5564    16.1142  -999.2500     7.6712     0.0300     2.3899     0.1569
  494.5000   -37.4180    22.9874    33.1618    16.2356  -999.2500     7.6536     0.0329     2.3674     0.1681
  495.0000   -36.8117    26.6028    34.6254    16.2454  -999.2500     7.6515     0.0344     2.3517     0.1785
  495.5000   -36.3537    28.5320    21.6402    16.3678  -999.2500     7.6495     0.0366     2.3232     0.1953
  496.0000   -35.8957    29.7663    12.8946    16.2625  -999.2500     7.6170     0.0396     2.2999     0.2093
  496.5000   -35.7345    30.4164    12.6381    16.0491  -999.2500     7.6163     0.0396     2.2913     0.2118
  497.0000   -35.5732    30.4427    13.3712    15.7296  -999.2500     7.6161     0.0396     2.2857     0.2126
  497.5000   -35.4120    30.0505    14.5405    15.4187  -999.2500  -999.2500  -999.2500  -999.2500  -999.2500
  498.0000   -35.2507    26.1907    15.8787    15.2141  -999.2500  -999.2500  -999.2500  -999.2500  -999.2500
  498.5000   -35.2379    24.5035    17.0915    15.1185  -999.2500  -999.2500  -999.2500  -999.2500  -999.2500
  499.0000   -35.2250    22.6156    18.8062    15.1299  -999.2500  -999.2500  -999.2500  -999.2500  -999.2500
  499.5000   -35.2121    20.7277    20.5209    15.1389  -999.2500  -999.2500  -999.2500  -999.2500  -999.2500
  500.0000   -35.2003    18.8399    22.2356    15.1475  -999.2500  -999.2500  -999.2500  -999.2500  -999.2500
