~VERSION INFORMATION
 VERS.                2.0:   CWLS LOG ASCII STANDARD - VERSION 2.0
 WRAP.                 NO:   ONE LINE PER DEPTH STEP
~WELL INFORMATION
#MNEM.UNIT      DATA TYPE    INFORMATION
#----------   ------------   ------------------------------
 STRT.F           24.0000:   START DEPTH
 STOP.F          570.0000:   STOP DEPTH
 STEP.F            0.5000:   STEP LENGTH
 NULL.          -999.2500:   NO VALUE
 COMP. FENIX & SCISSON INC:   COMPANY
 WELL.   NPR-3 #32SX10-10:   WELL
 FLD .  TEAPOT COME NPR-3:   FIELD
 LOC .      S10 T38N R78W:   LOCATION
 CNTY.            NATRONA:   COUNTY
 STAT.            WYOMING:   STATE
 CTRY. UNITED STATES OF AMERICA:   COUNTRY
 SRVC.            Unknown:   SERVICE COMPANY
 DATE.        27-JUN-1978:   LOGDATE
 API .       490251065300:   API NUMBER
~CURVE INFORMATION
#MNEM.UNIT       API CODE    CURVE DESCRIPTION
#----------   ------------   ------------------------------
 DEPT.F                  :   
 CALD.IN     45 280 60 00:   CALIPER FROM DENSITY LOG
 GRD .GAPI   45 310 01 00:   GAMMA RAY FROM DENSITY LOG
 CORR.G/C3   45 356 01 00:   DENSITY CORRECTION
 DPHI.DEC    45 890 12 00:   DENSITY POROSITY SANDSTONE
 RHOB.G/C3   45 350 01 00:   BULK DENSITY
 SPR .MV     05 010 01 00:   SPONTANEOUS POTENTIAL FROM RES.
 SN  .OHMM   05 040 16 00:   SHORT NORMAL 16"
 ILD .OHMM   05 120 46 00:   INDUCTION LOG DEEP
~PARAMETER INFORMATION
#MNEM.UNIT          VALUE    DESCRIPTION
#----------   ------------   ------------------------------
 PD  .                 GL:   PERMANENT DATUM
 EPD .F              5239:   ELEVATION PERMANENT DATUM
 LMF .                 GL:   LOG MEASURED FROM
 DAPD.F                 4:   FEET ABOVE PERMANENT DATUM
 DMF .                 GL:   DRILLING MEASURED FROM
 EKB .F              5243:   KELLING BUSHING
 EGL .F              5239:   GROUND LEVEL
 DATE.        27-JUN-1978:   RUN DATE
 RUN .                  1:   RUN NUMBER
 DD  .F               565:   DEPTH DRILLER
 DL  .F               574:   DEPTH LOGGER
 BLI .F               572:   BOTTOM LOG INTERVAL
 TLI .F                30:   TOP LOG INTERVAL
 CS  .IN            8.625:   CASING SIZE
 CBD .F                40:   CASING BOTTOM DRILLER
 CBL .F                40:   CASING BOTTOM LOGGER
 BS  .IN            7.875:   BIT SIZE
 BSD .F               565:   BIT SIZE AT DEPTH
 DFT .                KCL:   DRILLING FLUID TYPE
 DFD .                8.7:   DRILLING FLUID DENSITY
 DFV .                 35:   DRILLING FLUID VISCOSITY
 DFPH.                 10:   DRILLING FLUID PH
 DFL .                 14:   DRILLING FLUID LOSS
 MSS .           FLOWLINE:   MUD SAMPLE SOURCE
 RMS .OHMM            .36:   RESISTIVITY MUD SAMPLE
 MST .F                78:   MUD SAMPLE TEMPERATURE
 RMF .OHMM             .3:   RESISTIVITY MUD FILTRATE SAMPLE
 MFST.F                86:   MUD FILTRATE SAMPLE TEMPERATURE
 RMC .OHMM            .36:   RESISTIVITY MUD CAKE
 MCST.F                87:   MUD CAKE SAMPLE TEMPERATURE
 MFSS.               MEAS:   MUD FILTRATE SAMPLE SOURCE
 MCSS.               MEAS:   MUD CAKE SAMPLE SOURCE
 RMB .OHMM            3.9:   RESISTIVITY MUD AT BHT
 BHT .F                72:   BOTTOM HOLE TEMPERATURE
 TCS .HRS            0300:   TIME CURCULATED STOPPED
 MRT .F                72:   MAXIMUM RECORDED TEMPERATURE
 LUN .               2938:   LOGGING UNIT NUMBER
 LUL .               CASP:   LOGGING UNIT LOCATION
 ENGI.            POINTER:   RECORDING ENGINEER
 WITN.         ZARGARNIAN:   WITNESSED BY
 CLNT.            A2DTECH:   CLIENT CODE
 ORIG.     2.5", 5" PRINT:   ORIGIN OF DATA
 UWI .       490251065300:   UNIQUE WELL ID
 DICO. A2D Technologies, Inc.:   DIGITIZING COMPANY
~OTHER INFORMATION
~A   DEPT     CALD         GRD      CORR       DPHI       RHOB        SPR         SN        ILD   
# ...
  186.0000     7.6390   117.7236     0.0318     0.1077     2.5022   -24.9916     9.5595    11.0700
  186.5000     7.6412   118.0619     0.0320     0.1077     2.5023   -24.9946     9.5588    11.0685
  187.0000     7.6436   120.2954     0.0308     0.1082     2.5032   -24.9975     9.5582    11.0670
  187.5000     7.6303   124.1758     0.0311     0.1088     2.5041   -25.2990     9.5575    11.0655
  188.0000     7.6025   127.9144     0.0283     0.1090     2.5043   -25.3020     9.5569    11.0640
  188.5000     7.5455   127.0434     0.0256     0.1102     2.5029   -25.3049     9.5562    11.0625
  189.0000     7.4879   123.0520     0.0229     0.1137     2.4993   -25.0094     9.4255    11.0610
  189.5000     7.4155   120.3928     0.0201     0.1185     2.4925   -25.0124     9.4249    11.0595
  190.0000     7.3723   121.1614     0.0174     0.1214     2.4860   -25.0153     9.4242    11.0580
  190.5000     7.3297   121.3305     0.0161     0.1217     2.4833   -25.0183     9.2953    11.0565
  191.0000     7.2875   120.7566     0.0148     0.1204     2.4842   -24.7224     9.2947    11.0550
  191.5000     7.2449   119.2913     0.0137     0.1171     2.4851   -24.7257     9.2940    11.0534
  192.0000     7.2166   117.2315     0.0139     0.1176     2.4853   -24.4302     9.2933    11.0219
  192.5000     7.1745   115.3204     0.0112     0.1237     2.4787   -24.4331     9.1662    10.8693
  193.0000     7.1466   109.5460     0.0099     0.1290     2.4713   -24.4361     9.1656    10.7189
  193.5000     7.1190   109.2689     0.0102     0.1316     2.4670   -24.4391     9.1649    10.5705
  194.0000     7.1210   109.8842     0.0104     0.1330     2.4649   -24.4420     9.1643    10.4243
  194.5000     7.1380   110.3570     0.0107     0.1323     2.4642   -24.4450     9.0389    10.1403
  195.0000     7.1550   111.1292     0.0125     0.1269     2.4674   -24.7465     8.9153    10.0340
  195.5000     7.1720   114.5117     0.0142     0.1266     2.4721   -25.0479     8.9147     9.8963
  196.0000     7.1745   117.2471     0.0160     0.1286     2.4745   -25.0509     8.9141     9.7604
  196.5000     7.1914   116.3812     0.0162     0.1306     2.4724   -25.3524     8.8411     9.6264
  197.0000     7.2084   118.6305     0.0149     0.1303     2.4703   -25.6539     8.7914     9.6251
  197.5000     7.2254   120.7312     0.0152     0.1290     2.4697   -25.6568     8.7908     9.6238
  198.0000     7.2423   121.7919     0.0139     0.1302     2.4698   -25.6598     8.7902     9.4917
  198.5000     7.2742   121.9610     0.0112     0.1295     2.4700   -25.6627     8.7896     9.4904
  199.0000     7.3358   121.8329     0.0085     0.1274     2.4709   -25.6657     8.8319     9.3601
  199.5000     7.3677   120.9619     0.0072     0.1291     2.4703   -25.6687     8.8836     9.3175
  200.0000     7.3842   119.6400     0.0060     0.1327     2.4691   -25.6716     8.9092     9.2245
  200.5000     7.3866   119.6626     0.0097     0.1348     2.4622   -25.5860     8.8207     9.1877
  201.0000     7.3887   120.4259     0.0134     0.1356     2.4580   -25.5004     8.7322     9.1508
  201.5000     7.4057   122.0793     0.0172     0.1307     2.4584   -25.4149     8.6436     9.1069
  202.0000     7.4528   123.2870     0.0190     0.1259     2.4714   -25.3847     8.5551     9.1074
  202.5000     7.4847   123.7518     0.0208     0.1213     2.4795   -25.3880     8.4666     8.9843
  203.0000     7.5464   123.0153     0.0225     0.1195     2.4834   -25.3910     8.4339     8.9849
  203.5000     7.6080   121.4223     0.0243     0.1200     2.4850   -25.3941     8.4064     8.9855
  204.0000     7.6548   115.4925     0.0245     0.1203     2.4859   -25.3970     8.3191     8.9209
  204.5000     7.6569   110.0137     0.0248     0.1184     2.4868   -25.1013     8.2059     8.8646
  205.0000     7.6440   110.9243     0.0250     0.1172     2.4877   -25.1045     8.2059     8.8049
  205.5000     7.6307   119.6541     0.0253     0.1155     2.4901   -25.1074     8.0942     8.7452
  206.0000     7.6332   125.6648     0.0255     0.1131     2.4948   -25.1104     7.9840     8.6269
  206.5000     7.6353   127.2704     0.0242     0.1122     2.4987   -25.1135     7.9666     8.6275
  207.0000     7.6373   127.5624     0.0215     0.1124     2.4988   -25.4239     7.8753     8.5774
  207.5000     7.6394   125.4937     0.0188     0.1127     2.4982   -25.7214     7.8610     8.5115
  208.0000     7.6415   124.0166     0.0161     0.1132     2.4984   -26.6149     7.7681     8.5120
  208.5000     7.6283   123.7373     0.0148     0.1150     2.4971   -26.9165     7.7568     8.5126
  209.0000     7.5848   121.9662     0.0151     0.1212     2.4860   -26.9195     7.6527     8.5132
  209.5000     7.5115   119.5999     0.0123     0.1263     2.4749   -26.9225     7.4471     8.5138
  210.0000     7.4857   119.3133     0.0096     0.1268     2.4736   -26.9255     7.3470     8.5144
  210.5000     7.5032   119.3316     0.0084     0.1265     2.4737   -26.9285     7.3537     8.5150
  211.0000     7.5197   119.3462     0.0086     0.1261     2.4746   -26.9316     7.5623     8.5156
  211.5000     7.4626   119.3609     0.0073     0.1257     2.4763   -26.6359     7.7681     8.5162
  212.0000     7.2709   123.3934     0.0076     0.1258     2.4757   -26.6391     7.7681     8.5167
  212.5000     7.1681   123.4080     0.0094     0.1268     2.4750   -26.3436     7.7681     8.5173
  213.0000     7.1707   123.4227     0.0096     0.1289     2.4714   -26.3466     7.7681     8.5179
  213.5000     7.1728   122.9846     0.0114     0.1309     2.4687   -26.3496     7.7681     8.6359
  214.0000     7.1748   122.5591     0.0131     0.1315     2.4689   -26.3526     7.7681     8.6365
  214.5000     7.1918   125.1041     0.0149     0.1314     2.4682   -26.0572     7.7681     8.6371
  215.0000     7.2236   126.0147     0.0181     0.1311     2.4692   -26.0602     7.7681     8.6376
  215.5000     7.2704   129.0056     0.0199     0.1307     2.4693   -25.7642     7.7681     8.6382
  216.0000     7.3172   136.9059     0.0217     0.1301     2.4695   -25.7677     7.7681     8.6388
  216.5000     7.3192   137.9622     0.0204     0.1255     2.4719   -25.7707     7.7681     8.6394
  217.0000     7.3213   135.0007     0.0162     0.1228     2.4795   -25.7731     7.7681     8.6400
  217.5000     7.3533   126.0867     0.0149     0.1203     2.4827   -25.7762     7.7681     8.6405
  218.0000     7.4000   121.3395     0.0121     0.1196     2.4843   -25.7791     7.8753     8.6411
  218.5000     7.4621   121.3556     0.0094     0.1212     2.4830   -25.7821     7.8753     8.6417
  219.0000     7.4940   121.6664     0.0067     0.1225     2.4809   -25.7851     7.9840     8.6423
  219.5000     7.5109   121.3834     0.0054     0.1231     2.4795   -25.4895     7.9840     8.6429
  220.0000     7.5130   121.4017     0.0027     0.1236     2.4782   -25.4925     7.9840     8.6435
  220.5000     7.5150   122.0116     0.0030     0.1245     2.4776   -25.4956     7.9840     8.6441
  221.0000     7.5171   123.2168     0.0032     0.1247     2.4763   -25.4985     7.9840     8.5272
  221.5000     7.5037   127.5469     0.0020     0.1250     2.4764   -25.6214     7.9840     8.5278
  222.0000     7.4909   129.4960     0.0023     0.1249     2.4758   -25.8024     7.9840     8.5284
  222.5000     7.4780   130.2511     0.0025     0.1249     2.4760   -25.5069     7.9840     8.5290
  223.0000     7.4508   125.9539     0.0012     0.1248     2.4754   -25.5104     7.9840     8.5296
  223.5000     7.4378   122.3971     0.0015     0.1247     2.4756   -25.5135     7.9840     8.5302
  224.0000     7.4102   120.9237     0.0033     0.1274     2.4750   -25.5164     7.9840     8.5308
  224.5000     7.3973   121.2360     0.0050     0.1273     2.4751   -25.5194     7.9840     8.5313
  225.0000     7.3845   127.9470     0.0083     0.1270     2.4753   -25.5224     7.9840     8.5319
  225.5000     7.3717   131.8307     0.0115     0.1269     2.4747   -25.5935     7.9840     8.5325
  226.0000     7.3738   133.7799     0.0147     0.1272     2.4749   -25.8269     7.9840     8.5331
