~VERSION INFORMATION
 VERS.                2.0:   CWLS LOG ASCII STANDARD - VERSION 2.0
 WRAP.                 NO:   ONE LINE PER DEPTH STEP
~WELL INFORMATION
#MNEM.UNIT      DATA TYPE    INFORMATION
#----------   ------------   ------------------------------
 STRT.F           46.0000:   START DEPTH
 STOP.F          490.0000:   STOP DEPTH
 STEP.F            0.5000:   STEP LENGTH
 NULL.          -999.2500:   NO VALUE
 COMP.    FENIX & SCISSON:   COMPANY
 WELL.        NPR #55-S-3:   WELL
 FLD .              NPR 3:   FIELD
 LOC .       S3 T38N R78W:   LOCATION
 CNTY.            NATRONA:   COUNTY
 STAT.            WYOMING:   STATE
 CTRY. UNITED STATES OF AMERICA:   COUNTRY
 SRVC.      Dresser Atlas:   SERVICE COMPANY
 DATE.        12-MAR-1977:   LOGDATE
 API .       490251028700:   API NUMBER
~CURVE INFORMATION
#MNEM.UNIT       API CODE    CURVE DESCRIPTION
#----------   ------------   ------------------------------
 DEPT.F                  :   
 SPR .MV     07 010 01 00:   SPONTANEOUS POTENTIAL
 ILM .OHMM   07 120 44 00:   INDUCTION LOG MEDIUM
 ILD .OHMM   07 120 46 00:   INDUCTION LOG DEEP
 SFL .OHMM   07 220 01 00:   SHALLOW FOCUSED LOG RESISTIVITY
 CALD.IN     45 280 60 00:   CALIPER FROM DENSITY LOG
 GRD .GAPI   45 310 01 00:   GAMMA RAY FROM DENSITY LOG
 CORR.G/C3   45 356 01 00:   DENSITY CORRECTION
 DPHI.DEC    45 890 12 00:   DENSITY POROSITY SANDSTONE
 RHOB.G/C3   45 350 01 00:   BULK DENSITY
~PARAMETER INFORMATION
#MNEM.UNIT          VALUE    DESCRIPTION
#----------   ------------   ------------------------------
 PD  .                 GL:   PERMANENT DATUM
 EPD .F              5169:   ELEVATION PERMANENT DATUM
 LMF .                 GL:   LOG MEASURED FROM
 DMF .                 GL:   DRILLING MEASURED FROM
 EGL .F              5169:   GROUND LEVEL
 DATE.        12-MAR-1977:   RUN DATE
 RUN .                  1:   RUN NUMBER
 DD  .F               498:   DEPTH DRILLER
 DL  .F               492:   DEPTH LOGGER
 BLI .F               490:   BOTTOM LOG INTERVAL
 TLI .F               046:   TOP LOG INTERVAL
 CS  .IN            8.625:   CASING SIZE
 CBD .F                40:   CASING BOTTOM DRILLER
 CBL .F               046:   CASING BOTTOM LOGGER
 BS  .IN            7.875:   BIT SIZE
 BSD .F               498:   BIT SIZE AT DEPTH
 DFT .           CHEM GEL:   DRILLING FLUID TYPE
 DFD .                8.7:   DRILLING FLUID DENSITY
 DFV .                 35:   DRILLING FLUID VISCOSITY
 DFPH.                8.0:   DRILLING FLUID PH
 DFL .                7.2:   DRILLING FLUID LOSS
 MSS .           FLOWLINE:   MUD SAMPLE SOURCE
 RMS .OHMM            .35:   RESISTIVITY MUD SAMPLE
 MST .F                60:   MUD SAMPLE TEMPERATURE
 RMF .OHMM             .3:   RESISTIVITY MUD FILTRATE SAMPLE
 MFST.F                60:   MUD FILTRATE SAMPLE TEMPERATURE
 RMC .OHMM            .73:   RESISTIVITY MUD CAKE
 MCST.F                60:   MUD CAKE SAMPLE TEMPERATURE
 MFSS.               MEAS:   MUD FILTRATE SAMPLE SOURCE
 MCSS.               MEAS:   MUD CAKE SAMPLE SOURCE
 RMB .OHMM            .33:   RESISTIVITY MUD AT BHT
 BHT .F                63:   BOTTOM HOLE TEMPERATURE
 TCS .HRS            1400:   TIME CURCULATED STOPPED
 MRT .F                63:   MAXIMUM RECORDED TEMPERATURE
 LUN .               6134:   LOGGING UNIT NUMBER
 LUL .              GLTTE:   LOGGING UNIT LOCATION
 ENGI.              NOYER:   RECORDING ENGINEER
 WITN.         STUEBINGER:   WITNESSED BY
 CLNT.            A2DTECH:   CLIENT CODE
 ORIG.           5" PRINT:   ORIGIN OF DATA
 UWI .       490251028700:   UNIQUE WELL ID
 DICO. A2D Technologies, Inc.:   DIGITIZING COMPANY
~OTHER INFORMATION
~A   DEPT      SPR        ILM        ILD        SFL       CALD        GRD       CORR         DPHI       RHOB 
   46.0000  -999.2500  -999.2500   549.6889  2000.0000  -999.2500  -999.2500  -999.2500     0.3000     2.0000
   46.5000  -999.2500     1.6751   160.0730  2000.0000     7.8051  -999.2500    -0.0047     0.1304     2.0439
   47.0000  -999.2500     1.2899    86.7114  2000.0000     7.8076  -999.2500     0.0269     0.1139     2.4365
   47.5000  -999.2500     3.2293    42.3536  2000.0000     7.7791  -999.2500     0.0240     0.1124     2.4546
   48.0000  -999.2500     8.4846    17.7871  2000.0000     7.7652  -999.2500     0.0210     0.1170     2.4662
   48.5000  -999.2500    10.5841     9.4986  1962.8364     7.7669  -999.2500     0.0166     0.1220     2.4475
   49.0000  -999.2500     7.4015     7.1653  1353.0314     7.7682  -999.2500     0.0155     0.1256     2.4430
   49.5000  -999.2500     6.5421     6.2912   691.1049     7.7695  -999.2500     0.0216     0.1194     2.4612
   50.0000  -999.2500     6.0266     5.9592   101.8999     7.7708  -999.2500     0.0278     0.1003     2.4807
   50.5000  -999.2500     5.7070     5.6852    26.1899     7.7722  -999.2500     0.0324     0.1030     2.4884
   51.0000  -999.2500     5.6334     5.6128    20.0217     7.7735  -999.2500     0.0340     0.1057     2.4801
   51.5000  -999.2500     5.4112     5.3534    19.4842     7.7749  -999.2500     0.0326     0.1081     2.4734
   52.0000  -999.2500     5.2307     5.1771    24.1459     7.7612  -999.2500     0.0223     0.1149     2.4666
   52.5000  -999.2500     5.0905     5.0411    15.2165     7.7629  -999.2500     0.0284     0.1098     2.4794
   53.0000  -999.2500     8.3645     8.4665     6.8387     7.7642  -999.2500     0.0346     0.1050     2.4892
   53.5000  -999.2500     9.0900     8.9560     6.6559     7.7655  -999.2500     0.0332     0.1090     2.4734
   54.0000  -999.2500     7.6033     7.1745     6.5229     7.7817  -999.2500     0.0288     0.1188     2.4464
   54.5000  -999.2500     6.5826     6.8571     6.4346     7.7830  -999.2500     0.0275     0.1281     2.4336
   55.0000  -999.2500     6.4957     6.7717     6.1260     7.7844  -999.2500     0.0306     0.1205     2.4412
   55.5000  -999.2500     6.5893     6.7303     5.9314     7.7857  -999.2500     0.0367     0.1100     2.4683
   56.0000  -999.2500     6.6841     6.6908     6.4475     7.7870  -999.2500     0.0414     0.1076     2.4796
   56.5000   -73.3003     6.6875     6.6993     6.6772     7.7883  -999.2500     0.0415     0.1025     2.4826
   57.0000   -70.6149     6.5994     6.7061     6.8675     7.7897  -999.2500     0.0416     0.1013     2.4819
   57.5000   -70.0217     6.6028     6.7130     6.9186     7.7910  -999.2500     0.0418     0.0985     2.4894
   58.0000   -65.8393     6.5608     6.7198     6.9221     7.7923  -999.2500     0.0359     0.1036     2.4910
   58.5000   -62.4036     6.6096     6.6787     6.8771     7.7787  -999.2500     0.0300     0.1102     2.4766
   59.0000   -62.4110     6.6137     6.6872     6.8815     7.7801  -999.2500     0.0272     0.1120     2.4647
   59.5000   -67.8076     6.6171     6.6939     6.8850     7.7814  -999.2500     0.0228     0.1096     2.4777
   60.0000   -68.5616     6.6199     6.7008     6.8412     7.7827  -999.2500     0.0184     0.1116     2.4690
   60.5000   -60.6368     6.6238     6.7077     6.7967     7.7843  -999.2500     0.0171     0.1170     2.4527
   61.0000   -58.9974     6.5817     6.6616     6.7079     7.7857  -999.2500     0.0202     0.1164     2.4587
   61.5000   -58.1063     6.5851     6.6291     6.7113     7.7870  -999.2500     0.0264     0.1146     2.4708
   62.0000   -61.1080     6.4983     6.5902     6.6227     7.7883  -999.2500     0.0250     0.1158     2.4656
   62.5000   -62.6247     6.4561     6.5986     6.5805     7.7896  -999.2500     0.0206     0.1167     2.4520
   63.0000   -57.9791     6.4603     6.5582     6.5839     7.7609  -999.2500     0.0192     0.1191     2.4558
   63.5000   -53.0289     6.5082     6.5197     6.5873     7.7473  -999.2500     0.0194     0.1202     2.4521
   64.0000   -50.7984     6.5566     6.5732     6.5907     7.7489  -999.2500     0.0195     0.1193     2.4476
   64.5000   -52.1008     6.6053     6.6255     6.5948     7.7351  -999.2500     0.0197     0.1145     2.4566
   65.0000   -54.4162     6.6086     6.6781     6.6898     7.7367  -999.2500     0.0228     0.1154     2.4687
   65.5000   -56.5209     6.6577     6.7778     6.7863     7.7380  -999.2500     0.0244     0.1166     2.4589
   66.0000   -58.4744     6.8002     6.8789     7.0280     7.7542  -999.2500     0.0261     0.1108     2.4687
   66.5000   -57.5836     6.8507     7.0299     7.3795     7.7555  -999.2500     0.0308     0.1066     2.4898
   67.0000   -51.4533     7.0400     7.0883     7.6953     7.7569  -999.2500     0.0368     0.0961     2.5099
   67.5000   -47.5684     7.1440     7.1979     7.7526     7.7582  -999.2500     0.0445     0.0819     2.5234
   68.0000   -46.8255     7.1402     7.3007     7.8102     7.7595  -999.2500     0.0506     0.0723     2.5331
   68.5000   -49.6790     7.2797     7.3569     7.8142     7.7460  -999.2500     0.0447     0.0777     2.5218
   69.0000   -54.4768     7.2827     7.3829     7.8182     7.7473  -999.2500     0.0433     0.0821     2.5204
   69.5000   -58.0771     7.1857     7.3865     7.7674     7.7489  -999.2500     0.0390     0.0951     2.5115
   70.0000   -59.4318     7.1886     7.3325     7.7723     7.7502  -999.2500     0.0376     0.1047     2.5010
   70.5000   -58.6906     7.1412     7.2419     7.8301     7.7516  -999.2500     0.0333     0.1068     2.4905
   71.0000   -55.8537     7.1449     7.2462     7.8341     7.7529  -999.2500     0.0334     0.1022     2.4808
   71.5000   -54.3641     7.1478     7.1989     7.6890     7.7542  -999.2500     0.0410     0.0902     2.4966
   72.0000   -56.4673     7.1507     7.2031     7.6386     7.7555  -999.2500     0.0442     0.0856     2.5087
   72.5000   -58.4208     7.1536     7.2066     7.6418     7.7568  -999.2500     0.0428     0.0911     2.5050
   73.0000   -58.8872     7.1565     7.2100     7.5918     7.7582  -999.2500     0.0399     0.0926     2.4968
   73.5000   -54.9700     7.2090     7.2134     7.5414     7.7595  -999.2500     0.0386     0.1010     2.4931
   74.0000   -41.9859     7.1053     6.9720     7.4404     7.7608  -999.2500     0.0357     0.1048     2.4847
   74.5000   -24.7690     6.9699     6.9265     7.3414     7.7621  -999.2500     0.0343     0.1006     2.4852
   75.0000   -21.4830     6.9734     6.8829     7.2932     7.7634  -999.2500     0.0330     0.1072     2.4857
   75.5000   -19.5442     6.8805     6.8862     7.2456     7.7648  -999.2500     0.0226     0.1150     2.4700
   76.0000   -18.5037     6.7888     6.8420     7.1975     7.7661  -999.2500     0.0213     0.1150     2.4572
   76.5000   -23.1518     6.6984     6.7962     7.0967     7.7674  -999.2500     0.0216     0.1123     2.4671
   77.0000   -24.8059     6.5636     6.6569     7.0072     7.7688  -999.2500     0.0246     0.1089     2.4694
   77.5000   -25.1127     6.5211     6.5285     6.9134     7.7701  -999.2500     0.0277     0.1092     2.4702
   78.0000   -24.6710     6.4787     6.5324     6.8675     7.7863  -999.2500     0.0293     0.1092     2.4710
   78.5000   -23.9296     6.4368     6.5355     6.8704     7.7727  -999.2500     0.0295     0.1086     2.4733
   79.0000   -24.9852     6.4394     6.5386     6.9204     7.7743  -999.2500     0.0326     0.1065     2.4779
   79.5000   -29.3339     6.4868     6.5417     6.9707     7.7757  -999.2500     0.0342     0.1004     2.4854
   80.0000   -33.8323     6.5803     6.5901     7.0214     7.7770  -999.2500     0.0358     0.1005     2.4877
   80.5000   -35.7859     6.6746     6.6850     7.0725     7.7783  -999.2500     0.0344     0.1065     2.4735
   81.0000   -35.4938     6.8644     6.8754     7.0749     7.7796  -999.2500     0.0346     0.1125     2.4698
   81.5000   -39.3563     7.0596     7.0713     7.2257     7.7809  -999.2500     0.0347     0.1115     2.4676
   82.0000   -41.4985     7.0625     7.1730     7.3795     7.7823  -999.2500     0.0334     0.1097     2.4729
