~VERSION INFORMATION
 VERS.                2.0:   CWLS LOG ASCII STANDARD - VERSION 2.0
 WRAP.                 NO:   ONE LINE PER DEPTH STEP
~WELL INFORMATION
#MNEM.UNIT      DATA TYPE    INFORMATION
#----------   ------------   ------------------------------
 STRT.F           80.0000:   START DEPTH
 STOP.F         1011.0000:   STOP DEPTH
 STEP.F            0.5000:   STEP LENGTH
 NULL.          -999.2500:   NO VALUE
 COMP.          U.S. NAVY:   COMPANY
 WELL. RES 3 TEAPOT DOM #61S-11:   WELL
 FLD .             TEAPOT:   FIELD
 LOC .      S11 T38N R78W:   LOCATION
 CNTY.            NATRONA:   COUNTY
 STAT.            WYOMING:   STATE
 CTRY. UNITED STATES OF AMERICA:   COUNTRY
 SRVC.       Schlumberger:   SERVICE COMPANY
 DATE.        23-JUL-1964:   LOGDATE
 API .       490250637500:   API NUMBER
~CURVE INFORMATION
#MNEM.UNIT       API CODE    CURVE DESCRIPTION
#----------   ------------   ------------------------------
 DEPT.F                  :   
 CALS.IN     60 280 50 00:   CALIPER FROM SONIC LOG
 DT  .US/F   60 520 33 00:   INTERVAL TRANSIT TIME
 GR  .GAPI   30 310 01 00:   GAMMA RAY
 CILD.MMHO   05 110 46 00:   CONDUCTIVITY INDUCTION LOG DEEP
 ILD .OHMM   05 120 46 00:   INDUCTION LOG DEEP
 ASN .OHMM   05 041 16 00:   AMPLIFIED SHORT NORMAL 16"
 SPR .MV     05 010 01 00:   SPONTANEOUS POTENTIAL FROM RES.
~PARAMETER INFORMATION
#MNEM.UNIT          VALUE    DESCRIPTION
#----------   ------------   ------------------------------
 PD  .                 GL:   PERMANENT DATUM
 EPD .F              5199:   ELEVATION PERMANENT DATUM
 LMF .                 KB:   LOG MEASURED FROM
 DAPD.F                 5:   FEET ABOVE PERMANENT DATUM
 DMF .                 KB:   DRILLING MEASURED FROM
 EKB .F              5204:   KELLING BUSHING
 EGL .F              5199:   GROUND LEVEL
 DATE.          7-23-1964:   RUN DATE
 RUN .                  1:   RUN NUMBER
 DD  .F              1010:   DEPTH DRILLER
 DL  .F              1012:   DEPTH LOGGER
 BLI .F              1011:   BOTTOM LOG INTERVAL
 TLI .F                88:   TOP LOG INTERVAL
 CS  .IN            8.625:   CASING SIZE
 CBD .F                10:   CASING BOTTOM DRILLER
 BS  .IN             6.75:   BIT SIZE
 BSD .F              1010:   BIT SIZE AT DEPTH
 DFT .            GEL-OIL:   DRILLING FLUID TYPE
 DFD .                9.8:   DRILLING FLUID DENSITY
 DFV .                 54:   DRILLING FLUID VISCOSITY
 MSS .           FLOWLINE:   MUD SAMPLE SOURCE
 RMS .OHMM           1.47:   RESISTIVITY MUD SAMPLE
 MST .F                86:   MUD SAMPLE TEMPERATURE
 RMF .OHMM            .96:   RESISTIVITY MUD FILTRATE SAMPLE
 MFST.F                86:   MUD FILTRATE SAMPLE TEMPERATURE
 RMC .OHMM           2.10:   RESISTIVITY MUD CAKE
 MCST.F                86:   MUD CAKE SAMPLE TEMPERATURE
 MFSS.                 FP:   MUD FILTRATE SAMPLE SOURCE
 MCSS.                 FP:   MUD CAKE SAMPLE SOURCE
 TCS .HRS               2:   TIME CURCULATED STOPPED
 LUN .               4507:   LOGGING UNIT NUMBER
 LUL .              CSPR.:   LOGGING UNIT LOCATION
 ENGI.             DANNER:   RECORDING ENGINEER
 WITN.          JORGENSEN:   WITNESSED BY
 CLNT.            A2DTECH:   CLIENT CODE
 ORIG.      2" & 5" PRINT:   ORIGIN OF DATA
 UWI .       490250637500:   UNIQUE WELL ID
 DICO. A2D Technologies, Inc.:   DIGITIZING COMPANY
~OTHER INFORMATION
~A   DEPT     CALS         DT         GR        CILD         ILD        ASN      SPR   
   80.0000  -999.2500  -999.2500  -999.2500   142.9630     8.0897     1.5441   -40.5188
   80.5000  -999.2500  -999.2500  -999.2500   151.1111     7.7819     1.5218   -40.5180
   81.0000  -999.2500  -999.2500  -999.2500   157.0370     7.4841     1.5007   -40.4371
   81.5000  -999.2500  -999.2500  -999.2500   160.0000     7.2672     1.5011   -40.3725
   82.0000  -999.2500  -999.2500  -999.2500   162.9630     6.9902     1.5015   -40.3717
   82.5000  -999.2500  -999.2500  -999.2500   165.9259     6.5802     1.5204   -40.3711
   83.0000  -999.2500  -999.2500  -999.2500   167.9012     6.2745     1.5463   -40.3993
   83.5000  -999.2500  -999.2500  -999.2500   169.6296     6.0172     1.5885   -40.4367
   84.0000  -999.2500  -999.2500  -999.2500   172.5926     5.8232     1.6482   -40.4742
   84.5000  -999.2500  -999.2500  -999.2500   174.3210     5.7427     1.7827   -40.5116
   85.0000  -999.2500  -999.2500  -999.2500   175.5556     5.8103     1.9286   -40.5491
   85.5000  -999.2500  -999.2500  -999.2500   177.0370     5.8799     2.1816   -40.5866
   86.0000  -999.2500  -999.2500  -999.2500   177.7778     6.0871     2.7138   -40.6240
   86.5000  -999.2500  -999.2500  -999.2500   177.7778     6.3333     3.2577   -40.6615
   87.0000  -999.2500  -999.2500  -999.2500   175.5556     6.5980     4.8540   -40.6989
   87.5000  -999.2500  -999.2500  -999.2500   173.3334     6.8007     6.1710   -40.7364
   88.0000  -999.2500  -999.2500  -999.2500   170.3704     6.9804     6.4673   -40.7739
   88.5000  -999.2500  -999.2500  -999.2500   167.4074     7.0980     6.6387   -40.6505
   89.0000  -999.2500  -999.2500  -999.2500   165.6790     7.1471     6.7219   -40.6498
   89.5000  -999.2500  -999.2500  -999.2500   163.7037     7.1397     6.8210   -40.6492
   90.0000  -999.2500  -999.2500  -999.2500   162.9630     7.1078     6.9486   -40.6483
   90.5000  -999.2500  -999.2500  -999.2500   162.2222     6.9755     7.0486   -40.6477
   91.0000  -999.2500  -999.2500  -999.2500   162.9630     6.8959     7.1477   -40.6469
   91.5000  -999.2500  -999.2500  -999.2500   165.9259     6.7108     7.2144   -40.6462
   92.0000  -999.2500  -999.2500  -999.2500   167.1605     6.5686     7.1859   -40.6455
   92.5000  -999.2500  -999.2500  -999.2500   168.8889     6.2860     7.1105   -40.6448
   93.0000  -999.2500  -999.2500  -999.2500   169.6296     6.1667     6.9508   -40.6440
   93.5000  -999.2500  -999.2500  -999.2500   169.3827     6.0515     6.9141   -40.6434
   94.0000  -999.2500  -999.2500  -999.2500   168.1481     6.0438     6.8988   -40.6421
   94.5000  -999.2500  -999.2500  -999.2500   165.9259     6.0833     6.8195   -40.6367
   95.0000  -999.2500  -999.2500  -999.2500   165.6790     6.2010     6.7676   -40.6313
   95.5000  -999.2500  -999.2500  -999.2500   164.4444     6.2451     6.9080   -40.6259
   96.0000  -999.2500  -999.2500  -999.2500   162.9630     6.3812     7.2177   -40.6205
   96.5000  -999.2500  -999.2500  -999.2500   162.9630     6.4069     7.3468   -40.6151
   97.0000  -999.2500  -999.2500  -999.2500   162.9630     6.4510     7.3840   -40.6097
   97.5000  -999.2500  -999.2500  -999.2500   163.7037     6.5073     7.3952   -40.6043
   98.0000  -999.2500  -999.2500  -999.2500   165.2529     6.4265     7.3956   -40.5989
   98.5000  -999.2500  -999.2500  -999.2500   167.1893     6.3284     7.1684   -40.5935
   99.0000  -999.2500  -999.2500  -999.2500   169.1257     6.1909     6.8816   -40.5881
   99.5000  -999.2500  -999.2500  -999.2500   171.0622     6.0907     6.7552   -40.5827
  100.0000  -999.2500  -999.2500  -999.2500   172.9986     5.9573     6.6961   -40.5773
  100.5000  -999.2500  -999.2500  -999.2500   174.9351     6.1233     6.6619   -40.5719
  101.0000  -999.2500  -999.2500  -999.2500   176.8715     5.9552     6.6185   -40.5665
  101.5000  -999.2500  -999.2500  -999.2500   178.8080     5.5918     6.6041   -40.5611
  102.0000  -999.2500  -999.2500  -999.2500   180.7444     5.4662     6.5890   -40.5557
  102.5000  -999.2500  -999.2500  -999.2500   182.6808     5.2212     6.5607   -40.5503
  103.0000  -999.2500  -999.2500  -999.2500   184.6173     5.0068     6.5491   -40.5449
  103.5000  -999.2500  -999.2500  -999.2500   186.5537     5.0077     6.5002   -40.5395
  104.0000  -999.2500  -999.2500  -999.2500   188.4902     5.0088     6.4295   -40.5341
  104.5000  -999.2500  -999.2500  -999.2500   190.2713     5.0101     6.3258   -40.5287
  105.0000  -999.2500  -999.2500  -999.2500   190.9988     5.0110     6.2027   -40.5233
  105.5000  -999.2500  -999.2500  -999.2500   192.8395     5.0121     6.1511   -40.5179
  106.0000  -999.2500  -999.2500  -999.2500   193.2012     4.9399     6.1585   -40.5125
  106.5000  -999.2500  -999.2500  -999.2500   193.9287     4.9099     6.1835   -40.5071
  107.0000  -999.2500  -999.2500  -999.2500   195.0617     4.8683     6.2111   -40.5017
  107.5000  -999.2500  -999.2500  -999.2500   196.1311     4.7961     6.2704   -40.4963
  108.0000  -999.2500  -999.2500  -999.2500   196.1179     4.7971     6.3175   -40.4909
  108.5000  -999.2500  -999.2500  -999.2500   196.1074     4.8717     6.3298   -40.4855
  109.0000  -999.2500  -999.2500  -999.2500   196.0963     5.0200     6.0517   -40.4801
  109.5000  -999.2500  -999.2500  -999.2500   195.3441     5.1959     5.2898   -40.4762
  110.0000  -999.2500  -999.2500  -999.2500   194.8642     5.4828     5.2515   -40.4755
  110.5000  -999.2500  -999.2500  -999.2500   194.1148     5.7586     5.6360   -40.4747
  111.0000  -999.2500  -999.2500  -999.2500   193.0889     6.0860     6.0903   -40.4741
  111.5000  -999.2500  -999.2500  -999.2500   190.1127     6.3602     6.3320   -40.4734
  112.0000  -999.2500  -999.2500  -999.2500   188.0890     6.4972     6.4002   -40.4727
  112.5000  -999.2500  -999.2500  -999.2500   185.5246     6.6820     6.4063   -40.4719
  113.0000  -999.2500  -999.2500  -999.2500   180.4500     6.7934     6.4066   -40.4712
  113.5000  -999.2500  -999.2500  -999.2500   177.0186     6.7946     6.4892   -40.4705
  114.0000  -999.2500  -999.2500  -999.2500   172.1530     6.8338     6.6664   -40.4698
  114.5000  -999.2500  -999.2500  -999.2500   170.0466     6.8702     6.8785   -40.4690
  115.0000  -999.2500  -999.2500  -999.2500   168.2222     6.8714     6.9670   -40.4683
  115.5000  -999.2500  -999.2500  -999.2500   168.6418     6.8724     6.9820   -40.4676
  116.0000  -999.2500  -999.2500  -999.2500   170.0136     6.7373     6.9971   -40.4669
  116.5000  -999.2500  -999.2500  -999.2500   170.7444     6.2129     6.9975   -40.4662
  117.0000  -999.2500  -999.2500  -999.2500   171.6049     5.9110     6.9656   -40.4654
  117.5000  -999.2500  -999.2500  -999.2500   172.9435     5.6832     6.8761   -40.4647
  118.0000  -999.2500  -999.2500  -999.2500   173.3333     5.6279     6.7192   -40.4640
  118.5000  -999.2500  -999.2500  -999.2500   173.6644     5.6290     6.6480   -40.4633
  119.0000  -999.2500  -999.2500  -999.2500   173.6512     5.7958     6.6153   -40.4625
  119.5000  -999.2500  -999.2500  -999.2500   173.2074     5.9254     6.6173   -40.4618
  120.0000  -999.2500  -999.2500  -999.2500   171.7530     6.1176     6.6530   -40.4610
  120.5000  -999.2500  -999.2500  -999.2500   169.9145     6.2418     6.7420   -40.5293
  121.0000  -999.2500  -999.2500  -999.2500   167.9555     6.3699     6.8390   -40.6263
  121.5000  -999.2500  -999.2500  -999.2500   166.1888     6.3709     6.9424   -40.7471
  122.0000  -999.2500  -999.2500  -999.2500   165.4370     6.3505     7.0561   -40.7464
  122.5000  -999.2500  -999.2500  -999.2500   165.4238     6.2997     7.1342   -40.7181
  123.0000  -999.2500  -999.2500  -999.2500   166.1555     6.1802     7.1866   -40.6008
  123.5000  -999.2500  -999.2500  -999.2500   167.6828     5.9616     7.1759   -40.6002
  124.0000  -999.2500  -999.2500  -999.2500   170.5759     5.7147     7.1059   -40.5994
  124.5000  -999.2500  -999.2500  -999.2500   175.7578     5.4717     7.0201   -40.7428
  125.0000  -999.2500  -999.2500  -999.2500   181.1730     5.2267     6.7683   -40.8261
