~VERSION INFORMATION
 VERS.                2.0:   CWLS LOG ASCII STANDARD - VERSION 2.0
 WRAP.                 NO:   ONE LINE PER DEPTH STEP
~WELL INFORMATION
#MNEM.UNIT      DATA TYPE    INFORMATION
#----------   ------------   ------------------------------
 STRT.F           42.0000:   START DEPTH
 STOP.F          530.5000:   STOP DEPTH
 STEP.F            0.5000:   STEP LENGTH
 NULL.          -999.2500:   NO VALUE
 COMP. LAWRENCE/ALLISON INC:   COMPANY
 WELL. 65-25-1 SX FI #3-3:   WELL
 FLD .              NPR 3:   FIELD
 LOC .       S3 T38N R78W:   LOCATION
 CNTY.            NATRONA:   COUNTY
 STAT.            WYOMING:   STATE
 CTRY. UNITED STATES OF AMERICA:   COUNTRY
 SRVC.       Schlumberger:   SERVICE COMPANY
 DATE.        08-JUL-1982:   LOGDATE
 API .       490251093000:   API NUMBER
~CURVE INFORMATION
#MNEM.UNIT       API CODE    CURVE DESCRIPTION
#----------   ------------   ------------------------------
 DEPT.F                  :   
 GRD .GAPI   45 310 01 00:   GAMMA RAY FROM DENSITY LOG
 CALD.IN     45 280 60 00:   CALIPER
 RHOB.G/C3   45 350 01 00:   BULK DENSITY
 DPHI.DEC    45 890 12 00:   DENSITY POROSITY SANDSTONE
 CORR.G/C3   45 356 01 00:   DENSITY CORRECTION
~PARAMETER INFORMATION
#MNEM.UNIT          VALUE    DESCRIPTION
#----------   ------------   ------------------------------
 PD  .                 GL:   PERMANENT DATUM
 EPD .F              5162:   ELEVATION PERMANENT DATUM
 LMF .                 KB:   LOG MEASURED FROM
 DAPD.F                 9:   FEET ABOVE PERMANENT DATUM
 DMF .                 KB:   DRILLING MEASURED FROM
 EKB .F              5171:   KELLING BUSHING
 EGL .F              5162:   GROUND LEVEL
 DATE.             7-8-82:   RUN DATE
 RUN .                  1:   RUN NUMBER
 DD  .F               531:   DEPTH DRILLER
 DL  .F               533:   DEPTH LOGGER
 BLI .F               530:   BOTTOM LOG INTERVAL
 TLI .F                52:   TOP LOG INTERVAL
 CS  .IN           13.375:   CASING SIZE
 CBD .F                50:   CASING BOTTOM DRILLER
 CBL .F                52:   CASING BOTTOM LOGGER
 BS  .IN            12.25:   BIT SIZE
 BSD .F               531:   BIT SIZE AT DEPTH
 DFT .                AIR:   DRILLING FLUID TYPE
 TCS .HRS            0500:   TIME CURCULATED STOPPED
 TLAB.HRS            0700:   TIME LOGGER AT BOTTOM
 LUL .               CSPR:   LOGGING UNIT LOCATION
 WITN.             TAYLOR:   WITNESSED BY
 CLNT.            A2DTECH:   CLIENT CODE
 ORIG.           5" PRINT:   ORIGIN OF DATA
 UWI .       490251093000:   UNIQUE WELL ID
 DICO. A2D Technologies, Inc.:   DIGITIZING COMPANY
~OTHER INFORMATION
~A   DEPT       GRD      CALD       RHOB       DPHI       CORR   
# ...
  286.0000    57.8192    12.2971     2.3017     0.2278     0.0386
  286.5000    56.3818    12.2983     2.2817     0.2359     0.0319
  287.0000    57.8355    12.3002     2.2924     0.2306     0.0291
  287.5000    60.0479    12.3020     2.2988     0.2272     0.0266
  288.0000    62.2696    12.3038     2.2969     0.2281     0.0252
  288.5000    64.5334    12.3057     2.2929     0.2308     0.0238
  289.0000    63.9972    12.3075     2.2860     0.2335     0.0248
  289.5000    62.0782    12.3093     2.2731     0.2419     0.0265
  290.0000    60.0791    12.3111     2.2503     0.2541     0.0203
  290.5000    60.5062    12.3129     2.2289     0.2664     0.0124
  291.0000    62.3813    12.3148     2.2269     0.2675     0.0046
  291.5000    64.2317    12.3174     2.2545     0.2553     0.0030
  292.0000    66.1801    12.3246     2.2843     0.2383     0.0101
  292.5000    63.4064    12.3317     2.3103     0.2199     0.0237
  293.0000    59.5257    12.3389     2.3071     0.2283     0.0375
  293.5000    55.6175    12.3461     2.2666     0.2439     0.0500
  294.0000    52.4349    12.3532     2.2371     0.2592     0.0535
  294.5000    51.9020    12.3604     2.2241     0.2698     0.0461
  295.0000    52.1517    12.3676     2.2118     0.2797     0.0354
  295.5000    52.4306    12.3749     2.2090     0.2797     0.0243
  296.0000    53.3619    12.3732     2.2438     0.2615     0.0174
  296.5000    55.7030    12.3709     2.2765     0.2423     0.0240
  297.0000    57.5527    12.3686     2.3098     0.2223     0.0331
  297.5000    56.8517    12.3663     2.3266     0.2113     0.0339
  298.0000    57.3027    12.3640     2.3428     0.2000     0.0356
  298.5000    59.4726    12.3618     2.3610     0.1894     0.0408
  299.0000    61.2892    12.3595     2.3419     0.2006     0.0461
  299.5000    58.6555    12.3572     2.3152     0.2257     0.0424
  300.0000    57.0277    12.3526     2.2922     0.2472     0.0361
  300.5000    58.4458    12.3402     2.2639     0.2472     0.0297
  301.0000    59.7766    12.3283     2.2737     0.2427     0.0233
  301.5000    61.1064    12.3164     2.2888     0.2347     0.0169
  302.0000    63.5238    12.3047     2.3124     0.2243     0.0115
  302.5000    66.8808    12.2965     2.3389     0.1996     0.0178
  303.0000    69.8582    12.2967     2.3654     0.1861     0.0244
  303.5000    68.9077    12.2966     2.3511     0.1941     0.0262
  304.0000    65.8551    12.2967     2.3301     0.2080     0.0195
  304.5000    62.7327    12.2966     2.3225     0.2111     0.0146
  305.0000    62.4749    12.2967     2.3345     0.2030     0.0123
  305.5000    64.1717    12.2899     2.3515     0.1922     0.0099
  306.0000    65.4719    12.2786     2.3760     0.1764     0.0125
  306.5000    64.6811    12.2671     2.4047     0.1584     0.0216
  307.0000    63.8804    12.2557     2.4113     0.1628     0.0308
  307.5000    65.6180    12.2445     2.3807     0.1744     0.0295
  308.0000    67.8841    12.2480     2.3615     0.1887     0.0237
  308.5000    67.4837    12.2730     2.3705     0.1898     0.0241
  309.0000    66.5620    12.2977     2.3843     0.1760     0.0311
  309.5000    67.4011    12.3224     2.3983     0.1686     0.0380
  310.0000    66.7346    12.3330     2.3977     0.1706     0.0398
  310.5000    65.4050    12.3263     2.3764     0.1792     0.0255
  311.0000    65.0002    12.3198     2.3574     0.1878     0.0121
  311.5000    67.9585    12.3131     2.3495     0.1966     0.0060
  312.0000    71.3824    12.3065     2.3510     0.1947     0.0058
  312.5000    71.4259    12.2999     2.3578     0.1926     0.0092
  313.0000    69.2859    12.2933     2.3563     0.1926     0.0126
  313.5000    66.6277    12.2867     2.3572     0.1915     0.0160
  314.0000    64.0067    12.2801     2.3594     0.1901     0.0188
  314.5000    61.6005    12.2759     2.3616     0.1887     0.0194
  315.0000    61.5286    12.2738     2.3586     0.1903     0.0200
  315.5000    63.4750    12.2716     2.3547     0.1923     0.0207
  316.0000    67.1017    12.2695     2.3508     0.1944     0.0236
  316.5000    70.7685    12.2674     2.3481     0.1966     0.0251
  317.0000    72.6230    12.2652     2.3464     0.1998     0.0227
  317.5000    71.3661    12.2631     2.3448     0.1993     0.0205
  318.0000    67.3804    12.2610     2.3432     0.1987     0.0185
  318.5000    63.3332    12.2589     2.3415     0.1998     0.0189
  319.0000    62.5937    12.2567     2.3398     0.2014     0.0192
  319.5000    63.5320    12.2546     2.3431     0.1999     0.0194
  320.0000    66.6458    12.2525     2.3510     0.1967     0.0210
  320.5000    69.7738    12.2503     2.3590     0.1928     0.0236
  321.0000    71.4116    12.2482     2.3667     0.1888     0.0266
  321.5000    69.9618    12.2461     2.3694     0.1849     0.0317
  322.0000    66.4219    12.2439     2.3674     0.1864     0.0367
  322.5000    65.2877    12.2418     2.3590     0.1910     0.0370
  323.0000    65.7620    12.2397     2.3604     0.1890     0.0310
  323.5000    69.2641    12.2377     2.3780     0.1816     0.0314
  324.0000    72.8019    12.2377     2.3955     0.1691     0.0383
  324.5000    73.4081    12.2377     2.4002     0.1673     0.0318
  325.0000    71.5514    12.2377     2.3651     0.1847     0.0216
  325.5000    69.7671    12.2377     2.3455     0.1973     0.0110
  326.0000    68.0001    12.2377     2.3466     0.1977     0.0116
  326.5000    66.3859    12.2377     2.3704     0.1833     0.0199
  327.0000    67.1153    12.2377     2.3881     0.1725     0.0268
  327.5000    69.5018    12.2377     2.3820     0.1778     0.0300
  328.0000    71.8203    12.2377     2.3651     0.1873     0.0276
  328.5000    71.1921    12.2377     2.3474     0.1969     0.0237
  329.0000    70.1383    12.2377     2.3298     0.2064     0.0197
  329.5000    70.5715    12.2378     2.3147     0.2159     0.0148
  330.0000    71.9668    12.2397     2.3111     0.2191     0.0058
  330.5000    70.6139    12.2418     2.3126     0.2184    -0.0030
  331.0000    69.1079    12.2439     2.3218     0.2153    -0.0024
  331.5000    67.5594    12.2460     2.3311     0.2079     0.0048
  332.0000    68.7919    12.2481     2.3448     0.1980     0.0119
  332.5000    70.6142    12.2502     2.3641     0.1882     0.0191
  333.0000    72.2197    12.2523     2.3801     0.1784     0.0255
  333.5000    69.8291    12.2543     2.3857     0.1764     0.0273
  334.0000    67.2906    12.2564     2.3781     0.1791     0.0240
  334.5000    67.3002    12.2585     2.3758     0.1809     0.0189
  335.0000    69.3292    12.2606     2.3792     0.1796     0.0137
  335.5000    71.2678    12.2627     2.3829     0.1760     0.0148
  336.0000    69.9244    12.2648     2.3940     0.1705     0.0231
  336.5000    68.1744    12.2669     2.4057     0.1616     0.0264
  337.0000    66.8583    12.2689     2.4214     0.1522     0.0214
  337.5000    65.6506    12.2710     2.4437     0.1403     0.0160
  338.0000    64.3732    12.2731     2.4662     0.1284     0.0191
  338.5000    65.0027    12.2752     2.4736     0.1235     0.0357
  339.0000    66.6840    12.2768     2.4650     0.1291     0.0441
  339.5000    69.3603    12.2750     2.4539     0.1346     0.0419
  340.0000    69.7334    12.2732     2.4427     0.1413     0.0385
  340.5000    66.4659    12.2713     2.4295     0.1497     0.0351
  341.0000    65.3100    12.2695     2.4134     0.1580     0.0316
  341.5000    66.0276    12.2677     2.3976     0.1689     0.0305
  342.0000    68.1881    12.2659     2.3970     0.1637     0.0349
  342.5000    69.4263    12.2641     2.4163     0.1533     0.0412
  343.0000    68.4494    12.2623     2.4365     0.1425     0.0474
  343.5000    67.2363    12.2604     2.4378     0.1461     0.0426
  344.0000    66.9445    12.2586     2.4220     0.1519     0.0371
  344.5000    68.3352    12.2568     2.4122     0.1576     0.0325
  345.0000    69.9281    12.2550     2.4138     0.1570     0.0335
  345.5000    71.3987    12.2532     2.4166     0.1552     0.0347
  346.0000    72.3926    12.2514     2.4087     0.1597     0.0304
  346.5000    72.8930    12.2495     2.4002     0.1643     0.0180
