~VERSION INFORMATION
 VERS.                2.0:   CWLS LOG ASCII STANDARD - VERSION 2.0
 WRAP.                 NO:   ONE LINE PER DEPTH STEP
~WELL INFORMATION
#MNEM.UNIT      DATA TYPE    INFORMATION
#----------   ------------   ------------------------------
 STRT.F           66.0000:   START DEPTH
 STOP.F          892.0000:   STOP DEPTH
 STEP.F            0.5000:   STEP LENGTH
 NULL.          -999.2500:   NO VALUE
 COMP. LAWRENCE/ALLISON INC:   COMPANY
 WELL. NPR #3 #31-11 SX 2:   WELL
 FLD .             TEAPOT:   FIELD
 LOC .       S2 T38N R78W:   LOCATION
 CNTY.            NATRONA:   COUNTY
 STAT.            WYOMING:   STATE
 CTRY. UNITED STATES OF AMERICA:   COUNTRY
 SRVC.      Dresser Atlas:   SERVICE COMPANY
 DATE.        10-AUG-1985:   LOGDATE
 API .       490251103900:   API NUMBER
~CURVE INFORMATION
#MNEM.UNIT       API CODE    CURVE DESCRIPTION
#----------   ------------   ------------------------------
 DEPT.F                  :   
 PORD.DEC    45 890 12 00:   POROSITY DENSITY SANDSTONE
 CNC .DEC    42 890 03 00:   NEUTRON POROSITY SANDSTONE
 CORR.G/C3   45 356 01 00:   DENSITY CORRECTION
 DEN .G/C3   45 350 01 00:   COMPENSATED BULK DENSTIY
 CALD.IN     45 280 60 00:   CALIPER FROM DENSITY LOG
 SPR .MV     07 010 01 00:   SPONTANEOUS POTENTIAL
 RILD.OHMM   07 120 46 00:   INDUCTION LOG DEEP RESISTIVITY
 RILM.OHMM   07 120 44 00:   INDUCTION LOG MEDIUM RESISTIVITY
 RFOC.OHMM   07 220 04 00:   RESISTIVITY FOCUSED LOG
~PARAMETER INFORMATION
#MNEM.UNIT          VALUE    DESCRIPTION
#----------   ------------   ------------------------------
 PD  .                 GL:   PERMANENT DATUM
 EPD .F              5110:   ELEVATION PERMANENT DATUM
 LMF .                 GL:   LOG MEASURED FROM
 DMF .                 GL:   DRILLING MEASURED FROM
 EKB .F              5115:   KELLING BUSHING
 EGL .F              5110:   GROUND LEVEL
 DATE.        10-AUG-1985:   RUN DATE
 RUN .                  1:   RUN NUMBER
 DD  .F               899:   DEPTH DRILLER
 DL  .F               895:   DEPTH LOGGER
 BLI .F               892:   BOTTOM LOG INTERVAL
 CS  .IN            8.625:   CASING SIZE
 CBD .F                75:   CASING BOTTOM DRILLER
 CBL .F                78:   CASING BOTTOM LOGGER
 BS  .IN            7.875:   BIT SIZE
 BSD .F               899:   BIT SIZE AT DEPTH
 DFT .                KCL:   DRILLING FLUID TYPE
 MSS .           FLOWLINE:   MUD SAMPLE SOURCE
 RMS .OHMM            .21:   RESISTIVITY MUD SAMPLE
 MST .F                75:   MUD SAMPLE TEMPERATURE
 TCS .HRS            0200:   TIME CURCULATED STOPPED
 MRT .F               100:   MAXIMUM RECORDED TEMPERATURE
 LUN .               6274:   LOGGING UNIT NUMBER
 LUL .               GLTE:   LOGGING UNIT LOCATION
 ENGI.             RAUTIO:   RECORDING ENGINEER
 WITN.        LINDA FIVAS:   WITNESSED BY
 CLNT.            A2DTECH:   CLIENT CODE
 ORIG.           5" PRINT:   ORIGIN OF DATA
 UWI .       490251103900:   UNIQUE WELL ID
 DICO. A2D Technologies, Inc.:   DIGITIZING COMPANY
~OTHER INFORMATION
~A   DEPT     PORD        CNC       CORR        DEN       CALD        SPR       RILD       RILM       RFOC   
# ...
  613.5000     0.1371     0.3006    -0.0115     2.4574     8.2210   -33.9835     5.9850     6.1383     6.4098
  614.0000     0.1343     0.2951     0.0019     2.4627     8.2204   -34.4461     6.3274     6.3995     6.6884
  614.5000     0.1304     0.2931     0.0244     2.4656     8.2198   -34.6062     6.6064     6.7232     7.0146
  615.0000     0.1283     0.3117     0.0138     2.4634     8.2191   -35.0688     6.8297     6.9071     7.2127
  615.5000     0.1277     0.3150     0.0001     2.4594     8.2486   -35.3802     6.9731     7.0033     7.2631
  616.0000     0.1322     0.3165    -0.0181     2.4520     8.2480   -35.5402     7.1196     7.1003     7.3138
  616.5000     0.1347     0.3190    -0.0166     2.4520     8.2474   -35.5492     7.3712     7.2496     7.4164
  617.0000     0.1359     0.3254    -0.0062     2.4504     8.2468   -35.7113     7.3658     7.0492     7.3649
  617.5000     0.1372     0.3362     0.0072     2.4467     8.2461   -35.7201     6.9208     6.7596     7.1511
  618.0000     0.1395     0.3401     0.0176     2.4459     8.2456   -35.8801     6.5902     6.5724     6.7746
  618.5000     0.1395     0.3362     0.0236     2.4481     8.2300   -35.8889     6.4983     6.4812     6.6346
  619.0000     0.1380     0.3332     0.0204     2.4488     8.2294   -35.7464     6.6346     6.6634     6.9176
  619.5000     0.1368     0.3311     0.0098     2.4473     8.2138   -35.3011     6.6803     6.3011     7.0146
  620.0000     0.1368     0.3298    -0.0010     2.4450     8.2131   -35.0076     6.1861     5.9174     6.9659
  620.5000     0.1387     0.3290    -0.0055     2.4420     8.2125   -34.7138     5.8906     5.4801     6.7276
  621.0000     0.1413     0.3332    -0.0025     2.4412     8.2120   -34.7248     5.3420     5.0751     6.4012
  621.5000     0.1416     0.3456     0.0004     2.4389     8.2114   -34.5823     4.8784     4.7660     6.1029
  622.0000     0.1471     0.3706     0.0093     2.4148     8.2108   -34.1350     4.5476     4.4757     6.1884
  622.5000     0.1637     0.3634     0.0228     2.3756     8.2101   -33.5408     4.3318     4.3218     5.6530
  623.0000     0.1887     0.3523     0.0196     2.3627     8.2095   -33.2470     4.0963     3.9746     5.0220
  623.5000     0.1900     0.3363     0.0044     2.3754     8.2089   -32.8020     4.0673     4.0019     4.0755
  624.0000     0.1734     0.3176    -0.0062     2.4116     8.2084   -32.5082     4.1527     4.1144     3.6206
  624.5000     0.1441     0.3151    -0.0033     2.4455     8.2078   -32.6704     4.2994     4.2895     4.8606
  625.0000     0.1365     0.3173     0.0071     2.4552     8.2071   -32.5257     4.6415     4.5347     5.9562
  625.5000     0.1332     0.3188     0.0236     2.4567     8.2065   -32.5367     4.9414     4.9295     6.4975
  626.0000     0.1323     0.3188     0.0235     2.4559     8.2059   -32.3920     5.2345     5.4862     6.9176
  626.5000     0.1320     0.3233     0.0174     2.4566     8.2054   -32.4030     5.7992     6.0313     7.2631
  627.0000     0.1311     0.3251     0.0158     2.4596     8.2048   -32.6336     6.0884     6.2880     7.2127
  627.5000     0.1287     0.3239     0.0217     2.4626     8.2042   -32.9630     6.3035     6.4648     7.0146
  628.0000     0.1260     0.3134     0.0261     2.4671     8.2035   -33.2923     6.5263     6.5548     6.8696
  628.5000     0.1221     0.2989     0.0214     2.4731     8.2029   -33.8012     6.7099     6.6921     6.8220
  629.0000     0.1187     0.2956     0.0153     2.4784     8.2024   -34.4151     6.8509     6.8326     7.0146
  629.5000     0.1190     0.2982     0.0077     2.4798     8.1868   -34.8778     6.9463     6.8316     7.1627
  630.0000     0.1224     0.3029     0.0061     2.4737     8.1862   -35.1891     6.9938     7.0237     7.1627
  630.5000     0.1254     0.3117     0.0075     2.4684     8.1855   -35.5008     6.9440     7.0226     7.2127
  631.0000     0.1275     0.3186     0.0044     2.4646     8.1849   -35.8140     6.9431     6.9245     7.3138
  631.5000     0.1281     0.3207    -0.0018     2.4647     8.1843   -35.8228     7.1385     6.9722     7.4682
  632.0000     0.1257     0.3192    -0.0049     2.4661     8.1838   -35.6781     7.2380     7.1182     7.3649
  632.5000     0.1248     0.3153    -0.0034     2.4683     8.1832   -34.9327     7.3384     7.1673     7.4682
  633.0000     0.1260     0.3029    -0.0021     2.4690     8.1825   -34.4854     7.2358     7.0178     7.5203
  633.5000     0.1266     0.2999    -0.0022     2.4690     8.1669   -34.4964     7.0829     6.9198     7.5203
  634.0000     0.1248     0.3114    -0.0023     2.4682     8.1663   -34.5053     6.9373     6.8625     7.5203
  634.5000     0.1236     0.3135     0.0022     2.4682     8.1658   -34.3626     6.8882     6.8220     7.4164
  635.0000     0.1239     0.3099     0.0156     2.4689     8.1802   -33.4637     6.8394     6.8210     7.2127
  635.5000     0.1251     0.3075     0.0275     2.4704     8.1795   -33.3212     6.7437     6.7257     7.0636
  636.0000     0.1245     0.3015     0.0259     2.4711     8.1789   -33.6348     6.7428     6.6782     7.0146
  636.5000     0.1233     0.3001     0.0152     2.4681     8.1783   -33.9461     6.7965     6.8660     7.3138
  637.0000     0.1227     0.2975     0.0061     2.4696     8.1778   -35.0139     6.8357     6.9130     7.4682
  637.5000     0.1230     0.3036     0.0030     2.4718     8.1922   -34.4175     6.6004     6.8601     7.4682
  638.0000     0.1236     0.3190     0.0029     2.4733     8.1915   -33.8013     6.4629     6.6280     7.5203
  638.5000     0.1260     0.3304     0.0028     2.4740     8.1759   -32.9245     6.2843     6.3558     7.5729
  639.0000     0.1342     0.3317     0.0042     2.4739     8.1753   -32.4794     5.9012     6.0524     7.8959
  639.5000     0.1521     0.3276     0.0041     2.4678     8.1898   -32.1856     5.5416     5.4511     6.9659
  640.0000     0.1538     0.3166     0.0040     2.4393     8.1892   -32.1944     5.4641     5.6044     6.4975
  640.5000     0.1466     0.3130     0.0039     2.4227     8.1885   -32.0497     5.4252     5.4877     5.8504
  641.0000     0.1330     0.3133     0.0053     2.4219     8.1879   -32.0607     5.3868     5.3735     5.6138
  641.5000     0.1236     0.3199     0.0087     2.4414     8.2024   -31.9182     5.3115     5.3774     5.6530
  642.0000     0.1200     0.3383     0.0276     2.4588     8.2168   -31.6266     5.4610     5.5623     6.2752
  642.5000     0.1227     0.3453     0.0321     2.4760     8.2312   -31.1815     5.5758     5.7187     6.9659
  643.0000     0.1271     0.3372     0.0289     2.4737     8.2305   -30.7364     5.5749     5.8795     6.8696
  643.5000     0.1324     0.3275     0.0273     2.4669     8.2299   -30.2913     5.5354     5.8379     6.7276
  644.0000     0.1418     0.3212     0.0272     2.4548     8.2294   -29.9976     5.4160     5.5982     7.0172
  644.5000     0.1539     0.3182     0.0271     2.4315     8.2438   -29.7035     5.1610     5.2940     7.2631
  645.0000     0.1614     0.3176     0.0285     2.4101     8.2432   -29.7126     4.9489     5.0029     5.5748
  645.5000     0.1617     0.3182     0.0194     2.4081     8.2425   -29.7216     4.7125     4.7619     4.8841
  646.0000     0.1528     0.3203     0.0057     2.4246     8.2420   -29.7323     4.6144     4.6034     4.4927
  646.5000     0.1376     0.3209    -0.0124     2.4442     8.2414   -29.8924     4.8109     4.7992     4.9872
  647.0000     0.1297     0.3203    -0.0140     2.4584     8.2408   -30.0525     5.1217     5.1448     5.9767
  647.5000     0.1300     0.3200    -0.0006     2.4629     8.2402   -30.3638     5.4154     5.4390     6.8696
  648.0000     0.1321     0.3227     0.0098     2.4561     8.2395   -30.6752     5.6907     5.6704     7.1627
  648.5000     0.1327     0.3231     0.0172     2.4553     8.2390   -30.9865     5.9682     5.9117     7.2127
  649.0000     0.1315     0.3191     0.0232     2.4575     8.2384   -31.6006     6.2223     6.1663     7.1130
  649.5000     0.1297     0.3083     0.0293     2.4613     8.2378   -31.6114     6.3530     6.3806     7.0636
