~VERSION INFORMATION
 VERS.                2.0:   CWLS LOG ASCII STANDARD - VERSION 2.0
 WRAP.                 NO:   ONE LINE PER DEPTH STEP
~WELL INFORMATION
#MNEM.UNIT      DATA TYPE    INFORMATION
#----------   ------------   ------------------------------
 STRT.F           36.0000:   START DEPTH
 STOP.F          503.0000:   STOP DEPTH
 STEP.F            0.5000:   STEP LENGTH
 NULL.          -999.2500:   NO VALUE
 COMP.    FENIX & SCISSON:   COMPANY
 WELL.     NPR ##3 77-S-3:   WELL
 FLD .             TEAPOT:   FIELD
 LOC .       S3 T38N R78W:   LOCATION
 CNTY.            NATRONA:   COUNTY
 STAT.            WYOMING:   STATE
 CTRY. UNITED STATES OF AMERICA:   COUNTRY
 SRVC.       Schlumberger:   SERVICE COMPANY
 DATE.        04-MAR-1977:   LOGDATE
 API .       490251029500:   API NUMBER
~CURVE INFORMATION
#MNEM.UNIT       API CODE    CURVE DESCRIPTION
#----------   ------------   ------------------------------
 DEPT.F                  :   
 SPR .MV     07 010 01 00:   SPONTANEOUS POTENTIAL
 ILD .OHMM   07 120 46 00:   INDUCTION LOG DEEP
 ILM .OHMM   07 120 44 00:   INDUCTION LOG MEDIUM
 LL8 .OHMM   07 220 08 00:   LATEROLOG-8 RES.
 GRD .GAPI   45 310 01 00:   GAMMA RAY FROM DENSITY LOG
 CALD.IN     45 280 60 00:   CALIPER FROM DENSITY LOG
 CORR.G/C3   45 356 01 00:   DENSITY CORRECTION
 RHOB.G/C3   45 350 01 00:   BULK DENSITY
 DPHI.DEC    45 890 12 00:   DENSITY POROSITY SANDSTONE
~PARAMETER INFORMATION
#MNEM.UNIT          VALUE    DESCRIPTION
#----------   ------------   ------------------------------
 PD  .                 GL:   PERMANENT DATUM
 EPD .F              5165:   ELEVATION PERMANENT DATUM
 LMF .                 KB:   LOG MEASURED FROM
 DAPD.F                 4:   FEET ABOVE PERMANENT DATUM
 DMF .                 GL:   DRILLING MEASURED FROM
 EKB .F              5169:   KELLING BUSHING
 EGL .F              5165:   GROUND LEVEL
 DATE.        04-MAR-1977:   RUN DATE
 RUN .                  1:   RUN NUMBER
 DD  .F               500:   DEPTH DRILLER
 DL  .F               504:   DEPTH LOGGER
 BLI .F               503:   BOTTOM LOG INTERVAL
 TLI .F                46:   TOP LOG INTERVAL
 CS  .IN            8.625:   CASING SIZE
 CBD .F                42:   CASING BOTTOM DRILLER
 CBL .F                46:   CASING BOTTOM LOGGER
 BS  .IN            7.875:   BIT SIZE
 BSD .F               500:   BIT SIZE AT DEPTH
 DFT .                KCL:   DRILLING FLUID TYPE
 DFD .                8.6:   DRILLING FLUID DENSITY
 DFV .                 32:   DRILLING FLUID VISCOSITY
 DFPH.                8.0:   DRILLING FLUID PH
 DFL .                7.6:   DRILLING FLUID LOSS
 MSS .            MUD PIT:   MUD SAMPLE SOURCE
 RMS .OHMM            .66:   RESISTIVITY MUD SAMPLE
 MST .F                56:   MUD SAMPLE TEMPERATURE
 RMF .OHMM            .49:   RESISTIVITY MUD FILTRATE SAMPLE
 MFST.F                56:   MUD FILTRATE SAMPLE TEMPERATURE
 RMC .OHMM             .4:   RESISTIVITY MUD CAKE
 MCST.F                56:   MUD CAKE SAMPLE TEMPERATURE
 MFSS.               MEAS:   MUD FILTRATE SAMPLE SOURCE
 MCSS.               CALC:   MUD CAKE SAMPLE SOURCE
 TCS .HRS            0100:   TIME CURCULATED STOPPED
 LUN .               7680:   LOGGING UNIT NUMBER
 LUL .               CSPR:   LOGGING UNIT LOCATION
 ENGI.    LOHBECK/ TAYLOR:   RECORDING ENGINEER
 WITN.              BURKE:   WITNESSED BY
 CLNT.            A2DTECH:   CLIENT CODE
 ORIG.           5" PRINT:   ORIGIN OF DATA
 UWI .       490251029500:   UNIQUE WELL ID
 DICO. A2D Technologies, Inc.:   DIGITIZING COMPANY
~OTHER INFORMATION
~A   DEPT      SPR        ILD        ILM        LL8         GRD      CALD       CORR       RHOB       DPHI   
   36.0000  -999.2500  -999.2500  -999.2500  -999.2500    60.6287  -999.2500  -999.2500  -999.2500  -999.2500
   36.5000  -999.2500  -999.2500  -999.2500  -999.2500    61.5269  -999.2500  -999.2500  -999.2500  -999.2500
   37.0000  -999.2500  -999.2500  -999.2500  -999.2500    62.4251  -999.2500  -999.2500  -999.2500  -999.2500
   37.5000  -999.2500  -999.2500  -999.2500  -999.2500    61.7515  -999.2500  -999.2500  -999.2500  -999.2500
   38.0000  -999.2500  -999.2500  -999.2500  -999.2500    60.8533  -999.2500  -999.2500  -999.2500  -999.2500
   38.5000  -999.2500  -999.2500  -999.2500  -999.2500    60.4042  -999.2500  -999.2500  -999.2500  -999.2500
   39.0000  -999.2500  -999.2500  -999.2500  -999.2500    60.4042  -999.2500  -999.2500  -999.2500  -999.2500
   39.5000  -999.2500  -999.2500  -999.2500  -999.2500    61.0778  -999.2500  -999.2500  -999.2500  -999.2500
   40.0000  -999.2500  -999.2500  -999.2500  -999.2500    61.5269  -999.2500  -999.2500  -999.2500  -999.2500
   40.5000  -999.2500  -999.2500  -999.2500  -999.2500    60.8533  -999.2500  -999.2500  -999.2500  -999.2500
   41.0000  -999.2500  -999.2500  -999.2500  -999.2500    59.7305  -999.2500  -999.2500  -999.2500  -999.2500
   41.5000  -999.2500  -999.2500  -999.2500  -999.2500    59.7305  -999.2500  -999.2500  -999.2500  -999.2500
   42.0000  -999.2500  -999.2500  -999.2500  -999.2500    60.6287  -999.2500  -999.2500  -999.2500  -999.2500
   42.5000  -999.2500  -999.2500  -999.2500  -999.2500    61.5269  -999.2500  -999.2500  -999.2500  -999.2500
   43.0000  -999.2500  -999.2500  -999.2500  -999.2500    62.6527  -999.2500  -999.2500  -999.2500  -999.2500
   43.5000  -999.2500  -999.2500  -999.2500  -999.2500    61.5269  -999.2500  -999.2500  -999.2500  -999.2500
   44.0000  -999.2500  -999.2500  -999.2500  -999.2500    59.9551  -999.2500  -999.2500  -999.2500  -999.2500
   44.5000  -999.2500  -999.2500  -999.2500  -999.2500    59.5060  -999.2500  -999.2500  -999.2500  -999.2500
   45.0000  -999.2500  -999.2500  -999.2500  -999.2500    61.0778  -999.2500  -999.2500  -999.2500  -999.2500
   45.5000  -999.2500  -999.2500  -999.2500  -999.2500    60.6287  -999.2500  -999.2500  -999.2500  -999.2500
   46.0000  -193.0942  1990.2205  1991.2272   958.9398    61.9760  -999.2500     0.0214     2.3417     0.1635
   46.5000  -194.8814     9.4818     8.1653   584.2803    63.3234     8.3434     0.0213     2.3421     0.1632
   47.0000  -194.1176     2.6051     2.9158  1251.8666    66.6916     8.3432     0.0211     2.3425     0.1628
   47.5000  -191.8592     2.8824     2.5359  1361.0994    70.7335     8.3581     0.0210     2.3429     0.1625
   48.0000  -191.2449     6.8027     3.7441   225.4085    75.9640     8.5160     0.0209     2.3567     0.1559
   48.5000  -191.2285    64.9628     8.3548   463.3140    77.2455     9.2411     0.0207     2.4280     0.1242
   49.0000  -191.9596  1578.9130   707.3817   683.0282    77.4701     9.4838     0.0191     2.4610     0.1155
   49.5000  -195.2317  1984.9717  1994.8076   221.3243    78.5928     8.3575     0.0124     2.4605     0.1170
   50.0000  -200.0027    17.5975  1986.3774   893.4690    80.6138     8.0871     0.0229     2.4362     0.1248
   50.5000  -199.9883    10.2624    39.7221  1506.7910    82.6347     8.0719     0.0251     2.4031     0.1503
   51.0000  -191.3689     9.5148    17.2565   140.9584    82.4102     8.0868     0.0139     2.4106     0.1341
   51.5000  -166.0628     8.5808    11.9631   194.4160    83.7575     8.0864     0.0244     2.4399     0.1239
   52.0000  -173.0024     8.0657    10.2755   300.4343    85.7784     8.0840     0.0323     2.4639     0.1165
   52.5000  -186.0393     8.4711     9.5568   238.6907    88.2634     8.0817     0.0145     2.4421     0.1258
   53.0000  -174.6486     9.7331    29.3138   345.5993    89.3713     8.0793     0.0221     2.4398     0.1276
   53.5000  -154.1625    11.1832    41.3577  1055.0449    90.0449     8.0769     0.0154     2.4353     0.1330
   54.0000  -143.8482    10.6595    11.0020   598.5196    90.2695     8.0745     0.0109     2.4225     0.1375
   54.5000  -152.5060     9.4157     9.9228   450.9219    90.2695     8.0721     0.0356     2.4352     0.1272
   55.0000  -175.3640     9.0371    10.1357   418.1019    89.5659     8.0706     0.0251     2.4397     0.1252
   55.5000  -195.3821     8.7340    10.2818   395.8026    88.0239     8.0704     0.0221     2.4412     0.1243
   56.0000  -191.0353     8.4996    10.3569   387.8304    86.9012     8.0703     0.0139     2.4224     0.1359
   56.5000  -188.3329     8.3282     9.6707   407.3587    86.4521     8.0851     0.0116     2.4261     0.1372
   57.0000  -189.8158     8.2185     8.9667   404.7719    86.6766     8.1000     0.0207     2.4291     0.1339
   57.5000  -191.4482     8.1657     8.5472   388.5236    88.4731     8.0998     0.0326     2.4231     0.1397
   58.0000  -187.2509     8.1698     8.3755   370.3559    89.8204     8.0847     0.0289     2.4178     0.1418
   58.5000  -186.0432     8.1805     8.2646   388.9508    90.2695     8.0845     0.0184     2.4132     0.1458
   59.0000  -184.6861     8.2916     8.2686   365.6672    89.3713     8.0844     0.0251     2.4208     0.1361
   59.5000  -169.2781     8.3533     8.3878   334.3923    88.4731     8.0842     0.0270     2.4282     0.1313
   60.0000  -163.7385     8.5927     8.5677   353.6201    89.5958     8.0691     0.0341     2.4432     0.1217
   60.5000  -173.4397     8.7772     8.7515   346.5451    90.4940     8.0689     0.0176     2.4245     0.1223
   61.0000  -180.7521     9.0279     8.9392   337.2234    90.0449     8.0688     0.0154     2.4117     0.1433
   61.5000  -182.3845     9.2857     9.1325   349.3352    88.0239     8.0686     0.0206     2.4011     0.1487
   62.0000  -186.5580     9.6172     9.3951   356.8591    85.5270     8.0685     0.0071     2.4019     0.1530
   62.5000  -189.6851     9.8237     9.5986   354.5930    83.9820     8.0533     0.0049     2.4003     0.1497
   63.0000  -187.8795     9.9654     9.7314   347.4985    83.0838     8.0532     0.0146     2.3951     0.1551
   63.5000  -185.9274    10.0394     9.8037   338.1888    81.9611     8.0530     0.0259     2.4108     0.1398
   64.0000  -188.9021    10.0442     9.7293   352.7287    81.0629     8.0528     0.0350     2.4190     0.1377
   64.5000  -187.5449     9.9098     9.6127   367.8840    79.7156     8.0527     0.0221     2.4198     0.1416
   65.0000  -183.6466     9.7783     9.4852   378.4170    78.1437     8.0525     0.0281     2.4288     0.1323
   65.5000  -181.6916     9.5831     9.3594   386.5672    77.2455     8.0524     0.0379     2.4362     0.1308
   66.0000  -178.0922     9.3908     9.2353   389.4654    77.4701     8.0522     0.0379     2.4393     0.1254
   66.5000  -178.0628     9.3305     9.1750   389.6794    78.8174     8.0521     0.0401     2.4572     0.1173
   67.0000  -179.1148     9.2706     9.1161   381.8315    78.8174     8.0069     0.0491     2.4677     0.1131
   67.5000  -178.8040     9.2751     9.0577   376.5849    81.9611     7.9317     0.0273     2.4632     0.1239
   68.0000  -177.5963     9.3440     9.0631   369.3017    83.7575     7.9466     0.0109     2.4315     0.1278
   68.5000  -176.6876     9.4134     9.1304   369.7924    83.7575     8.0064     0.0206     2.4550     0.1170
   69.0000  -176.0717     9.6155     9.2620   380.4610    83.7815     8.0364     0.0169     2.4443     0.1218
   69.5000  -175.6175     9.6869     9.3955   391.9019    85.3293     8.0662     0.0109     2.4338     0.1309
   70.0000  -179.5416     9.8266     9.5309   402.1601    86.4521     8.0661     0.0289     2.4368     0.1294
   70.5000  -180.2275     9.8996     9.7353   386.0167    85.5539     8.0809     0.0371     2.4458     0.1240
   71.0000  -179.0673     9.8349     9.8756   402.6576    84.6557     8.0808     0.0262     2.4533     0.1195
   71.5000  -170.3478     9.8408     9.9489   391.8803    83.0838     8.0806     0.0214     2.4700     0.1102
   72.0000  -164.1654     9.7776     9.9537   378.7615    83.5329     8.0805     0.0101     2.4735     0.1078
