~VERSION INFORMATION
 VERS.                2.0:   CWLS LOG ASCII STANDARD - VERSION 2.0
 WRAP.                 NO:   ONE LINE PER DEPTH STEP
~WELL INFORMATION
#MNEM.UNIT      DATA TYPE    INFORMATION
#----------   ------------   ------------------------------
 STRT.F           30.0000:   START DEPTH
 STOP.F          481.0000:   STOP DEPTH
 STEP.F            0.5000:   STEP LENGTH
 NULL.          -999.2500:   NO VALUE
 COMP. FENIX & SCISSON INC:   COMPANY
 WELL.       NPR-3 #47-10:   WELL
 FLD .             TEAPOT:   FIELD
 LOC .      S10 T38N R78W:   LOCATION
 CNTY.            NATRONA:   COUNTY
 STAT.            WYOMING:   STATE
 CTRY. UNITED STATES OF AMERICA:   COUNTRY
 SRVC.           BIRDWELL:   SERVICE COMPANY
 DATE.        16-JUN-1978:   LOGDATE
 API .       490251064800:   API NUMBER
~CURVE INFORMATION
#MNEM.UNIT       API CODE    CURVE DESCRIPTION
#----------   ------------   ------------------------------
 DEPT.F                  :   
 SPR .MV     05 010 01 00:   SPONTANEOUS POTENTIAL FROM RES.
 SN  .OHMM   05 040 16 00:   SHORT NORMAL 16"
 ILD .OHMM   05 120 46 00:   INDUCTION LOG DEEP
 CALD.IN     45 280 60 00:   CALIPER FROM DENSITY LOG
 GRD .GAPI   45 310 01 00:   GAMMA RAY FROM DENSITY LOG
 CORR.G/C3   45 356 01 00:   DENSITY CORRECTION
 DPHI.DEC    45 890 12 00:   DENSITY POROSITY SANDSTONE
 DEN .G/C3   45 350 01 00:   COMPENSATED BULK DENSITY
~PARAMETER INFORMATION
#MNEM.UNIT          VALUE    DESCRIPTION
#----------   ------------   ------------------------------
 PD  .                 GL:   PERMANENT DATUM
 EPD .F              5200:   ELEVATION PERMANENT DATUM
 LMF .                 KB:   LOG MEASURED FROM
 DAPD.F                 4:   FEET ABOVE PERMANENT DATUM
 DMF .                 KB:   DRILLING MEASURED FROM
 EKB .F              5204:   KELLING BUSHING
 EGL .F              5200:   GROUND LEVEL
 DATE.        16-JUN-1978:   RUN DATE
 RUN .                  1:   RUN NUMBER
 DD  .F               513:   DEPTH DRILLER
 DL  .F               481:   DEPTH LOGGER
 BLI .F               475:   BOTTOM LOG INTERVAL
 TLI .F                40:   TOP LOG INTERVAL
 CS  .IN            8.625:   CASING SIZE
 CBD .F                40:   CASING BOTTOM DRILLER
 CBL .F                40:   CASING BOTTOM LOGGER
 BS  .IN            7.875:   BIT SIZE
 BSD .F               513:   BIT SIZE AT DEPTH
 DFT .                KCL:   DRILLING FLUID TYPE
 DFD .                8.6:   DRILLING FLUID DENSITY
 DFV .                 30:   DRILLING FLUID VISCOSITY
 DFPH.                 10:   DRILLING FLUID PH
 DFL .                 16:   DRILLING FLUID LOSS
 MSS .           FLOWLINE:   MUD SAMPLE SOURCE
 RMS .OHMM            .36:   RESISTIVITY MUD SAMPLE
 MST .F                72:   MUD SAMPLE TEMPERATURE
 RMF .OHMM            .34:   RESISTIVITY MUD FILTRATE SAMPLE
 MFST.F                70:   MUD FILTRATE SAMPLE TEMPERATURE
 RMC .OHMM            .52:   RESISTIVITY MUD CAKE
 MCST.F                72:   MUD CAKE SAMPLE TEMPERATURE
 MFSS.               MEAS:   MUD FILTRATE SAMPLE SOURCE
 MCSS.               MEAS:   MUD CAKE SAMPLE SOURCE
 RMB .OHMM            .32:   RESISTIVITY MUD AT BHT
 BHT .F                82:   BOTTOM HOLE TEMPERATURE
 TCS .HRS            0400:   TIME CURCULATED STOPPED
 MRT .F                82:   MAXIMUM RECORDED TEMPERATURE
 LUN .               2958:   LOGGING UNIT NUMBER
 LUL .               CASP:   LOGGING UNIT LOCATION
 ENGI.           REYNOLDS:   RECORDING ENGINEER
 WITN.           MCGINLEY:   WITNESSED BY
 CLNT.            A2DTECH:   CLIENT CODE
 ORIG.           5" PRINT:   ORIGIN OF DATA
 UWI .       490251064800:   UNIQUE WELL ID
 DICO. A2D Technologies, Inc.:   DIGITIZING COMPANY
~OTHER INFORMATION
~A   DEPT      SPR         SN        ILD       CALD         GRD      CORR       DPHI        DEN   
# ...
  232.5000   -53.8514     8.0090     7.0724     7.2798   104.6045     0.0194     0.1195     2.4713
  233.0000   -53.8529     7.9522     7.0222     7.2345   100.9562     0.0195     0.1233     2.4691
  233.5000   -53.8544     7.9502     6.9244     7.1313    98.4920     0.0197     0.1279     2.4706
  234.0000   -53.8559     7.8942     6.8753     7.0306    98.3755     0.0153     0.1198     2.4744
  234.5000   -53.8574     7.8383     6.8739     6.9574    98.3920     0.0124     0.1192     2.4733
  235.0000   -53.8589     7.8366     6.7782     6.8990    98.1067     0.0110     0.1239     2.4655
  235.5000   -53.7102     7.8350     6.6838     6.8258    97.6688     0.0067     0.1278     2.4671
  236.0000   -53.5616     7.8334     6.6315     6.8118    98.2824     0.0023     0.1242     2.4672
  236.5000   -53.5631     7.8317     6.4989     6.8281    99.3403     0.0024     0.1320     2.4597
  237.0000   -53.5646     7.8301     6.4528     6.8590   101.7416     0.0010     0.1397     2.4448
  237.5000   -53.5661     7.7746     6.3997     6.8900   104.4414     0.0026     0.1466     2.4329
  238.0000   -53.5676     7.7095     6.3616     6.9060   106.0964     0.0057     0.1505     2.4322
  238.5000   -53.5692     7.4555     6.3162     6.9221   105.9571     0.0118     0.1460     2.4315
  239.0000   -53.5706     7.2507     6.3149     6.9381   105.9736     0.0163     0.1513     2.4316
  239.5000   -53.5721     7.0516     6.2701     6.9393   106.1360     0.0209     0.1519     2.4354
  240.0000   -53.5736     6.7173     6.2257     6.9404   106.2985     0.0241     0.1483     2.4429
  240.5000   -53.5751     6.5328     6.2244     6.9267   104.6699     0.0271     0.1432     2.4468
  241.0000   -53.5766     6.3975     6.2231     6.9431   105.6189     0.0138     0.1330     2.4578
  241.5000   -53.7282     6.3521     6.2653     6.9442   106.6400     0.0094     0.1234     2.4685
  242.0000   -53.7297     6.3949     6.2637     6.9752   106.9517     0.0080     0.1276     2.4618
  242.5000   -53.7312     6.6183     6.3058     7.0061   105.0246     0.0051     0.1306     2.4611
  243.0000   -53.7328     6.8970     6.3045     7.0668   104.8852     0.0037     0.1315     2.4612
  243.5000   -53.7342     7.0888     6.4352     7.1572   104.6033     0.0039     0.1324     2.4605
  244.0000   -53.7358     7.2860     6.4788     7.2477   100.1389     0.0070     0.1335     2.4575
  244.5000   -53.7373     7.3858     6.6128     7.3530   102.3909     0.0145     0.1383     2.4546
  245.0000   -53.7388     7.4359     6.6115     7.4435   103.1504     0.0176     0.1371     2.4606
  245.5000   -53.7403     7.4859     6.6563     7.3256   105.4024     0.0192     0.1296     2.4644
  246.0000   -53.8922     7.4840     6.6087     7.2516   105.8600     0.0193     0.1287     2.4645
  246.5000   -53.8937     7.4309     6.5619     7.2219   105.8766     0.0179     0.1266     2.4653
  247.0000   -53.8952     7.3782     6.4705     7.1654   105.8898     0.0195     0.1260     2.4646
  247.5000   -53.8967     7.2755     6.4246     7.1517   105.9030     0.0196     0.1298     2.4586
  248.0000   -53.8982     7.2740     6.3351     7.1234   105.9162     0.0198     0.1385     2.4430
  248.5000   -53.8997     7.1727     6.2039     7.0945   101.9796     0.0228     0.1496     2.4251
  249.0000   -53.9012     7.0728     6.1175     7.0510    98.1814     0.0393     0.1555     2.4140
  249.5000   -53.9027     6.8785     5.9495     7.0224    98.7950     0.0722     0.1657     2.4035
  250.0000   -53.9102     6.7689     5.8975     7.0087   105.4228     0.1198     0.1787     2.3737
  250.5000   -53.9873     6.6835     5.8366     7.0972   105.0901     0.2089     0.1892     2.3582
  251.0000   -54.0644     6.5981     5.7811     7.3037   104.2045     0.3169     0.2043     2.3447
  251.5000   -54.1416     6.5003     5.7389     7.4002   104.5195     0.2202     0.2021     2.3545
  252.0000   -54.2104     6.3210     5.7365     7.0896   107.2193     0.1369     0.1533     2.4382
  252.5000   -54.2119     6.1466     5.7342     7.0460   104.3967     0.0803     0.1509     2.4398
  253.0000   -54.2134     6.1021     5.7318     7.1371   103.2126     0.0194     0.1141     2.5004
  253.5000   -54.2149     6.3145     5.7692     7.2279   106.0650     0.0060     0.1042     2.5154
  254.0000   -54.2164     6.6251     5.8068     7.0210   109.8096     0.0077     0.1227     2.4669
  254.5000   -54.2179     6.6693     5.9260     6.9183   110.2706     0.0123     0.1304     2.4670
  255.0000   -54.2194     6.7127     6.0902     6.8897   108.4928     0.0124     0.1292     2.4670
  255.5000   -54.0707     6.8509     6.2576     6.8763   105.6702     0.0140     0.1280     2.4679
  256.0000   -54.0722     7.0405     6.4303     6.8632   103.8606     0.0156     0.1243     2.4814
  256.5000   -54.0737     7.4381     6.6078     6.8796   101.9148     0.0157     0.1151     2.4844
  257.0000   -54.0752     7.6439     6.6977     6.9406   100.4860     0.0143     0.1154     2.4852
  257.5000   -54.0767     7.7483     6.7881     7.0164   106.4727     0.0130     0.1147     2.4853
  258.0000   -53.9279     7.8534     6.9267     7.0923   110.0680     0.0131     0.1159     2.4854
  258.5000   -53.7793     7.9051     6.9720     7.1979   106.3499     0.0148     0.1174     2.4786
  259.0000   -53.6307     7.9565     7.0174     7.1845   102.1840     0.0240     0.1225     2.4764
  259.5000   -53.6322     8.0090     7.0631     7.1860   101.5969     0.0313     0.1257     2.4766
  260.0000   -53.6337     8.0618     7.0602     7.1875   103.2553     0.0315     0.1212     2.4789
  260.5000   -53.4851     8.0589     7.0572     7.2488   105.8058     0.0301     0.1167     2.4805
  261.0000   -53.4865     8.1683     7.0058     7.1904   106.8638     0.0257     0.1149     2.4828
  261.5000   -53.4880     8.1655     7.0029     7.1323   106.8771     0.0169     0.1140     2.4829
  262.0000   -53.4895     8.2193     6.9974     7.1193   106.8903     0.0066     0.1133     2.4814
  262.5000   -53.4910     8.2734     6.9488     7.1207   107.5017    -0.0007     0.1178     2.4718
  263.0000   -53.4925     8.2706     6.9460     7.1222   106.9179    -0.0006     0.1223     2.4681
  263.5000   -53.6442     8.2677     6.9431     7.1237   102.7520    -0.0020     0.1249     2.4674
  264.0000   -53.7958     8.2648     6.9403     7.1400   100.0754    -0.0019     0.1264     2.4675
  264.5000   -53.9477     8.2620     6.9368     7.1713   102.3307    -0.0018     0.1285     2.4661
  265.0000   -54.0994     8.2592     6.9340     7.1575   107.5678    -0.0016     0.1288     2.4654
  265.5000   -54.2510     8.2563     6.9311     7.1147   111.1631    -0.0015     0.1287     2.4655
  266.0000   -54.2525     8.2534     6.8805     7.0863   109.0868    -0.0014     0.1290     2.4648
  266.5000   -54.2540     8.1932     6.8304     7.1027   106.5628    -0.0028     0.1290     2.4648
  267.0000   -54.1050     8.0224     6.7805     7.1191   104.4687    -0.0027     0.1290     2.4657
  267.5000   -53.9563     7.8010     6.7311     7.0908   102.5299    -0.0055     0.1280     2.4665
  268.0000   -53.8077     7.6383     6.6360     7.0172   100.9075    -0.0069     0.1262     2.4673
  268.5000   -53.6590     7.4791     6.5422     6.9895    99.7533    -0.0067     0.1250     2.4659
  269.0000   -53.6609     7.3739     6.4498     7.0060    99.3155     0.0023     0.1231     2.4652
  269.5000   -53.6055     7.3714     6.3586     7.0524   101.1231     0.0099     0.1249     2.4645
  270.0000   -53.5133     7.3688     6.2688     7.0985   102.3303     0.0100     0.1276     2.4638
  270.5000   -53.3647     7.2152     6.1802     7.1892   104.2839     0.0101     0.1246     2.4639
  271.0000   -53.3665     7.1137     6.1351     7.3246   108.6255     0.0102     0.1312     2.4490
  271.5000   -53.5182     6.9654     6.0484     7.3707   109.9820     0.0104     0.1380     2.4431
  272.0000   -53.6698     6.7732     5.9630     7.3722   109.8460     0.0134     0.1422     2.4305
  272.5000   -53.9716     6.5863     5.8382     7.3584   108.9604     0.0195     0.1511     2.4223
