~VERSION INFORMATION
 VERS.                2.0:   CWLS LOG ASCII STANDARD - VERSION 2.0
 WRAP.                 NO:   ONE LINE PER DEPTH STEP
~WELL INFORMATION
#MNEM.UNIT      DATA TYPE    INFORMATION
#----------   ------------   ------------------------------
 STRT.F           84.0000:   START DEPTH
 STOP.F         1141.0000:   STOP DEPTH
 STEP.F            0.5000:   STEP LENGTH
 NULL.          -999.2500:   NO VALUE
 COMP.           U S NAVY:   COMPANY
 WELL.     NPR#3 #78-S-11:   WELL
 FLD .             TEAPOT:   FIELD
 LOC .      S11 T38N R78W:   LOCATION
 CNTY.            NATRONA:   COUNTY
 STAT.            WYOMING:   STATE
 CTRY. UNITED STATES OF AMERICA:   COUNTRY
 SRVC.       Schlumberger:   SERVICE COMPANY
 DATE.        28-AUG-1966:   LOGDATE
 API .       490250970700:   API NUMBER
~CURVE INFORMATION
#MNEM.UNIT       API CODE    CURVE DESCRIPTION
#----------   ------------   ------------------------------
 DEPT.F                  :   
 SPR .MV     05 010 01 00:   SPONTANEOUS POTENTIAL FROM RES.
 ASN .OHMM   05 041 16 00:   AMPLIFIED SHORT NORMAL 16"
 ILD .OHMM   05 120 46 00:   INDUCTION LOG DEEP
 CILD.MMHO   05 110 46 00:   CONDUCTIVITY INDUCTION LOG DEEP
 GRD .GAPI   45 310 01 00:   GAMMA RAY FROM DENSITY LOG
 CALD.IN     45 280 60 00:   CALIPER FROM DENSITY LOG
 DPHI.DEC    45 890 12 00:   DENSITY POROSITY SANDSTONE
 RHOB.G/C3   45 350 01 00:   BULK DENSITY
~PARAMETER INFORMATION
#MNEM.UNIT          VALUE    DESCRIPTION
#----------   ------------   ------------------------------
 PD  .                 GL:   PERMANENT DATUM
 EPD .F              5245:   ELEVATION PERMANENT DATUM
 LMF .                 KB:   LOG MEASURED FROM
 DAPD.F                 5:   FEET ABOVE PERMANENT DATUM
 DMF .                 KB:   DRILLING MEASURED FROM
 EKB .F              5250:   KELLING BUSHING
 EGL .F              5245:   GROUND LEVEL
 DATE.            8-28-66:   RUN DATE
 RUN .                  1:   RUN NUMBER
 DD  .F              1142:   DEPTH DRILLER
 DL  .F              1142:   DEPTH LOGGER
 BLI .F              1141:   BOTTOM LOG INTERVAL
 TLI .F                85:   TOP LOG INTERVAL
 CS  .IN            8.625:   CASING SIZE
 CBD .F                10:   CASING BOTTOM DRILLER
 BS  .IN             6.75:   BIT SIZE
 BSD .F              1142:   BIT SIZE AT DEPTH
 DFT .           CHEM GEL:   DRILLING FLUID TYPE
 DFD .               10.7:   DRILLING FLUID DENSITY
 DFV .                 40:   DRILLING FLUID VISCOSITY
 MSS .          FLOW LINE:   MUD SAMPLE SOURCE
 RMS .OHMM           1.58:   RESISTIVITY MUD SAMPLE
 MST .F                70:   MUD SAMPLE TEMPERATURE
 RMF .OHMM            .93:   RESISTIVITY MUD FILTRATE SAMPLE
 MFST.F                70:   MUD FILTRATE SAMPLE TEMPERATURE
 MFSS.                  M:   MUD FILTRATE SAMPLE SOURCE
 RMB .OHMM           1.19:   RESISTIVITY MUD AT BHT
 BHT .F                94:   BOTTOM HOLE TEMPERATURE
 TCS .HRS               1:   TIME CURCULATED STOPPED
 MRT .F                94:   MAXIMUM RECORDED TEMPERATURE
 LUN .               4507:   LOGGING UNIT NUMBER
 LUL .               CSPR:   LOGGING UNIT LOCATION
 ENGI.             KNOBEL:   RECORDING ENGINEER
 WITN.         MAY/TUTTLE:   WITNESSED BY
 CLNT.            A2DTECH:   CLIENT CODE
 ORIG.           5" PRINT:   ORIGIN OF DATA
 UWI .       490250970700:   UNIQUE WELL ID
 DICO. A2D Technologies, Inc.:   DIGITIZING COMPANY
~OTHER INFORMATION
~A   DEPT      SPR          ASN        ILD      CILD       GRD       CALD       DPHI       RHOB   
# ...
  772.5000   -31.7423     8.9640     7.5075   137.6691   107.1858     7.3711     0.0722     2.5241
  773.0000   -32.4979     8.9039     7.3574   139.1577   109.5183     7.3711     0.0712     2.5301
  773.5000   -32.6502     8.7838     7.2072   140.6466   111.4915     7.3711     0.0864     2.5212
  774.0000   -32.6517     8.6937     7.0571   142.1755   114.0004     7.3711     0.0899     2.4943
  774.5000   -32.5024     8.6186     6.9069   144.4582   115.7950     7.3711     0.0990     2.4846
  775.0000   -32.5039     8.6787     6.8318   146.7423   115.0897     7.3711     0.0969     2.4839
  775.5000   -32.0529     8.6807     6.8318   148.8543   112.7771     7.3711     0.0897     2.4952
  776.0000   -31.7527     8.6186     6.9069   149.5950   110.8218     7.3711     0.0911     2.5072
  776.5000   -31.6030     8.5586     6.9820   150.3321   108.8664     7.3711     0.0984     2.4892
  777.0000   -31.4541     8.4985     7.0571   151.0691   107.8036     7.3711     0.0986     2.4909
  777.5000   -31.4556     8.4535     7.1321   151.0506   107.9913     7.3711     0.0936     2.4999
  778.0000   -31.4571     8.4535     7.2072   150.2839   109.6074     7.3711     0.0900     2.5044
  778.5000   -31.6094     8.4535     7.3574   149.5172   111.2234     7.3711     0.0880     2.5074
  779.0000   -31.7617     8.4535     7.4324   147.2467   110.5179     7.3711     0.0873     2.5137
  779.5000   -31.7632     8.4783     7.5075   144.2244   111.7770     7.3711     0.0774     2.5376
  780.0000   -31.9155     8.7387     7.5826   140.4501   114.1073     7.3711     0.0697     2.5576
  780.5000   -32.0679     8.8739     7.6577   138.1797   115.2179     7.3711     0.0745     2.5328
  781.0000   -32.2202     9.0390     7.8078   135.9092   111.8037     7.3711     0.0888     2.4951
  781.5000   -32.3876     9.1742     7.9580   133.6387   108.5983     7.3711     0.0993     2.4740
  782.0000   -32.6757     9.3243     8.1081   132.1201   109.5001     7.3711     0.0957     2.5017
  782.5000   -33.0040     9.4745     8.3333   129.0851   111.2976     7.3711     0.0870     2.5314
  783.0000   -33.2823     9.6697     8.6336   125.3233   109.1607     7.3711     0.0813     2.5064
  783.5000   -33.1330     9.8498     8.8589   122.9550   106.8464     7.3711     0.0812     2.4958
  784.0000   -33.1345    10.1351     9.0841   120.6416   104.5284     7.3711     0.0825     2.5221
  784.5000   -32.9848    10.2853     9.3093   117.0047   103.1120     7.3711     0.0856     2.5392
  785.0000   -32.8355    10.4354     9.6096   115.4861   102.5892     7.3860     0.0912     2.5016
  785.5000   -32.6861    10.5856     9.8373   113.9675   102.7768     7.3860     0.0919     2.4974
  786.0000   -32.5368    10.6607    10.0651   111.6971   103.5000     7.3860     0.0769     2.5279
  786.5000   -32.3875    10.7357    10.1426   108.6747   103.2963     7.3860     0.0827     2.5107
  787.0000   -32.0877    10.9610    10.2102   105.6524   101.6928     7.3860     0.0953     2.4826
  787.5000   -32.0892    11.1862    10.2102   102.6300    98.5119     7.3860     0.0988     2.5130
  788.0000   -32.0907    11.3363    10.1351   100.3596    99.1213     7.3711     0.0932     2.5260
  788.5000   -32.0922    11.5616    10.1351    98.8410   102.1898     7.3711     0.0924     2.5021
  789.0000   -32.0937    11.8619    10.0601    98.0743   104.8847     7.3711     0.0874     2.5159
  789.5000   -32.0952    12.0871    10.0601    97.3076   106.0622     7.3711     0.0773     2.5218
  790.0000   -32.0967    12.1622     9.9099    98.0451   102.2852     7.3711     0.0765     2.5247
  790.5000   -32.3998    12.1622     9.8348    99.5338   100.5443     7.3711     0.0926     2.4993
  791.0000   -32.7030    12.0871     9.6847   101.7745   100.3747     7.3711     0.0957     2.4896
  791.5000   -32.8553    11.8619     9.5345   104.7671    97.5264     7.3711     0.1025     2.4717
  792.0000   -32.7056    11.7868     9.5345   107.0775   100.6024     7.3711     0.0982     2.4919
  792.5000   -32.5566    11.5616     9.4595   107.8565   100.7589     7.3711     0.1004     2.4651
  793.0000   -32.5581    11.4865     9.4595   109.9857    99.4145     7.3711     0.1076     2.4591
  793.5000   -32.4088    11.3363     9.3844   111.4747    97.9192     7.3711     0.1061     2.4891
  794.0000   -32.4003    11.2613     9.3844   113.7118    98.4660     7.3711     0.0963     2.5160
  794.5000   -32.4118    11.0360     9.3844   114.4525    97.5821     7.3711     0.0948     2.4787
  795.0000   -32.5641    10.9610     9.4595   115.1896    95.6267     7.3711     0.0975     2.4974
  795.5000   -32.7164    10.6604     9.4595   115.9254    93.1356     7.3711     0.0960     2.5116
  796.0000   -32.7179    10.4354     9.4595   115.9081    94.0374     7.3711     0.0942     2.4713
  796.5000   -32.7194    10.6607     9.3844   115.8933    96.5463     7.3711     0.0981     2.4818
  797.0000   -32.3792    10.8859     9.3844   115.1266    98.6980     7.3711     0.0983     2.5102
  797.5000   -31.9432    10.9610     9.3093   111.3523    99.7784     7.3860     0.0869     2.5335
  798.0000   -31.5173    11.0360     9.3093   107.5781   101.3944     7.3860     0.0821     2.5058
  798.5000   -31.2175    11.0360     9.3093   105.3076   100.3319     7.3860     0.0953     2.4655
  799.0000   -30.9173    11.0360     9.3844   103.7891    96.7694     7.3860     0.1034     2.4984
  799.5000   -30.7676    11.0360     9.4595   103.7742    93.9212     7.3860     0.1117     2.5381
  800.0000   -30.4590    11.0454     9.5345   105.0338    93.2135     7.3860     0.0964     2.5508
  800.5000   -30.3578    11.1596     9.4546   107.1379    93.7601     7.3660     0.0611     2.5494
  801.0000   -30.2565    11.1114     9.4502   109.2419    95.2084     7.3459     0.0637     2.5367
  801.5000   -30.1659    11.1116     9.5219   111.3761    95.5517     7.3562     0.0778     2.5269
  802.0000   -30.1659    10.9616     9.5163   115.0376    92.3427     7.3562     0.0802     2.5025
  802.5000   -30.1659    10.8866     9.5119   116.5414    93.8482     7.3562     0.0784     2.5085
  803.0000   -30.1659    10.6616     9.5074   118.0451    95.6251     7.3711     0.0756     2.5235
  803.5000   -30.0151    10.5116     9.5030   118.7970    96.6444     7.3711     0.0780     2.5131
  804.0000   -30.0151    10.3616     9.4224   121.0526    95.2211     7.3711     0.0846     2.4915
  804.5000   -30.1659    10.2866     9.1937   121.8045    96.1207     7.3860     0.0891     2.4997
  805.0000   -30.3167    10.1366     8.9565   123.3083    95.0546     7.3860     0.0854     2.5155
  805.5000   -30.3167    10.0617     8.7342   124.0602    93.8085     7.3860     0.0797     2.5194
  806.0000   -30.3167     9.9868     8.6547   124.8120    95.9581     7.3860     0.0897     2.4932
  806.5000   -30.7692     9.8368     8.6493   125.5639    96.1419     7.3860     0.1002     2.4738
  807.0000   -30.9201     9.7619     8.6448   125.5639    96.3258     7.3860     0.1051     2.4581
  807.5000   -31.2217     9.7620     8.5653   127.0677    96.5084     7.3860     0.1011     2.4866
  808.0000   -31.5234     9.7622     8.5608   127.8195    94.1936     7.3860     0.1149     2.4650
  808.5000   -31.5234     9.7910     8.4813   127.8195    93.6619     7.3860     0.1171     2.4403
  809.0000   -31.3725     9.8225     8.4769   128.5714    94.5614     7.3860     0.1233     2.4561
  809.5000   -31.3725     9.7026     8.4724   130.0752    96.1739     7.3860     0.1212     2.4681
  810.0000   -30.9201     9.6277     8.3178   130.0752    97.4292     7.3860     0.1167     2.4764
  810.5000   -30.6184     9.5377     8.3133   130.0752    97.6131     7.3860     0.1140     2.4660
  811.0000   -30.1659     9.4628     8.3089   130.0752    97.4385     7.3860     0.1155     2.4605
  811.5000   -30.3167     9.3728     8.3044   130.0752    95.3023     7.3860     0.1086     2.4885
  812.0000   -30.6184     9.3279     8.3000   128.5714    95.1277     7.3860     0.0831     2.5057
  812.5000   -30.7692     9.3882     8.2955   127.8195    95.6701     7.3860     0.0798     2.5125
