~VERSION INFORMATION
 VERS.                2.0:   CWLS LOG ASCII STANDARD - VERSION 2.0
 WRAP.                 NO:   ONE LINE PER DEPTH STEP
~WELL INFORMATION
#MNEM.UNIT      DATA TYPE    INFORMATION
#----------   ------------   ------------------------------
 STRT.F           11.0000:   START DEPTH
 STOP.F          915.0000:   STOP DEPTH
 STEP.F            0.5000:   STEP LENGTH
 NULL.          -999.2500:   NO VALUE
 COMP. U S NAVY/INTEX OIL CO:   COMPANY
 WELL.       N.P.R. #3-35:   WELL
 FLD .           TEAPOT E:   FIELD
 LOC .      S35 T39N R78W:   LOCATION
 CNTY.            NATRONA:   COUNTY
 STAT.            WYOMING:   STATE
 CTRY. UNITED STATES OF AMERICA:   COUNTRY
 SRVC.       Schlumberger:   SERVICE COMPANY
 DATE.        25-JUL-1953:   LOGDATE
 API .       490250653700:   API NUMBER
~CURVE INFORMATION
#MNEM.UNIT       API CODE    CURVE DESCRIPTION
#----------   ------------   ------------------------------
 DEPT.F                  :   
 SPR .MV     05 010 01 00:   SPONTANEOUS POTENTIAL FROM RES.
 CILD.MMHO   05 110 46 00:   CONDUCTIVITY INDUCTION LOG DEEP
 ILD .OHMM   05 120 46 00:   INDUCTION LOG DEEP
 ASN .OHMM   05 041 16 00:   AMPLIFIED SHORT NORMAL 16"
 GR  .GAPI   30 310 01 00:   GAMMA RAY
~PARAMETER INFORMATION
#MNEM.UNIT          VALUE    DESCRIPTION
#----------   ------------   ------------------------------
 EPD .F              5097:   ELEVATION PERMANENT DATUM
 LMF .                 KB:   LOG MEASURED FROM
 DMF .                 KB:   DRILLING MEASURED FROM
 EKB .F              5102:   KELLING BUSHING
 EGL .F              5097:   GROUND LEVEL
 DATE.           7-2-1963:   RUN DATE
 RUN .                  1:   RUN NUMBER
 DD  .F               916:   DEPTH DRILLER
 DL  .F               916:   DEPTH LOGGER
 BLI .F               915:   BOTTOM LOG INTERVAL
 TLI .F                90:   TOP LOG INTERVAL
 CS  .IN            8.625:   CASING SIZE
 CBD .F                10:   CASING BOTTOM DRILLER
 BS  .IN             6.75:   BIT SIZE
 BSD .F               916:   BIT SIZE AT DEPTH
 DFT .            GEL/OIL:   DRILLING FLUID TYPE
 DFD .                9.6:   DRILLING FLUID DENSITY
 DFV .                 67:   DRILLING FLUID VISCOSITY
 DFPH.                  9:   DRILLING FLUID PH
 DFL .                4.2:   DRILLING FLUID LOSS
 MSS .          FLOW LINE:   MUD SAMPLE SOURCE
 RMS .OHMM           2.92:   RESISTIVITY MUD SAMPLE
 MST .F                86:   MUD SAMPLE TEMPERATURE
 RMF .OHMM            2.6:   RESISTIVITY MUD FILTRATE SAMPLE
 MFST.F                86:   MUD FILTRATE SAMPLE TEMPERATURE
 RMC .OHMM           2.49:   RESISTIVITY MUD CAKE
 MCST.F                86:   MUD CAKE SAMPLE TEMPERATURE
 MFSS.                  M:   MUD FILTRATE SAMPLE SOURCE
 MCSS.                  M:   MUD CAKE SAMPLE SOURCE
 TCS .HRS              .5:   TIME CURCULATED STOPPED
 LUN .               4507:   LOGGING UNIT NUMBER
 ENGI.             KNOBEL:   RECORDING ENGINEER
 WITN.          JORGENSON:   WITNESSED BY
 CLNT.            A2DTECH:   CLIENT CODE
 ORIG.       2", 5" PRINT:   ORIGIN OF DATA
 UWI .       490250653700:   UNIQUE WELL ID
 DICO. A2D Technologies, Inc.:   DIGITIZING COMPANY
~OTHER INFORMATION
~A   DEPT      SPR       CILD        ILD        ASN          GR  
# ...
  499.0000   -29.8113   124.2409     7.8738     9.7152    32.0078
  499.5000   -29.8183   121.4909     7.9858    10.1289    31.3894
  500.0000   -29.9980   123.3557     8.1079     9.6964    37.1933
  500.5000   -30.1804   127.7091     7.8804     9.1964    44.5971
  501.0000   -30.1797   132.0625     7.5104     8.7744    45.8540
  501.5000   -30.1087   136.4160     7.2730     8.6136    50.4912
  502.0000   -30.0353   140.9507     7.0764     8.3472    53.3292
  502.5000   -29.9618   145.5895     6.8840     8.0274    49.9025
  503.0000   -29.8882   149.6911     6.6908     7.7847    52.3759
  503.5000   -29.8153   153.4412     6.4949     7.5891    53.7409
  504.0000   -29.7775   155.9779     6.4316     7.3924    56.9027
  504.5000   -29.7332   156.3637     6.4019     7.1959    58.7861
  505.0000   -29.6881   156.7600     6.3734     7.2545    57.0273
  505.5000   -29.6429   155.2946     6.3647     7.2919    54.7818
  506.0000   -29.5978   153.0865     6.5103     7.2923    53.2122
  506.5000   -29.5526   150.8784     6.6577     7.2930    51.6869
  507.0000   -29.5075   148.6704     6.7882     7.4122    52.3674
  507.5000   -29.4624   146.4623     6.8603     7.5896    55.1602
  508.0000   -29.4172   144.2812     6.9339     7.7660    52.5813
  508.5000   -29.3721   142.9774     7.0075     7.9382    50.4613
  509.0000   -29.3270   141.6894     7.0811     7.8824    50.3048
  509.5000   -29.2818   140.4014     7.1547     7.7769    54.0193
  510.0000   -29.2366   139.1133     7.2283     7.7616    57.6311
  510.5000   -29.1924   137.8253     7.3019     7.8467    57.3941
  511.0000   -29.1552   136.5372     7.3755     8.0566    57.4106
  511.5000   -29.1209   135.2492     7.4490     8.1473    59.6076
  512.0000   -29.0864   133.9612     7.5230     8.2221    58.2172
  512.5000   -29.0519   132.6731     7.5989     8.2800    61.9250
  513.0000   -29.0174   131.6894     7.5450     8.3135    60.5450
  513.5000   -28.9829   133.1403     7.4721     8.3168    54.6878
  514.0000   -28.9484   134.5455     7.3981     8.3100    50.9313
  514.5000   -28.9139   135.9506     7.3244     8.3026    50.1089
  515.0000   -28.8795   137.3557     7.2508     8.2756    52.9036
  515.5000   -28.8450   138.7608     7.1772     8.1875    53.5764
  516.0000   -28.8105   140.1660     7.1036     8.0625    53.3627
  516.5000   -28.7760   141.5711     7.0300     7.9366    50.2647
  517.0000   -28.7415   142.9763     6.9563     7.8109    50.1259
  517.5000   -28.7070   144.3814     6.8829     7.7394    51.7339
  518.0000   -28.6726   145.7865     6.8099     7.6879    54.6132
  518.5000   -28.6382   147.1916     6.7721     7.6802    57.4253
  519.0000   -28.6035   147.3103     6.7803     7.6714    57.8213
  519.5000   -28.5681   147.1671     6.7883     7.6621    57.8335
  520.0000   -28.4836   147.0240     6.7967     7.6528    58.9117
  520.5000   -28.3103   146.8809     6.8050     7.5999    55.8106
  521.0000   -28.1461   146.7378     6.8133     7.5177    59.1224
  521.5000   -28.2721   146.5947     6.8216     7.4836    56.0452
  522.0000   -28.4134   146.4516     6.8299     7.5685    59.6017
  522.5000   -28.5528   146.3084     6.8383     7.6490    58.6187
  523.0000   -28.6916   146.1653     6.8466     7.6836    57.5761
  523.5000   -28.7477   146.0222     6.8549     7.6683    55.4090
  524.0000   -28.7114   145.8791     6.8632     7.6533    52.7421
  524.5000   -28.6754   145.7360     6.8708     7.6384    50.4108
  525.0000   -28.6387   145.5929     6.8952     7.6667    54.7431
  525.5000   -28.6021   145.4498     6.9222     7.7603    56.4714
  526.0000   -28.5656   145.0775     6.9493     7.8409    54.6567
  526.5000   -28.5291   143.5621     6.9765     7.8205    51.7868
  527.0000   -28.4925   142.0468     7.0036     7.7995    52.3750
  527.5000   -28.4560   140.5314     7.0307     7.8496    51.8353
  528.0000   -28.4192   140.2975     7.0578     7.9233    50.2846
  528.5000   -28.3824   140.6006     7.0827     8.0600    54.1494
  529.0000   -28.3489   140.9037     7.0836     8.1585    54.5601
  529.5000   -28.3480   140.4309     7.1454     8.1015    57.4835
  530.0000   -28.5345   137.5462     7.2862     8.3527    58.2614
  530.5000   -28.8396   134.6451     7.4266     8.3021    53.9149
  531.0000   -29.2953   131.6983     7.5682     8.2402    52.5840
  531.5000   -29.8710   130.6758     7.7083     8.3580    59.0325
  532.0000   -30.4480   129.6453     7.7266     8.5584    61.2424
  532.5000   -31.0286   128.5414     7.7393     8.7522    61.6762
  533.0000   -31.6070   128.5414     7.7527     8.8874    60.9559
  533.5000   -31.6929   128.5414     7.7663     8.9700    60.8854
  534.0000   -31.5034   128.5414     7.7798     9.0011    62.3134
  534.5000   -31.0270   128.5414     7.7932     8.9254    63.9628
  535.0000   -30.5455   128.5414     7.8071     8.7570    66.8190
  535.5000   -30.4410   127.5896     7.8324     8.8711    65.5426
  536.0000   -30.4380   126.0869     7.9035     8.9745    62.6493
  536.5000   -30.4389   124.5842     7.9749     8.8610    59.8463
  537.0000   -30.4394   123.0815     8.0425     8.9138    57.0391
  537.5000   -30.4396   121.5806     8.0946     9.1473    57.1334
  538.0000   -30.4408   119.7870     8.4029     9.3806    61.8114
  538.5000   -30.4340   117.8936     8.5114     9.6156    62.7587
  539.0000   -30.2349   116.0004     8.6267     9.8486    61.3508
  539.5000   -30.0279   114.1075     8.7388     9.9468    61.2165
  540.0000   -29.8127   112.2149     8.8507    10.0252    63.2275
  540.5000   -29.6135   110.3223     9.0181    10.1109    60.7354
  541.0000   -29.9117   108.4297     9.1947    10.3322    55.9980
  541.5000   -30.2541   106.5370     9.3715    10.3879    52.0251
  542.0000   -30.5152   104.6444     9.5482    10.4346    53.0758
  542.5000   -30.6007   102.7518     9.7246    10.5958    52.9624
  543.0000   -30.3582   101.1249     9.9015    10.7906    52.7069
  543.5000   -30.1205    99.5792    10.0850    10.9870    53.3042
  544.0000   -30.1080    99.8830    10.0374    11.1821    50.1262
  544.5000   -30.2520   100.8738     9.9196    11.2483    40.7627
  545.0000   -30.3978   101.8646     9.7992    11.1306    42.2877
  545.5000   -30.5423   102.8554     9.6791    11.0166    46.7056
  546.0000   -30.6141   103.8462     9.5593    10.9021    48.6193
  546.5000   -30.4612   104.8370     9.4395    10.7874    50.5915
  547.0000   -30.3148   105.8278     9.3195    10.6728    54.0082
  547.5000   -30.1688   106.8186     9.1989    10.5575    57.7373
  548.0000   -30.0230   107.8093     9.0806    10.4438    58.0571
  548.5000   -29.8764   108.8001     9.0653    10.4475    55.0665
  549.0000   -29.8319   109.6809     9.0527    10.4562    55.4100
  549.5000   -29.8658   109.8770     9.0394    10.4650    56.6848
  550.0000   -29.9001   110.0732     9.0260    10.4749    59.4372
  550.5000   -29.9349   110.2693     9.0125    10.4638    56.4394
  551.0000   -29.9692   110.4654     8.9991    10.4004    56.1604
  551.5000   -30.0036   110.6616     8.9857    10.4124    60.0556
  552.0000   -29.9705   110.8577     8.9722    10.3854    63.6725
  552.5000   -29.8743   111.0538     8.9588    10.3180    61.1757
  553.0000   -29.7779   111.2500     8.9454    10.2442    55.7232
  553.5000   -29.6811   111.4461     8.9319    10.3729    51.4713
  554.0000   -29.5843   111.6422     8.9185    10.1778    50.8322
  554.5000   -29.4876   111.8384     8.9051    10.0730    51.5818
  555.0000   -29.3908   112.0345     8.8916    10.2021    51.7435
  555.5000   -29.2941   112.2306     8.8782    10.1099    53.0540
  556.0000   -29.1974   112.4268     8.8647    10.0888    55.2203
  556.5000   -29.1006   112.6229     8.8513    10.2210    58.1887
  557.0000   -29.0039   112.8190     8.8379    10.1426    61.7194
  557.5000   -28.9071   113.0152     8.8244    10.0452    60.1971
  558.0000   -28.8102   113.2113     8.8110     9.9338    62.1357
  558.5000   -28.7136   113.4074     8.7977     9.8228    63.0053
  559.0000   -28.6179   113.6036     8.7845     9.7534    62.5174
  559.5000   -28.6104   113.7997     8.7700     9.8033    61.7565
