~VERSION INFORMATION
 VERS.                2.0:   CWLS LOG ASCII STANDARD - VERSION 2.0
 WRAP.                 NO:   ONE LINE PER DEPTH STEP
~WELL INFORMATION
#MNEM.UNIT      DATA TYPE    INFORMATION
#----------   ------------   ------------------------------
 STRT.F            2.0000:   START DEPTH
 STOP.F          510.5000:   STOP DEPTH
 STEP.F            0.5000:   STEP LENGTH
 NULL.          -999.2500:   NO VALUE
 COMP. LAWRENCE/ALLISON INC:   COMPANY
 WELL.   NPR #3 #58-12 SX:   WELL
 FLD .             TEAPOT:   FIELD
 LOC .       S3 T38N R78W:   LOCATION
 CNTY.            NATRONA:   COUNTY
 STAT.            WYOMING:   STATE
 CTRY. UNITED STATES OF AMERICA:   COUNTRY
 SRVC.           Gearhart:   SERVICE COMPANY
 DATE.        20-JUN-1988:   LOGDATE
 API .       490251123500:   API NUMBER
~CURVE INFORMATION
#MNEM.UNIT       API CODE    CURVE DESCRIPTION
#----------   ------------   ------------------------------
 DEPT.F                  :   
 GRR .GAPI   07 310 01 00:   GAMMA RAY FROM RES. LOG.
 RILD.OHMM   07 120 46 00:   INDUCTION LOG DEEP RESISTIVITY
 RILM.OHMM   07 120 44 00:   INDUCTION LOG MEDIUM RESISTIVITY
~PARAMETER INFORMATION
#MNEM.UNIT          VALUE    DESCRIPTION
#----------   ------------   ------------------------------
 PD  .                 GL:   PERMANENT DATUM
 EPD .F              5195:   ELEVATION PERMANENT DATUM
 LMF .                 KB:   LOG MEASURED FROM
 DAPD.F                10:   FEET ABOVE PERMANENT DATUM
 DMF .                 KB:   DRILLING MEASURED FROM
 EKB .F              5205:   KELLING BUSHING
 EGL .F              5195:   GROUND LEVEL
 DATE.            6-20-88:   RUN DATE
 RUN .                  1:   RUN NUMBER
 DD  .F               515:   DEPTH DRILLER
 DL  .F               519:   DEPTH LOGGER
 BLI .F             510.5:   BOTTOM LOG INTERVAL
 TLI .F                50:   TOP LOG INTERVAL
 CS  .IN            9.625:   CASING SIZE
 CBD .F                50:   CASING BOTTOM DRILLER
 CBL .F                50:   CASING BOTTOM LOGGER
 BS  .IN             8.75:   BIT SIZE
 BSD .F               515:   BIT SIZE AT DEPTH
 DFT .                AIR:   DRILLING FLUID TYPE
 TLAB.HRS            0414:   TIME LOGGER AT BOTTOM
 MRT .F                70:   MAXIMUM RECORDED TEMPERATURE
 LUN .               7597:   LOGGING UNIT NUMBER
 LUL .           GILLETTE:   LOGGING UNIT LOCATION
 ENGI.          HUCKFELDT:   RECORDING ENGINEER
 WITN.             STRONG:   WITNESSED BY
 CLNT.            A2DTECH:   CLIENT CODE
 ORIG.       2", 5" PRINT:   ORIGIN OF DATA
 UWI .       490251123500:   UNIQUE WELL ID
 DICO. A2D Technologies, Inc.:   DIGITIZING COMPANY
~OTHER INFORMATION
~A    DEPT      GRR      RILD       RILM   
    2.0000    11.4688  -999.2500  -999.2500
    2.5000    10.9742  -999.2500  -999.2500
    3.0000     9.3044  -999.2500  -999.2500
    3.5000     7.9279  -999.2500  -999.2500
    4.0000     7.4809  -999.2500  -999.2500
    4.5000    10.1616  -999.2500  -999.2500
    5.0000    14.8139  -999.2500  -999.2500
    5.5000    19.3412  -999.2500  -999.2500
    6.0000    23.8395  -999.2500  -999.2500
    6.5000    27.5448  -999.2500  -999.2500
    7.0000    28.7535  -999.2500  -999.2500
    7.5000    28.7830  -999.2500  -999.2500
    8.0000    29.0859  -999.2500  -999.2500
    8.5000    30.5609  -999.2500  -999.2500
    9.0000    31.9927  -999.2500  -999.2500
    9.5000    33.4149  -999.2500  -999.2500
   10.0000    34.8783  -999.2500  -999.2500
   10.5000    37.5219  -999.2500  -999.2500
   11.0000    40.1648  -999.2500  -999.2500
   11.5000    42.8069  -999.2500  -999.2500
   12.0000    45.6698  -999.2500  -999.2500
   12.5000    49.6028  -999.2500  -999.2500
   13.0000    53.5008  -999.2500  -999.2500
   13.5000    57.4293  -999.2500  -999.2500
   14.0000    59.4090  -999.2500  -999.2500
   14.5000    60.9352  -999.2500  -999.2500
   15.0000    61.3731  -999.2500  -999.2500
   15.5000    61.7671  -999.2500  -999.2500
   16.0000    62.1669  -999.2500  -999.2500
   16.5000    62.5708  -999.2500  -999.2500
   17.0000    62.9496  -999.2500  -999.2500
   17.5000    63.3310  -999.2500  -999.2500
   18.0000    63.7145  -999.2500  -999.2500
   18.5000    64.1189  -999.2500  -999.2500
   19.0000    63.6104  -999.2500  -999.2500
   19.5000    62.8610  -999.2500  -999.2500
   20.0000    62.1389  -999.2500  -999.2500
   20.5000    61.6459  -999.2500  -999.2500
   21.0000    62.5738  -999.2500  -999.2500
   21.5000    62.8982  -999.2500  -999.2500
   22.0000    62.6886  -999.2500  -999.2500
   22.5000    62.2100  -999.2500  -999.2500
   23.0000    64.0193  -999.2500  -999.2500
   23.5000    66.6435  -999.2500  -999.2500
   24.0000    69.8787  -999.2500  -999.2500
   24.5000    70.6224  -999.2500  -999.2500
   25.0000    69.1495  -999.2500  -999.2500
   25.5000    67.7039  -999.2500  -999.2500
   26.0000    67.1354  -999.2500  -999.2500
   26.5000    66.6123  -999.2500  -999.2500
   27.0000    66.8068  -999.2500  -999.2500
   27.5000    67.0590  -999.2500  -999.2500
   28.0000    68.2544  -999.2500  -999.2500
   28.5000    68.5077  -999.2500  -999.2500
   29.0000    68.3730  -999.2500  -999.2500
   29.5000    68.2286  -999.2500  -999.2500
   30.0000    68.0827  -999.2500  -999.2500
   30.5000    67.9316  -999.2500  -999.2500
   31.0000    67.8541  -999.2500  -999.2500
   31.5000    68.9341  -999.2500  -999.2500
   32.0000    70.3706  -999.2500  -999.2500
   32.5000    72.3256  -999.2500  -999.2500
   33.0000    74.3272  -999.2500  -999.2500
   33.5000    76.3427  -999.2500  -999.2500
   34.0000    77.9748  -999.2500  -999.2500
   34.5000    77.2540  -999.2500  -999.2500
   35.0000    74.1230  -999.2500  -999.2500
   35.5000    72.2918  -999.2500  -999.2500
   36.0000    71.0851  -999.2500  -999.2500
   36.5000    69.8785  -999.2500  -999.2500
   37.0000    69.0597  -999.2500  -999.2500
   37.5000    68.4691  -999.2500  -999.2500
   38.0000    67.8777  -999.2500  -999.2500
   38.5000    67.1079  -999.2500  -999.2500
   39.0000    65.4871  -999.2500  -999.2500
   39.5000    63.8984  -999.2500  -999.2500
   40.0000    62.3797  -999.2500  -999.2500
   40.5000    62.9548  -999.2500  -999.2500
   41.0000    64.9569  -999.2500  -999.2500
   41.5000    65.7363  -999.2500  -999.2500
   42.0000    64.1108  -999.2500  -999.2500
   42.5000    62.9886  -999.2500  -999.2500
   43.0000    64.1679  -999.2500  -999.2500
   43.5000    65.9302  -999.2500  -999.2500
   44.0000    67.8044  -999.2500  -999.2500
   44.5000    68.4610  -999.2500  -999.2500
   45.0000    68.1833  -999.2500  -999.2500
   45.5000    67.3973  -999.2500  -999.2500
   46.0000    66.6100  -999.2500  -999.2500
   46.5000    65.8201  -999.2500  -999.2500
   47.0000    65.0179  -999.2500  -999.2500
   47.5000    64.2171  -999.2500  -999.2500
   48.0000    65.3154  -999.2500  -999.2500
   48.5000    69.0776  -999.2500  -999.2500
   49.0000    76.1278  -999.2500  -999.2500
   49.5000    84.7412  -999.2500  -999.2500
   50.0000    93.2755     5.9281   110.1524
   50.5000   101.7334     3.8921    21.5855
   51.0000   109.3761     2.2451     6.8814
   51.5000   114.6652     2.3297     4.7922
   52.0000   117.2622     3.7595     2.6491
   52.5000   118.7256     9.2617     3.7042
   53.0000   117.1291    20.8992     5.0331
   53.5000   115.5654    17.9672     6.8291
   54.0000   113.9195    13.1828     9.2660
   54.5000   116.2849     9.6711    12.3650
   55.0000   119.6277     8.4174    12.6542
   55.5000   121.2567     8.6357    10.5267
   56.0000   120.2127     9.0844     9.1368
   56.5000   119.0833     9.5564     8.0250
   57.0000   117.9473    10.0524     7.8416
   57.5000   116.8450    10.6173     7.7073
   58.0000   119.5945    10.5175     7.9837
   58.5000   122.7742     9.7281     8.2721
   59.0000   126.0088     9.0605     8.5706
   59.5000   126.8939     8.7517     8.6612
   60.0000   125.5353     8.6612     8.6197
   60.5000   122.9362     8.6612     8.5738
   61.0000   120.8101     8.6713     8.5282
   61.5000   118.9616     8.7054     8.4828
   62.0000   118.6669     8.7396     8.4377
   62.5000   120.3462     8.7739     8.3928
   63.0000   122.0254     8.8083     8.3481
   63.5000   123.6950     8.8429     8.3037
   64.0000   124.3778     8.8776     8.2595
   64.5000   125.0193     8.9125     8.2156
   65.0000   125.6634     8.9475     8.1183
   65.5000   126.3050     8.9826     8.1183
   66.0000   125.9723     9.0179     8.1183
   66.5000   124.5448     9.0533     8.1183
   67.0000   123.4651     9.1070     8.1396
   67.5000   122.8370     9.2282     8.3560
   68.0000   122.2059     9.3509     8.5782
   68.5000   121.5768     9.4752     8.8063
   69.0000   120.9502     9.6026     9.0405
   69.5000   120.3112     9.7438     9.2809
   70.0000   118.9228     9.8871     9.5276
   70.5000   115.5711    10.0325     9.8441
   71.0000   113.7501    10.1227     9.7594
   71.5000   112.1499     9.9689     9.6199
   72.0000   112.8386     9.8427     9.4823
   72.5000   115.9370     9.7178     9.3467
   73.0000   119.2086     9.5947     9.2131
   73.5000   122.4292     9.4731     9.0814
   74.0000   121.9217     9.3530     8.9515
   74.5000   121.0823     9.2345     8.8235
   75.0000   121.3333     9.1174     8.6973
   75.5000   123.6601     9.0019     8.5730
   76.0000   125.9727     8.8878     8.4504
   76.5000   128.1998     8.7751     8.3298
   77.0000   125.4827     8.7077     8.1929
   77.5000   122.4882     8.6596     8.1940
   78.0000   119.4921     8.6117     8.1178
   78.5000   117.2437     8.5640     8.1237
   79.0000   117.7594     8.5072     8.1788
   79.5000   121.1603     8.5526     8.2345
   80.0000   124.5473     8.6248     8.2904
   80.5000   124.9329     8.6976     8.3466
   81.0000   124.3671     8.7711     8.4033
   81.5000   123.7495     8.8451     8.4604
   82.0000   124.7897     8.9198     8.5178
   82.5000   126.2919     8.9951     8.5756
   83.0000   124.6936     9.0710     8.6458
   83.5000   122.2247     9.1476     8.7178
   84.0000   119.8135     9.2248     8.7905
   84.5000   120.0312     9.3027     8.8637
   85.0000   120.3905     9.3812     8.9376
   85.5000   120.2721     9.4604     9.0121
   86.0000   119.8744     9.5403     9.0872
   86.5000   119.4463     9.6208     9.1559
   87.0000   120.4817     9.6776     9.1555
   87.5000   122.2937     9.6776     9.0498
   88.0000   121.5634     9.6776     9.0268
   88.5000   120.1092     9.6248     9.0037
   89.0000   118.6229     9.5664     8.9806
   89.5000   117.3729     9.5084     8.9576
   90.0000   119.0922     9.4507     8.9346
   90.5000   120.6950     9.3934     8.9117
   91.0000   122.2608     9.3364     8.8888
   91.5000   123.2691     9.2798     8.8660
   92.0000   122.5379     9.2403     8.8432
   92.5000   121.8306     9.2403     8.8229
