~VERSION INFORMATION
 VERS.                2.0:   CWLS LOG ASCII STANDARD - VERSION 2.0
 WRAP.                 NO:   ONE LINE PER DEPTH STEP
~WELL INFORMATION
#MNEM.UNIT      DATA TYPE    INFORMATION
#----------   ------------   ------------------------------
 STRT.F            1.0000:   START DEPTH
 STOP.F          886.0000:   STOP DEPTH
 STEP.F            0.5000:   STEP LENGTH
 NULL.          -999.2500:   NO VALUE
 COMP. BROWN JOHN E&C INC:   COMPANY
 WELL. NAVAL PETROLEUM RESERVE 3 SHX-1 #33-2:   WELL
 FLD .             NPR #3:   FIELD
 LOC .       S2 T38N R78W:   LOCATION
 CNTY.            NATRONA:   COUNTY
 STAT.            WYOMING:   STATE
 CTRY. UNITED STATES OF AMERICA:   COUNTRY
 SRVC.      Western Atlas:   SERVICE COMPANY
 DATE.        26-NOV-1991:   LOGDATE
 API .       490252248300:   API NUMBER
~CURVE INFORMATION
#MNEM.UNIT       API CODE    CURVE DESCRIPTION
#----------   ------------   ------------------------------
 DEPT.F                  :   
 RILD.OHMM   07 120 46 00:   INDUCTION LOG DEEP RESISTIVITY
 RILM.OHMM   07 120 44 00:   INDUCTION LOG MEDIUM RESISTIVITY
 RFOC.OHMM   07 220 04 00:   RESISTIVITY FOCUSED LOG
 SPR .MV     07 010 01 00:   SPONTANEOUS POTENTIAL
 GRR .GAPI   07 310 01 00:   GAMMA RAY
~PARAMETER INFORMATION
#MNEM.UNIT          VALUE    DESCRIPTION
#----------   ------------   ------------------------------
 PD  .                 GL:   PERMANENT DATUM
 EPD .F              5133:   ELEVATION PERMANENT DATUM
 LMF .                 KB:   LOG MEASURED FROM
 DAPD.F                10:   FEET ABOVE PERMANENT DATUM
 DMF .                 KB:   DRILLING MEASURED FROM
 EKB .F              5143:   KELLING BUSHING
 EGL .F              5133:   GROUND LEVEL
 DATE.        26-NOV-1991:   RUN DATE
 RUN .                  1:   RUN NUMBER
 DD  .F               892:   DEPTH DRILLER
 DL  .F               889:   DEPTH LOGGER
 BLI .F               837:   BOTTOM LOG INTERVAL
 CS  .IN            8.625:   CASING SIZE
 CBD .F                40:   CASING BOTTOM DRILLER
 CBL .F                55:   CASING BOTTOM LOGGER
 BS  .IN            7.875:   BIT SIZE
 BSD .F               892:   BIT SIZE AT DEPTH
 DFT .            POLYMER:   DRILLING FLUID TYPE
 DFD .                9.8:   DRILLING FLUID DENSITY
 DFV .                 38:   DRILLING FLUID VISCOSITY
 DFPH.                9.5:   DRILLING FLUID PH
 DFL .               10.6:   DRILLING FLUID LOSS
 MSS .           FLOWLINE:   MUD SAMPLE SOURCE
 RMS .OHMM           2.08:   RESISTIVITY MUD SAMPLE
 MST .F                78:   MUD SAMPLE TEMPERATURE
 RMF .OHMM           1.66:   RESISTIVITY MUD FILTRATE SAMPLE
 MFST.F                78:   MUD FILTRATE SAMPLE TEMPERATURE
 RMC .OHMM           2.60:   RESISTIVITY MUD CAKE
 MCST.F                78:   MUD CAKE SAMPLE TEMPERATURE
 MFSS.               MEAS:   MUD FILTRATE SAMPLE SOURCE
 MCSS.               CALC:   MUD CAKE SAMPLE SOURCE
 RMB .OHMM           1.08:   RESISTIVITY MUD AT BHT
 BHT .F               150:   BOTTOM HOLE TEMPERATURE
 TCS .HRS               2:   TIME CURCULATED STOPPED
 MRT .F               150:   MAXIMUM RECORDED TEMPERATURE
 LUN .            HL-6307:   LOGGING UNIT NUMBER
 LUL .         CASPER, WY:   LOGGING UNIT LOCATION
 ENGI.             ZIEGER:   RECORDING ENGINEER
 WITN.             STRONG:   WITNESSED BY
 CLNT.            A2DTECH:   CLIENT CODE
 ORIG.           5" PRINT:   ORIGIN OF DATA
 UWI .       490252248300:   UNIQUE WELL ID
 DICO. A2D Technologies, Inc.:   DIGITIZING COMPANY
~OTHER INFORMATION
~A    DEPT    RILD       RILM       RFOC        SPR         GRR  
# ...
  306.0000    11.8489    11.8585    11.5438  -104.0131    94.5393
  306.5000    11.7638    11.6928    11.2737  -104.4729    94.8263
  307.0000    11.6793    11.6097    10.9858  -104.6311    95.7346
  307.5000    11.5948    11.6073    10.7659  -104.7892    93.8884
  308.0000    11.5115    11.6050    10.6642  -104.9474    90.2539
  308.5000    11.5893    11.5224    10.5114  -104.9548    92.9542
  309.0000    11.6668    11.5196    10.3736  -104.6603    96.2578
  309.5000    11.6629    11.4376    10.1791  -104.0662    97.4535
  310.0000    11.6598    11.4353    10.1779  -103.6210    96.2285
  310.5000    11.5760    11.3540    10.2270  -102.8742    95.6106
  311.0000    11.4128    11.2733    10.4025  -101.8257    96.5431
  311.5000    10.8690    11.0389    10.4598  -100.6264   100.6123
  312.0000    10.2796    10.6575    10.4401  -100.0316   107.0261
  312.5000     9.4562    10.0370     9.8962   -98.8323   111.8380
  313.0000     8.4607     8.9594     8.1452   -97.6330   114.8400
  313.5000     7.6227     8.0726     7.0892   -97.0351   116.6353
  314.0000     6.9636     7.2232     6.5183   -97.0443   116.0173
  314.5000     6.3480     6.5082     6.0882   -97.5041   115.0977
  315.0000     5.7311     5.9873     5.6866   -97.8131   115.3947
  315.5000     5.4203     5.6239     5.4495   -98.1222   117.5284
  316.0000     5.3814     5.4668     5.3310   -98.2805   117.7687
  316.5000     5.3799     5.3549     5.2570   -98.2894   117.7505
  317.0000     5.4163     5.3911     5.3241   -98.1440   118.6445
  317.5000     5.4522     5.4656     5.3906   -98.0005   117.4195
  318.0000     5.5653     5.5405     5.5160   -97.8570   115.2933
  318.5000     5.6025     5.6171     5.5640   -97.8662   115.2787
  319.0000     5.6400     5.6156     5.6305   -97.8735   115.2579
  319.5000     5.5991     5.6145     5.5829   -98.0317   113.9558
  320.0000     5.5589     5.4952     5.5129   -98.1900   112.5162
  320.5000     5.5190     5.4207     5.3959   -98.3498   114.0098
  321.0000     5.4416     5.3449     5.3377   -98.3571   116.4085
  321.5000     5.4401     5.3439     5.2861   -98.3644   116.6992
  322.0000     5.5166     5.4174     5.3591   -98.9751   117.5858
  322.5000     5.5515     5.4543     5.4719   -99.5857   119.0795
  323.0000     5.6663     5.5291     5.5381  -100.1963   120.5732
  323.5000     5.7046     5.6052     5.6621   -99.9026   119.2731
  324.0000     5.7027     5.6823     5.7654  -100.0608   117.5237
  324.5000     5.7011     5.7605     5.8203  -100.3698   118.7157
  325.0000     5.6996     5.7591     5.8195  -100.5279   118.3994
  325.5000     5.6981     5.7579     5.8012  -100.6863   117.4798
  326.0000     5.6144     5.6775     5.7242  -100.6952   116.2585
  326.5000     5.5388     5.5981     5.6579  -100.8534   116.5455
  327.0000     5.4991     5.5970     5.6069  -101.0115   116.8326
  327.5000     5.4218     5.5572     5.5253  -101.1697   115.8422
  328.0000     5.3829     5.5560     5.5008  -101.3278   114.3864
  328.5000     5.3815     5.4781     5.4620  -101.3351   114.9750
  329.0000     5.3800     5.4392     5.4547  -101.4933   117.0720
  329.5000     5.3786     5.4381     5.3681  -101.6516   118.2640
  330.0000     5.4146     5.4370     5.3473  -101.8114   119.1544
  330.5000     5.4887     5.5121     5.3465  -101.9696   118.8381
  331.0000     5.5254     5.5491     5.5553  -101.9769   114.9019
  331.5000     5.6397     5.5866     6.5813  -101.9842   109.9047
  332.0000     5.6778     5.6243     7.3309  -101.9915   102.8026
  332.5000     5.6759     5.7017     7.0983  -101.9989   100.3747
  333.0000     5.6744     5.7402     6.2236  -102.0062   103.9800
  333.5000     5.7521     5.7790     5.6763  -102.0136   111.2052
  334.0000     5.8309     5.7776     5.5088  -102.0211   115.1121
  334.5000     5.8289     5.8169     5.6086  -102.0300   113.5892
  335.0000     5.8683     5.8736     5.7632  -102.0373   114.7812
  335.5000     5.9076     5.8955     5.8216  -102.1954   115.6983
  336.0000     5.9885     5.9766     5.9399  -102.2028   115.9585
  336.5000     6.0285     6.0589     6.0429  -102.2101   117.1469
  337.0000     6.1107     6.0998     6.1311  -102.2174   117.7392
  337.5000     6.1515     6.2265     6.1859  -102.3756   115.9110
  338.0000     6.1495     6.2252     6.3018  -102.4012   111.0698
  338.5000     6.1478     6.2673     6.3009  -102.5429   109.5469
  339.0000     6.1462     6.2227     6.2564  -102.5502   109.8339
  339.5000     6.1021     6.2214     6.1676  -102.1032   110.4226
  340.0000     6.0583     6.1345     6.1141  -101.5090   109.8010
  340.5000     5.9732     6.0485     6.0395  -100.9130   107.9764
  341.0000     5.9716     6.0055     5.9670  -100.7692   106.4535
  341.5000     5.8877     5.8806     5.9559  -100.4751   107.9471
  342.0000     5.8047     5.8388     5.9047  -100.3317   112.1557
  342.5000     5.8031     5.7572     5.8535  -100.1777   113.3514
  343.0000     5.7615     5.7163     5.8028   -99.9615   112.7298
  343.5000     5.7201     5.7151     5.7897   -99.7509   111.8100
  344.0000     5.7186     5.7139     5.7822   -99.7601   115.7135
  344.5000     5.7568     5.7125     5.7280   -99.4639   118.4138
  345.0000     5.7553     5.7514     5.6823   -99.3204   117.7958
  345.5000     5.7537     5.7500     5.6281   -99.0279   117.7812
  346.0000     5.7518     5.7488     5.6318   -99.1861   117.7666
  346.5000     5.6711     5.7079     5.6933   -99.1934   116.8469
  347.0000     5.7094     5.7068     5.7675   -99.3515   114.7207
  347.5000     5.7872     5.8256     5.8639   -99.9623   111.3878
  348.0000     5.7856     5.9057     5.9452   -99.8190   111.9765
  348.5000     5.9057     5.9456     5.9443   -99.9774   111.6565
  349.0000     5.9452     5.8623     5.9435  -100.2866   110.1336
  349.5000     5.9432     5.8611     5.9425  -100.4464   108.3090
  350.0000     5.8705     5.8599     5.9005  -100.9062   106.4837
  350.5000     5.7781     5.8582     5.8164  -101.2152   105.1238
  351.0000     5.8171     5.8566     5.7652  -101.2225   106.3139
  351.5000     5.8565     5.9368     5.7346  -101.2298   108.1460
  352.0000     5.8960     6.0181     5.7330  -101.0845   109.3058
  352.5000     5.9359     6.0165     5.7314  -100.7920   107.4748
  353.0000     6.0173     6.0989     5.8273  -100.4897   106.2518
  353.5000     6.0579     6.1397     5.9642   -99.9016   105.6329
  354.0000     6.0567     6.1376     6.1115  -100.0024   107.4310
  354.5000     6.0554     6.0935     6.2218  -100.1100   110.1354
  355.0000     6.0121     6.0080     6.1703   -99.5154   111.0272
  355.5000     5.9281     5.9236     6.0993   -98.6250   110.7100
  356.0000     5.8048     5.8405     5.9940   -98.3348   111.5984
  356.5000     5.7237     5.7187     5.8794   -98.3469   112.4901
  357.0000     5.6047     5.6734     5.7886   -97.9088   113.9860
  357.5000     5.5649     5.6365     5.6755   -97.6188   115.1799
  358.0000     5.4871     5.5573     5.5740   -97.1780   113.3526
  358.5000     5.4480     5.5174     5.4793   -96.8880   111.2231
  359.0000     5.4091     5.5160     5.4402   -96.5951   110.9064
  359.5000     5.4080     5.5145     5.4982   -96.4589   113.1299
  360.0000     5.4069     5.4749     5.5715   -96.4706   117.5200
  360.5000     5.3684     5.3980     5.6271   -96.4827   117.2032
  361.0000     5.3674     5.3965     5.5483   -96.4969   116.2823
  361.5000     5.4036     5.3948     5.4826   -96.2040   118.0803
  362.0000     5.4401     5.3933     5.3420   -96.0648   117.4615
  362.5000     5.5214     5.3919     5.2301   -95.9257   117.1199
  363.0000     5.5909     5.4657     5.0995   -95.4878   118.3525
  363.5000     5.6679     5.5026     5.0631   -95.3486   115.6012
  364.0000     5.6664     5.5391     5.8549   -95.2095   108.6379
  364.5000     5.7050     5.6540     6.7244   -95.5257   102.8831
  365.0000     5.7433     5.7367     7.0568   -95.9899   100.4516
  365.5000     5.8223     5.8099     5.8500   -96.3032   106.4792
  366.0000     5.8616     5.8488     5.6219   -96.7674   113.7154
  366.5000     5.8602     5.8875     5.5927   -96.7791   115.0539
