~VERSION INFORMATION
 VERS.                2.0:   CWLS LOG ASCII STANDARD - VERSION 2.0
 WRAP.                 NO:   ONE LINE PER DEPTH STEP
~WELL INFORMATION
#MNEM.UNIT      DATA TYPE    INFORMATION
#----------   ------------   ------------------------------
 STRT.F          420.0000:   START DEPTH
 STOP.F         1937.0000:   STOP DEPTH
 STEP.F            0.5000:   STEP LENGTH
 NULL.          -999.2500:   NO VALUE
 COMP. LAWRENCE/ALLISON INC:   COMPANY
 WELL.      85 "X" #85-29:   WELL
 FLD .             TEAPOT:   FIELD
 LOC .      S29 T39N R78W:   LOCATION
 CNTY.            NATRONA:   COUNTY
 STAT.            WYOMING:   STATE
 CTRY. UNITED STATES OF AMERICA:   COUNTRY
 SRVC.            Unknown:   SERVICE COMPANY
 DATE.        28-SEP-1987:   LOGDATE
 API .       490251119100:   API NUMBER
~CURVE INFORMATION
#MNEM.UNIT       API CODE    CURVE DESCRIPTION
#----------   ------------   ------------------------------
 DEPT.F                  :   
 ROP .FT/HR  91 810 01 00:   RAT OF DRILLING PENETRATION
 TGAS.TC/CC  91 830 01 00:   TOTAL GAS UNIT
~PARAMETER INFORMATION
#MNEM.UNIT          VALUE    DESCRIPTION
#----------   ------------   ------------------------------
 DATE.        28-SEP-1987:   RUN DATE
 BLI .F              1937:   BOTTOM LOG INTERVAL
 TLI .F               420:   TOP LOG INTERVAL
 LUN .              T-146:   LOGGING UNIT NUMBER
 CLNT.            A2DTECH:   CLIENT CODE
 ORIG.           5" PRINT:   ORIGIN OF DATA
 UWI .       490251119100:   UNIQUE WELL ID
 DICO. A2D Technologies, Inc.:   DIGITIZING COMPANY
~OTHER INFORMATION
~A   DEPT        ROP       TGAS 
# ...
  663.0000     0.2732     0.9576
  663.5000     0.2734     0.9650
  664.0000     0.2736     0.5909
  664.5000     0.2738     0.6002
  665.0000     0.2740     0.6077
  665.5000     0.2742     0.9949
  666.0000     0.2744     1.3823
  666.5000     0.2746     1.3914
  667.0000     0.2747     1.3975
  667.5000     0.2749     1.4063
  668.0000     0.2751     1.4137
  668.5000     0.2753     1.4212
  669.0000     0.2755     1.4286
  669.5000     0.2757     1.4361
  670.0000     0.2759     1.4435
  670.5000     0.2762     1.8307
  671.0000     0.2765     1.8618
  671.5000     0.2768     1.8945
  672.0000     0.2771     1.9271
  672.5000     0.2774     1.9597
  673.0000     0.2777     1.9924
  673.5000     0.2780     2.0250
  674.0000     0.2783     2.0576
  674.5000     0.2787     2.0903
  675.0000     0.2790     2.1229
  675.5000     0.2793     2.1555
  676.0000     0.2796     2.1882
  676.5000     0.2799     2.2208
  677.0000     0.2802     2.2534
  677.5000     0.2805     2.2861
  678.0000     0.2808     2.3187
  678.5000     0.2812     2.3513
  679.0000     0.2815     2.3840
  679.5000     0.2818     2.4166
  680.0000     0.2821     2.4492
  680.5000     0.2824     2.4818
  681.0000     0.2827     2.5145
  681.5000     0.2830     2.5471
  682.0000     0.2834     2.5797
  682.5000     0.2837     2.6124
  683.0000     0.2840     2.6450
  683.5000     0.2843     2.6776
  684.0000     0.2846     2.7103
  684.5000     0.2849     2.7429
  685.0000     0.2852     2.7755
  685.5000     0.2855     2.8082
  686.0000     0.2859     2.8325
  686.5000     0.2862     2.8517
  687.0000     0.2865     2.8708
  687.5000     0.2868     2.8900
  688.0000     0.2871     2.9092
  688.5000     0.2874     2.9284
  689.0000     0.2877     2.9475
  689.5000     0.2875     2.9667
  690.0000     0.2873     2.9859
  690.5000     0.2871     3.0051
  691.0000     0.2870     3.0242
  691.5000     0.2868     3.0434
  692.0000     0.2866     3.0626
  692.5000     0.2864     3.0818
  693.0000     0.2862     3.1010
  693.5000     0.2860     3.1201
  694.0000     0.2858     3.1393
  694.5000     0.2856     3.1585
  695.0000     0.2854     3.1777
  695.5000     0.2853     3.1968
  696.0000     0.2851     3.2160
  696.5000     0.2849     3.2352
  697.0000     0.2847     3.2544
  697.5000     0.2845     3.2735
  698.0000     0.2843     3.2927
  698.5000     0.2841     3.3119
  699.0000     0.2839     3.3311
  699.5000     0.2837     3.3502
  700.0000     0.2836     3.3694
  700.5000     0.2834     3.3886
  701.0000     0.2832     3.4078
  701.5000     0.2830     3.4270
  702.0000     0.2828     3.4494
  702.5000     0.2826     3.4556
  703.0000     0.2824     3.4630
  703.5000     0.2822     3.4705
  704.0000     0.2820     3.4779
  704.5000     0.2819     3.4854
  705.0000     0.2817     3.4928
  705.5000     0.2815     3.5003
  706.0000     0.2815     3.5077
  706.5000     0.2814     3.5151
  707.0000     0.2814     3.5226
  707.5000     0.2813     3.5300
  708.0000     0.2812     3.5375
  708.5000     0.2812     3.5449
  709.0000     0.2811     3.5524
  709.5000     0.2811     3.5598
  710.0000     0.2810     3.5673
  710.5000     0.2810     3.5747
  711.0000     0.2809     3.5822
  711.5000     0.2809     3.5896
  712.0000     0.2808     3.5971
  712.5000     0.2808     3.6045
  713.0000     0.2807     3.6000
  713.5000     0.2806     3.5924
  714.0000     0.2806     3.5848
  714.5000     0.2805     3.5772
  715.0000     0.2805     3.5696
  715.5000     0.2804     3.5620
  716.0000     0.2804     3.5544
  716.5000     0.2803     3.5468
  717.0000     0.2803     3.5392
  717.5000     0.2802     3.5316
  718.0000     0.2801     3.5241
  718.5000     0.2802     3.5165
  719.0000     0.2804     3.5089
  719.5000     0.2806     3.5013
  720.0000     0.2807     3.4937
  720.5000     0.2809     3.4861
  721.0000     0.2811     3.4785
  721.5000     0.2812     3.4709
  722.0000     0.2814     3.4633
  722.5000     0.2815     3.4557
  723.0000     0.2817     3.4481
  723.5000     0.2819     3.4405
  724.0000     0.2820     3.4329
  724.5000     0.2822     3.4253
  725.0000     0.2824     3.4177
  725.5000     0.2825     3.4101
  726.0000     0.2827     3.4025
  726.5000     0.2829     3.3949
  727.0000     0.2830     3.3873
  727.5000     0.2832     3.3797
  728.0000     0.2833     3.3722
  728.5000     0.2835     3.3717
  729.0000     0.2837     3.3749
  729.5000     0.2838     3.3781
  730.0000     0.2840     3.3814
  730.5000     0.2842     3.3846
  731.0000     0.2843     3.3878
  731.5000     0.2845     3.3910
  732.0000     0.2846     3.3943
  732.5000     0.2848     3.3975
  733.0000     0.2850     3.4007
  733.5000     0.2851     3.4039
  734.0000     0.2853     3.4072
  734.5000     0.2855     3.4104
  735.0000     0.2856     3.4136
  735.5000     0.2858     3.4168
  736.0000     0.2859     3.4201
  736.5000     0.2861     3.4233
  737.0000     0.2860     3.4265
  737.5000     0.2859     3.4298
  738.0000     0.3803     3.4330
  738.5000     0.3992     3.4362
  739.0000     0.3896     3.4394
  739.5000     0.3800     3.4427
  740.0000     0.3800     3.4459
  740.5000     0.3893     3.4491
  741.0000     0.3987     3.4523
  741.5000     0.4081     3.4556
  742.0000     0.4076     3.4588
  742.5000     0.4072     3.4620
  743.0000     0.4068     3.4653
  743.5000     0.4064     3.4685
  744.0000     0.4060     3.4717
  744.5000     0.4056     3.4749
  745.0000     0.4052     3.4782
  745.5000     0.4049     3.4814
  746.0000     0.4045     3.4785
  746.5000     0.4041     3.4709
  747.0000     0.4037     3.4633
  747.5000     0.4033     3.4557
  748.0000     0.4029     3.4481
  748.5000     0.4025     3.4405
  749.0000     0.4021     3.4329
  749.5000     0.4017     3.4253
  750.0000     0.4013     3.4177
  750.5000     0.4009     3.4101
  751.0000     0.4006     3.4025
  751.5000     0.4002     3.3949
  752.0000     0.3998     3.3873
  752.5000     0.3994     3.3797
  753.0000     0.3990     3.3722
  753.5000     0.3986     3.3646
  754.0000     0.3982     3.3570
  754.5000     0.3978     3.3494
  755.0000     0.3974     3.3418
  755.5000     0.3970     3.3342
  756.0000     0.3967     3.3266
  756.5000     0.3963     3.3190
  757.0000     0.3959     3.3114
  757.5000     0.3956     3.3038
  758.0000     0.3957     3.2962
  758.5000     0.3957     3.2886
  759.0000     0.3958     3.2810
  759.5000     0.3958     3.2734
  760.0000     0.3959     3.2658
  760.5000     0.3959     3.6367
  761.0000     0.3960     3.6988
  761.5000     0.3960     4.0033
  762.0000     0.3961     3.9939
  762.5000     0.3962     4.3680
  763.0000     0.3962     3.9789
  763.5000     0.3963     3.9714
  764.0000     0.3963     3.9639
  764.5000     0.3964     3.9564
  765.0000     0.3964     3.9489
  765.5000     0.3965     3.9414
  766.0000     0.3966     3.9339
  766.5000     0.3966     4.2564
  767.0000     0.3967     4.1411
  767.5000     0.3967     4.0258
  768.0000     0.3968     3.9104
  768.5000     0.3968     3.7951
  769.0000     0.3969     3.6797
  769.5000     0.3969     3.5644
  770.0000     0.3971     3.4490
  770.5000     0.3973     3.3300
  771.0000     0.3975     2.9391
  771.5000     0.3977     2.9278
  772.0000     0.3979     2.9165
  772.5000     0.3981     2.5253
  773.0000     0.3983     2.8915
  773.5000     0.3985     2.5005
  774.0000     0.3987     2.4893
  774.5000     0.3989     2.8579
  775.0000     0.3991     2.8467
  775.5000     0.3993     2.8355
  776.0000     0.3995     2.8243
  776.5000     0.3997     2.8131
  777.0000     0.3999     2.8019
  777.5000     0.4001     2.7907
  778.0000     0.4003     2.7795
  778.5000     0.4005     2.7683
  779.0000     0.4007     2.7570
  779.5000     0.4009     2.7456
  780.0000     0.4011     2.7319
  780.5000     0.4013     2.7207
  781.0000     0.4015     2.7095
  781.5000     0.4017     2.6983
  782.0000     0.4019     2.6886
  782.5000     0.4021     2.6772
  783.0000     0.4023     2.6658
  783.5000     0.4025     2.6544
  784.0000     0.4027     2.6430
