~VERSION INFORMATION
 VERS.                2.0:   CWLS LOG ASCII STANDARD - VERSION 2.0
 WRAP.                 NO:   ONE LINE PER DEPTH STEP
~WELL INFORMATION
#MNEM.UNIT      DATA TYPE    INFORMATION
#----------   ------------   ------------------------------
 STRT.F           44.0000:   START DEPTH
 STOP.F          485.0000:   STOP DEPTH
 STEP.F            0.5000:   STEP LENGTH
 NULL.          -999.2500:   NO VALUE
 COMP. LAWRENCE/ALLISON INC:   COMPANY
 WELL.      NPR 3 #55-51S:   WELL
 FLD .             TEAPOT:   FIELD
 LOC .       S3 T38N R78W:   LOCATION
 CNTY.            NATRONA:   COUNTY
 STAT.            WYOMING:   STATE
 CTRY. UNITED STATES OF AMERICA:   COUNTRY
 SRVC.      Dresser Atlas:   SERVICE COMPANY
 DATE.        12-DEC-1983:   LOGDATE
 API .       490251095400:   API NUMBER
~CURVE INFORMATION
#MNEM.UNIT       API CODE    CURVE DESCRIPTION
#----------   ------------   ------------------------------
 DEPT.F                  :   
 CALR.IN     10 280 01 00:   CALIPER FROM RESISTIVITY
 RATI.CMP    99 420 01 00:   RATIO
 RES .OHMM   10 220 00 00:   RESISTIVITY
 DEC .       99 000 00 00:   DEC
 P6  .G/C3   99 000 00 00:   P6
 PHAS.       99 000 00 00:   PHASE
 PORE.DEC    99 890 00 00:   PORE
~PARAMETER INFORMATION
#MNEM.UNIT          VALUE    DESCRIPTION
#----------   ------------   ------------------------------
 PD  .                 GL:   PERMANENT DATUM
 EPD .F              5161:   ELEVATION PERMANENT DATUM
 LMF .                 KB:   LOG MEASURED FROM
 DAPD.F                10:   FEET ABOVE PERMANENT DATUM
 DMF .                 KB:   DRILLING MEASURED FROM
 EKB .F              5171:   KELLING BUSHING
 EGL .F              5161:   GROUND LEVEL
 DATE.        12-DEC-1983:   RUN DATE
 RUN .                  1:   RUN NUMBER
 DD  .F               490:   DEPTH DRILLER
 DL  .F               489:   DEPTH LOGGER
 BLI .F               487:   BOTTOM LOG INTERVAL
 TLI .F                 0:   TOP LOG INTERVAL
 CS  .IN            10.75:   CASING SIZE
 CBD .F                52:   CASING BOTTOM DRILLER
 CBL .F                46:   CASING BOTTOM LOGGER
 BS  .IN             8.75:   BIT SIZE
 BSD .F               490:   BIT SIZE AT DEPTH
 DFT .           AIR FOAM:   DRILLING FLUID TYPE
 TCS .HRS               3:   TIME CURCULATED STOPPED
 MRT .F                72:   MAXIMUM RECORDED TEMPERATURE
 LUN .               6274:   LOGGING UNIT NUMBER
 LUL .               GLTE:   LOGGING UNIT LOCATION
 ENGI.             RAUTIO:   RECORDING ENGINEER
 WITN.             GROOMS:   WITNESSED BY
 CLNT.            A2DTECH:   CLIENT CODE
 ORIG.           5" PRINT:   ORIGIN OF DATA
 UWI .       490251095400:   UNIQUE WELL ID
 DICO. A2D Technologies, Inc.:   DIGITIZING COMPANY
~OTHER INFORMATION
~A   DEPT      CALR        RATI        RES       DEC          P6      PHAS        PORE 
# ...
  226.0000     9.2157     0.2981     6.7278    42.6598     2.4446    84.8269     0.5976
  226.5000     9.2152     0.3087     7.1090    43.0368     2.4508    83.2098     0.5985
  227.0000     9.2297     0.3163     7.5120    42.5107     2.4571    82.1342     0.5993
  227.5000     9.2291     0.3193     7.7267    41.9843     2.4657    81.2120     0.6000
  228.0000     9.2285     0.3223     7.8269    41.1567     2.4755    80.1323     0.6000
  228.5000     9.2127     0.3224     7.8251    40.1032     2.4679    78.9090     0.5973
  229.0000     9.2121     0.3209     7.8233    39.0497     2.4641    78.0137     0.5855
  229.5000     9.1964     0.3178     7.6083    37.3939     2.4611    77.4777     0.5674
  230.0000     9.1806     0.3105     7.1974    35.6627     2.4665    76.9451     0.5493
  230.5000     9.1647     0.3041     6.9514    33.9947     2.4750    76.9522     0.5294
  231.0000     9.1641     0.2986     6.8074    32.5046     2.4758    76.7770     0.5059
  231.5000     9.1635     0.2896     6.6203    30.3187     2.4751    76.6054     0.4847
  232.0000     9.1629     0.2807     6.3917    29.1899     2.4743    76.6124     0.4642
  232.5000     9.1623     0.2687     6.2183    28.1364     2.4690    76.2585     0.4488
  233.0000     9.1769     0.2612     6.1740    27.0076     2.4644    75.8767     0.4334
  233.5000     9.1611     0.2538     5.9629    25.5023     2.4621    75.0112     0.3982
  234.0000     9.1605     0.2402     5.7195    23.6205     2.4584    74.4769     0.3440
  234.5000     9.1623     0.2249     5.3733    20.3833     2.4546    74.3018     0.2889
  235.0000     9.1897     0.2119     4.8765    17.3720     2.4447    74.6715     0.2293
  235.5000     9.2043     0.1969     4.3952    13.8336     2.4333    75.9417     0.1904
  236.0000     9.2036     0.1834     4.1007    11.2299     2.4226    77.0314     0.1073
  236.5000     9.2030     0.1730     3.9606     8.5640     2.4011    79.0234     0.0793
  237.0000     9.1872     0.1700     3.8252    10.3721     2.3705    81.3763     0.0858
  237.5000     9.1866     0.1715     4.0980    18.4301     2.3406    86.1353     0.3805
  238.0000     9.2012     0.2046     4.9382    37.5573     2.3537    90.9005     0.5862
  238.5000     9.2006     0.2572     5.7883    45.8522     2.3821    92.7659     0.6000
  239.0000     9.2000     0.2875     6.2878    43.5828     2.4156    86.4589     0.6000
  239.5000     9.1993     0.2948     6.6441    41.3848     2.4615    83.2178     0.5986
  240.0000     9.1987     0.2964     6.8294    40.1004     2.4682    81.7813     0.5922
  240.5000     9.1981     0.2979     6.9228    39.5941     2.4621    80.8861     0.5895
  241.0000     9.1975     0.2980     6.9213    39.7456     2.4568    80.7109     0.5912
  241.5000     9.1969     0.2995     6.8248    40.1982     2.4545    81.2611     0.5975
  242.0000     9.2115     0.2996     6.6763    41.1025     2.4584    83.2531     0.5992
  242.5000     9.2109     0.2996     6.4546    41.5549     2.4623    83.9819     0.5991
  243.0000     9.2255     0.3012     6.3647    39.6732     2.4662    82.5011     0.5919
  243.5000     9.2096     0.3012     6.3634    39.5985     2.4624    81.1105     0.5855
  244.0000     9.2090     0.3028     6.4507    39.7500     2.4586    80.9354     0.5890
  244.5000     9.1932     0.3043     6.6303    40.2779     2.4556    81.6660     0.5980
  245.0000     9.1926     0.3059     6.7216    40.8961     2.4541    82.3948  -999.2500
  245.5000     9.1921     0.3074     6.7199    41.5836     2.4550    82.5823  -999.2500
  246.0000     9.1763     0.3083     6.8121    42.2381     2.4639    82.7698  -999.2500
  246.5000     9.1605     0.3135     6.9103    42.7659     2.4703    82.7769  -999.2500
  247.0000     9.1448     0.3181     7.1963    43.6703     2.4696    82.9644  -999.2500
  247.5000     9.1442     0.3226     7.2451    44.8758     2.4666    83.3323  -999.2500
  248.0000     9.1434     0.3241     7.0946    45.1778     2.4636    83.3396  -999.2500
  248.5000     9.1277     0.3107     6.8997    44.1996     2.4613    83.3482  -999.2500
  249.0000     9.0967     0.3032     6.7101    43.3720     2.4598    83.1730  -999.2500
  249.5000     9.0810     0.3018     6.6166    41.4902     2.4599    82.9996  -999.2500
  250.0000     9.0652     0.3018     6.6611    41.4910     2.4614    82.8262  -999.2500
  250.5000     9.0646     0.3017     6.7526    41.4094     2.4645    82.6528  -999.2500
  251.0000     9.0943     0.2974     6.8472    40.8902     2.4677    81.3984  -999.2500
  251.5000     9.1091     0.2944     6.8913    38.8578     2.4716    80.1423     0.5881
  252.0000     9.1236     0.2945     6.7481    34.9429     2.4762    78.7057     0.5411
  252.5000     9.1381     0.2900     6.4280    32.0069     2.4724    76.9083     0.4905
  253.0000     9.1375     0.2705     5.9973    28.9956     2.4717    76.1935     0.4580
  253.5000     9.1521     0.2526     5.6734    26.2855     2.4733    76.2023     0.4172
  254.0000     9.1667     0.2406     5.2933    23.5753     2.4764    76.5703     0.3815
  254.5000     9.1812     0.2361     5.1124    22.3472     2.4672    77.2991     0.3513
  255.0000     9.1958     0.2437     5.0761    25.6100     2.4374    79.6520     0.4180
  255.5000     9.2104     0.2530     5.1815    29.2612     2.4060    88.5012     0.4802
  256.0000     9.2097     0.2618     5.4033    38.6548     2.3968    88.5082     0.5884
  256.5000     9.2091     0.2649     5.7056    34.3423     2.4076    82.0190     0.5576
  257.0000     9.1933     0.2589     5.9051    29.0715     2.4207    77.5148     0.4439
  257.5000     9.1927     0.2514     5.6249    26.0510     2.4409    76.2586     0.4178
  258.0000     9.2073     0.2350     5.2119    21.3304     2.4532    76.4463     0.3494
  258.5000     9.2066     0.2035     4.8627    17.0245     2.4622    76.6650     0.2551
  259.0000     9.1908     0.1990     4.5056    15.9707     2.4699    77.9056     0.2451
  259.5000     9.1902     0.2006     4.2623    16.2723     2.4454    80.2586     0.3190
  260.0000     9.1744     0.2006     4.2029    25.9865     2.3841    92.5363     0.5247
  260.5000     9.1587     0.2099     4.3234    39.9176     2.3642    95.6110     0.6000
  261.0000     9.1429     0.2593     4.7723    49.7071     2.3650    95.7985     0.6000
  261.5000     9.1272     0.2743     5.2767    47.7496     2.3789    93.4597     0.5993
  262.0000     9.1266     0.2819     5.8522    39.5422     2.4173    82.4592     0.5830
  262.5000     9.1108     0.2864     6.2271    37.5847     2.4702    81.9249     0.5703
  263.0000     9.0949     0.2895     6.0977    37.2076     2.4772    81.3906     0.5576
  263.5000     9.0791     0.2880     6.0964    36.6673     2.4733    81.0090     0.5540
  264.0000     9.0634     0.2896     6.6225    36.0799     2.4673    79.4215     0.5539
  264.5000     9.0476     0.2881     6.8127    35.4025     2.4658    77.6240     0.5286
  265.0000     9.0622     0.2833     6.6199    33.9722     2.4720    75.4656     0.4816
  265.5000     9.0919     0.2717     6.3019    28.1744     2.4751    74.2095     0.4391
  266.0000     9.0713     0.2477     6.0063    25.1627     2.4713    74.0343     0.3795
  266.5000     9.0705     0.2192     5.6820    22.1510     2.4698    74.0432     0.3343
  267.0000     9.0850     0.1922     5.1211    17.9345     2.4707    74.0502     0.1980
  267.5000     9.0994     0.1817     3.9370     9.8777     2.4707    76.7640     0.0788
  268.0000     9.1138     0.1893     3.8554     9.2738     2.4385    87.4895     0.3305
  268.5000     9.1454     0.1984     3.8813    23.3573     2.3972    91.7808     0.4026
  269.0000     9.1730     0.2014     4.2455    32.6654     2.3972    91.9430     0.5153
  269.5000     9.1873     0.2216     5.1872    34.4185     2.4004    84.7338     0.5285
  270.0000     9.2169     0.2703     5.6374    43.7651     2.4456    88.3499     0.5934
  270.5000     9.2161     0.2961     5.9598    45.6480     2.4637    87.6351  -999.2500
  271.0000     9.2154     0.3037     6.1195    46.0248     2.4795    85.4767  -999.2500
