~VERSION INFORMATION
 VERS.                2.0:   CWLS LOG ASCII STANDARD - VERSION 2.0
 WRAP.                 NO:   ONE LINE PER DEPTH STEP
~WELL INFORMATION
#MNEM.UNIT      DATA TYPE    INFORMATION
#----------   ------------   ------------------------------
 STRT.F           52.5000:   START DEPTH
 STOP.F         2929.0000:   STOP DEPTH
 STEP.F            0.5000:   STEP LENGTH
 NULL.          -999.2500:   NO VALUE
 COMP.   FLUOR DANIEL INC:   COMPANY
 WELL. NAVAL PETROLEUM RESERVE 3 X-23 #52-23:   WELL
 FLD .            WILDCAT:   FIELD
 LOC .      S23 T38N R78W:   LOCATION
 CNTY.            NATRONA:   COUNTY
 STAT.            WYOMING:   STATE
 CTRY. UNITED STATES OF AMERICA:   COUNTRY
 SRVC.            Unknown:   SERVICE COMPANY
 DATE.        23-APR-1995:   LOGDATE
 API .       490252271500:   API NUMBER
~CURVE INFORMATION
#MNEM.UNIT       API CODE    CURVE DESCRIPTION
#----------   ------------   ------------------------------
 DEPT.F                  :   
 ROP .MIN/FT 91 810 01 00:   RAT OF DRILLING PENETRATION
 TGAS.UNITS  91 830 01 00:   TOTAL GAS FROM HOTWIRE
~PARAMETER INFORMATION
#MNEM.UNIT          VALUE    DESCRIPTION
#----------   ------------   ------------------------------
 EKB .F              5344:   KELLING BUSHING
 EGL .F              5334:   GROUND LEVEL
 DATE.            4-23-95:   RUN DATE
 DD  .F              2929:   DEPTH DRILLER
 CS  .IN            9.625:   CASING SIZE
 CBD .F                53:   CASING BOTTOM DRILLER
 BS  .IN             8.75:   BIT SIZE
 BSD .F              2929:   BIT SIZE AT DEPTH
 ENGI.              TOWER:   RECORDING ENGINEER
 WITN.               HUSK:   WITNESSED BY
 CLNT.            A2DTECH:   CLIENT CODE
 ORIG.           5" PRINT:   ORIGIN OF DATA
 UWI .       490252271500:   UNIQUE WELL ID
 DICO. A2D Technologies, Inc.:   DIGITIZING COMPANY
~OTHER INFORMATION
~A   DEPT        ROP     TGAS   
# ...
  295.5000     0.5719     2.1424
  296.0000     0.5735     2.1679
  296.5000     0.5750     2.1934
  297.0000     0.5765     2.2189
  297.5000     0.5781     2.2443
  298.0000     0.5796     2.2698
  298.5000     0.5812     2.2953
  299.0000     0.5827     2.3208
  299.5000     0.5842     2.3463
  300.0000     0.5858     2.3590
  300.5000     0.5826     2.3559
  301.0000     0.5794     2.3528
  301.5000     0.5763     2.3498
  302.0000     0.5731     2.3467
  302.5000     0.5699     2.3436
  303.0000     0.5667     2.3405
  303.5000     0.5636     2.3374
  304.0000     0.5604     2.3344
  304.5000     0.5572     2.3313
  305.0000     0.5540     2.3282
  305.5000     0.5509     2.3251
  306.0000     0.5477     2.3220
  306.5000     0.5445     2.3190
  307.0000     0.5413     2.3159
  307.5000     0.5382     2.3128
  308.0000     0.5350     2.3097
  308.5000     0.5318     2.3066
  309.0000     0.5286     2.3036
  309.5000     0.5255     2.3005
  310.0000     0.5223     2.2974
  310.5000     0.5191     2.2943
  311.0000     0.5161     2.2912
  311.5000     0.5154     2.2882
  312.0000     0.5041     2.2851
  312.5000     0.4720     2.2808
  313.0000     0.4712     2.2307
  313.5000     0.4703     2.1806
  314.0000     0.4696     2.1305
  314.5000     0.4688     2.0804
  315.0000     0.4680     2.0302
  315.5000     0.4673     1.9801
  316.0000     0.4665     1.9300
  316.5000     0.4656     1.8799
  317.0000     0.4648     1.8298
  317.5000     0.4641     1.7797
  318.0000     0.4633     1.7296
  318.5000     0.4626     1.7240
  319.0000     0.4618     1.7823
  319.5000     0.4609     1.8405
  320.0000     0.4603     1.8988
  320.5000     0.4609     1.9571
  321.0000     0.4614     2.0153
  321.5000     0.4619     2.0736
  322.0000     0.4624     2.1319
  322.5000     0.4630     2.1892
  323.0000     0.4635     2.2443
  323.5000     0.4640     2.2994
  324.0000     0.4645     2.3545
  324.5000     0.4651     2.4096
  325.0000     0.4656     2.4647
  325.5000     0.4661     2.5198
  326.0000     0.4666     2.5776
  326.5000     0.4671     2.4303
  327.0000     0.4677     2.2756
  327.5000     0.4682     2.1209
  328.0000     0.4687     1.9662
  328.5000     0.4692     1.8115
  329.0000     0.4698     1.6568
  329.5000     0.4703     1.5021
  330.0000     0.4708     1.3474
  330.5000     0.4713     1.1927
  331.0000     0.4718     1.0740
  331.5000     0.4724     1.0740
  332.0000     0.4729     1.0740
  332.5000     0.4734     1.0740
  333.0000     0.4739     1.0740
  333.5000     0.4744     1.0740
  334.0000     0.4750     1.0740
  334.5000     0.4755     1.0740
  335.0000     0.4760     1.0740
  335.5000     0.4765     1.0740
  336.0000     0.4771     1.0740
  336.5000     0.4776     1.0740
  337.0000     0.4781     1.0740
  337.5000     0.4786     1.0740
  338.0000     0.4791     1.0740
  338.5000     0.4797     1.1237
  339.0000     0.4802     1.1819
  339.5000     0.4807     1.2400
  340.0000     0.4810     1.2981
  340.5000     0.4804     1.3563
  341.0000     0.4798     1.4144
  341.5000     0.4792     1.4725
  342.0000     0.4785     1.5307
  342.5000     0.4779     1.5888
  343.0000     0.4773     1.6469
  343.5000     0.4767     1.7051
  344.0000     0.4761     1.7184
  344.5000     0.4755     1.7184
  345.0000     0.4749     1.7184
  345.5000     0.4743     1.7184
  346.0000     0.4737     1.7184
  346.5000     0.4731     1.7176
  347.0000     0.4725     1.7072
  347.5000     0.4719     1.6968
  348.0000     0.4713     1.6864
  348.5000     0.4707     1.6759
  349.0000     0.4701     1.6655
  349.5000     0.4695     1.6551
  350.0000     0.4689     1.6447
  350.5000     0.4683     1.6342
  351.0000     0.4677     1.6238
  351.5000     0.4671     1.6134
  352.0000     0.4665     1.6030
  352.5000     0.4659     1.5926
  353.0000     0.4653     1.5821
  353.5000     0.4647     1.5717
  354.0000     0.4641     1.5613
  354.5000     0.4635     1.5509
  355.0000     0.4629     1.5404
  355.5000     0.4623     1.5300
  356.0000     0.4617     1.5196
  356.5000     0.4611     1.5092
  357.0000     0.4605     1.5175
  357.5000     0.4603     1.5473
  358.0000     0.5649     1.5772
  358.5000     0.5649     1.6071
  359.0000     0.5649     1.6369
  359.5000     0.5649     1.6668
  360.0000     0.5649     1.6967
  360.5000     0.5649     1.7265
  361.0000     0.5649     1.7564
  361.5000     0.5649     1.7863
  362.0000     0.5649     1.8161
  362.5000     0.5649     1.8460
  363.0000     0.5649     1.8759
  363.5000     0.5649     1.9057
  364.0000     0.5649     1.9332
  364.5000     0.5649     1.9080
  365.0000     0.5649     1.8847
  365.5000     0.5649     1.8614
  366.0000     0.5649     1.8381
  366.5000     0.5649     1.8149
  367.0000     0.5649     1.7916
  367.5000     0.5649     1.7683
  368.0000     0.5649     1.7450
  368.5000     0.5649     1.7184
  369.0000     0.5649     1.6787
  369.5000     0.5649     1.6324
  370.0000     0.5649     1.5861
  370.5000     0.5649     1.5399
  371.0000     0.5649     1.4936
  371.5000     0.5649     1.4473
  372.0000     0.5649     1.4010
  372.5000     0.5649     1.3547
  373.0000     0.5649     1.3085
  373.5000     0.5649     1.2622
  374.0000     0.5649     1.2159
  374.5000     0.4806     1.1696
  375.0000     0.4498     1.1233
  375.5000     0.4498     1.0740
  376.0000     0.4498     1.0563
  376.5000     0.4498     1.0374
  377.0000     0.4498     1.0185
  377.5000     0.4498     0.9995
  378.0000     0.4498     0.9806
  378.5000     0.4498     0.9617
  379.0000     0.4498     0.9427
  379.5000     0.4498     0.9238
  380.0000     0.4392     0.9049
  380.5000     0.4387     0.8860
  381.0000     0.4382     0.8670
  381.5000     0.4377     0.8472
  382.0000     0.4372     0.8266
  382.5000     0.4366     0.8061
  383.0000     0.4361     0.7856
  383.5000     0.4356     0.7650
  384.0000     0.4351     0.7445
  384.5000     0.4346     0.7240
  385.0000     0.4340     0.7035
  385.5000     0.4335     0.6829
  386.0000     0.4330     0.6624
  386.5000     0.4325     0.6444
  387.0000     0.4320     0.7495
  387.5000     0.4314     0.8432
  388.0000     0.4309     0.9368
  388.5000     0.4304     1.0305
  389.0000     0.4299     1.0811
  389.5000     0.4294     1.0944
  390.0000     0.4288     1.1076
  390.5000     0.4283     1.1209
  391.0000     0.4278     1.1342
  391.5000     0.4273     1.1475
  392.0000     0.4268     1.1608
  392.5000     0.4262     1.1740
  393.0000     0.4257     1.1873
  393.5000     0.4252     1.2006
  394.0000     0.4247     1.2139
  394.5000     0.4242     1.2271
  395.0000     0.4236     1.2404
  395.5000     0.4231     1.2537
  396.0000     0.4226     1.2670
  396.5000     0.4221     1.2803
  397.0000     0.4216     1.2841
  397.5000     0.4210     1.2708
  398.0000     0.4205     1.2576
  398.5000     0.4200     1.2444
  399.0000     0.4195     1.2312
  399.5000     0.4190     1.2180
  400.0000     0.4184     1.2048
  400.5000     0.4197     1.1916
  401.0000     0.4212     1.1784
  401.5000     0.4226     1.1651
  402.0000     0.4241     1.1519
  402.5000     0.4256     1.1387
  403.0000     0.4270     1.1255
  403.5000     0.4285     1.1123
  404.0000     0.4299     1.0991
  404.5000     0.4314     1.0859
  405.0000     0.4329     1.0740
  405.5000     0.4343     1.0740
  406.0000     0.4352     1.0740
  406.5000     0.3834     1.0740
  407.0000     0.3002     1.0740
  407.5000     0.3007     1.0740
  408.0000     0.3013     1.0740
  408.5000     0.3019     1.0740
  409.0000     0.2918     1.0740
  409.5000     0.2924     1.0740
  410.0000     0.2930     1.0740
  410.5000     0.2935     1.0740
  411.0000     0.2940     1.0870
  411.5000     0.2945     1.1241
  412.0000     0.2950     1.1612
  412.5000     0.2955     1.1983
  413.0000     0.2960     1.2354
  413.5000     0.2965     1.2725
  414.0000     0.2972     1.2561
  414.5000     0.2977     1.1977
  415.0000     0.2982     1.1394
  415.5000     0.2987     1.0810
  416.0000     0.2992     1.0226
  416.5000     0.2997     0.9643
