~VERSION INFORMATION
 VERS.                2.0:   CWLS LOG ASCII STANDARD - VERSION 2.0
 WRAP.                 NO:   ONE LINE PER DEPTH STEP
~WELL INFORMATION
#MNEM.UNIT      DATA TYPE    INFORMATION
#----------   ------------   ------------------------------
 STRT.F           27.0000:   START DEPTH
 STOP.F          566.0000:   STOP DEPTH
 STEP.F            0.5000:   STEP LENGTH
 NULL.          -999.2500:   NO VALUE
 COMP.    FENIX & SCISSON:   COMPANY
 WELL. S-3 NPR #3 #86-S-3:   WELL
 FLD .             TEAPOT:   FIELD
 LOC .       S3 T38N R78W:   LOCATION
 CNTY.            NATRONA:   COUNTY
 STAT.            WYOMING:   STATE
 CTRY. UNITED STATES OF AMERICA:   COUNTRY
 SRVC.       Schlumberger:   SERVICE COMPANY
 DATE.        08-APR-1977:   LOGDATE
 API .       490251032900:   API NUMBER
~CURVE INFORMATION
#MNEM.UNIT       API CODE    CURVE DESCRIPTION
#----------   ------------   ------------------------------
 DEPT.F                  :   
 CALD.IN     45 280 60 00:   CALIPER FROM DENSITY LOG
 GRD .GAPI   45 310 01 00:   GAMMA RAY FROM DENSITY LOG
 CORR.G/C3   45 356 01 00:   DENSITY CORRECTION
 RHOB.G/C3   45 350 01 00:   BULK DENSITY
 DPHI.DEC    45 890 12 00:   DENSITY POROSITY SANDSTONE
 SPR .MV     07 010 01 00:   SPONTANEOUS POTENTIAL
 ILD .OHMM   07 120 46 00:   INDUCTION LOG DEEP
 ILM .OHMM   07 120 44 00:   INDUCTION LOG MEDIUM
 LL8 .OHMM   07 220 08 00:   LATEROLOG-8 RES.
~PARAMETER INFORMATION
#MNEM.UNIT          VALUE    DESCRIPTION
#----------   ------------   ------------------------------
 PD  .                 GL:   PERMANENT DATUM
 EPD .F              5147:   ELEVATION PERMANENT DATUM
 LMF .                 KB:   LOG MEASURED FROM
 DMF .                 KB:   DRILLING MEASURED FROM
 EGL .F              5147:   GROUND LEVEL
 DATE.        08-APR-1977:   RUN DATE
 RUN .                  1:   RUN NUMBER
 DD  .F               570:   DEPTH DRILLER
 DL  .F               567:   DEPTH LOGGER
 BLI .F               566:   BOTTOM LOG INTERVAL
 TLI .F                27:   TOP LOG INTERVAL
 CS  .IN            8.625:   CASING SIZE
 CBD .F                40:   CASING BOTTOM DRILLER
 CBL .F                33:   CASING BOTTOM LOGGER
 BS  .IN            7.875:   BIT SIZE
 BSD .F               570:   BIT SIZE AT DEPTH
 DFT .                KCL:   DRILLING FLUID TYPE
 DFD .                8.6:   DRILLING FLUID DENSITY
 DFV .                 31:   DRILLING FLUID VISCOSITY
 DFPH.                9.5:   DRILLING FLUID PH
 DFL .                8.6:   DRILLING FLUID LOSS
 MSS .           FLOWLINE:   MUD SAMPLE SOURCE
 RMS .OHMM          0.306:   RESISTIVITY MUD SAMPLE
 MST .F                78:   MUD SAMPLE TEMPERATURE
 RMF .OHMM          0.230:   RESISTIVITY MUD FILTRATE SAMPLE
 MFST.F                78:   MUD FILTRATE SAMPLE TEMPERATURE
 MFSS.               MEAS:   MUD FILTRATE SAMPLE SOURCE
 RMB .OHMM          0.341:   RESISTIVITY MUD AT BHT
 BHT .F                70:   BOTTOM HOLE TEMPERATURE
 TCS .HRS              20:   TIME CURCULATED STOPPED
 MRT .F                70:   MAXIMUM RECORDED TEMPERATURE
 LUN .               5642:   LOGGING UNIT NUMBER
 LUL .               CSPR:   LOGGING UNIT LOCATION
 ENGI.             MARTIN:   RECORDING ENGINEER
 WITN.               LYON:   WITNESSED BY
 CLNT.            A2DTECH:   CLIENT CODE
 ORIG.       2", 5" PRINT:   ORIGIN OF DATA
 UWI .       490251032900:   UNIQUE WELL ID
 DICO. A2D Technologies, Inc.:   DIGITIZING COMPANY
~OTHER INFORMATION
~A   DEPT     CALD         GRD      CORR       RHOB       DPHI        SPR        ILD        ILM        LL8   
# ...
  136.5000     8.2449   118.6643     0.0091     2.4454     0.1359   -73.6261     9.0054     9.1537    10.2897
  137.0000     8.2330   120.0277     0.0054     2.4161     0.1293   -73.4684     8.9452     9.0283    10.0178
  137.5000     8.2203   123.3241     0.0109     2.4425     0.1158   -73.1607     8.8240     8.9151     9.9493
  138.0000     8.2240   123.7890     0.0183     2.4607     0.1166   -73.0030     8.8259     8.9164    10.0192
  138.5000     8.2270   121.7203     0.0146     2.4585     0.1172   -72.9955     8.8277     8.9176    10.2306
  139.0000     8.2300   119.9496     0.0184     2.4578     0.1166   -72.5375     8.8295     8.9189    10.3024
  139.5000     8.2329   121.0106     0.0223     2.4609     0.1157   -72.3799     8.8313     8.9201    10.2318
  140.0000     8.2359   121.4754     0.0231     2.4648     0.1136   -72.3724     8.8332     8.9215     9.9529
  140.5000     8.2232   121.4933     0.0232     2.4694     0.1099   -72.0525     8.8350     8.9228     9.6815
  141.0000     8.1964   121.9882     0.0225     2.4762     0.1050   -71.9069     8.8368     8.9240     9.4828
  141.5000     8.0958   123.7794     0.0180     2.4898     0.0883   -72.0656     8.8386     8.9252     9.4836
  142.0000     8.0682   123.2265     0.0279     2.5102     0.0808   -72.3426     8.8405     8.9265     9.4842
  142.5000     8.1017   120.1987     0.0362     2.5134     0.0841   -72.5250     8.8423     8.9277     9.6841
  143.0000     8.1941   119.7934     0.0310     2.5096     0.0999   -73.0784     8.8441     8.9290     9.7522
  143.5000     8.2567   119.3671     0.0281     2.4669     0.1216   -73.5213     8.8460     8.9302     9.7528
  144.0000     8.2597   119.3848     0.0251     2.4550     0.1113   -73.6897     9.0334     8.9936     9.6860
  144.5000     8.2321   118.0612     0.0252     2.4754     0.1131   -73.9845     9.0980     9.1205     9.6868
  145.0000     8.2053   112.5648     0.0253     2.4657     0.1149   -74.0995     9.0999     9.1852     9.9598
  145.5000     8.2090   112.2801     0.0306     2.4665     0.0918   -73.6397     9.3572     9.2504    10.3117
  146.0000     8.1374   115.7299     0.0384     2.4846     0.0887   -73.4820     9.4241     9.3809    10.6022
  146.5000     8.0808   118.2812     0.0255     2.5043     0.0953   -73.1742     9.5574     9.4475    10.9010
  147.0000     8.0838   117.8519     0.0164     2.5021     0.1142   -72.8665     9.5594     9.4488    11.1308
  147.5000     8.1613   115.9322     0.0050     2.4706     0.1190   -72.8590     9.5614     9.4501    10.9023
  148.0000     8.2238   115.0551     0.0031     2.4595     0.1199   -72.8515     9.5634     9.5172    10.6050
  148.5000     8.2417   116.5638     0.0085     2.4558     0.1202   -72.8440     9.4994     9.5185    10.3159
  149.0000     8.2745   117.0383     0.0115     2.4551     0.1163   -72.9886     9.4358     9.5861    10.3166
  149.5000     8.2775   116.0030     0.0176     2.4567     0.1090   -72.9792     9.3727     9.5208    10.3174
  150.0000     8.2648   115.8718     0.0223     2.4666     0.1058   -73.1237     9.6382     9.5222    10.4619
  150.5000     8.2522   116.6362     0.0253     2.4787     0.1009   -73.1156     9.4428     9.4915    10.2485
  151.0000     8.2688   118.1442     0.0269     2.4915     0.1039   -73.1075     9.3796     9.4606    10.1096
  151.5000     8.2704   119.6522     0.0210     2.4789     0.1082   -73.2501     9.1901     9.2677    10.2533
  152.0000     8.2720   117.1364     0.0143     2.4542     0.1200   -73.6931     9.1286     9.2051    10.3268
  152.5000     8.2737   113.4078     0.0189     2.4640     0.1136   -73.6856     8.8825     9.0807    10.3290
  153.0000     8.2753   114.3402     0.0160     2.4686     0.1112   -73.8301     8.8237     8.9570    10.2598
  153.5000     8.2620   117.9347     0.0131     2.4642     0.1136   -74.1229     8.7531     8.7748    10.0507
  154.0000     8.2334   120.3369     0.0117     2.4425     0.1235   -74.1135     8.6364     8.7155     9.9145
  154.5000     8.2056   121.3979     0.0231     2.4531     0.1159   -74.1060     8.4713     8.6571     9.7125
  155.0000     8.1920   120.6114     0.0224     2.4720     0.1117   -73.9484     8.4153     8.5396     9.5141
  155.5000     8.2089   118.1232     0.0112     2.4270     0.1309   -73.7907     8.4177     8.4824     9.4504
  156.0000     8.2105   118.0232     0.0121     2.4368     0.1233   -73.7832     8.3619     8.4255     9.2579
  156.5000     8.2121   118.1907     0.0114     2.4347     0.1269   -73.9259     8.3642     8.4277     9.2603
  157.0000     8.2138   117.9096     0.0130     2.4515     0.1176   -74.0704     8.4246     8.4295     9.4568
  157.5000     8.2154   117.1866     0.0116     2.4522     0.1154   -73.7607     8.4270     8.4312     9.5908
  158.0000     8.2319   116.3101     0.0102     2.4596     0.1199   -73.7532     8.4293     8.4917     9.7943
  158.5000     8.2335   116.1743     0.0186     2.4726     0.1123   -73.7457     8.4317     8.4934     9.8645
  159.0000     8.2501   116.4945     0.0179     2.4735     0.1108   -73.5881     8.4926     8.6738    10.0043
  159.5000     8.2531   117.8535     0.0143     2.4728     0.1111   -73.5806     8.6133     8.7360    10.0759
  160.0000     8.2702   121.2989     0.0091     2.4654     0.1183   -73.5731     8.7358     8.9215    10.0780
  160.5000     8.2848   122.2108     0.0084     2.4519     0.1194   -73.5656     8.9215     8.9855    10.0801
  161.0000     8.3017   122.3731     0.0108     2.4641     0.1149   -73.5581     9.1112     9.1763    10.0822
  161.5000     8.3033   120.9050     0.0083     2.4656     0.1146   -73.5506     9.1770     9.3064    10.2962
  162.0000     8.3049   119.7260     0.0200     2.4740     0.1051   -73.5431     9.3721     9.4384    10.3700
  162.5000     8.2912   118.7049     0.0247     2.4959     0.1025   -73.5356     9.4398     9.5061    10.6637
  163.0000     8.2933   118.4201     0.0195     2.4749     0.1154   -73.5281     9.4425     9.5081    10.8900
  163.5000     8.3098   117.8461     0.0022     2.4555     0.1195   -73.5206     9.3793     9.4443    10.9680
  164.0000     8.3114   116.5226    -0.0022     2.4420     0.1249   -73.5131     9.3172     9.3810    11.2008
  164.5000     8.2981   115.7951     0.0025     2.4417     0.1234   -73.3554     9.1917     9.2532    11.2031
  165.0000     8.2844   114.3225    -0.0013     2.4424     0.1254   -73.1978     9.1315     9.1917    10.6011
  165.5000     8.2712   113.4456    -0.0026     2.4153     0.1374   -73.0401     9.0085     9.0043    10.1709
  166.0000     8.2732   114.2089     0.0073     2.4146     0.1323   -73.3329     8.9482     8.9439    10.3873
  166.5000     8.2595   115.8659     0.0134     2.4428     0.1226   -73.4774     8.7070     8.8839    10.6077
  167.0000     8.2317   118.1272     0.0270     2.4638     0.1157   -73.4681     8.7094     8.8239    10.6837
  167.5000     8.2333   119.3491     0.0294     2.4750     0.1115   -73.6126     8.7118     8.8262    10.5680
  168.0000     8.2350   120.2410     0.0250     2.4548     0.1216   -73.7534     8.6536     8.8895    10.1112
  168.5000     8.2216   118.2562     0.0108     2.4248     0.1318   -73.8979     8.7167     8.9532    10.1134
  169.0000     8.2233   116.3468     0.0146     2.4272     0.1246   -73.8885     8.7191     8.9551    10.3999
  169.5000     8.2249   114.3372     0.0222     2.4476     0.1200   -73.8810     8.7215     8.9570    10.7053
  170.0000     8.2266   111.2253     0.0284     2.4514     0.1185   -73.7234     8.7845     9.0212    10.9972
  170.5000     8.2282   111.0895     0.0239     2.4455     0.1224   -73.8660     8.9094     9.0231    10.4700
  171.0000     8.2298   110.8136     0.0203     2.4440     0.1220   -73.8585     8.9738     9.0249    10.3366
  171.5000     8.2314   109.7881     0.0226     2.4584     0.1136   -73.8510     9.1646     9.2166    10.7242
  172.0000     8.2181   109.5033     0.0265     2.4788     0.1103   -73.8435     9.2308     9.3473    11.2439
  172.5000     8.2199   109.3720     0.0267     2.4436     0.1213   -73.8360     9.4270     9.5458    11.4815
