~VERSION INFORMATION
 VERS.                2.0:   CWLS LOG ASCII STANDARD - VERSION 2.0
 WRAP.                 NO:   ONE LINE PER DEPTH STEP
~WELL INFORMATION
#MNEM.UNIT      DATA TYPE    INFORMATION
#----------   ------------   ------------------------------
 STRT.F           26.0000:   START DEPTH
 STOP.F          533.5000:   STOP DEPTH
 STEP.F            0.5000:   STEP LENGTH
 NULL.          -999.2500:   NO VALUE
 COMP. BROWN JOHN E&C INC:   COMPANY
 WELL.  NPR 3 #76-531-X-3:   WELL
 FLD .             TEAPOT:   FIELD
 LOC .       S3 T38N R78W:   LOCATION
 CNTY.            NATRONA:   COUNTY
 STAT.            WYOMING:   STATE
 CTRY. UNITED STATES OF AMERICA:   COUNTRY
 SRVC.       Schlumberger:   SERVICE COMPANY
 DATE.        20-SEP-1990:   LOGDATE
 API .       490251130500:   API NUMBER
~CURVE INFORMATION
#MNEM.UNIT       API CODE    CURVE DESCRIPTION
#----------   ------------   ------------------------------
 DEPT.F                  :   
 ILM .OHMM   07 120 44 00:   INDUCTION LOG MEDIUM
 ILD .OHMM   07 120 46 00:   INDUCTION LOG DEEP
 CALD.IN     45 280 60 00:   CALIPER FROM DENSITY LOG
 GRD .GAPI   45 310 01 00:   GAMMA RAY FROM DENSITY LOG
 DPHI.DEC    45 890 12 00:   DENSITY POROSITY SANDSTONE
 RHOB.G/C3   45 350 01 00:   BULK DENSITY
 DRHO.G/C3   45 356 01 00:   DENSITY CORRECTION
~PARAMETER INFORMATION
#MNEM.UNIT          VALUE    DESCRIPTION
#----------   ------------   ------------------------------
 PD  .                 GL:   PERMANENT DATUM
 EPD .F              5148:   ELEVATION PERMANENT DATUM
 LMF .                 KB:   LOG MEASURED FROM
 DAPD.F                10:   FEET ABOVE PERMANENT DATUM
 DMF .                 KB:   DRILLING MEASURED FROM
 EKB .F              5158:   KELLING BUSHING
 EDF .F              5157:   DRILLING FLOOR
 EGL .F              5148:   GROUND LEVEL
 DATE.            9-20-90:   RUN DATE
 RUN .                  1:   RUN NUMBER
 DD  .F               535:   DEPTH DRILLER
 DL  .F               536:   DEPTH LOGGER
 BLI .F               530:   BOTTOM LOG INTERVAL
 TLI .F                49:   TOP LOG INTERVAL
 CBD .F                40:   CASING BOTTOM DRILLER
 CBL .F                49:   CASING BOTTOM LOGGER
 BS  .IN            7.875:   BIT SIZE
 BSD .F               535:   BIT SIZE AT DEPTH
 DFT .                AIR:   DRILLING FLUID TYPE
 TCS .HRS            0315:   TIME CURCULATED STOPPED
 TLAB.HRS            0409:   TIME LOGGER AT BOTTOM
 LUN .               6882:   LOGGING UNIT NUMBER
 LUL .               CODY:   LOGGING UNIT LOCATION
 ENGI.          M. FISHER:   RECORDING ENGINEER
 WITN.          G. STRONG:   WITNESSED BY
 CLNT.            A2DTECH:   CLIENT CODE
 ORIG.   2" 2.5" 5" PRINT:   ORIGIN OF DATA
 UWI .       490251130500:   UNIQUE WELL ID
 DICO. A2D Technologies, Inc.:   DIGITIZING COMPANY
~OTHER INFORMATION
~A   DEPT      ILM        ILD       CALD         GRD      DPHI       RHOB       DRHO   
# ...
  117.0000     8.6286     8.8185     7.9602   139.8360     0.1094     2.4837    -0.0058
  117.5000     8.6577     8.8169     7.9555   140.2255     0.1117     2.4742    -0.0062
  118.0000     8.7302     8.8618     7.9570   139.8421     0.1099     2.4832    -0.0053
  118.5000     8.8019     8.9291     7.9617   139.4388     0.1066     2.5005     0.0006
  119.0000     8.8740     8.9972     7.9663   139.0387     0.1038     2.5078     0.0005
  119.5000     8.9466     9.0658     7.9703   138.6335     0.1054     2.5019     0.0006
  120.0000     9.0199     9.1350     7.9525   138.7988     0.1080     2.4884    -0.0034
  120.5000     9.0937     9.2046     7.9555   139.3056     0.1104     2.4803    -0.0057
  121.0000     9.1681     9.2748     7.9576   139.3227     0.1110     2.4804    -0.0065
  121.5000     9.2335     9.3455     7.9594   137.7708     0.1092     2.4859    -0.0050
  122.0000     9.2011     9.4050     7.9612   136.2777     0.1076     2.4938     0.0007
  122.5000     9.1725     9.3723     7.9631   135.6154     0.1060     2.5007    -0.0002
  123.0000     9.1439     9.3444     7.9649   135.4959     0.1055     2.5002    -0.0013
  123.5000     9.1155     9.3165     7.9667   135.3878     0.1063     2.4992    -0.0033
  124.0000     9.0872     9.2888     7.9685   135.3046     0.1078     2.4906    -0.0060
  124.5000     9.0589     9.2611     7.9704   133.8910     0.1102     2.4810    -0.0088
  125.0000     9.0309     9.2335     7.9722   131.9923     0.1126     2.4737    -0.0106
  125.5000     9.0023     9.1723     7.9741   131.6561     0.1121     2.4732    -0.0071
  126.0000     8.9568     9.0971     7.9781   131.6504     0.1098     2.4850    -0.0030
  126.5000     8.8622     9.0225     7.9821   131.8814     0.1081     2.4931     0.0012
  127.0000     8.7687     8.9485     7.9861   133.8491     0.1073     2.4969     0.0054
  127.5000     8.6761     8.8750     7.9901   135.8330     0.1065     2.4989     0.0068
  128.0000     8.5845     8.7948     7.9939   137.8204     0.1060     2.4995     0.0075
  128.5000     8.4939     8.6861     7.9924   139.6368     0.1058     2.4995     0.0075
  129.0000     8.4043     8.5793     7.9908   139.6611     0.1062     2.4991     0.0044
  129.5000     8.3155     8.4736     7.9893   137.8854     0.1066     2.4961     0.0009
  130.0000     8.2278     8.3689     7.9877   136.7340     0.1071     2.4945    -0.0013
  130.5000     8.1524     8.2683     7.9862   137.6281     0.1075     2.4932    -0.0026
  131.0000     8.1181     8.2683     7.9846   138.8893     0.1080     2.4908    -0.0039
  131.5000     8.3051     8.4453     7.9831   138.4274     0.1099     2.4838    -0.0058
  132.0000     8.4389     8.6169     7.9815   137.1990     0.1119     2.4767    -0.0075
  132.5000     8.5743     8.7919     7.9800   135.9053     0.1130     2.4697    -0.0085
  133.0000     8.7119     8.9150     7.9784   135.7207     0.1130     2.4716    -0.0079
  133.5000     8.8517     8.9914     7.9769   137.3754     0.1102     2.4822    -0.0052
  134.0000     8.9821     9.0684     7.9753   139.0974     0.1062     2.4952    -0.0026
  134.5000     9.0919     9.1461     7.9735   138.3631     0.1039     2.5063    -0.0004
  135.0000     9.1946     9.2244     7.9702   137.2477     0.1024     2.5145     0.0021
  135.5000     9.2985     9.3031     7.9668   137.0846     0.1001     2.5229     0.0043
  136.0000     9.4036     9.4138     7.9635   136.8202     0.0984     2.5303    -0.0005
  136.5000     9.5098     9.5330     7.9602   135.2344     0.0981     2.5282     0.0004
  137.0000     9.6682     9.6532     7.9568   133.6125     0.1004     2.5196     0.0007
  137.5000     9.5913     9.7576     7.9517   132.3663     0.1034     2.5090    -0.0006
  138.0000     9.4477     9.6164     7.9364   130.7436     0.1056     2.5017    -0.0015
  138.5000     9.3063     9.4947     7.9211   130.4531     0.1059     2.4984    -0.0014
  139.0000     9.1670     9.4050     7.9058   130.8613     0.1062     2.4994     0.0025
  139.5000     9.1387     9.4050     7.8905   131.5217     0.1064     2.5005     0.0069
  140.0000     9.1269     9.3735     7.8752   130.7317     0.1066     2.4938     0.0084
  140.5000     9.1151     9.2781     7.8598   129.6234     0.1084     2.4908     0.0076
  141.0000     9.1033     9.1836     7.8620   131.0399     0.1102     2.4835     0.0067
  141.5000     9.0916     9.1482     7.8755   133.3398     0.1107     2.4806     0.0058
  142.0000     9.0799     9.1687     7.8892   133.6799     0.1108     2.4805     0.0041
  142.5000     9.0657     9.1917     7.9029   130.2376     0.1109     2.4805     0.0018
  143.0000     9.0820     9.2147     7.9166   127.9972     0.1111     2.4795     0.0005
  143.5000     9.1051     9.2339     7.9303   129.5179     0.1126     2.4709    -0.0006
  144.0000     9.1294     9.2317     7.9440   131.1695     0.1152     2.4621    -0.0013
  144.5000     9.1489     9.5725     7.9539   129.4415     0.1166     2.4594     0.0003
  145.0000     9.4250     9.8168     7.9495   127.6599     0.1135     2.4665     0.0022
  145.5000     9.6882    10.0333     7.9453   126.9753     0.1106     2.4837     0.0050
  146.0000     9.9590    10.0330     7.9411   126.6080     0.1072     2.4951     0.0078
  146.5000    10.2366    10.2631     7.9369   125.0692     0.1037     2.5072     0.0105
  147.0000    10.5043    10.4396     7.9346   122.8251     0.1006     2.5195     0.0116
  147.5000    10.7088    10.6248     7.9382   120.4732     0.0987     2.5274     0.0124
  148.0000    10.9059    10.8613     7.9416   120.3755     0.0970     2.5322     0.0099
  148.5000    11.1055    11.1011     7.9450   122.6873     0.0973     2.5314     0.0075
  149.0000    11.3059    11.3342     7.9485   125.0876     0.0994     2.5255     0.0051
  149.5000    11.5994    11.6567     7.9519   126.1900     0.1015     2.5195     0.0028
  150.0000    11.8943    11.9923     7.9553   123.3257     0.1018     2.5155     0.0023
  150.5000    12.1968    12.3359     7.9588   116.7002     0.1002     2.5191     0.0039
  151.0000    12.5086    12.6409     7.9622   113.2821     0.0996     2.5224     0.0082
  151.5000    12.5842    12.7281     7.9656   111.6200     0.0999     2.5211     0.0125
  152.0000    12.7029    12.8293     7.9690   112.8872     0.1002     2.5208     0.0168
  152.5000    12.8697    13.0206     7.9725   117.0030     0.0980     2.5292     0.0211
  153.0000    13.0397    13.2193     7.9759   121.0969     0.0962     2.5360     0.0205
  153.5000    13.2119    13.4336     7.9793   123.2628     0.0984     2.5294     0.0188
  154.0000    13.3415    13.5894     7.9828   123.1986     0.1009     2.5180     0.0136
  154.5000    13.2860    13.5689     7.9862   120.5834     0.1042     2.5058     0.0084
  155.0000    13.2420    13.5373     7.9896   117.9901     0.1061     2.4970     0.0026
  155.5000    13.1981    13.5060     7.9932   115.3300     0.1078     2.4899     0.0023
  156.0000    13.1544    13.4751     7.9936   113.7725     0.1094     2.4864     0.0018
  156.5000    13.0983    13.3475     7.9931   112.3977     0.1086     2.4918     0.0016
  157.0000    13.2193    13.1734     7.9926   113.0811     0.1063     2.4990     0.0042
  157.5000    12.9324    13.0015     7.9921   114.2407     0.1046     2.5057     0.0071
  158.0000    12.7471    12.8332     7.9916   114.8248     0.1046     2.5018     0.0065
  158.5000    12.5644    12.6207     7.9910   114.8401     0.1086     2.4882     0.0044
  159.0000    12.3981    12.3962     7.9905   115.6431     0.1123     2.4720     0.0022
  159.5000    12.2400    12.3922     7.9900   117.9150     0.1155     2.4639     0.0003
  160.0000    12.0573    12.5760     7.9895   120.1484     0.1158     2.4630    -0.0005
  160.5000    12.0833    12.6250     7.9890   119.8335     0.1148     2.4660    -0.0014
  161.0000    12.1148    12.4505     7.9885   117.2455     0.1142     2.4675     0.0003
  161.5000    12.1463    12.3313     7.9880   115.1242     0.1142     2.4675     0.0023
  162.0000    12.1779    12.2812     7.9875   113.7456     0.1142     2.4675     0.0044
