~VERSION INFORMATION
 VERS.                2.0:   CWLS LOG ASCII STANDARD - VERSION 2.0
 WRAP.                 NO:   ONE LINE PER DEPTH STEP
~WELL INFORMATION
#MNEM.UNIT      DATA TYPE    INFORMATION
#----------   ------------   ------------------------------
 STRT.F           44.0000:   START DEPTH
 STOP.F          666.0000:   STOP DEPTH
 STEP.F            0.5000:   STEP LENGTH
 NULL.          -999.2500:   NO VALUE
 COMP. FENIX & SCISSON INC:   COMPANY
 WELL.     NPR-3 #22SX-10:   WELL
 FLD .             TEAPOT:   FIELD
 LOC .      S10 T38N R78W:   LOCATION
 CNTY.            NATRONA:   COUNTY
 STAT.            WYOMING:   STATE
 CTRY. UNITED STATES OF AMERICA:   COUNTRY
 SRVC.            Unknown:   SERVICE COMPANY
 DATE.        11-JUL-1978:   LOGDATE
 API .       490251065600:   API NUMBER
~CURVE INFORMATION
#MNEM.UNIT       API CODE    CURVE DESCRIPTION
#----------   ------------   ------------------------------
 DEPT.F                  :   
 CALD.IN     45 280 60 00:   CALIPER FROM DENSITY LOG
 GRD .GAPI   45 310 01 00:   GAMMA RAY FROM DENSITY LOG
 CORR.G/C3   45 356 01 00:   DENSITY CORRECTION
 DPHI.DEC    45 890 12 00:   DENSITY POROSITY SANDSTONE
 RHOB.G/C3   45 350 01 00:   BULK DENSITY
 SPR .MV     05 010 01 00:   SPONTANEOUS POTENTIAL FROM RES.
 SN  .OHMM   05 040 16 00:   SHORT NORMAL 16"
 ILD .OHMM   05 120 46 00:   INDUCTION LOG DEEP
~PARAMETER INFORMATION
#MNEM.UNIT          VALUE    DESCRIPTION
#----------   ------------   ------------------------------
 PD  .                 GL:   PERMANENT DATUM
 EPD .F              5263:   ELEVATION PERMANENT DATUM
 LMF .                 KB:   LOG MEASURED FROM
 DAPD.F                 4:   FEET ABOVE PERMANENT DATUM
 DMF .                 KB:   DRILLING MEASURED FROM
 EKB .F              5267:   KELLING BUSHING
 EGL .F              5263:   GROUND LEVEL
 DATE.        11-JUL-1978:   RUN DATE
 RUN .                  1:   RUN NUMBER
 DD  .F               657:   DEPTH DRILLER
 DL  .F               666:   DEPTH LOGGER
 BLI .F               660:   BOTTOM LOG INTERVAL
 TLI .F                50:   TOP LOG INTERVAL
 CS  .IN            8.625:   CASING SIZE
 CBD .F                40:   CASING BOTTOM DRILLER
 BS  .IN            7.875:   BIT SIZE
 BSD .F               657:   BIT SIZE AT DEPTH
 DFT .                KCL:   DRILLING FLUID TYPE
 DFD .                8.6:   DRILLING FLUID DENSITY
 DFV .                 33:   DRILLING FLUID VISCOSITY
 DFPH.                9.0:   DRILLING FLUID PH
 DFL .                 14:   DRILLING FLUID LOSS
 MSS .           FLOWLINE:   MUD SAMPLE SOURCE
 RMS .OHMM            .16:   RESISTIVITY MUD SAMPLE
 MST .F                89:   MUD SAMPLE TEMPERATURE
 RMF .OHMM            .15:   RESISTIVITY MUD FILTRATE SAMPLE
 MFST.F                89:   MUD FILTRATE SAMPLE TEMPERATURE
 RMC .OHMM            .32:   RESISTIVITY MUD CAKE
 MCST.F                88:   MUD CAKE SAMPLE TEMPERATURE
 MFSS.               MEAS:   MUD FILTRATE SAMPLE SOURCE
 BHT .F                76:   BOTTOM HOLE TEMPERATURE
 TCS .HRS            0200:   TIME CURCULATED STOPPED
 MRT .F                76:   MAXIMUM RECORDED TEMPERATURE
 LUN .               2958:   LOGGING UNIT NUMBER
 LUL .               CASP:   LOGGING UNIT LOCATION
 ENGI.             MILLER:   RECORDING ENGINEER
 WITN.           MCGINLEY:   WITNESSED BY
 CLNT.            A2DTECH:   CLIENT CODE
 ORIG.           5" PRINT:   ORIGIN OF DATA
 UWI .       490251065600:   UNIQUE WELL ID
 DICO. A2D Technologies, Inc.:   DIGITIZING COMPANY
~OTHER INFORMATION
~A   DEPT     CALD         GRD      CORR       DPHI       RHOB        SPR         SN        ILD   
# ...
  611.0000     7.8722    65.4705    -0.0044     0.1379     2.4494   -60.4123     9.7834    11.9423
  611.5000     7.8722    65.7700    -0.0043     0.1374     2.4493   -60.5453     9.7908    11.9506
  612.0000     7.8722    69.3978    -0.0041     0.1377     2.4486   -60.6776     9.7963    11.9571
  612.5000     7.8722    70.0000    -0.0039     0.1383     2.4493   -60.8221     9.8032    11.9657
  613.0000     7.8722    68.6353    -0.0038     0.1407     2.4477   -60.9688     9.8091    11.9730
  613.5000     7.8722    67.4220    -0.0036     0.1477     2.4416   -61.2200     9.7464    11.9797
  614.0000     7.8722    67.0964    -0.0034     0.1372     2.4349   -61.3566     9.7533    11.9881
  614.5000     7.8722    69.5339    -0.0032     0.1447     2.4381   -61.4892     9.7593    11.9942
  615.0000     7.8722    71.1951    -0.0030     0.1261     2.4584   -61.6219     9.7661    12.0016
  615.5000     7.8722    71.3434    -0.0029     0.1252     2.4679   -61.8991     9.7720    11.9259
  616.0000     7.8722    70.8864    -0.0027     0.1328     2.4611   -62.0357     9.7104    11.9355
  616.5000     7.8722    66.7986    -0.0025     0.1331     2.4566   -62.1649     9.6493    11.9428
  617.0000     7.8571    65.7366    -0.0023     0.1277     2.4558   -62.4456     9.5900    11.9500
  617.5000     7.8571    66.1874    -0.0022     0.1244     2.4618   -62.5782     9.5958    12.0391
  618.0000     7.8571    70.8742    -0.0020     0.1239     2.4753   -62.5622     9.5358    12.0464
  618.5000     7.8571    71.7797    -0.0019     0.1326     2.4632   -62.6949     9.4709    12.0538
  619.0000     7.8571    71.9279    -0.0004     0.1335     2.4602   -62.9721     9.4170    12.0611
  619.5000     7.8571    74.1934     0.0011     0.1375     2.4601   -62.9562     9.4237    11.9857
  620.0000     7.8571    76.1571     0.0026     0.1435     2.4398   -63.0928     9.4294    11.9948
  620.5000     7.8722    76.3061     0.0070     0.1375     2.4360   -63.0728     9.4351    11.9181
  621.0000     7.8722    75.2433     0.0025     0.1240     2.4540   -63.2054     9.3757    11.9271
  621.5000     7.8722    73.8787    -0.0021     0.1195     2.4713   -63.1895     9.3817    11.8508
  622.0000     7.8722    72.9679    -0.0036     0.1174     2.4810   -63.1735     9.3885    11.8598
  622.5000     7.8722    72.8136    -0.0036     0.1175     2.4840   -63.4547     9.3937    11.8670
  623.0000     7.8722    72.5080    -0.0051     0.1202     2.4832   -63.4388     9.3999    11.7910
  623.5000     7.8722    72.5050    -0.0067     0.1229     2.4809   -63.5714     9.4051    11.7192
  624.0000     7.8872    72.9558    -0.0082     0.1338     2.4674   -63.5515     9.4113    11.7263
  624.5000     7.8872    74.1630    -0.0082     0.1446     2.4523   -63.6881     9.4166    11.6530
  625.0000     7.8872    75.9754    -0.0083     0.1425     2.4440   -63.8207     9.3577    11.6601
  625.5000     7.8872    76.5783    -0.0068     0.1320     2.4353   -63.9533     9.3648    11.5872
  626.0000     7.8872    74.1539    -0.0068     0.1318     2.4515   -63.9334     9.3049    11.5946
  626.5000     7.8872    71.1251    -0.0069     0.1270     2.4620   -64.0700     9.2467    11.5218
  627.0000     7.8872    70.6683    -0.0054     0.1255     2.4694   -64.0501     9.2537    11.4499
  627.5000     7.8872    70.6652    -0.0039     0.1255     2.4702   -64.1828     9.1945    11.3021
  628.0000     7.8872    70.8142    -0.0039     0.1334     2.4619   -64.4639     9.2015    11.1546
  628.5000     7.8872    70.2053    -0.0025     0.1274     2.4581   -64.7451     9.2071    11.0073
  629.0000     7.8872    69.1432    -0.0025     0.1250     2.4641   -65.0224     9.2126    10.7908
  629.5000     7.8872    68.8376    -0.0010     0.1244     2.4708   -65.1590     9.2182    10.6499
  630.0000     7.8872    68.9859    -0.0011     0.1234     2.4745   -65.5848     9.2238    10.5109
  630.5000     7.8872    73.8240    -0.0011     0.1220     2.4753   -65.8660     9.2295    10.4451
  631.0000     7.8872    78.3595    -0.0011     0.1212     2.4760   -66.2958     9.2352    10.3799
  631.5000     7.8872    79.4155    -0.0011     0.1209     2.4775   -66.7256     9.1773    10.3151
  632.0000     7.8872    78.8073    -0.0027     0.1203     2.4789   -67.0074     9.1200    10.2507
  632.5000     7.8872    76.0811    -0.0012     0.1210     2.4789   -67.1397     9.0630    10.2585
  633.0000     7.8872    75.6242    -0.0012     0.1226     2.4774   -67.1233     9.0064    10.1928
  633.5000     7.8872    75.7732    -0.0013     0.1213     2.4743   -67.1070     8.8292    10.2006
  634.0000     7.8872    76.2843    -0.0013     0.1197     2.4773   -67.0876     8.7140    10.1353
  634.5000     7.9023  -999.2500    -0.0028     0.1186     2.4818   -67.2242     8.5413    10.2129
  635.0000     7.9023  -999.2500    -0.0029     0.1193     2.4832   -67.5054     8.3721    10.2191
  635.5000     7.9023  -999.2500    -0.0059     0.1247     2.4825   -67.7867     8.2627    10.0167
  636.0000     7.9023  -999.2500    -0.0104     0.1262     2.4704   -67.9193     8.0990     9.8182
  636.5000     7.9023  -999.2500    -0.0135     0.1288     2.4659   -67.8993     7.9341     8.9844
  637.0000     7.9023  -999.2500    -0.0135     0.1371     2.4576   -68.0320     7.6578     7.9984
  637.5000     7.9023  -999.2500    -0.0120     0.1431     2.4448   -68.0160     7.0727     7.3697
  638.0000     7.9023  -999.2500    -0.0121     0.1549     2.4260   -68.1486     6.6525     6.7830
  638.5000     7.9173  -999.2500    -0.0106     0.1714     2.4079   -68.1327     6.3438     6.5129
  639.0000     7.9173  -999.2500     0.0014     0.1705     2.3928   -68.2653     6.2610     6.3035
  639.5000     7.9023  -999.2500     0.0089     0.1616     2.3861   -67.9482     6.1783     6.2641
  640.0000     7.8872  -999.2500     0.0044     0.1279     2.4657   -67.7836     6.1830     6.2250
  640.5000     7.8421  -999.2500     0.0028     0.1060     2.4792   -67.4705     6.2534     6.4034
  641.0000     7.7669  -999.2500     0.0013     0.1027     2.4964   -67.3060     6.4323     6.7231
  641.5000     7.7218  -999.2500    -0.0002     0.1067     2.5046   -67.2900     6.8011     7.2555
  642.0000     7.7368  -999.2500    -0.0018     0.1071     2.5084   -67.4226     7.5460     8.2160
  642.5000     7.7218  -999.2500    -0.0018     0.1004     2.5113   -67.4067     8.0908     9.3679
  643.0000     7.7218  -999.2500    -0.0018     0.1013     2.5128   -67.3907     8.4479    10.1795
  643.5000     7.7218  -999.2500    -0.0019     0.1074     2.5060   -67.3744     8.8083    10.0466
  644.0000     7.7218  -999.2500    -0.0019     0.1143     2.4902   -67.3581     9.2397     9.8448
  644.5000     7.7218  -999.2500    -0.0019     0.1150     2.4834   -67.3388     9.5041     9.7189
  645.0000     7.7218  -999.2500    -0.0004     0.1122     2.4842   -67.3229     9.7090     9.7934
  645.5000     7.7218  -999.2500     0.0025     0.1096     2.4931   -67.3069     9.9183     9.8669
  646.0000     7.7218  -999.2500     0.0040     0.1084     2.4969   -67.2910    10.0626    10.0786
  646.5000     7.7368  -999.2500     0.0040     0.1078     2.4976   -67.4276    10.1389    10.2948
  647.0000     7.7368  -999.2500     0.0024     0.1075     2.4983   -67.4076    10.1458    10.4437
  647.5000     7.7218  -999.2500    -0.0006     0.1063     2.4998   -67.3917    10.1522    10.7413
  648.0000     7.7218  -999.2500    -0.0021     0.1085     2.5058   -67.3757    10.1592    10.9717
  648.5000     7.7368  -999.2500    -0.0037     0.1133     2.5117   -67.3596    10.3063    11.2844
  649.0000     7.7669  -999.2500    -0.0037     0.1130     2.5004   -67.3432    10.4901    11.6060
  649.5000     7.7820  -999.2500    -0.0052     0.1137     2.4974   -67.3239    10.6738    11.8550
  650.0000     7.8271  -999.2500    -0.0050     0.1230     2.4942   -67.4565    10.8393    12.0264
  650.5000     7.8421  -999.2500    -0.0031     0.1223     2.4718   -67.4405    10.9216    12.2845
  651.0000     7.8571  -999.2500    -0.0013     0.1187     2.4748   -67.4246    11.0045    12.3906
