~VERSION INFORMATION
 VERS.                2.0:   CWLS LOG ASCII STANDARD - VERSION 2.0
 WRAP.                 NO:   ONE LINE PER DEPTH STEP
~WELL INFORMATION
#MNEM.UNIT      DATA TYPE    INFORMATION
#----------   ------------   ------------------------------
 STRT.F           80.0000:   START DEPTH
 STOP.F          930.0000:   STOP DEPTH
 STEP.F            0.5000:   STEP LENGTH
 NULL.          -999.2500:   NO VALUE
 COMP. U S NAVY-INTEX OIL:   COMPANY
 WELL. RES 3 TEAPOT DOM #56-S-2:   WELL
 FLD .             TEAPOT:   FIELD
 LOC .       S2 T38N R78W:   LOCATION
 CNTY.            NATRONA:   COUNTY
 STAT.            WYOMING:   STATE
 CTRY. UNITED STATES OF AMERICA:   COUNTRY
 SRVC.       Schlumberger:   SERVICE COMPANY
 DATE.        24-JUN-1962:   LOGDATE
 API .       490250641900:   API NUMBER
~CURVE INFORMATION
#MNEM.UNIT       API CODE    CURVE DESCRIPTION
#----------   ------------   ------------------------------
 DEPT.F                  :   
 ASN .OHMM   05 041 16 00:   AMPLIFIED SHORT NORMAL 16"
 ILD .OHMM   05 120 46 00:   INDUCTION LOG DEEP
 CILD.MMHO   05 110 46 00:   CONDUCTIVITY INDUCTION LOG DEEP
 SPR .MV     05 010 01 00:   SPONTANEOUS POTENTIAL FROM RES.
 GR  .GAPI   30 310 01 00:   GAMMA RAY
~PARAMETER INFORMATION
#MNEM.UNIT          VALUE    DESCRIPTION
#----------   ------------   ------------------------------
 PD  .                 KB:   PERMANENT DATUM
 LMF .                 KB:   LOG MEASURED FROM
 DMF .                 KB:   DRILLING MEASURED FROM
 EKB .F              5179:   KELLING BUSHING
 EGL .F              5174:   GROUND LEVEL
 DATE.        24-JUN-1962:   RUN DATE
 RUN .                  1:   RUN NUMBER
 DD  .F               942:   DEPTH DRILLER
 DL  .F               931:   DEPTH LOGGER
 BLI .F               930:   BOTTOM LOG INTERVAL
 TLI .F                80:   TOP LOG INTERVAL
 BS  .IN             6.75:   BIT SIZE
 BSD .F               942:   BIT SIZE AT DEPTH
 DFT .       OIL EMULSION:   DRILLING FLUID TYPE
 DFD .                9.9:   DRILLING FLUID DENSITY
 DFV .                 55:   DRILLING FLUID VISCOSITY
 DFL .                3.7:   DRILLING FLUID LOSS
 RMS .OHMM            4.2:   RESISTIVITY MUD SAMPLE
 MST .F                79:   MUD SAMPLE TEMPERATURE
 RMF .OHMM            3.7:   RESISTIVITY MUD FILTRATE SAMPLE
 MFST.F                79:   MUD FILTRATE SAMPLE TEMPERATURE
 RMC .OHMM            4.0:   RESISTIVITY MUD CAKE
 MCST.F                79:   MUD CAKE SAMPLE TEMPERATURE
 TCS .HRS               1:   TIME CURCULATED STOPPED
 LUN .               2503:   LOGGING UNIT NUMBER
 LUL .               CSPR:   LOGGING UNIT LOCATION
 ENGI.             DANNER:   RECORDING ENGINEER
 WITN.          JORGENSEN:   WITNESSED BY
 CLNT.            A2DTECH:   CLIENT CODE
 ORIG.           5" PRINT:   ORIGIN OF DATA
 UWI .       490250641900:   UNIQUE WELL ID
 DICO. A2D Technologies, Inc.:   DIGITIZING COMPANY
~OTHER INFORMATION
~A   DEPT        ASN        ILD      CILD       SPR         GR   
# ...
  507.0000     7.3446     7.7646   142.7637   -58.4693  -999.2500
  507.5000     7.3898     7.7669   140.4671   -58.4831  -999.2500
  508.0000     7.4051     7.8442   137.5667   -58.4753  -999.2500
  508.5000     7.4503     7.8464   135.2956   -58.6177  -999.2500
  509.0000     7.4980     7.9237   133.7740   -58.6368  -999.2500
  509.5000     7.5931     8.0761   132.2525   -58.9017  -999.2500
  510.0000     7.8500     8.2285   130.7309   -58.8924  -999.2500
  510.5000     7.9601     8.2308   130.7086   -58.7354  -999.2500
  511.0000     7.9454     8.2330   130.6863   -58.5785  -999.2500
  511.5000     7.9160     8.2352   130.6640   -58.5711  -999.2500
  512.0000     7.8864     8.2375   130.6417   -58.5636  -999.2500
  512.5000     7.8569     8.1646   130.6194   -58.5562  -999.2500
  513.0000     7.8423     8.2420   130.5971   -58.5487  -999.2500
  513.5000     7.8726     8.2442   130.5748   -58.5412  -999.2500
  514.0000     7.9776     8.3215   129.8029   -58.6833  -999.2500
  514.5000     8.1574     8.4739   128.2813   -58.9766  -999.2500
  515.0000     8.2923     8.6263   126.0101   -59.1186  -999.2500
  515.5000     8.3973     8.7787   123.7390   -59.1093  -999.2500
  516.0000     8.6517     9.0061   121.4678   -58.9524  -999.2500
  516.5000     8.8315     9.1585   119.1966   -58.7955  -999.2500
  517.0000     8.9066     9.1608   116.9254   -58.7880  -999.2500
  517.5000     8.9668     9.3882   115.4039   -58.7806  -999.2500
  518.0000     9.0419     9.6157   113.1327   -58.7731  -999.2500
  518.5000     9.1618     9.7681   110.8615   -58.7656  -999.2500
  519.0000     9.2818     9.8454   110.0896   -58.7582  -999.2500
  519.5000     9.4316     9.9227   107.8184   -58.7507  -999.2500
  520.0000     9.5516     9.9250   105.5472   -58.8946  -999.2500
  520.5000     9.6877    10.0023   102.5008   -59.0366  -999.2500
  521.0000     9.8214    10.0796   101.0049   -59.3263  -999.2500
  521.5000     9.8217    10.2320   101.7322   -59.7673  -999.2500
  522.0000     9.8246    10.2342   101.8088   -59.7598  -999.2500
  522.5000    10.1833    10.2366   102.4372   -59.7523  -999.2500
  523.0000    10.3364    10.1632   103.1590   -59.7449  -999.2500
  523.5000    10.3402    10.1660   103.1367   -59.7374  -999.2500
  524.0000     9.7831    10.0927   103.8640   -59.7300  -999.2500
  524.5000     9.7090    10.0204   103.8417   -59.8739  -999.2500
  525.0000     9.6349     9.9475   105.3186   -59.7151  -999.2500
  525.5000     9.4710     9.8747   106.0515   -59.5581  -999.2500
  526.0000     9.4566     9.8018   109.0221   -59.4031  -999.2500
  526.5000     9.4574     9.7290   110.5047   -59.8440  -999.2500
  527.0000     9.4430     9.7313   109.7272   -59.9842  -999.2500
  527.5000     9.3690     9.7335   109.7049   -60.1262  -999.2500
  528.0000     9.3097     9.6607   110.4378   -60.1188  -999.2500
  528.5000     9.3255     9.6629   110.4099   -60.1113  -999.2500
  529.0000     9.3710     9.6652   110.3876   -60.1039  -999.2500
  529.5000     9.3716     9.7425   110.3653   -59.4985  -999.2500
  530.0000     9.3571     9.6696   111.0926   -59.4910  -999.2500
  530.5000     9.2982     9.6719   112.5751   -59.4836  -999.2500
  531.0000     9.2540     9.6742   114.0521   -59.4761  -999.2500
  531.5000     9.2096     9.6013   114.7794   -59.4687  -999.2500
  532.0000     9.1506     9.5284   114.7515   -59.4612  -999.2500
  532.5000     9.0915     9.4419   114.7292   -59.3043  -999.2500
  533.0000     8.9875     9.3828   113.9573   -59.2968  -999.2500
  533.5000     8.8983     9.3856   113.9350   -59.2894  -999.2500
  534.0000     8.9887     9.3878   114.6627   -59.1324  -999.2500
  534.5000     9.0043     9.3144   114.6400   -59.2745  -999.2500
  535.0000     9.0050     9.3172   114.6177   -59.4165  -999.2500
  535.5000     9.0206     9.2438   114.5952   -59.7080  -999.2500
  536.0000     9.0063     9.3217   114.5727   -59.8519  -999.2500
  536.5000     8.9770     9.3239   115.3004   -59.8425  -999.2500
  537.0000     8.8431     9.1760   116.0277   -59.6973  -999.2500
  537.5000     8.7391     9.0275   116.7551   -59.0802  -999.2500
  538.0000     8.6650     8.9547   117.4824   -59.2241  -999.2500
  538.5000     8.6356     8.9575   118.2041   -58.9159  -999.2500
  539.0000     8.6514     8.9597   119.6811   -58.7589  -999.2500
  539.5000     8.6669     8.9620   121.1636   -58.7515  -999.2500
  540.0000     8.6676     8.9642   123.3846   -58.8954  -999.2500
  540.5000     8.6234     8.7412   127.1104   -58.8860  -999.2500
  541.0000     8.3699     8.5177   130.0922   -58.8786  -999.2500
  541.5000     8.1463     8.2202   133.8124   -58.8711  -999.2500
  542.0000     7.8032     7.6969   136.7886   -58.8637  -999.2500
  542.5000     7.5348     7.4739   142.0137   -58.8562  -999.2500
  543.0000     7.3261     7.4011   145.7451   -58.8488  -999.2500
  543.5000     7.1624     7.4033   147.2220   -58.8413  -999.2500
  544.0000     7.1329     7.4056   144.9453   -58.8339  -999.2500
  544.5000     7.1338     7.4829   141.9245   -58.8264  -999.2500
  545.0000     7.1493     7.6353   139.6533   -58.8189  -999.2500
  545.5000     7.4364     7.9378   137.3821   -58.6620  -999.2500
  546.0000     7.8831     8.3905   135.1110   -58.6546  -999.2500
  546.5000     8.0332     8.5429   132.0901   -58.6471  -999.2500
  547.0000     8.0187     8.5451   129.0693   -58.6396  -999.2500
  547.5000     8.0044     8.4722   125.2989   -58.6322  -999.2500
  548.0000     8.0650     8.4745   123.7774   -58.4753  -999.2500
  548.5000     8.1553     8.4017   124.5047   -58.4678  -999.2500
  549.0000     8.1111     8.4039   125.9820   -58.6098  -999.2500
  549.5000     8.0968     8.4062   126.7090   -58.6024  -999.2500
  550.0000     8.0526     8.3333   126.6867   -58.5949  -999.2500
  550.5000     7.9785     8.2585   128.5311   -58.5301  -999.2500
  551.0000     7.8596     8.1838   130.3756   -58.4652  -999.2500
  551.5000     7.8004     8.1147   131.8903   -58.4169  -999.2500
  552.0000     7.7114     8.0419   132.6249   -58.1090  -999.2500
  552.5000     7.6820     8.0447   133.3595   -58.2495  -999.2500
  553.0000     7.7575     8.0470   133.3408   -58.5394  -999.2500
  553.5000     7.8178     8.1243   133.3257   -58.6822  -999.2500
  554.0000     7.7885     8.2016   132.5611   -58.6709  -999.2500
  554.5000     7.8043     8.2039   131.7965   -58.6619  -999.2500
  555.0000     7.9992     8.3563   129.5326   -58.5052  -999.2500
  555.5000     8.1344     8.4336   125.7695   -58.3468  -999.2500
  556.0000     8.1500     8.5110   123.5056   -58.4877  -999.2500
  556.5000     8.1656     8.6634   123.4906   -58.4783  -999.2500
  557.0000     8.2111     8.6797   123.4756   -58.4913  -999.2500
  557.5000     8.2715     8.7425   123.4606   -58.6102  -999.2500
  558.0000     8.2572     8.7447   124.9486   -58.6009  -999.2500
  558.5000     8.2429     8.7347   125.6832   -58.5920  -999.2500
  559.0000     8.2136     8.5876   126.4936   -58.4335  -999.2500
  559.5000     8.0947     8.3760   127.8996   -58.1135  -999.2500
  560.0000     8.0055     8.3784   128.6379   -57.8176  -999.2500
  560.5000     8.0063     8.3807   127.8696   -57.8087  -999.2500
  561.0000     8.0069     8.3829   127.1049   -57.9493  -999.2500
  561.5000     8.0375     8.4603   126.3403   -58.0937  -999.2500
  562.0000     8.1278     8.5446   127.8245   -58.5292  -999.2500
  562.5000     8.1582     8.6149   128.5592   -59.1181  -999.2500
  563.0000     8.1141     8.6171   127.7945   -60.1554  -999.2500
  563.5000     8.0699     8.5396   128.5329   -59.8475  -999.2500
  564.0000     7.9809     8.3213   129.2638   -59.6890  -999.2500
  564.5000     7.9515     8.2485   130.0021   -59.8296  -999.2500
  565.0000     7.9523     8.2507   130.7368   -59.9701  -999.2500
  565.5000     7.9529     8.2530   130.7180   -59.9610  -999.2500
  566.0000     7.9535     8.1802   130.7030   -59.5035  -999.2500
  566.5000     7.9541     8.1824   130.6880   -57.8503  -999.2500
  567.0000     7.9398     8.1847   130.6730   -57.9911  -999.2500
  567.5000     7.9106     8.1869   131.4076   -58.1312  -999.2500
