~VERSION INFORMATION
 VERS.                2.0:   CWLS LOG ASCII STANDARD - VERSION 2.0
 WRAP.                 NO:   ONE LINE PER DEPTH STEP
~WELL INFORMATION
#MNEM.UNIT      DATA TYPE    INFORMATION
#----------   ------------   ------------------------------
 STRT.F          142.0000:   START DEPTH
 STOP.F          940.5000:   STOP DEPTH
 STEP.F            0.5000:   STEP LENGTH
 NULL.          -999.2500:   NO VALUE
 COMP. U S NAVY-INTEX OIL:   COMPANY
 WELL.     RESERVE #44S-2:   WELL
 FLD .             TEAPOT:   FIELD
 LOC .       S2 T38N R78W:   LOCATION
 CNTY.            NATRONA:   COUNTY
 STAT.            WYOMING:   STATE
 CTRY. UNITED STATES OF AMERICA:   COUNTRY
 SRVC. Schlumberger Well Surveying Corp:   SERVICE COMPANY
 DATE.        06-AUG-1959:   LOGDATE
 API .       490250644200:   API NUMBER
~CURVE INFORMATION
#MNEM.UNIT       API CODE    CURVE DESCRIPTION
#----------   ------------   ------------------------------
 DEPT.F                  :   
 ASN .OHMM   05 041 16 00:   AMPLIFIER SHORT NORMAL 16"
 CILD.MMHO   05 110 46 00:   CONDUCTIVITY INDUCTION LOG DEEP
 ILD .OHMM   05 110 46 00:   INDUCTION LOG DEEP
 SPR .MV     05 010 01 00:   SPONTANEOUS POTENTIAL FROM RES.
~PARAMETER INFORMATION
#MNEM.UNIT          VALUE    DESCRIPTION
#----------   ------------   ------------------------------
 LMF .                 KB:   LOG MEASURED FROM
 DMF .                 KB:   DRILLING MEASURED FROM
 EDF .F              5146:   DRILLING FLOOR
 EGL .F              5142:   GROUND LEVEL
 DATE.        06-AUG-1959:   RUN DATE
 RUN .                  1:   RUN NUMBER
 DD  .F               948:   DEPTH DRILLER
 DL  .F               946:   DEPTH LOGGER
 BLI .F               940:   BOTTOM LOG INTERVAL
 TLI .F               143:   TOP LOG INTERVAL
 CBD .F                17:   CASING BOTTOM DRILLER
 BS  .IN             6.75:   BIT SIZE
 BSD .F               948:   BIT SIZE AT DEPTH
 DFT .                GEL:   DRILLING FLUID TYPE
 RMS .OHMM             75:   RESISTIVITY MUD SAMPLE
 MST .F                75:   MUD SAMPLE TEMPERATURE
 TCS .HRS               1:   TIME CURCULATED STOPPED
 LUN .               2754:   LOGGING UNIT NUMBER
 LUL .                 NC:   LOGGING UNIT LOCATION
 ENGI.             QUINBY:   RECORDING ENGINEER
 WITN.             MARTIN:   WITNESSED BY
 CLNT.            A2DTECH:   CLIENT CODE
 ORIG.        2" 5" PRINT:   ORIGIN OF DATA
 UWI .       490250644200:   UNIQUE WELL ID
 DICO. A2D Technologies, Inc.:   DIGITIZING COMPANY
~OTHER INFORMATION
~A   DEPT      ASN       CILD        ILD        SPR   
# ...
  580.0000    10.8672    97.1041     9.8960   -64.1489
  580.5000    10.7988    97.1153     9.8951   -64.1509
  581.0000    10.7980    97.1244     9.8942   -64.1531
  581.5000    10.8275    97.1346     9.8933   -64.1549
  582.0000    10.8699    97.1466     9.8923   -64.1569
  582.5000    10.9992    97.1550     9.8915   -64.1592
  583.0000    11.0903    97.1653     9.8905   -64.1609
  583.5000    11.2012    97.1753     9.8895   -64.1569
  584.0000    11.2683    96.5054     9.9186   -64.0319
  584.5000    11.1820    96.5179     9.9557   -63.9920
  585.0000    10.9959    96.5271     9.9546   -63.9029
  585.5000    10.7870    96.6131     9.9539   -63.7719
  586.0000    10.5763    97.2279     9.9530   -63.6117
  586.5000    10.4518    97.2364     9.8842   -63.5100
  587.0000    10.3532    97.9254     9.7133   -63.4468
  587.5000    10.2452    98.3598     9.5431   -63.3808
  588.0000    10.2029    99.9819     9.4033   -63.3833
  588.5000    10.1568   100.6716     9.2592   -63.3850
  589.0000    10.1055   102.0521     9.0655   -63.5199
  589.5000    10.0541   103.5939     9.0354   -63.6104
  590.0000    10.0028   105.4539     8.9236   -63.7899
  590.5000     9.9484   106.6775     8.7913   -63.9249
  591.0000     9.9201   108.2036     8.7677   -64.0598
  591.5000     9.8732   109.3189     8.7218   -64.0891
  592.0000     9.8125   111.1132     8.6531   -64.1970
  592.5000     9.7988   112.2913     8.5844   -64.3318
  593.0000     9.7851   112.9796     8.5155   -64.3338
  593.5000     9.7578   113.6686     8.5147   -64.3361
  594.0000     9.7480   113.6800     8.5138   -64.4960
  594.5000     9.7034   114.3676     8.5806   -64.6057
  595.0000     9.5976   114.3778     8.5798   -64.6077
  595.5000     9.4717   114.3900     8.6468   -64.6097
  596.0000     9.4320   114.3982     8.6457   -64.6118
  596.5000     9.5635   115.0875     8.7128   -64.6137
  597.0000     9.6287   115.0973     8.7119   -64.6157
  597.5000     9.6619   115.1075     8.7517   -64.4849
  598.0000     9.5474   115.1188     8.7781   -64.4255
  598.5000     9.4042   115.1278     8.7091   -64.0645
  599.0000     9.4311   115.1380     8.6061   -63.6931
  599.5000     9.4446   114.4713     8.4167   -63.3318
  600.0000     9.4309   114.4796     8.1636   -63.0319
  600.5000     9.2607   115.8475     7.9711   -62.7680
  601.0000     8.5486   119.0949     7.7483   -62.6011
  601.5000     8.4955   122.2728     7.4824   -62.5060
  602.0000     8.4103   126.0598     7.3704   -62.5080
  602.5000     8.2080   129.0725     7.2772   -62.5100
  603.0000     8.0209   134.1177     7.2085   -62.5122
  603.5000     7.9677   138.5610     7.1398   -62.4548
  604.0000     7.9393   141.6290     7.2066   -62.3829
  604.5000     8.0204   143.7286     7.2736   -62.5244
  605.0000     8.0574   145.9729     7.2818   -62.5266
  605.5000     8.1257   144.3439     7.3397   -62.3963
  606.0000     8.1843   140.2531     7.4066   -62.3165
  606.5000     8.2362   136.7692     7.4763   -62.2682
  607.0000     8.2858   135.5204     7.6081   -62.2715
  607.5000     8.3333   135.2037     7.6754   -62.2041
  608.0000     8.3469   134.7603     7.7422   -62.1434
  608.5000     8.3333   134.1629     7.7808   -62.1466
  609.0000     8.3198   133.4842     7.8084   -62.0917
  609.5000     8.3508   132.7511     7.8200   -62.0185
  610.0000     8.4327   130.7692     7.8743   -62.0218
  610.5000     8.5637   129.8280     7.9044   -62.0239
  611.0000     8.6453   128.0272     7.9466   -62.0266
  611.5000     8.7127   126.6968     8.0749   -62.0293
  612.0000     8.7127   125.3394     8.0742   -62.0319
  612.5000     8.7094   123.9819     8.0733   -62.0348
  613.0000     8.6856   123.9819     8.0724   -62.0372
  613.5000     8.6650   124.6606     8.0531   -62.0399
  614.0000     8.6406   125.3394     8.0027   -62.0429
  614.5000     8.5908   125.3394     7.9340   -61.9122
  615.0000     8.5519   126.0181     7.9210   -61.9149
  615.5000     8.5085   126.6968     7.7964   -61.9181
  616.0000     8.4824   127.7647     7.7956   -61.9202
  616.5000     8.4688   128.0543     7.7947   -61.9229
  617.0000     8.4688   128.7330     7.7936   -62.0585
  617.5000     8.5210   129.4118     7.7929   -62.0911
  618.0000     8.5875   129.4118     7.8598   -62.3300
  618.5000     8.6450   128.7330     7.9267   -62.3324
  619.0000     8.6935   128.3981     8.0115   -62.4681
  619.5000     8.7443   127.2760     8.0606   -62.4711
  620.0000     8.7127   126.6968     8.0597   -62.4202
  620.5000     8.5459   126.0181     8.0588   -62.2055
  621.0000     8.5095   126.6968     8.0578   -61.9907
  621.5000     8.5230   126.6968     8.0570   -61.8160
  622.0000     8.6143   127.3756     8.0510   -61.6863
  622.5000     8.6992   127.4208     7.9872   -61.6124
  623.0000     8.7011   128.7330     7.9186   -61.5582
  623.5000     8.5123   129.6652     7.8844   -61.4284
  624.0000     8.4011   130.7692     7.8489   -61.4309
  624.5000     8.3596   131.4480     7.7802   -61.4182
  625.0000     8.3446   132.3530     7.7114   -61.3032
  625.5000     8.3198   133.4842     7.6427   -61.3059
  626.0000     8.2943   133.9185     7.5631   -61.3085
  626.5000     8.2197   135.0407     7.4372   -61.2241
  627.0000     8.0894   136.1991     7.3394   -61.1423
  627.5000     7.9343   137.9638     7.2275   -61.0505
  628.0000     7.8049   139.9366     7.0953   -61.0532
  628.5000     7.6289   142.3077     6.9359   -60.8969
  629.0000     7.4992   144.8055     6.8222   -60.7926
  629.5000     7.3713   149.6742     6.6444   -60.7334
  630.0000     7.1698   153.8462     6.5159   -60.5318
  630.5000     6.9507   159.3851     6.2767   -60.5350
  631.0000     6.6125   165.0589     6.1381   -60.5372
  631.5000     6.4740   168.7783     5.9153   -60.6735
  632.0000     6.4081   171.7917     5.7991   -60.8936
  632.5000     6.4770   174.9773     5.7877   -61.2833
  633.0000     6.7433   176.2443     6.0845   -61.7448
  633.5000     7.0190   172.1174     6.5426   -61.8803
  634.0000     7.2275   162.4605     6.6320   -61.8830
  634.5000     7.3214   149.7738     6.7444   -61.8859
  635.0000     7.4390   147.8733     6.8521   -61.7088
  635.5000     7.5359   145.6652     6.9463   -61.0705
  636.0000     7.6199   144.3439     6.9452   -60.8298
  636.5000     7.6558   143.4209     6.9787   -60.9268
  637.0000     7.6498   142.9774     7.0114   -61.2341
  637.5000     7.6140   142.3077     7.0103   -61.3697
  638.0000     7.6016   141.6290     7.0095   -61.3378
  638.5000     7.6016   141.6290     6.9408   -61.1092
  639.0000     7.6016   142.0543     6.9397   -60.8378
  639.5000     7.6016   142.9864     6.8494   -60.2945
  640.0000     7.6016   144.2535     6.7375   -60.0798
  640.5000     7.3711   150.4639     6.9271   -60.4296
  641.0000     7.1704   151.1736     6.6548   -60.5610
  641.5000     7.0077   153.2332     6.3828   -60.5560
  642.0000     6.8585   155.9705     6.1785   -60.5520
  642.5000     6.6822   161.4186     5.9742   -60.5480
  643.0000     6.5466   172.9662     5.7023   -60.4087
  643.5000     6.3026   182.4806     5.4980   -60.4038
  644.0000     5.8824   195.3836     5.2936   -60.3998
  644.5000     5.5841   202.1872     5.0214   -60.3959
  645.0000     5.3130   206.2801     4.8847   -60.3919
  645.5000     5.3142   209.9601     4.8158   -60.3879
  646.0000     5.3534   218.5383     4.8145   -60.5193
  646.5000     5.3397   222.6310     4.9485   -60.6516
  647.0000     5.6918   219.9466     5.2854   -60.9183
  647.5000     6.2608   209.2117     5.5547   -61.0487
  648.0000     6.7485   186.7917     5.8917   -61.1800
  648.5000     6.8839   173.2640     6.2979   -61.1759
  649.0000     7.0328   162.4471     6.5065   -60.9012
  649.5000     7.1275   154.3410     6.6320   -60.7611
  650.0000     7.2493   150.9789     6.6984   -61.0278
  650.5000     7.3468   149.6500     6.7647   -61.4307
  651.0000     7.4929   148.9987     6.8310   -61.8317
  651.5000     7.5876   147.6764     6.9647   -61.8277
  652.0000     7.6959   145.6697     7.0314   -61.6884
  652.5000     7.8313   143.6631     7.1650   -61.2785
