~VERSION INFORMATION
 VERS.                2.0:   CWLS LOG ASCII STANDARD - VERSION 2.0
 WRAP.                 NO:   ONE LINE PER DEPTH STEP
~WELL INFORMATION
#MNEM.UNIT      DATA TYPE    INFORMATION
#----------   ------------   ------------------------------
 STRT.F            6.0000:   START DEPTH
 STOP.F          606.0000:   STOP DEPTH
 STEP.F            0.5000:   STEP LENGTH
 NULL.          -999.2500:   NO VALUE
 COMP. LAWRENCE/ALLISON INC:   COMPANY
 WELL.       61 STX #15-3:   WELL
 FLD .             TEAPOT:   FIELD
 LOC .       S3 T38N R78W:   LOCATION
 CNTY.            NATRONA:   COUNTY
 STAT.            WYOMING:   STATE
 CTRY. UNITED STATES OF AMERICA:   COUNTRY
 SRVC.      Dresser Atlas:   SERVICE COMPANY
 DATE.        23-SEP-1987:   LOGDATE
 API .       490251115900:   API NUMBER
~CURVE INFORMATION
#MNEM.UNIT       API CODE    CURVE DESCRIPTION
#----------   ------------   ------------------------------
 DEPT.F                  :   
 GRR .GAPI   07 310 01 00:   GAMMA RAY
 RILD.OHMM   07 120 46 00:   INDUCTION LOG DEEP RESISTIVITY
 RILM.OHMM   07 120 44 00:   INDUCTION LOG MEDIUM RESISTIVITY
~PARAMETER INFORMATION
#MNEM.UNIT          VALUE    DESCRIPTION
#----------   ------------   ------------------------------
 PD  .                 GL:   PERMANENT DATUM
 EPD .F              5230:   ELEVATION PERMANENT DATUM
 LMF .                 KB:   LOG MEASURED FROM
 DAPD.F                 8:   FEET ABOVE PERMANENT DATUM
 DMF .                 KB:   DRILLING MEASURED FROM
 EKB .F              5238:   KELLING BUSHING
 EGL .F              5230:   GROUND LEVEL
 DATE.        23-SEP-1987:   RUN DATE
 RUN .                  1:   RUN NUMBER
 DD  .F               618:   DEPTH DRILLER
 DL  .F               614:   DEPTH LOGGER
 BLI .F               612:   BOTTOM LOG INTERVAL
 TLI .F                 8:   TOP LOG INTERVAL
 CS  .IN            9.625:   CASING SIZE
 CBD .F                50:   CASING BOTTOM DRILLER
 CBL .F                49:   CASING BOTTOM LOGGER
 BS  .IN             8.75:   BIT SIZE
 BSD .F               618:   BIT SIZE AT DEPTH
 DFT .                AIR:   DRILLING FLUID TYPE
 TCS .HRS               1:   TIME CURCULATED STOPPED
 LUN .            HL-6274:   LOGGING UNIT NUMBER
 LUL .           GILLETTE:   LOGGING UNIT LOCATION
 ENGI.            PANASUK:   RECORDING ENGINEER
 WITN.             STRONG:   WITNESSED BY
 CLNT.            A2DTECH:   CLIENT CODE
 ORIG.       2", 5" PRINT:   ORIGIN OF DATA
 UWI .       490251115900:   UNIQUE WELL ID
 DICO. A2D Technologies, Inc.:   DIGITIZING COMPANY
~OTHER INFORMATION
~A    DEPT      GRR      RILD       RILM   
    6.0000    42.9985  -999.2500  -999.2500
    6.5000    43.6992  -999.2500  -999.2500
    7.0000    44.8450  -999.2500  -999.2500
    7.5000    46.4404  -999.2500  -999.2500
    8.0000    48.4948  -999.2500  -999.2500
    8.5000    51.8856  -999.2500  -999.2500
    9.0000    55.0553  -999.2500  -999.2500
    9.5000    59.7992  -999.2500  -999.2500
   10.0000    65.8924  -999.2500  -999.2500
   10.5000    71.0914  -999.2500  -999.2500
   11.0000    73.5864  -999.2500  -999.2500
   11.5000    75.4068  -999.2500  -999.2500
   12.0000    75.2032  -999.2500  -999.2500
   12.5000    74.5315  -999.2500  -999.2500
   13.0000    73.6715  -999.2500  -999.2500
   13.5000    73.0234  -999.2500  -999.2500
   14.0000    73.2696  -999.2500  -999.2500
   14.5000    73.7414  -999.2500  -999.2500
   15.0000    74.8916  -999.2500  -999.2500
   15.5000    75.1325  -999.2500  -999.2500
   16.0000    74.4791  -999.2500  -999.2500
   16.5000    74.2804  -999.2500  -999.2500
   17.0000    75.0120  -999.2500  -999.2500
   17.5000    76.3526  -999.2500  -999.2500
   18.0000    77.0485  -999.2500  -999.2500
   18.5000    76.8449  -999.2500  -999.2500
   19.0000    75.2594  -999.2500  -999.2500
   19.5000    73.9639  -999.2500  -999.2500
   20.0000    74.6651  -999.2500  -999.2500
   20.5000    76.4855  -999.2500  -999.2500
   21.0000    78.0810  -999.2500  -999.2500
   21.5000    78.5574  -999.2500  -999.2500
   22.0000    77.6791  -999.2500  -999.2500
   22.5000    73.4275  -999.2500  -999.2500
   23.0000    67.8265  -999.2500  -999.2500
   23.5000    68.3951  -999.2500  -999.2500
   24.0000    71.9224  -999.2500  -999.2500
   24.5000    73.5179  -999.2500  -999.2500
   25.0000    73.7640  -999.2500  -999.2500
   25.5000    72.6608  -999.2500  -999.2500
   26.0000    72.9123  -999.2500  -999.2500
   26.5000    73.6082  -999.2500  -999.2500
   27.0000    74.3042  -999.2500  -999.2500
   27.5000    72.9761  -999.2500  -999.2500
   28.0000    70.7538  -999.2500  -999.2500
   28.5000    70.3200  -999.2500  -999.2500
   29.0000    72.3706  -999.2500  -999.2500
   29.5000    73.7411  -999.2500  -999.2500
   30.0000    73.7031  -999.2500  -999.2500
   30.5000    71.3152  -999.2500  -999.2500
   31.0000    70.4316  -999.2500  -999.2500
   31.5000    72.9320  -999.2500  -999.2500
   32.0000    74.0900  -999.2500  -999.2500
   32.5000    70.9558  -999.2500  -999.2500
   33.0000    69.8473  -999.2500  -999.2500
   33.5000    71.2233  -999.2500  -999.2500
   34.0000    72.5938  -999.2500  -999.2500
   34.5000    73.9698  -999.2500  -999.2500
   35.0000    74.4408  -999.2500  -999.2500
   35.5000    74.6869  -999.2500  -999.2500
   36.0000    75.1580  -999.2500  -999.2500
   36.5000    76.5847  -999.2500  -999.2500
   37.0000    79.4787  -999.2500  -999.2500
   37.5000    80.3942  -999.2500  -999.2500
   38.0000    77.9470  -999.2500  -999.2500
   38.5000    79.3373  -999.2500  -999.2500
   39.0000    81.8180  -999.2500  -999.2500
   39.5000    83.4134  -999.2500  -999.2500
   40.0000    85.0089  -999.2500  -999.2500
   40.5000    84.3555  -999.2500  -999.2500
   41.0000    82.1332  -999.2500  -999.2500
   41.5000    79.6807  -999.2500  -999.2500
   42.0000    80.1518  -999.2500  -999.2500
   42.5000    81.7472  -999.2500  -999.2500
   43.0000    83.3688  -999.2500  -999.2500
   43.5000    84.0387  -999.2500  -999.2500
   44.0000    79.7924  -999.2500  -999.2500
   44.5000    79.1337  -999.2500  -999.2500
   45.0000    79.4003  -999.2500  -999.2500
   45.5000    82.5601  -999.2500  -999.2500
   46.0000    87.3040  -999.2500  -999.2500
   46.5000    94.7466  -999.2500  -999.2500
   47.0000   103.3136  -999.2500  -999.2500
   47.5000   111.2112  -999.2500  -999.2500
   48.0000   115.9551  -999.2500  -999.2500
   48.5000   118.8999  -999.2500  -999.2500
   49.0000   120.9452     2.1295     3.9340
   49.5000   122.3396     4.4068     5.3361
   50.0000   123.4668     7.7774     7.5445
   50.5000   124.1627    10.3356    11.3517
   51.0000   124.4089    10.8556    12.5147
   51.5000   123.5097     6.6472     9.8304
   52.0000   114.7582     5.8725     7.3569
   52.5000   113.4238     6.1255     6.8646
   53.0000   113.4386     6.0321     7.4913
   53.5000   116.8418     5.3416     8.2904
   54.0000   120.2187     5.1983     8.5279
   54.5000   118.6593     6.1425     8.0737
   55.0000   117.9995     7.2578     7.3572
   55.5000   118.2392     7.4663     7.0392
   56.0000   121.8560     7.1673     7.1920
   56.5000   123.4451     7.0735     7.3980
   57.0000   123.2350     7.0792     7.5577
   57.5000   122.1254     7.0839     7.6684
   58.0000   118.7707     7.0885     7.6729
   58.5000   116.0869     7.0932     7.6774
   59.0000   112.7284     7.0488     7.6235
   59.5000   111.3940     7.0059     7.4767
   60.0000   112.1739     7.0105     7.3286
   60.5000   115.4753     6.9648     7.2322
   61.0000   118.4137     6.8754     7.0878
   61.5000   121.1272     6.7864     6.9474
   62.0000   122.7163     6.7429     6.8088
   62.5000   119.8113     6.5190     6.7182
   63.0000   119.5976     6.3462     6.7232
   63.5000   120.2908     6.2630     6.7747
   64.0000   120.3056     6.2671     6.8731
   64.5000   117.1758     6.3586     7.0700
   65.0000   118.0902     6.6336     7.4870
   65.5000   118.7797     6.9674     8.5324
   66.0000   117.6522     7.3179     9.4705
   66.5000   111.1669     7.6862    10.0845
   67.0000    99.0379     7.9083    10.0904
   67.5000    81.7364     7.9684     9.7547
   68.0000    73.8802     7.9736     9.3637
   68.5000    79.0711     7.9788     8.8650
   69.0000   101.5747     7.9290     8.3906
   69.5000   113.5086     7.8807     8.1136
   70.0000   115.9973     7.7239     8.1747
   70.5000   113.7669     7.5179     8.2362
   71.0000   112.8785     7.3643     8.3559
   71.5000   113.3469     7.2717     8.3619
   72.0000   115.6106     7.3282     8.3669
   72.5000   118.6694     7.3839     8.2568
   73.0000   123.2902     7.4401     8.2040
   73.5000   125.3290     7.4978     7.9867
   74.0000   125.3439     7.5027     7.8273
   74.5000   124.1926     7.4546     7.6183
   75.0000   121.7791     7.3582     7.4662
   75.5000   120.2197     7.1631     7.3183
   76.0000   119.5562     6.9721     7.0250
   76.5000   119.5750     6.8333     6.8374
   77.0000   120.2680     6.6511     6.6548
   77.5000   121.8570     6.3859     6.5229
   78.0000   123.2212     6.2156     6.3918
   78.5000   123.2391     6.0918     6.6215
   79.0000   124.3791     6.0120     6.8112
   79.5000   126.8677     5.9755     6.6303
   80.0000   128.0033     6.0209     6.2771
   80.5000   125.0983     6.0248     6.1936
   81.0000   122.1933     6.0706     6.2412
   81.5000   119.7344     6.1169     6.2891
   82.0000   116.3760     6.2071     6.3364
   82.5000   114.5917     6.2977     6.4284
   83.0000   114.8352     6.3896     6.5218
   83.5000   118.8980     6.4830     7.4945
   84.0000   122.0613     6.6243     9.2276
   84.5000   124.5499     6.7676     9.6227
   85.0000   125.9445     6.9141     7.8258
   85.5000   123.2340     7.0658     7.4604
   86.0000   117.6266     7.2679     7.5698
   86.5000   115.1677     7.3740     7.8407
   87.0000   115.4078     7.4301     7.8495
   87.5000   117.0002     7.4349     7.5842
   88.0000   118.1395     7.4410     7.4318
   88.5000   116.5802     7.3435     7.5408
   89.0000   112.0735     7.2462     7.7034
   89.5000   110.7628     7.1031     7.6032
   90.0000   115.0542     6.9628     7.3491
   90.5000   116.1898     6.8716     7.0546
   91.0000   114.4092     6.7816     6.8188
   91.5000   115.1025     6.6466     6.7228
   92.0000   117.5911     6.5606     6.6416
   92.5000   120.3046     6.5649     6.5987
   93.0000   121.2190     6.5692     6.6035
   93.5000   121.6873     6.6191     6.6133
   94.0000   121.9271     6.6695     6.8449
   94.5000   119.6930     6.7212     7.2886
   95.0000   117.9088     6.8193     7.4080
   95.5000   116.3494     6.9669     6.9524
   96.0000   117.4924     7.2210     7.2022
   96.5000   118.8566     7.5813     7.6692
