~VERSION INFORMATION
 VERS.                2.0:   CWLS LOG ASCII STANDARD - VERSION 2.0
 WRAP.                 NO:   ONE LINE PER DEPTH STEP
~WELL INFORMATION
#MNEM.UNIT      DATA TYPE    INFORMATION
#----------   ------------   ------------------------------
 STRT.F            0.0000:   START DEPTH
 STOP.F         3030.0000:   STOP DEPTH
 STEP.F            0.5000:   STEP LENGTH
 NULL.          -999.2500:   NO VALUE
 COMP. LAWRENCE/ALLISON INC:   COMPANY
 WELL. NAVAL PETROLEUM RESERVE 3 AX-3 #36  X 34-34:   WELL
 FLD .         N. P. R #3:   FIELD
 LOC .      S34 T39N R78W:   LOCATION
 CNTY.            NATRONA:   COUNTY
 STAT.            WYOMING:   STATE
 CTRY. UNITED STATES OF AMERICA:   COUNTRY
 SRVC.      Dresser Atlas:   SERVICE COMPANY
 DATE.        29-JUN-1985:   LOGDATE
 API .       490251103200:   API NUMBER
~CURVE INFORMATION
#MNEM.UNIT       API CODE    CURVE DESCRIPTION
#----------   ------------   ------------------------------
 DEPT.F                  :   
 RFOC.OHMM   07 220 01 00:   RESISTIVITY FOCUSED LOG
 RILM.OHMM   07 120 44 00:   RESITIVITY LONG MEDIUM
 SPR .MV     07 010 01 00:   SPONTANEOUS POTENTIAL
 RILD.OHMM   07 120 46 00:   INDUCTION LOG DEEP RESITIVITY
 GRR .GAPI   07 310 01 00:   GAMMA RAY
 DT  .US/F   60 520 00 00:   INTERVAL TRANSIT TIME
 CALD.IN     45 280 60 00:   CALIPER FROM DENSITY LOG
 CORR.G/C3   45 356 01 00:   DENSITY CORRECTION
 CNC .DEC    42 890 03 00:   NEUTRON POROSITY SANDSTONE
 DEN .G/C3   45 350 01 00:   COMPENSATED BULK DENSTIY
 PORD.DEC    45 890 12 00:   POROSITY DENSITY SANDSTONE
~PARAMETER INFORMATION
#MNEM.UNIT          VALUE    DESCRIPTION
#----------   ------------   ------------------------------
 PD  .                 GL:   PERMANENT DATUM
 EPD .F              5108:   ELEVATION PERMANENT DATUM
 LMF .                 KB:   LOG MEASURED FROM
 DAPD.F                12:   FEET ABOVE PERMANENT DATUM
 DMF .                 KB:   DRILLING MEASURED FROM
 EKB .F              5120:   KELLING BUSHING
 EGL .F              5108:   GROUND LEVEL
 DATE.       29-JUNE-1985:   RUN DATE
 RUN .                  1:   RUN NUMBER
 DD  .F              3033:   DEPTH DRILLER
 DL  .F              3033:   DEPTH LOGGER
 BLI .F              3030:   BOTTOM LOG INTERVAL
 CS  .IN            8.625:   CASING SIZE
 CBD .F               601:   CASING BOTTOM DRILLER
 CBL .F               601:   CASING BOTTOM LOGGER
 BS  .IN            7.875:   BIT SIZE
 BSD .F              3033:   BIT SIZE AT DEPTH
 DFT .   FOAM & KCL WATER:   DRILLING FLUID TYPE
 MSS .           FLOWLINE:   MUD SAMPLE SOURCE
 RMS .OHMM           0.44:   RESISTIVITY MUD SAMPLE
 MST .F                82:   MUD SAMPLE TEMPERATURE
 RMF .OHMM           0.44:   RESISTIVITY MUD FILTRATE SAMPLE
 MFST.F                82:   MUD FILTRATE SAMPLE TEMPERATURE
 MFSS.               MEAS:   MUD FILTRATE SAMPLE SOURCE
 RMB .OHMM           0.31:   RESISTIVITY MUD AT BHT
 BHT .F               116:   BOTTOM HOLE TEMPERATURE
 TCS .HRS               3:   TIME CURCULATED STOPPED
 MRT .F               116:   MAXIMUM RECORDED TEMPERATURE
 LUN .               6274:   LOGGING UNIT NUMBER
 LUL .               GLTE:   LOGGING UNIT LOCATION
 ENGI.             RAUTIO:   RECORDING ENGINEER
 WITN.       MR. JENNINGS:   WITNESSED BY
 CLNT.            A2DTECH:   CLIENT CODE
 ORIG.        2" 5" PRINT:   ORIGIN OF DATA
 UWI .       490251103200:   UNIQUE WELL ID
 DICO. A2D Technologies, Inc.:   DIGITIZING COMPANY
~OTHER INFORMATION
~A    DEPT    RFOC       RILM        SPR       RILD         GRR        DT       CALD       CORR        CNC        DEN       PORD   
# ...
 2989.0000     4.3441     3.5601    83.2149     3.5729   115.7999    83.7625     7.6449    -0.0005     0.2579     2.4567     0.1198
 2989.5000     4.2272     3.4639    83.2135     3.4797   115.8058    83.4587     7.6447     0.0011     0.2591     2.4523     0.1247
 2990.0000     4.1679     3.3700    83.2120     3.4094   116.1163    83.3056     7.6647     0.0056     0.2600     2.4455     0.1274
 2990.5000     4.0032     3.3015    83.3621     3.3405   116.1220    83.2195     7.6746     0.0102     0.2613     2.4396     0.1280
 2991.0000     3.8955     3.2569    83.3603     3.2726   116.1277    83.6771     7.6744     0.0163     0.2630     2.4381     0.1258
 2991.5000     3.8432     3.1907    83.3589     3.2068   116.1335    84.5036     7.6771     0.0224     0.2648     2.4449     0.1216
 2992.0000     3.8460     3.0616    83.3575     3.1400   115.8356    85.4809     7.6892     0.0255     0.2669     2.4532     0.1183
 2992.5000     3.8750     2.9786    83.3560     3.0362   116.1463    86.0435     7.6890     0.0135     0.2697     2.4570     0.1171
 2993.0000     3.8772     2.9382    83.5058     2.9953   116.1520    86.0031     7.6888     0.0106     0.2742     2.4563     0.1161
 2993.5000     3.7463     2.9188    83.6559     2.9351   116.1578    85.8500     7.6887     0.0227     0.2760     2.4548     0.1198
 2994.0000     3.5672     2.8796    83.8063     2.8757   116.1648    85.6969     7.6886     0.0228     0.2763     2.4503     0.1240
 2994.5000     3.4986     2.8001    83.9561     2.7981   116.1706    86.2220     7.7185     0.0138     0.2747     2.4391     0.1270
 2995.0000     3.5502     2.7258    83.9543     2.7404   115.8713    86.9899     7.7184     0.0079     0.2744     2.4369     0.1279
 2995.5000     3.5770     2.6704    84.1047     2.6864   115.8786    87.2717     7.7182     0.0080     0.2741     2.4347     0.1288
 2996.0000     3.5295     2.6162    84.2548     2.6501   115.8856    87.1939     7.7256     0.0050     0.2747     2.4317     0.1312
 2996.5000     3.4345     2.5630    84.4045     2.5788   115.8913    87.1168     7.7330     0.0020     0.2780     2.4220     0.1351
 2997.0000     3.3189     2.5107    84.4027     2.5267   115.5936    87.1891     7.7328    -0.0068     0.2801     2.4115     0.1396
 2997.5000     3.2289     2.4599    84.8559     2.4585   115.5994    87.6383     7.7327    -0.0248     0.2783     2.3980     0.1454
 2998.0000     3.1393     2.4252    85.1578     2.4088   115.6064    88.7663     7.7325    -0.0519     0.2789     2.3913     0.1565
 2998.5000     2.9952     2.3774    85.4591     2.3765   115.3086    90.5725     7.7324    -0.0276     0.2813     2.3928     0.1577
 2999.0000     2.9551     2.3617    85.4573     2.3450   115.3143    91.6252     7.7322    -0.0201     0.2852     2.3974     0.1544
 2999.5000     2.9572     2.3461    85.4559     2.3461   115.3202    91.7735     7.7321    -0.0185     0.2907     2.3989     0.1514
 3000.0000     3.0424     2.3429    85.4544     2.3252   115.3272    91.6198     7.7319    -0.0184     0.2958     2.4005     0.1492
 3000.5000     3.0653     2.3155    85.4530     2.2988   115.6364    91.1653     7.7468    -0.0183     0.2979     2.4050     0.1480
 3001.0000     3.0458     2.3162    85.2997     2.3151   115.6421    90.5600     7.7467    -0.0167     0.2936     2.4035     0.1486
 3001.5000     3.0254     2.3170    85.0160     2.2993   115.9514    90.2562     7.7465    -0.0047     0.2836     2.4028     0.1489
 3002.0000     3.0071     2.3017    84.8681     2.2996   115.9585    90.1030     7.7464    -0.0001     0.2752     2.4036     0.1483
 3002.5000     2.9879     2.3027    84.8741     2.2681   115.9642  -999.2500     7.7462    -0.0030     0.2758     2.4074     0.1474
 3003.0000     2.9692     2.3034    84.8790     2.1908   115.9699  -999.2500     7.7461    -0.0134     0.2821     2.4089     0.1453
 3003.5000     2.9499     2.3042    85.0354     2.1162   115.9757  -999.2500     7.7459    -0.0269     0.2914     2.4120     0.1428
 3004.0000     2.9107     2.3050    85.0413     2.0584   115.9827  -999.2500     7.7458    -0.0118     0.3034     2.4204     0.1383
 3004.5000     2.9742     2.2740    85.0461     2.0443   115.6835  -999.2500     7.7771     0.0153     0.3104     2.4329     0.1338
 3005.0000     3.0176     2.2278    85.0509     2.0303   115.6907  -999.2500     7.7771     0.0169     0.3044     2.4239     0.1329
 3005.5000     3.0847     2.1524    84.9042     2.0306   115.6965  -999.2500     7.7771     0.0215     0.2995     2.4134     0.1367
 3006.0000     3.1063     2.0795    84.7473     2.0168   115.7035  -999.2500     7.7771     0.0576     0.2977     2.4104     0.1435
 3006.5000     2.8070     1.9950    84.3090     2.0170   116.0127  -999.2500     7.7771     0.0472     0.3007     2.4195     0.1399
 3007.0000     2.6555     1.9011    84.0095     2.0173   116.0184  -999.2500     7.7771     0.0352     0.3034     2.4270     0.1332
 3007.5000     2.5652     1.8495    83.7113     2.0175   115.9990  -999.2500     7.7790     0.0323     0.3040     2.4345     0.1296
 3008.0000     2.5666     1.8246    83.4141     2.0318   115.7264  -999.2500     7.7922     0.0369     0.3037     2.4376     0.1293
 3008.5000     2.6206     1.8252    83.2676     2.0320   115.7335  -999.2500     7.7922     0.0415     0.3034     2.4376     0.1302
 3009.0000     2.6580     1.8258    82.9706     2.0323   115.7392  -999.2500     7.8072     0.0461     0.3028     2.4361     0.1314
 3009.5000     2.7147     1.8265    82.6724     2.0184   115.7451  -999.2500     7.8072     0.0221     0.3018     2.4316     0.1329
 3010.0000     2.7342     1.8399    82.3729     2.0046   115.7521  -999.2500     7.8072    -0.0034     0.3060     2.4234     0.1363
 3010.5000     2.7751     1.8405    81.9244     1.9635   115.7578  -999.2500     7.8072    -0.0303     0.3072     2.4091     0.1471
 3011.0000     2.9328     1.8411    81.6262     1.9098   115.7635  -999.2500     7.8072    -0.0378     0.3078     2.3866     0.1583
 3011.5000     2.7746     1.8675    81.4795     1.8704   115.7442  -999.2500     7.8072    -0.0317     0.3054     2.3723     0.1689
 3012.0000     2.6432     1.8814    81.4855     1.8322   115.4212  -999.2500     7.8072    -0.0256     0.3045     2.3707     0.1692
 3012.5000     2.5180     1.8951    81.4903     1.8197   114.8702  -999.2500     7.8072    -0.0195     0.3085     2.3806     0.1639
 3013.0000     2.5588     1.9090    81.4951     1.8199   114.8773  -999.2500     7.8072    -0.0104     0.3096     2.4047     0.1562
 3013.5000     3.1699     1.9229    81.3484     1.8074   114.8832  -999.2500     7.8072    -0.0043     0.3071     2.4130     0.1417
 3014.0000     3.3058     1.9236    81.3544     1.8203   115.1937  -999.2500     7.8072    -0.0013     0.3086     2.4161     0.1417
 3014.5000     3.3529     1.9244    81.5107     1.8332   115.5029  -999.2500     7.8137     0.0003  -999.2500     2.4183     0.1414
 3015.0000     3.4007     1.9250    81.5156     1.8721   115.5086  -999.2500     7.8223     0.0049  -999.2500     2.4221     0.1384
 3015.5000     3.4254     2.0077    81.6719     1.9658   115.8179  -999.2500     7.8223     0.0140  -999.2500     2.4386     0.1302
 3016.0000     3.4985     2.2922    81.8283     2.1223   115.8249  -999.2500     7.8223     0.0276  -999.2500     2.4664     0.1174
 3016.5000     3.5731     2.5514    81.8342     2.3560   115.8306  -999.2500     7.8223     0.0622  -999.2500     2.4860     0.1077
 3017.0000     3.6493     2.8066    81.8390     2.6006   115.8363  -999.2500     7.8223     0.0773  -999.2500     2.4935     0.0988
 3017.5000     3.8088     2.9069    81.6911     2.7273   115.8422  -999.2500     7.8223     0.0804  -999.2500     2.4950     0.0966
 3018.0000     4.4369     2.9282    81.3941     2.8046   115.8492  -999.2500     7.8373     0.0594  -999.2500     2.4860     0.1009
 3018.5000     4.6269     2.9292    80.7929     2.8640   115.8549  -999.2500     7.8373     0.0460  -999.2500     2.4740     0.1108
 3019.0000     3.8889     2.9506    80.9504     2.9247   115.5557  -999.2500     7.8373     0.0265  -999.2500     2.4672     0.1118
