~VERSION INFORMATION
 VERS.                2.0:   CWLS LOG ASCII STANDARD - VERSION 2.0
 WRAP.                 NO:   ONE LINE PER DEPTH STEP
~WELL INFORMATION
#MNEM.UNIT      DATA TYPE    INFORMATION
#----------   ------------   ------------------------------
 STRT.F           90.0000:   START DEPTH
 STOP.F          712.0000:   STOP DEPTH
 STEP.F            0.5000:   STEP LENGTH
 NULL.          -999.2500:   NO VALUE
 COMP. U S NAVY-INTEX OIL:   COMPANY
 WELL. RES 3 TEAPOT DOM #76S-34:   WELL
 FLD .             TEAPOT:   FIELD
 LOC .      S34 T39N R78W:   LOCATION
 CNTY.            NATRONA:   COUNTY
 STAT.            WYOMING:   STATE
 CTRY. UNITED STATES OF AMERICA:   COUNTRY
 SRVC.       Schlumberger:   SERVICE COMPANY
 DATE.        08-AUG-1961:   LOGDATE
 API .       490250651700:   API NUMBER
~CURVE INFORMATION
#MNEM.UNIT       API CODE    CURVE DESCRIPTION
#----------   ------------   ------------------------------
 DEPT.F                  :   
 SPR .MV     05 010 01 00:   SPONTANEOUS POTENTIAL FROM RES.
 ASN .OHMM   05 041 16 00:   AMPLIFIED SHORT NORMAL 16"
 CILD.MMHO   05 110 46 00:   CONDUCTIVITY INDUCTION LOG DEEP
 ILD .OHMM   05 120 46 00:   INDUCTION LOG DEEP
~PARAMETER INFORMATION
#MNEM.UNIT          VALUE    DESCRIPTION
#----------   ------------   ------------------------------
 LMF .                 KB:   LOG MEASURED FROM
 DMF .                 KB:   DRILLING MEASURED FROM
 EKB .F              5092:   KELLING BUSHING
 EGL .F              5087:   GROUND LEVEL
 DATE.        08-AUG-1961:   RUN DATE
 RUN .                  1:   RUN NUMBER
 DD  .F               710:   DEPTH DRILLER
 DL  .F               713:   DEPTH LOGGER
 BLI .F               712:   BOTTOM LOG INTERVAL
 TLI .F               100:   TOP LOG INTERVAL
 BS  .IN             6.75:   BIT SIZE
 BSD .F               710:   BIT SIZE AT DEPTH
 DFT .       OIL EMULSION:   DRILLING FLUID TYPE
 DFD .               10.4:   DRILLING FLUID DENSITY
 DFV .                 45:   DRILLING FLUID VISCOSITY
 RMS .OHMM           1.21:   RESISTIVITY MUD SAMPLE
 MST .F                78:   MUD SAMPLE TEMPERATURE
 TCS .HRS               1:   TIME CURCULATED STOPPED
 LUN .               2544:   LOGGING UNIT NUMBER
 LUL .                 NC:   LOGGING UNIT LOCATION
 ENGI.             QUINBY:   RECORDING ENGINEER
 WITN.          JORGENSON:   WITNESSED BY
 CLNT.            A2DTECH:   CLIENT CODE
 ORIG.      2" , 5" PRINT:   ORIGIN OF DATA
 UWI .       490250651700:   UNIQUE WELL ID
 DICO. A2D Technologies, Inc.:   DIGITIZING COMPANY
~OTHER INFORMATION
~A   DEPT      SPR        ASN       CILD        ILD   
# ...
  601.0000   -34.9155    16.6229    66.2552    13.8515
  601.5000   -34.7897    16.5978    65.2568    13.9304
  602.0000   -34.7059    16.5489    64.2584    14.0095
  602.5000   -34.3993    16.6304    63.2600    14.0884
  603.0000   -34.0903    16.3984    60.8421    14.2458
  603.5000   -33.7837    16.2440    59.2640    14.3248
  604.0000   -33.4747    16.4831    59.2483    14.4039
  604.5000   -33.0118    16.9564    59.2326    14.4829
  605.0000   -32.7040    17.0380    59.2169    14.5619
  605.5000   -32.5513    16.9619    59.2012    14.6410
  606.0000   -32.2435    16.8867    59.1856    14.8764
  606.5000   -32.0922    16.8115    59.1699    14.8772
  607.0000   -31.9404    16.7363    59.1542    14.8779
  607.5000   -31.8316    16.5835    59.1385    14.8787
  608.0000   -31.6373    16.4291    59.1229    14.8795
  608.5000   -31.6422    16.2755    60.6736    14.8803
  609.0000   -31.6469    16.1219    60.6562    14.8028
  609.5000   -31.6516    15.9683    62.2047    14.7191
  610.0000   -31.6562    15.9722    62.1852    14.4862
  610.5000   -31.5045    15.8962    63.7344    14.2532
  611.0000   -31.5094    15.6642    63.7188    13.9421
  611.5000   -31.5141    15.5890    63.7006    13.6330
  612.0000   -31.3479    15.5138    63.6849    13.3980
  612.5000   -30.8854    15.3602    65.2357    13.1651
  613.0000   -30.4343    15.0506    65.2161    13.0094
  613.5000   -30.2729    14.8187    65.2031    12.8537
  614.0000   -29.9749    14.5867    66.7512    12.7762
  614.5000   -29.8234    14.5107    68.2941    12.7770
  615.0000   -29.8281    14.4354    68.2784    12.8560
  615.5000   -29.8328    14.3602    69.8291    12.9351
  616.0000   -29.9937    14.2850    69.8125    13.0141
  616.5000   -30.3115    14.2889    69.7938    13.0931
  617.0000   -30.7844    14.3704    69.7782    13.1722
  617.5000   -31.2578    14.3736    69.7656    13.1730
  618.0000   -31.7313    14.4545    68.1875    13.0955
  618.5000   -31.8922    14.4582    68.1719    13.0963
  619.0000   -32.0532    14.5397    68.1562    13.0970
  619.5000   -32.2141    14.6213    68.1406    13.0196
  620.0000   -32.2188    14.5452    69.6880    12.8639
  620.5000   -32.3798    14.4700    69.6719    12.7080
  621.0000   -32.3845    14.3164    71.3020    12.3960
  621.5000   -32.3892    14.1636    76.0359    12.1618
  622.0000   -32.3939    14.0876    80.5628    12.0063
  622.5000   -32.3986    14.0124    80.4427    12.0853
  623.0000   -32.4033    13.9371    77.4062    12.1644
  623.5000   -32.2516    13.8619    75.7657    12.3217
  624.0000   -31.9439    13.8798    71.1250    12.6354
  624.5000   -31.7922    14.1956    69.5263    13.0274
  625.0000   -31.4846    14.8641    66.4062    13.6542
  625.5000   -31.1768    16.5099    64.0571    14.2810
  626.0000   -30.8690    17.3720    61.6874    14.9860
  626.5000   -30.4047    18.7826    60.1092    15.2998
  627.0000   -29.7846    19.8501    58.5310    15.5353
  627.5000   -29.3194    20.1567    56.9529    15.6143
  628.0000   -30.2628    20.1599    56.9372    15.4586
  628.5000   -30.5800    19.8193    58.4840    14.9899
  629.0000   -30.4284    18.5716    61.5933    14.2865
  629.5000   -29.8081    17.1493    64.7031    13.4265
  630.0000   -29.1878    15.2142    70.9370    12.7231
  630.5000   -28.7238    13.9755    75.6088    12.0979
  631.0000   -28.7285    13.4315    78.7181    11.6292
  631.5000   -28.5757    13.1257    80.2656    11.4733
  632.0000   -28.5816    12.9749    80.2493    11.2393
  632.5000   -28.4289    12.8213    80.5469    11.1619
  633.0000   -28.5910    12.7461    80.2179    11.1629
  633.5000   -28.5957    12.6708    80.2022    11.1636
  634.0000   -28.4442    12.5956    80.1866    11.2427
  634.5000   -28.4489    12.5988    80.4637    11.2435
  635.0000   -28.4531    12.5235    81.7216    11.3225
  635.5000   -28.4583    12.5267    80.1406    11.4013
  636.0000   -28.4630    12.4514    80.1238    11.2456
  636.5000   -28.4672    12.4546    81.6746    11.0901
  637.0000   -28.4724    12.4577    81.7990    10.9342
  637.5000   -28.4771    12.3824    81.9957    10.8567
  638.0000   -28.4818    12.3857    82.1925    10.8577
  638.5000   -28.2857    12.3888    82.3892    10.8584
  639.0000   -28.1775    12.3135    82.5859    10.8593
  639.5000   -28.0259    12.2382    82.7827    10.8601
  640.0000   -27.5630    12.2415    82.9794    10.9391
  640.5000   -27.4115    12.2446    83.1104    10.9399
  641.0000   -27.2599    12.2478    84.6572    11.0189
  641.5000   -26.9510    12.2583    83.0751    11.0197
  642.0000   -26.6443    12.2693    83.0594    11.0987
  642.5000   -26.3354    12.2802    81.4844    11.0994
  643.0000   -26.0287    12.2912    79.9062    11.1784
  643.5000   -25.8760    12.3021    79.8906    11.1792
  644.0000   -25.7245    12.3131    79.8750    11.1800
  644.5000   -25.7303    12.3240    79.8594    11.1808
  645.0000   -26.0475    12.3350    80.7292    11.1815
  645.5000   -26.3647    12.3459    81.3911    11.1823
  646.0000   -26.6819    12.3576    81.3750    11.1831
  646.5000   -26.3741    12.4214    81.3594    11.1766
  647.0000   -26.2214    12.4214    81.3438    11.1064
  647.5000   -25.7585    12.5000    82.8909    11.1072
  648.0000   -26.0248    12.4214    82.8750    11.1038
  648.5000   -25.7098    12.4214    82.8594    11.0305
  649.0000   -25.3948    12.2642    82.8438    11.0313
  649.5000   -25.2365    12.1069    82.8281    11.0321
  650.0000   -25.0782    12.1069    82.8125    11.0329
  650.5000   -24.9200    12.1069    83.3106    10.9554
  651.0000   -24.7617    12.1069    84.3438    10.9562
  651.5000   -24.7601    12.1069    85.8906    10.8787
  652.0000   -24.7586    12.0283    87.4375    10.8795
  652.5000   -24.7571    11.9497    88.9844    10.7655
  653.0000   -25.0690    11.8711    90.5312    10.6463
  653.5000   -25.2451    11.9497    92.0781    10.4906
  654.0000   -25.3794    11.9497    93.6250    10.3349
  654.5000   -25.3775    12.0283    93.6089    10.2574
  655.0000   -25.0624    12.1069    93.5932    10.2582
  655.5000   -25.0609    12.2642    93.5776    10.3373
  656.0000   -24.9026    12.3428    93.5619    10.3709
  656.5000   -24.7443    12.5000    91.9837    10.4171
  657.0000   -24.5392    12.6572    90.4055    10.5744
  657.5000   -24.4278    12.8931    88.8273    10.7317
  658.0000   -24.4262    13.2075    84.1242    10.9672
  658.5000   -24.2679    13.7610    79.4210    11.5157
  659.0000   -24.4232    14.4120    73.1553    12.6902
  659.5000   -24.4216    15.7672    65.3271    14.5467
  660.0000   -24.7335    17.1384    59.0615    16.1662
  660.5000   -25.0559    19.0252    53.1250    17.3422
  661.0000   -25.5350    21.0692    50.0000    18.1270
  661.5000   -26.1392    24.3711    46.8750    18.9900
  662.0000   -26.7646    25.9434    45.3125    20.0878
  662.5000   -27.0769    27.5157    37.5000    22.2810
  663.0000   -27.2321    27.9874    31.2500    24.5525
  663.5000   -27.2302    28.1447    29.6875    25.8850
  664.0000   -27.2287    29.2453    29.6875    26.4361
  664.5000   -27.0704    29.6384    29.6875    26.2580
  665.0000   -26.7554    29.8742    31.4583    24.7653
  665.5000   -26.4403    29.7956    35.9375    23.5474
  666.0000   -26.4388    29.4811    39.0625    22.6108
  666.5000   -26.5940    29.2453    42.1875    21.4394
  667.0000   -26.9059    28.0440    45.3125    20.6592
  667.5000   -26.9044    25.8097    50.0000    19.8008
  668.0000   -27.2163    23.5094    53.1250    18.8641
  668.5000   -27.5283    22.0126    56.2500    18.0840
  669.0000   -27.5263    21.3050    57.8125    17.3038
  669.5000   -27.5248    20.9120    57.8125    16.6802
  670.0000   -27.6800    20.5975    57.8125    16.3695
  670.5000   -27.6787    20.3616    56.2500    16.1365
  671.0000   -27.8337    20.1258    56.2500    15.9046
  671.5000   -27.8321    19.8899    56.2500    15.7504
  672.0000   -27.8306    19.6541    55.4899    15.6745
  672.5000   -27.9858    19.4182    54.6875    15.5203
  673.0000   -27.9842    19.3396    54.6875    15.4444
  673.5000   -27.9827    19.3396    54.6875    15.4348
