~VERSION INFORMATION
 VERS.                2.0:   CWLS LOG ASCII STANDARD - VERSION 2.0
 WRAP.                 NO:   ONE LINE PER DEPTH STEP
~WELL INFORMATION
#MNEM.UNIT      DATA TYPE    INFORMATION
#----------   ------------   ------------------------------
 STRT.F           80.5000:   START DEPTH
 STOP.F          768.0000:   STOP DEPTH
 STEP.F            0.5000:   STEP LENGTH
 NULL.          -999.2500:   NO VALUE
 COMP. U S NAVY/INTEX OIL CO:   COMPANY
 WELL. N.P.R. #3 #84-S-34:   WELL
 FLD .             TEAPOT:   FIELD
 LOC .      S34 T39N R78W:   LOCATION
 CNTY.            NATRONA:   COUNTY
 STAT.            WYOMING:   STATE
 CTRY. UNITED STATES OF AMERICA:   COUNTRY
 SRVC. Schlumberger Well Surveying Corp:   SERVICE COMPANY
 DATE.        17-FEB-1961:   LOGDATE
 API .       490250654000:   API NUMBER
~CURVE INFORMATION
#MNEM.UNIT       API CODE    CURVE DESCRIPTION
#----------   ------------   ------------------------------
 DEPT.F                  :   
 SPR .MV     05 010 01 00:   SPONTANEOUS POTENTIAL
 ASN .OHMM   05 041 16 00:   AMPLIFIED SHORT NORMAL 16"
 ILD .OHMM   05 120 46 00:   INDUCTION LOG DEEP
 CILD.MMHO   05 110 46 00:   CONDUCTIVITY INDUCTION LOG DEEP
 GR  .GAPI   30 310 01 00:   GAMMA RAY
~PARAMETER INFORMATION
#MNEM.UNIT          VALUE    DESCRIPTION
#----------   ------------   ------------------------------
 PD  .                 GL:   PERMANENT DATUM
 EPD .F              5083:   ELEVATION PERMANENT DATUM
 LMF .                 KB:   LOG MEASURED FROM
 DAPD.F                 4:   FEET ABOVE PERMANENT DATUM
 DMF .                 KB:   DRILLING MEASURED FROM
 EKB .F              5087:   KELLING BUSHING
 EGL .F              5083:   GROUND LEVEL
 DATE.            2-17-61:   RUN DATE
 RUN .                  1:   RUN NUMBER
 DD  .F               770:   DEPTH DRILLER
 DL  .F               769:   DEPTH LOGGER
 BLI .F               768:   BOTTOM LOG INTERVAL
 TLI .F                80:   TOP LOG INTERVAL
 CBD .F                12:   CASING BOTTOM DRILLER
 BS  .IN            7.875:   BIT SIZE
 BSD .F               770:   BIT SIZE AT DEPTH
 DFT .       GEL/OIL EMUL:   DRILLING FLUID TYPE
 DFD .                9.5:   DRILLING FLUID DENSITY
 DFV .                 50:   DRILLING FLUID VISCOSITY
 DFPH.                  8:   DRILLING FLUID PH
 DFL .                1.8:   DRILLING FLUID LOSS
 MSS .           FLOWLINE:   MUD SAMPLE SOURCE
 RMS .OHMM             .9:   RESISTIVITY MUD SAMPLE
 MST .F                69:   MUD SAMPLE TEMPERATURE
 RMF .OHMM            .54:   RESISTIVITY MUD FILTRATE SAMPLE
 MFST.F                69:   MUD FILTRATE SAMPLE TEMPERATURE
 RMC .OHMM           1.64:   RESISTIVITY MUD CAKE
 MCST.F                69:   MUD CAKE SAMPLE TEMPERATURE
 MFSS.                  M:   MUD FILTRATE SAMPLE SOURCE
 MCSS.                  M:   MUD CAKE SAMPLE SOURCE
 RMB .OHMM             .8:   RESISTIVITY MUD AT BHT
 BHT .F                78:   BOTTOM HOLE TEMPERATURE
 TCS .HRS               1:   TIME CURCULATED STOPPED
 MRT .F                78:   MAXIMUM RECORDED TEMPERATURE
 LUN .               2523:   LOGGING UNIT NUMBER
 LUL .               CSPR:   LOGGING UNIT LOCATION
 ENGI.             KNOBEL:   RECORDING ENGINEER
 WITN.          JORGENSEN:   WITNESSED BY
 CLNT.            A2DTECH:   CLIENT CODE
 ORIG.       2", 5" PRINT:   ORIGIN OF DATA
 UWI .       490250654000:   UNIQUE WELL ID
 DICO. A2D Technologies, Inc.:   DIGITIZING COMPANY
~OTHER INFORMATION
~A   DEPT      SPR        ASN        ILD       CILD         GR   
# ...
  446.5000   -21.7747    10.7614     8.1884   126.6992  -999.2500
  447.0000   -21.8233    10.9641     8.3680   124.3197  -999.2500
  447.5000   -21.8720    11.1635     8.5573   121.9403  -999.2500
  448.0000   -21.9206    11.3627     8.7468   119.5609  -999.2500
  448.5000   -21.9694    11.5620     8.9362   117.1814  -999.2500
  449.0000   -22.0186    11.7613     9.1254   114.8020  -999.2500
  449.5000   -22.0688    11.9606     9.3147   112.4225  -999.2500
  450.0000   -22.0433    12.1599     9.5068   110.0431  -999.2500
  450.5000   -22.0117    12.3592     9.7020   107.6637  -999.2500
  451.0000   -21.9802    12.5586     9.9043   105.2842  -999.2500
  451.5000   -21.9490    12.7577    10.1060   102.9048  -999.2500
  452.0000   -21.9177    12.9570    10.3079   100.5254  -999.2500
  452.5000   -21.8864    13.1618    10.5094    98.9171  -999.2500
  453.0000   -21.8552    13.2737    10.7108    97.6530  -999.2500
  453.5000   -21.8239    13.3565    10.8593    96.3890  -999.2500
  454.0000   -21.7926    13.4377    10.9519    95.1249  -999.2500
  454.5000   -21.7614    13.5192    11.0449    93.8609  -999.2500
  455.0000   -21.7300    13.6011    11.1253    92.5968  -999.2500
  455.5000   -21.6989    13.6809    11.0671    91.4316  -999.2500
  456.0000   -21.6677    13.7043    11.0087    92.8370  -999.2500
  456.5000   -21.6688    13.5461    10.9498    93.9858  -999.2500
  457.0000   -21.6985    13.3933    10.8817    94.9634  -999.2500
  457.5000   -21.7283    13.2409    10.7231    95.9411  -999.2500
  458.0000   -21.7583    13.0882    10.5682    96.9188  -999.2500
  458.5000   -21.7883    12.9355    10.4139    97.8964  -999.2500
  459.0000   -21.8180    12.7826    10.2589    98.8741  -999.2500
  459.5000   -21.8478    12.6293    10.1048    99.7910  -999.2500
  460.0000   -21.8260    12.4906    10.0946   100.0987  -999.2500
  460.5000   -21.7610    12.5299    10.1075   100.3884  -999.2500
  461.0000   -21.6957    12.5727    10.1208   100.6780  -999.2500
  461.5000   -21.6300    12.6146    10.1339   100.7594  -999.2500
  462.0000   -21.5641    12.6562    10.1470   100.5912  -999.2500
  462.5000   -21.4993    12.6965    10.1599   100.4230  -999.2500
  463.0000   -21.4527    12.7328    10.1732   100.2548  -999.2500
  463.5000   -21.5296    12.7694    10.1889   100.0866  -999.2500
  464.0000   -21.6037    12.7916    10.1143    99.9184  -999.2500
  464.5000   -21.6014    12.5448    10.0281   100.1646  -999.2500
  465.0000   -21.4498    12.2953     9.9409   101.7051  -999.2500
  465.5000   -21.2997    12.0492     9.8539   103.2457  -999.2500
  466.0000   -21.2764    11.8368     9.7670   104.7863  -999.2500
  466.5000   -21.3475    11.7607     9.6801   106.3268  -999.2500
  467.0000   -21.4193    11.6805     9.5932   107.8675  -999.2500
  467.5000   -21.4918    11.6125     9.5062   109.4074  -999.2500
  468.0000   -21.5642    11.5516     9.4195   110.9443  -999.2500
  468.5000   -21.6376    11.4906     9.3332   112.4891  -999.2500
  469.0000   -21.6526    11.4297     9.2532   113.7316  -999.2500
  469.5000   -21.6542    11.3687     9.1725   114.5707  -999.2500
  470.0000   -21.6128    11.3078     9.0918   115.4098  -999.2500
  470.5000   -21.5620    11.2469     9.0111   116.2488  -999.2500
  471.0000   -21.5107    11.1859     8.9304   117.0879  -999.2500
  471.5000   -21.4595    11.1250     8.8497   117.9269  -999.2500
  472.0000   -21.4084    11.0640     8.7690   118.7660  -999.2500
  472.5000   -21.3572    11.0031     8.6883   119.6051  -999.2500
  473.0000   -21.3063    10.9421     8.6076   120.4442  -999.2500
  473.5000   -21.2549    10.8812     8.5269   121.2832  -999.2500
  474.0000   -21.2565    10.8201     8.4462   122.1223  -999.2500
  474.5000   -21.2920    10.7594     8.3655   122.9614  -999.2500
  475.0000   -21.3279    10.6987     8.2848   123.8004  -999.2500
  475.5000   -21.3643    10.6454     8.2040   124.6395  -999.2500
  476.0000   -21.4003    10.5911     8.1234   125.4786  -999.2500
  476.5000   -21.4339    10.5367     8.0431   126.3176  -999.2500
  477.0000   -21.5328    10.4824     7.9994   127.1567  -999.2500
  477.5000   -21.6427    10.4281     8.0165   128.0042  -999.2500
  478.0000   -21.7543    10.3737     8.0327   127.8130  -999.2500
  478.5000   -21.8574    10.3194     8.0490   127.6199  -999.2500
  479.0000   -21.7873    10.2654     8.0655   127.4268  -999.2500
  479.5000   -21.7114    10.2110     8.0829   127.2336  -999.2500
  480.0000   -21.6363    10.2365     8.0940   127.0405  -999.2500
  480.5000   -21.5614    10.3172     7.9291   128.5027  -999.2500
  481.0000   -21.4865    10.3853     7.7544   131.1678  -999.2500
  481.5000   -21.4117    10.0696     7.5803   133.8328  -999.2500
  482.0000   -21.3368     9.8185     7.4064   136.4978  -999.2500
  482.5000   -21.2612     9.6263     7.2326   139.1629  -999.2500
  483.0000   -21.2346     9.3179     7.0593   141.8279  -999.2500
  483.5000   -21.2342     9.1159     6.9264   144.4930  -999.2500
  484.0000   -21.2342     8.9139     6.8698   147.1539  -999.2500
  484.5000   -21.2343     8.8870     6.8115   149.8114  -999.2500
  485.0000   -21.2343     8.9050     6.7494   149.9073  -999.2500
  485.5000   -21.2342     9.0022     6.8437   148.0023  -999.2500
  486.0000   -21.2341     9.1576     6.9787   146.0961  -999.2500
  486.5000   -21.2345     9.3128     7.1157   144.1843  -999.2500
  487.0000   -21.2501     9.4207     7.2508   142.2724  -999.2500
  487.5000   -21.3214     9.4308     7.3673   140.3605  -999.2500
  488.0000   -21.3914     9.4645     7.3370   140.1120  -999.2500
  488.5000   -21.4612     9.4944     7.3104   141.2293  -999.2500
  489.0000   -21.5311     9.4772     7.2846   142.3466  -999.2500
  489.5000   -21.6010     9.4616     7.2701   141.5671  -999.2500
  490.0000   -21.6710     9.4461     7.3258   140.1332  -999.2500
  490.5000   -21.7411     9.4393     7.3819   138.6993  -999.2500
  491.0000   -21.8101     9.4583     7.4377   137.2654  -999.2500
  491.5000   -21.8465     9.6104     7.4940   135.8315  -999.2500
  492.0000   -21.7736     9.7759     7.5504   134.3976  -999.2500
  492.5000   -21.7036     9.9006     7.6697   132.9637  -999.2500
  493.0000   -21.6338     9.9991     7.8426   131.5298  -999.2500
  493.5000   -21.5639    10.2256     7.9828   131.7379  -999.2500
  494.0000   -21.4940    10.4008     7.9019   132.5612  -999.2500
  494.5000   -21.4240    10.3973     7.8188   133.3845  -999.2500
  495.0000   -21.3539    10.3961     7.7364   134.2738  -999.2500
  495.5000   -21.2849    10.3953     7.6656   134.6335  -999.2500
  496.0000   -21.2475    10.2159     7.6177   135.0236  -999.2500
  496.5000   -21.3070     9.9559     7.5703   135.4157  -999.2500
  497.0000   -21.3637     9.9176     7.5229   135.8067  -999.2500
  497.5000   -21.4203     9.8729     7.4756   136.1978  -999.2500
  498.0000   -21.4770     9.8129     7.4282   136.5882  -999.2500
  498.5000   -21.5336     9.6410     7.3784   136.9778  -999.2500
  499.0000   -21.5901     9.5156     7.4040   137.4059  -999.2500
  499.5000   -21.6472     9.5654     7.4570   137.5334  -999.2500
  500.0000   -21.7459     9.7946     7.4709   137.6714  -999.2500
  500.5000   -21.8499     9.9882     7.4715   137.8095  -999.2500
  501.0000   -21.9548     9.8841     7.4714   137.9476  -999.2500
  501.5000   -22.0574     9.7525     7.4711   138.0856  -999.2500
  502.0000   -21.8975     9.6214     7.4708   138.2237  -999.2500
  502.5000   -21.6973     9.6194     7.4192   138.3618  -999.2500
  503.0000   -21.4962     9.6385     7.3022   138.4999  -999.2500
  503.5000   -21.2956     9.6588     7.2996   138.6379  -999.2500
  504.0000   -21.0955     9.6192     7.3564   138.7760  -999.2500
  504.5000   -20.8928     9.5600     7.4145   138.9141  -999.2500
  505.0000   -20.8721     9.5772     7.4681   139.0521  -999.2500
  505.5000   -20.9617     9.5922     7.4054   139.1902  -999.2500
  506.0000   -21.0523     9.5152     7.3380   139.3283  -999.2500
  506.5000   -21.1434     9.2785     7.2711   139.4664  -999.2500
  507.0000   -21.2343     9.1750     7.2043   139.4984  -999.2500
