~VERSION INFORMATION
 VERS.                2.0:   CWLS LOG ASCII STANDARD - VERSION 2.0
 WRAP.                 NO:   ONE LINE PER DEPTH STEP
~WELL INFORMATION
#MNEM.UNIT      DATA TYPE    INFORMATION
#----------   ------------   ------------------------------
 STRT.F           20.5000:   START DEPTH
 STOP.F          725.0000:   STOP DEPTH
 STEP.F            0.5000:   STEP LENGTH
 NULL.          -999.2500:   NO VALUE
 COMP. FENIX & SCISSON INC:   COMPANY
 WELL.       NPR 3 #67-27:   WELL
 FLD .             TEAPOT:   FIELD
 LOC .      S27 T39N R78W:   LOCATION
 CNTY.            NATRONA:   COUNTY
 STAT.            WYOMING:   STATE
 CTRY. UNITED STATES OF AMERICA:   COUNTRY
 SRVC.           BIRDWELL:   SERVICE COMPANY
 DATE.        15-SEP-1978:   LOGDATE
 API .       490251069400:   API NUMBER
~CURVE INFORMATION
#MNEM.UNIT       API CODE    CURVE DESCRIPTION
#----------   ------------   ------------------------------
 DEPT.F                  :   
 CALD.IN     45 280 60 00:   CALIPER
 GRD .GAPI   45 310 01 00:   GAMMA RAY FROM DENSITY LOG
 RHOB.G/C3   45 350 01 00:   BULK DENSITY
 DPHI.DEC    45 890 12 00:   DENSITY POROSITY SANDSTONE
 CORR.G/C3   45 356 01 00:   DENSITY CORRECTION
 SPR .MV     05 010 01 00:   SPONTANEOUS POTENTIAL FROM RES.
 ILD .OHMM   05 120 46 00:   INDUCTION LOG DEEP
 SN  .OHMM   05 040 16 00:   SHORT NORMAL 16"
~PARAMETER INFORMATION
#MNEM.UNIT          VALUE    DESCRIPTION
#----------   ------------   ------------------------------
 PD  .                 GL:   PERMANENT DATUM
 EPD .F              5027:   ELEVATION PERMANENT DATUM
 LMF .                 KB:   LOG MEASURED FROM
 DAPD.F                 4:   FEET ABOVE PERMANENT DATUM
 DMF .                 KB:   DRILLING MEASURED FROM
 EKB .F              5031:   KELLING BUSHING
 EGL .F              5027:   GROUND LEVEL
 DATE.            9-15-78:   RUN DATE
 RUN .                  1:   RUN NUMBER
 DD  .F               728:   DEPTH DRILLER
 DL  .F               719:   DEPTH LOGGER
 BLI .F               713:   BOTTOM LOG INTERVAL
 TLI .F                30:   TOP LOG INTERVAL
 CS  .IN            8.625:   CASING SIZE
 CBD .F                34:   CASING BOTTOM DRILLER
 CBL .F                34:   CASING BOTTOM LOGGER
 BS  .IN            7.875:   BIT SIZE
 BSD .F               728:   BIT SIZE AT DEPTH
 DFT .            KCL MUD:   DRILLING FLUID TYPE
 DFD .                  9:   DRILLING FLUID DENSITY
 DFV .                 46:   DRILLING FLUID VISCOSITY
 DFPH.                  9:   DRILLING FLUID PH
 DFL .                7.6:   DRILLING FLUID LOSS
 MSS .          FLOW LINE:   MUD SAMPLE SOURCE
 RMS .OHMM            .34:   RESISTIVITY MUD SAMPLE
 MST .F                68:   MUD SAMPLE TEMPERATURE
 RMF .OHMM             .3:   RESISTIVITY MUD FILTRATE SAMPLE
 MFST.F                68:   MUD FILTRATE SAMPLE TEMPERATURE
 RMC .OHMM            .38:   RESISTIVITY MUD CAKE
 MCST.F                70:   MUD CAKE SAMPLE TEMPERATURE
 MFSS.               MEAS:   MUD FILTRATE SAMPLE SOURCE
 MCSS.               MEAS:   MUD CAKE SAMPLE SOURCE
 RMB .OHMM            .32:   RESISTIVITY MUD AT BHT
 BHT .F                72:   BOTTOM HOLE TEMPERATURE
 TCS .HRS               2:   TIME CURCULATED STOPPED
 MRT .F                72:   MAXIMUM RECORDED TEMPERATURE
 LUN .               2958:   LOGGING UNIT NUMBER
 LUL .               CASP:   LOGGING UNIT LOCATION
 ENGI.           REYNOLDS:   RECORDING ENGINEER
 WITN.           DINSMORE:   WITNESSED BY
 CLNT.            A2DTECH:   CLIENT CODE
 ORIG.           5" PRINT:   ORIGIN OF DATA
 UWI .       490251069400:   UNIQUE WELL ID
 DICO. A2D Technologies, Inc.:   DIGITIZING COMPANY
~OTHER INFORMATION
~A   DEPT     CALD        GRD       RHOB       DPHI       CORR        SPR        ILD         SN   
# ...
  425.5000     8.0771   120.6846     2.4841     0.1204     0.0041   -43.1639     6.1636     6.9608
  426.0000     8.0895   121.3220     2.4846     0.1201     0.0037   -43.1238     6.1724     6.9806
  426.5000     8.0845   120.9763     2.4839     0.1226     0.0041   -43.0838     6.1813     7.0005
  427.0000     8.0789   121.1430     2.4813     0.1251     0.0052   -43.0437     6.1929     7.0204
  427.5000     8.0733   121.7460     2.4786     0.1262     0.0063   -43.0036     6.2055     7.0403
  428.0000     8.0700   122.0864     2.4773     0.1271     0.0074   -42.9635     6.1449     7.0603
  428.5000     8.0700   121.5739     2.4779     0.1279     0.0084   -42.9237     6.7384     7.0804
  429.0000     8.0700   121.0489     2.4785     0.1257     0.0096   -42.9048     6.7150     7.1005
  429.5000     8.0700   120.5252     2.4792     0.1244     0.0125   -42.9176     6.6816     7.1207
  430.0000     8.0687   120.0039     2.4797     0.1244     0.0154   -42.9299     6.6483     7.1409
  430.5000     8.0620   119.6276     2.4824     0.1244     0.0184   -42.9422     6.6153     7.1611
  431.0000     8.0555   119.4627     2.4855     0.1233     0.0213   -42.9546     6.5824     7.1885
  431.5000     8.0490   119.2925     2.4854     0.1219     0.0243   -42.9670     6.5497     7.1390
  432.0000     8.0424   119.1083     2.4847     0.1206     0.0272   -42.9794     6.5171     7.0700
  432.5000     8.0359   119.7735     2.4840     0.1203     0.0294   -42.9917     6.4944     7.0017
  433.0000     8.0294   120.5861     2.4833     0.1236     0.0285   -43.0041     6.4010     6.9341
  433.5000     8.0228   121.4070     2.4824     0.1268     0.0278   -43.0165     6.3173     6.8671
  434.0000     8.0162   121.9131     2.4736     0.1301     0.0270   -43.0288     6.2346     6.8008
  434.5000     8.0103   122.2513     2.4681     0.1332     0.0263   -43.0412     6.1530     6.7355
  435.0000     8.0135   122.1747     2.4677     0.1331     0.0252   -43.0536     6.0724     6.6756
  435.5000     8.0170   120.8724     2.4687     0.1325     0.0179   -43.0660     5.9934     6.6922
  436.0000     8.0205   119.1349     2.4697     0.1296     0.0105   -43.0786     5.9226     6.7091
  436.5000     8.0239   119.0777     2.4706     0.1283     0.0036   -43.0905     5.8978     6.7263
  437.0000     8.0274   119.5922     2.4691     0.1331     0.0015   -43.0786     5.8675     6.7384
  437.5000     8.0309   120.1769     2.4647     0.1379    -0.0004   -42.9751     5.9316     6.7158
  438.0000     8.0343   120.4931     2.4605     0.1404    -0.0023   -42.8745     6.0029     6.6981
  438.5000     8.0378   120.3249     2.4605     0.1363    -0.0016   -42.7749     6.0750     6.6737
  439.0000     8.0412   120.4017     2.4659     0.1227    -0.0006   -42.7114     6.1481     6.8512
  439.5000     8.0447   120.8728     2.4786     0.1201     0.0005   -42.7738     6.2220     7.1086
  440.0000     8.0481   121.2930     2.4864     0.1185     0.0016   -42.8331     6.3339     7.3756
  440.5000     8.0516   121.2998     2.4815     0.1274     0.0047   -42.8922     6.5892     7.4578
  441.0000     8.0550   121.3021     2.4751     0.1297     0.0078   -42.9001     6.8548     7.4552
  441.5000     8.0585   121.5112     2.4719     0.1269     0.0108   -42.9002     6.9970     7.7412
  442.0000     8.0620   122.4625     2.4783     0.1233     0.0139   -42.9004     7.0080     7.7399
  442.5000     8.0654   123.3981     2.4852     0.1197     0.0160   -42.8867     7.0189     7.7378
  443.0000     8.0690   122.5900     2.4910     0.1149     0.0172   -42.8713     7.0299     7.8109
  443.5000     8.0665   121.2826     2.4966     0.1067     0.0126   -42.8558     7.0409     7.8542
  444.0000     8.0615   120.9145     2.5023     0.1064     0.0072   -42.8404     7.0519     7.8978
  444.5000     8.0564   120.9545     2.5035     0.1093     0.0063   -42.8250     7.0629     7.9548
  445.0000     8.0513   120.9988     2.5028     0.1124     0.0054   -42.8095     7.0740     7.9473
  445.5000     8.0462   121.0413     2.5020     0.1111     0.0045   -42.7941     7.0850     7.9365
  446.0000     8.0411   121.0961     2.5013     0.1097     0.0036   -42.7787     7.0961     7.9257
  446.5000     8.0360   120.5539     2.5006     0.1102     0.0040   -42.7633     7.1072     7.9150
  447.0000     8.0309   119.7902     2.4998     0.1116     0.0046   -42.7479     7.1221     7.9043
  447.5000     8.0258   119.7009     2.4991     0.1130     0.0052   -42.7324     7.0969     7.8936
  448.0000     8.0207   119.6822     2.4989     0.1128     0.0058   -42.7170     7.0613     7.8820
  448.5000     8.0156   119.3660     2.4994     0.1089     0.0064   -42.7017     7.0260     7.8817
  449.0000     8.0104   119.0495     2.5074     0.1053     0.0070   -42.7000     6.9910     7.8819
  449.5000     8.0154   118.8651     2.5151     0.1018     0.0076   -42.7000     6.9560     7.8818
  450.0000     8.0214   120.0773     2.5177     0.1007     0.0082   -42.7000     6.9213     7.8818
  450.5000     8.0275   121.3793     2.5187     0.1022     0.0088   -42.7000     6.8867     7.8303
  451.0000     8.0335   122.4681     2.5174     0.1048     0.0095   -42.6998     6.8523     7.7280
  451.5000     8.0395   121.9300     2.5103     0.1112     0.0101   -42.7009     6.8181     7.6271
  452.0000     8.0456   120.8291     2.5025     0.1087     0.0107   -42.6938     6.7653     7.5422
  452.5000     8.0516   119.8779     2.5054     0.1054     0.0113   -43.0461     6.6939     7.4334
  453.0000     8.0576   120.1590     2.5063     0.1111     0.0119   -43.5373     6.6256     7.3266
  453.5000     8.0637   120.5146     2.4978     0.1281     0.0126   -44.0349     6.4013     7.2196
  454.0000     8.0697   120.8648     2.4817     0.1257     0.0132   -44.3012     6.1454     7.0969
  454.5000     8.0700   120.9823     2.4768     0.1221     0.0123   -44.2991     6.2077     6.9640
  455.0000     8.0700   120.6191     2.4830     0.1185     0.0086   -44.2972     6.2593     6.8350
  455.5000     8.0700   120.2593     2.4892     0.1172     0.0050   -44.3188     5.9711     6.7085
  456.0000     8.0700   119.8981     2.4914     0.1178     0.0013   -44.7481     5.7554     6.5815
  456.5000     8.0700   120.2577     2.4872     0.1207    -0.0023   -45.1768     5.5474     6.3656
  457.0000     8.0710   120.5502     2.4737     0.1301    -0.0003   -45.5282     5.2201     5.8957
  457.5000     8.0772   120.8402     2.4573     0.1448     0.0021   -45.6248     4.6073     5.4654
  458.0000     8.0833   121.1270     2.4409     0.1595     0.0044   -45.7588     4.1712     5.0674
  458.5000     8.0894   121.4149     2.4179     0.1747     0.0068   -46.0377     3.5625     4.6558
  459.0000     8.0955   121.7421     2.3930     0.2017     0.0091   -46.2906     3.0426     4.2718
  459.5000     8.1016   121.7459     2.3412     0.2381     0.0114   -46.2108     2.7263     3.9195
  460.0000     8.1066   120.9269     2.2817     0.2601     0.0109   -46.1288     2.5063     3.5962
  460.5000     8.1362   119.9525     2.2384     0.2738     0.0103   -45.5533     2.3774     3.2996
  461.0000     8.5107   118.2422     2.2330     0.2791     0.0096   -44.9231     2.3774     3.0269
  461.5000     8.2186   116.5705     2.2480     0.2713     0.0090   -44.8765     2.3774     2.8843
  462.0000     8.8819   115.2984     2.2767     0.2383     0.0084   -44.2756     2.3774     2.8834
  462.5000     8.3487   116.8863     2.3486     0.1991     0.0077   -43.6492     2.4724     2.9662
  463.0000     7.9727   120.5114     2.4193     0.1753     0.0108   -43.0137     2.6588     3.1821
  463.5000     7.9767   122.6976     2.4457     0.1497     0.0160   -42.9189     3.0727     3.4024
  464.0000     7.9797   122.9057     2.4713     0.1258     0.0214   -42.9410     3.5342     3.7025
  464.5000     7.9842   122.9068     2.4860     0.1189     0.0246   -42.9661     4.0650     4.4028
  465.0000     7.9883   123.0513     2.4978     0.1176     0.0266   -42.9900     4.6755     5.2924
  465.5000     7.9924   123.3701     2.4996     0.1164     0.0285   -43.0137     5.3778     5.8892
