~VERSION INFORMATION
 VERS.                2.0:   CWLS LOG ASCII STANDARD - VERSION 2.0
 WRAP.                 NO:   ONE LINE PER DEPTH STEP
~WELL INFORMATION
#MNEM.UNIT      DATA TYPE    INFORMATION
#----------   ------------   ------------------------------
 STRT.F           16.0000:   START DEPTH
 STOP.F          634.0000:   STOP DEPTH
 STEP.F            0.5000:   STEP LENGTH
 NULL.          -999.2500:   NO VALUE
 COMP. LAWRENCE/ALLISON INC:   COMPANY
 WELL.    14-15 SX #11-11:   WELL
 FLD .             TEAPOT:   FIELD
 LOC .      S11 T38N R78W:   LOCATION
 CNTY.            NATRONA:   COUNTY
 STAT.            WYOMING:   STATE
 CTRY. UNITED STATES OF AMERICA:   COUNTRY
 SRVC.      Dresser Atlas:   SERVICE COMPANY
 DATE.        06-JAN-1985:   LOGDATE
 API .       490251101700:   API NUMBER
~CURVE INFORMATION
#MNEM.UNIT       API CODE    CURVE DESCRIPTION
#----------   ------------   ------------------------------
 DEPT.F                  :   
 SPR .MV     11 010 01 00:   SPONTANEOUS POTENTIAL FROM RES.
 RD  .OHMM   11 220 10 00:   RESISTIVITY DEEP
 RS  .OHMM   11 220 09 00:   RESISTIVITY SHALLOW
 RMLL.OHMM   20 270 04 00:   RESISTIVITY MICROLATEROLOG
 AC  .US/F   60 520 00 00:   ACCOUSTIC SONIC
 CNC .DEC    42 890 03 00:   COMPENSATED NEUTRON POROSITY SANDSTONE
 PORD.DEC    45 890 12 00:   POROSITY DENSITY SANDSTONE
 GRD .GAPI   45 310 01 00:   GAMMA RAY FROM DENSITY LOG
 CALD.IN     45 280 60 00:   CALIPER FROM DENSITY
 CORR.G/C3   45 356 01 00:   DENSITY CORRECTION
 DEN .G/C3   45 350 01 00:   COMPENSATED BULK DENSTIY
~PARAMETER INFORMATION
#MNEM.UNIT          VALUE    DESCRIPTION
#----------   ------------   ------------------------------
 PD  .                 GL:   PERMANENT DATUM
 EPD .F            5196.8:   ELEVATION PERMANENT DATUM
 LMF .                 KB:   LOG MEASURED FROM
 DMF .                 KB:   DRILLING MEASURED FROM
 EKB .F            5196.8:   KELLING BUSHING
 EGL .F            5196.8:   GROUND LEVEL
 DATE.        06-JAN-1985:   RUN DATE
 RUN .                  1:   RUN NUMBER
 DD  .F               650:   DEPTH DRILLER
 DL  .F               636:   DEPTH LOGGER
 BLI .F               634:   BOTTOM LOG INTERVAL
 CS  .IN            8.625:   CASING SIZE
 CBD .F                20:   CASING BOTTOM DRILLER
 CBL .F                22:   CASING BOTTOM LOGGER
 BS  .IN             6.25:   BIT SIZE
 BSD .F               650:   BIT SIZE AT DEPTH
 DFT .        KCL POLYMER:   DRILLING FLUID TYPE
 RMS .OHMM           .105:   RESISTIVITY MUD SAMPLE
 MST .F                72:   MUD SAMPLE TEMPERATURE
 RMF .OHMM            .08:   RESISTIVITY MUD FILTRATE SAMPLE
 MFST.F                72:   MUD FILTRATE SAMPLE TEMPERATURE
 RMC .OHMM            .13:   RESISTIVITY MUD CAKE
 MCST.F                72:   MUD CAKE SAMPLE TEMPERATURE
 MFSS.               CALC:   MUD FILTRATE SAMPLE SOURCE
 MCSS.               CALC:   MUD CAKE SAMPLE SOURCE
 TCS .HRS               3:   TIME CURCULATED STOPPED
 LUN .               6307:   LOGGING UNIT NUMBER
 LUL .               GLTE:   LOGGING UNIT LOCATION
 ENGI.               MACK:   RECORDING ENGINEER
 WITN.               PAGE:   WITNESSED BY
 CLNT.            A2DTECH:   CLIENT CODE
 ORIG.           5" PRINT:   ORIGIN OF DATA
 UWI .       490251101700:   UNIQUE WELL ID
 DICO. A2D Technologies, Inc.:   DIGITIZING COMPANY
 R1  . POROSITY WITH SANDSTONE:   REMARKS 1
~OTHER INFORMATION
~A   DEPT      SPR         RD         RS       RMLL         AC        CNC       PORD        GRD       CALD       CORR        DEN   
# ...
   46.5000   -57.8201 24837.4102    16.8298  -999.2500   113.2734     0.3014     0.1465   105.6325     6.9514     0.0598     2.4323
   47.0000   -57.8251 24831.6680    16.8278  -999.2500   113.7295     0.3005     0.1504   109.2649     6.9360     0.0509     2.4263
   47.5000   -57.8301 24825.9297    16.8259  -999.2500   114.2608     0.2975     0.1523   110.6280     6.9358     0.0390     2.4247
   48.0000   -57.8350 24819.0508    16.7077  -999.2500   114.7921     0.2985     0.1517   110.1756     6.9356     0.0089     2.4255
   48.5000   -57.8400 24813.3613    16.5903  -999.2500   115.2482     0.3036     0.1508   107.6053     6.9353     0.0151     2.4262
   49.0000   -57.8450 24807.6738    16.5884  -999.2500   115.5679     0.3157     0.1499   107.4551     6.9503     0.0394     2.4292
   49.5000   -57.6989 24976.0312    16.5865  -999.2500   115.9483     0.3289     0.1463   107.9109     6.9501     0.0455     2.4390
   50.0000   -57.7039 24969.0195    16.5846  -999.2500   116.3916     0.3295     0.1414   109.3434     6.9465     0.0385     2.4428
   50.5000   -57.5997 24953.4766    16.4666  -999.2500   116.3192     0.3314     0.1424   110.8018     6.9344     0.0200     2.4450
   51.0000   -57.5586 24937.9355    16.3433  -999.2500   116.1726     0.3345     0.1469   111.7005     6.9190     0.0216     2.4336
   51.5000   -57.5624 24922.3926    16.2329  -999.2500   116.1011     0.3411     0.1514   110.9107     6.9188     0.0277     2.4268
   52.0000   -57.4136 24906.8496    16.1174  -999.2500   116.1810     0.3419     0.1532   107.3575     6.9185     0.0383     2.4253
   52.5000   -57.4173 24891.3066    16.1291  -999.2500   116.1095     0.3224     0.1523   101.3414     6.9031     0.0655     2.4253
   53.0000   -57.1175 24875.7637    16.2230  -999.2500   115.8125     0.3152     0.1521   100.6686     6.9181     0.0686     2.4252
   53.5000   -56.9694 24860.2207    16.3325  -999.2500   115.3651     0.3145     0.1500   100.8230     6.9179     0.0656     2.4282
   54.0000   -56.8214 24844.6777    16.4428  -999.2500   114.8425     0.3319     0.1424   101.7343     6.9176     0.0611     2.4388
   54.5000   -56.6741 24829.1348    16.4385  -999.2500   114.3199     0.3292     0.1403   104.9143     6.9174     0.0536     2.4433
   55.0000   -56.6771 24813.5918    16.4351  -999.2500   113.9477     0.3143     0.1421   107.9423     6.9171     0.0309     2.4440
   55.5000   -56.6801 24798.0508    16.4317  -999.2500   113.7259     0.3110     0.1458   105.5255     6.9169     0.0049     2.4411
   56.0000   -56.6831 24782.5078    16.4283  -999.2500   113.5031     0.3055     0.1470   102.0489     6.9319    -0.0036     2.4388
   56.5000   -56.8371 24766.9648    16.5401  -999.2500   113.9589     0.3025     0.1452    99.3288     6.9317     0.0238     2.4388
   57.0000   -56.8401 24751.4219    16.4215  -999.2500   114.3386     0.3025     0.1440    96.9112     6.9466     0.0523     2.4404
   57.5000   -56.8431 24735.8789    16.3047  -999.2500   114.8686     0.3068     0.1440    97.0655     6.9464     0.0237     2.4427
   58.0000   -56.8461 24720.3359    16.4156  -999.2500   114.9754     0.3086     0.1425   100.0942     6.9462     0.0298     2.4426
   58.5000   -56.8491 24200.7578    16.8730  -999.2500   114.4250     0.3219     0.1416   105.0897     6.9460     0.0404     2.4434
   59.0000   -56.3990 18207.2910    17.2242  -999.2500   113.8272     0.3300     0.1425   106.0004     6.9457     0.0465     2.4449
   59.5000   -56.2502 14681.8994    16.8660  -999.2500   113.2294     0.3309     0.1440   106.9111     6.9455     0.0480     2.4396
   60.0000   -55.8008 24694.2734    16.0634  -999.2500   112.6316     0.3303     0.1443   107.3680     6.9453     0.0632     2.4373
   60.5000   -55.6526 24861.0059    15.9491  -999.2500   112.1842     0.3219     0.1437   107.5223     6.9299     0.0844     2.4426
   61.0000   -55.2025 24855.7910    15.9458  -999.2500   112.1123     0.3111     0.1419   107.3740     6.9296     0.0950     2.4434
   61.5000   -55.0544 24850.6191    15.9425  -999.2500   112.6464     0.2888     0.1408   106.7719     6.9294     0.1041     2.4426
   62.0000   -54.7553 24845.4512    15.9392  -999.2500   113.2521     0.2845     0.1405   107.2287     6.9292     0.1056     2.4441
   62.5000   -54.6073 22620.7480    15.9360  -999.2500   113.8784     0.2987     0.1396   110.2574     6.9441     0.0921     2.4471
   63.0000   -54.6103 23987.6641    15.8225  -999.2500   115.0687     0.3081     0.1381   113.1349     6.9439     0.0725     2.4494
   63.5000   -54.6133 24830.2461    15.3864  -999.2500   115.7729     0.3298     0.1378   112.0789     6.9437     0.0695     2.4494
   64.0000   -54.6163 24823.8418    14.7563  -999.2500   116.5975     0.3400     0.1390   110.7203     6.9435     0.0756     2.4502
   64.5000   -54.4683 24818.7207    14.2504  -999.2500   116.8767     0.3473     0.1414   109.5130     6.9432     0.0772     2.4464
   65.0000   -54.4713 24813.5996    13.8576  -999.2500   116.8052     0.3485     0.1465   107.2467     6.9430     0.0712     2.4358
   65.5000   -54.4658 24808.4805    13.6639  -999.2500   116.2826     0.3292     0.1487   107.2234     6.9427     0.0456     2.4320
   66.0000   -54.3262 24975.9824    13.4729  -999.2500   115.9104     0.2816     0.1491   110.2785     6.9425     0.0245     2.4305
   66.5000   -54.3293 24970.8301    13.3770  -999.2500   115.6877     0.2741     0.1481   115.5765     6.9423     0.0230     2.4313
   67.0000   -54.0301 24965.6777    13.2818  -999.2500   115.6162     0.2934     0.1481   115.8961     6.9421     0.0306     2.4313
   67.5000   -53.8821 24960.5254    13.0961  -999.2500   116.0720     0.3076     0.1484   114.8261     6.9418     0.0307     2.4315
   68.0000   -53.8852 25130.3535    13.0029  -999.2500   116.7524     0.3259     0.1508   113.1649     6.9416     0.0292     2.4308
   68.5000   -53.5867 25123.8711    12.7325  -999.2500   117.3577     0.3281     0.1511   112.2602     6.9414     0.0275     2.4278
   69.0000   -53.4379 25118.6875    12.4666  -999.2500   117.7373     0.3341     0.1511   109.9597     6.9412     0.0051     2.4263
   69.5000   -53.2898 25113.5059    12.2935  -999.2500   117.8163     0.3398     0.1520   104.3873     6.9409     0.0272     2.4263
   70.0000   -52.9915 24934.7871    12.1160  -999.2500   117.7448     0.3365     0.1560   104.5940     6.9407     0.0535     2.4231
   70.5000   -52.8427 24929.6426    12.0353  -999.2500   117.7485     0.3296     0.1590   107.9133     6.9405     0.0417     2.4105
   71.0000   -52.6946 24924.4980    12.0328  -999.2500   117.9026     0.3480     0.1584   108.4932     6.9099     0.0189     2.4143
   71.5000   -52.3963 24747.1270    12.0303  -999.2500   117.9806     0.3673     0.1535   107.2597     6.8944     0.0189     2.4226
   72.0000   -52.2475 24742.0215    12.1959  -999.2500   117.5342     0.3646     0.1490   102.5466     6.8942     0.0190     2.4348
   72.5000   -52.8554 24736.9160    12.3637  -999.2500   117.3114     0.3444     0.1467   102.2994     6.8788     0.0054     2.4355
   73.0000   -55.1243 24731.8125    12.4472  -999.2500   117.6920     0.3354     0.1464   101.2441     6.8178     0.0115     2.4356
   73.5000   -61.9249 24726.7090    12.3580  -999.2500   117.9965     0.3324     0.1483    97.9189     6.7568     0.0357     2.4326
   74.0000   -67.3652 24721.6074    12.1852  -999.2500   117.8498     0.3478     0.1535    96.7108     6.7565     0.0524     2.4258
   74.5000   -58.1545 24716.5078    12.0985  -999.2500   117.0265     0.3631     0.1580    99.1352     6.7563     0.0494     2.4182
   75.0000   -50.4535 24711.4082    12.1808  -999.2500   115.7520     0.3595     0.1622   103.9793     6.7561     0.0419     2.4114
   75.5000   -49.3984 24706.2656    12.3484  -999.2500   115.0791     0.3418     0.1659   111.0928     6.7559     0.0419     2.3956
   76.0000   -61.6378 24701.1270    12.6925  -999.2500   114.6317     0.3246     0.1672   114.2728     6.7556     0.0480     2.4009
   76.5000   -69.9490 24695.9883    13.0468  -999.2500   114.1091     0.3288     0.1516   109.8885     6.7554     0.0903     2.4221
