~VERSION INFORMATION
 VERS.                2.0:   CWLS LOG ASCII STANDARD - VERSION 2.0
 WRAP.                 NO:   ONE LINE PER DEPTH STEP
~WELL INFORMATION
#MNEM.UNIT      DATA TYPE    INFORMATION
#----------   ------------   ------------------------------
 STRT.F           80.0000:   START DEPTH
 STOP.F          739.0000:   STOP DEPTH
 STEP.F            0.5000:   STEP LENGTH
 NULL.          -999.2500:   NO VALUE
 COMP. U S NAVY-INTEX OIL:   COMPANY
 WELL.        NPR #36-S-2:   WELL
 FLD .             TEAPOT:   FIELD
 LOC .       S2 T38N R78W:   LOCATION
 CNTY.            NATRONA:   COUNTY
 STAT.            WYOMING:   STATE
 CTRY. UNITED STATES OF AMERICA:   COUNTRY
 SRVC.       Schlumberger:   SERVICE COMPANY
 DATE.        23-JUN-1962:   LOGDATE
 API .       490250641800:   API NUMBER
~CURVE INFORMATION
#MNEM.UNIT       API CODE    CURVE DESCRIPTION
#----------   ------------   ------------------------------
 DEPT.F                  :   
 ASN .OHMM   05 041 16 00:   AMPLIFIED SHORT NORMAL 16"
 ILD .OHMM   05 120 46 00:   INDUCTION LOG DEEP
 CILD.MMHO   05 110 46 00:   CONDUCTIVITY INDUCTION LOG DEEP
 SPR .MV     05 010 01 00:   SPONTANEOUS POTENTIAL FROM RES.
 GR  .GAPI   30 310 01 00:   GAMMA RAY
~PARAMETER INFORMATION
#MNEM.UNIT          VALUE    DESCRIPTION
#----------   ------------   ------------------------------
 PD  .                 KB:   PERMANENT DATUM
 EPD .F              5143:   ELEVATION PERMANENT DATUM
 EKB .F              5143:   KELLING BUSHING
 EGL .F              5138:   GROUND LEVEL
 DATE.        23-JUN-1962:   RUN DATE
 RUN .                  1:   RUN NUMBER
 DD  .F               738:   DEPTH DRILLER
 DL  .F               740:   DEPTH LOGGER
 BLI .F               739:   BOTTOM LOG INTERVAL
 TLI .F                80:   TOP LOG INTERVAL
 BS  .IN             6.75:   BIT SIZE
 BSD .F               738:   BIT SIZE AT DEPTH
 DFT .       OIL EMULSION:   DRILLING FLUID TYPE
 DFD .               10.0:   DRILLING FLUID DENSITY
 DFV .                 53:   DRILLING FLUID VISCOSITY
 DFL .                3.8:   DRILLING FLUID LOSS
 RMS .OHMM            3.9:   RESISTIVITY MUD SAMPLE
 MST .F                66:   MUD SAMPLE TEMPERATURE
 RMF .OHMM            2.9:   RESISTIVITY MUD FILTRATE SAMPLE
 MFST.F                66:   MUD FILTRATE SAMPLE TEMPERATURE
 RMC .OHMM            4.4:   RESISTIVITY MUD CAKE
 MCST.F                66:   MUD CAKE SAMPLE TEMPERATURE
 TCS .HRS               1:   TIME CURCULATED STOPPED
 LUN .               2503:   LOGGING UNIT NUMBER
 LUL .               CSPR:   LOGGING UNIT LOCATION
 ENGI.             DANNER:   RECORDING ENGINEER
 WITN.          JORGENSON:   WITNESSED BY
 CLNT.            A2DTECH:   CLIENT CODE
 ORIG.           5" PRINT:   ORIGIN OF DATA
 UWI .       490250641800:   UNIQUE WELL ID
 DICO. A2D Technologies, Inc.:   DIGITIZING COMPANY
~OTHER INFORMATION
~A   DEPT        ASN        ILD      CILD       SPR         GR   
# ...
  202.0000    12.7634    12.9295    83.3333   -51.9403  -999.2500
  202.5000    12.8386    12.9285    83.3333   -51.0448  -999.2500
  203.0000    12.9198    13.0030    81.8318   -51.1940  -999.2500
  203.5000    13.0641    13.2278    81.0811   -50.0000  -999.2500
  204.0000    13.2144    13.3022    81.0811   -51.0448  -999.2500
  204.5000    13.2986    13.3767    80.3303   -51.4925  -999.2500
  205.0000    13.3649    13.5263    78.8288   -51.7910  -999.2500
  205.5000    13.4511    13.6007    78.0781   -51.7910  -999.2500
  206.0000    13.5273    13.8645    76.5766   -51.7910  -999.2500
  206.5000    13.6656    14.0112    75.8258   -51.9403  -999.2500
  207.0000    13.8299    14.0827    75.8258   -52.2388  -999.2500
  207.5000    14.1164    14.1541    75.0751   -52.2388  -999.2500
  208.0000    14.2667    14.3759    73.5736   -52.8358  -999.2500
  208.5000    14.5671    14.6009    72.0721   -53.4328  -999.2500
  209.0000    14.7925    14.7506    71.3213   -53.4328  -999.2500
  209.5000    14.9428    14.9756    69.0691   -53.4328  -999.2500
  210.0000    15.1682    15.2633    67.5676   -52.8358  -999.2500
  210.5000    15.4686    15.5594    66.8168   -53.4328  -999.2500
  211.0000    15.9943    15.8564    65.3153   -54.0299  -999.2500
  211.5000    16.9704    16.4542    63.8138   -54.6269  -999.2500
  212.0000    17.8715    16.9016    60.8108   -54.7761  -999.2500
  212.5000    18.1719    17.1244    57.0571   -54.9254  -999.2500
  213.0000    18.1721    17.3463    54.8048   -54.6269  -999.2500
  213.5000    18.0221    17.4177    53.3033   -53.7313  -999.2500
  214.0000    18.2475    17.3379    52.5526   -52.8358  -999.2500
  214.5000    18.7731    17.3342    52.5526   -52.6866  -999.2500
  215.0000    18.7733    17.2553    53.3033   -53.4328  -999.2500
  215.5000    18.0227    16.9508    54.0541   -53.7313  -999.2500
  216.0000    17.5724    16.7215    56.3063   -53.5821  -999.2500
  216.5000    17.9479    16.4922    59.3093   -53.7313  -999.2500
  217.0000    17.8730    16.1877    62.3123   -54.3284  -999.2500
  217.5000    17.4978    15.5825    63.8138   -55.2239  -999.2500
  218.0000    16.9724    15.2029    64.5646   -56.1194  -999.2500
  218.5000    16.7473    14.9736    64.5646   -57.0149  -999.2500
  219.0000    16.6724    15.0451    65.3153   -57.0149  -999.2500
  219.5000    16.6725    15.1165    65.3153   -56.8657  -999.2500
  220.0000    16.6727    15.1128    65.3153   -56.2687  -999.2500
  220.5000    16.4476    15.0339    65.3153   -56.4278  -999.2500
  221.0000    16.2225    14.9321    66.0661   -57.1742  -999.2500
  221.5000    16.0725    14.8532    66.0661   -57.4627  -999.2500
  222.0000    15.7724    14.8495    66.0661   -57.2935  -999.2500
  222.5000    15.5473    14.8458    66.0661   -57.0149  -999.2500
  223.0000    15.4723    14.8420    66.0661   -56.7164  -999.2500
  223.5000    15.1722    14.8383    66.0661   -55.8209  -999.2500
  224.0000    14.9472    14.8345    66.0661   -55.3731  -999.2500
  224.5000    14.8722    14.8308    66.8168   -54.9254  -999.2500
  225.0000    14.8724    14.7519    67.5676   -54.1791  -999.2500
  225.5000    15.0227    14.3728    71.3213   -53.7313  -999.2500
  226.0000    15.0228    13.6183    76.5766   -53.4328  -999.2500
  226.5000    14.0470    12.7137    82.5826   -54.0299  -999.2500
  227.0000    12.9210    11.7339    93.8438   -54.6269  -999.2500
  227.5000    11.9452    10.4539   110.3604   -53.8806  -999.2500
  228.0000    10.8030     9.0988   122.3724   -52.2388  -999.2500
  228.5000     9.9087     8.3443   132.8829   -51.0448  -999.2500
  229.0000     8.8826     7.8901   142.6426   -50.1493  -999.2500
  229.5000     8.0719     7.5110   151.6517   -49.2537  -999.2500
  230.0000     7.6667     7.2820   158.4084   -48.3582  -999.2500
  230.5000     7.5017     7.2032   160.6607   -48.0597  -999.2500
  231.0000     7.4418     7.1995   156.9069   -48.0597  -999.2500
  231.5000     7.5320     7.1957   152.4024   -47.9104  -999.2500
  232.0000     7.9376     7.2680   150.1501   -47.9104  -999.2500
  232.5000     8.0428     7.3384   149.3994   -47.9104  -999.2500
  233.0000     7.9078     7.3346   149.3994   -47.9104  -999.2500
  233.5000     7.7728     7.4069   150.1501   -48.2090  -999.2500
  234.0000     8.0282     7.4022   147.1471   -48.9552  -999.2500
  234.5000     7.7882     7.3234   148.6487   -48.0597  -999.2500
  235.0000     7.4279     7.2446   153.1532   -48.0597  -999.2500
  235.5000     7.2479     7.2408   156.1562   -48.0597  -999.2500
  236.0000     7.1430     7.2371   157.6577   -48.0597  -999.2500
  236.5000     7.1431     7.1582   157.6577   -47.9104  -999.2500
  237.0000     7.1883     7.1545   157.6577   -48.0597  -999.2500
  237.5000     7.2936     7.1507   156.1562   -49.2291  -999.2500
  238.0000     7.3988     7.1470   154.6546   -50.2985  -999.2500
  238.5000     7.4440     7.2185   152.4024   -50.1493  -999.2500
  239.0000     7.4592     7.2146   150.9009   -48.5075  -999.2500
  239.5000     7.4143     7.2860   150.1501   -48.0597  -999.2500
  240.0000     7.3544     7.2822   150.1501   -48.0597  -999.2500
  240.5000     7.3094     7.2784   151.6517   -47.7612  -999.2500
  241.0000     7.2646     7.1996   154.6546   -47.6119  -999.2500
  241.5000     7.2347     7.1958   158.4084   -47.4627  -999.2500
  242.0000     7.1898     7.1921   161.4114   -47.4627  -999.2500
  242.5000     7.1299     7.1883   162.9129   -47.3134  -999.2500
  243.0000     7.0700     7.1846   162.9129   -47.1642  -999.2500
  243.5000     7.0251     7.1808   162.9129   -46.8657  -999.2500
  244.0000     7.0102     7.1020   162.9129   -46.7164  -999.2500
  244.5000     7.0554     7.0983   162.1622   -47.4627  -999.2500
  245.0000     7.1156     6.9444   160.6607   -48.0597  -999.2500
  245.5000     7.2960     6.8656   158.4084   -47.7612  -999.2500
  246.0000     7.4763     6.8618   154.6546   -47.4627  -999.2500
  246.5000     7.6416     6.8581   152.4024   -47.3134  -999.2500
  247.0000     7.9571     7.0045   149.3994   -47.4627  -999.2500
  247.5000     8.1824     7.2259   144.8949   -47.6119  -999.2500
  248.0000     8.3027     7.5225   138.1381   -47.4627  -999.2500
  248.5000     8.3929     7.8190   132.8829   -47.4627  -999.2500
  249.0000     8.5132     8.1907   126.1261   -47.9104  -999.2500
  249.5000     8.9038     8.4872   121.6216   -48.2090  -999.2500
  250.0000     9.3844     8.7838   120.1201   -48.3582  -999.2500
  250.5000     9.3022     9.0867   119.5235   -48.4604  -999.2500
  251.0000     9.2052     9.2391   118.9269   -48.5626  -999.2500
  251.5000     9.7462     9.1663   117.8679   -48.6388  -999.2500
  252.0000     9.8366     9.0930   115.6156   -48.3342  -999.2500
  252.5000     9.2216     8.9302   124.6246   -47.7312  -999.2500
  253.0000     8.9822     8.6470   130.6306   -47.7253  -999.2500
  253.5000     8.7016     8.4992   134.3844   -47.8686  -999.2500
  254.0000     8.5577     8.2673   135.8859   -49.3551  -999.2500
  254.5000     8.4388     8.0464   138.1381   -50.0955  -999.2500
  255.0000     8.3183     7.9054   140.3904   -50.0894  -999.2500
  255.5000     8.1397     7.8296   142.6426   -50.0834  -999.2500
  256.0000     7.9926     7.6837   144.8949   -48.1371  -999.2500
  256.5000     7.9188     7.6119   146.3964   -47.6833  -999.2500
  257.0000     7.8590     7.6141   147.8979   -47.6773  -999.2500
  257.5000     7.7845     7.6164   147.8979   -47.6713  -999.2500
  258.0000     7.7399     7.6187   147.8979   -47.3668  -999.2500
  258.5000     7.7104     7.6209   147.1471   -47.2116  -999.2500
  259.0000     7.7709     7.7734   144.1441   -47.2056  -999.2500
  259.5000     7.8915     7.9258   139.6396   -47.1996  -999.2500
  260.0000     8.1171     8.2283   135.1351   -47.3429  -999.2500
  260.5000     8.3879     8.4558   131.3814   -47.7847  -999.2500
  261.0000     8.5234     8.5332   129.1291   -47.7787  -999.2500
  261.5000     8.5239     8.2351   127.6276   -47.6234  -999.2500
  262.0000     7.6535     7.9371   127.6276   -47.3189  -999.2500
  262.5000     7.5337     8.0145   127.6276   -47.3129  -999.2500
