~VERSION INFORMATION
 VERS.                2.0:   CWLS LOG ASCII STANDARD - VERSION 2.0
 WRAP.                 NO:   ONE LINE PER DEPTH STEP
~WELL INFORMATION
#MNEM.UNIT      DATA TYPE    INFORMATION
#----------   ------------   ------------------------------
 STRT.F           19.5000:   START DEPTH
 STOP.F         1292.5000:   STOP DEPTH
 STEP.F            0.5000:   STEP LENGTH
 NULL.          -999.2500:   NO VALUE
 COMP. FENIX & SCISSON INC:   COMPANY
 WELL.  NPR-3 "SX" #74-14:   WELL
 FLD .             TEAPOT:   FIELD
 LOC .      S14 T38N R78W:   LOCATION
 CNTY.            NATRONA:   COUNTY
 STAT.            WYOMING:   STATE
 CTRY. UNITED STATES OF AMERICA:   COUNTRY
 SRVC.            Unknown:   SERVICE COMPANY
 DATE.        22-MAR-1978:   LOGDATE
 API .       490251060300:   API NUMBER
~CURVE INFORMATION
#MNEM.UNIT       API CODE    CURVE DESCRIPTION
#----------   ------------   ------------------------------
 DEPT.F                  :   
 SPR .MV     05 010 01 00:   SPONTANEOUS POTENTIAL
 SN  .OHMM   05 040 16 00:   SHORT NORMAL 16'
 ILD .OHMM   05 120 46 00:   INDUCTION LOG DEEP
 CALD.IN     45 280 60 00:   CALIPER
 GRD .GAPI   45 310 01 00:   GAMMA RAY FROM DENSITY LOG
 CORR.G/C3   45 356 01 00:   DENSITY CORRECTION
 RHOB.G/C3   45 350 01 00:   BULK DENSITY
 DPHI.DEC    45 890 12 00:   DENSITY POROSITY SANDSTONE
~PARAMETER INFORMATION
#MNEM.UNIT          VALUE    DESCRIPTION
#----------   ------------   ------------------------------
 PD  .                 GL:   PERMANENT DATUM
 EPD .F              5312:   ELEVATION PERMANENT DATUM
 LMF .                 KB:   LOG MEASURED FROM
 DMF .                 KB:   DRILLING MEASURED FROM
 EKB .F              5316:   KELLING BUSHING
 EGL .F              5312:   GROUND LEVEL
 DATE.          3-22-1978:   RUN DATE
 RUN .                  1:   RUN NUMBER
 DD  .F              1280:   DEPTH DRILLER
 DL  .F              1292:   DEPTH LOGGER
 BLI .F              1286:   BOTTOM LOG INTERVAL
 TLI .F                50:   TOP LOG INTERVAL
 CS  .IN            8.625:   CASING SIZE
 CBD .F                50:   CASING BOTTOM DRILLER
 CBL .F                50:   CASING BOTTOM LOGGER
 BS  .IN            7.875:   BIT SIZE
 BSD .F              1280:   BIT SIZE AT DEPTH
 DFT .                KCL:   DRILLING FLUID TYPE
 DFD .                8.6:   DRILLING FLUID DENSITY
 DFV .                 31:   DRILLING FLUID VISCOSITY
 DFPH.               10.5:   DRILLING FLUID PH
 DFL .               11.6:   DRILLING FLUID LOSS
 MSS .            MUD PIT:   MUD SAMPLE SOURCE
 RMS .OHMM            .38:   RESISTIVITY MUD SAMPLE
 MST .F                52:   MUD SAMPLE TEMPERATURE
 RMF .OHMM            .32:   RESISTIVITY MUD FILTRATE SAMPLE
 MFST.F                66:   MUD FILTRATE SAMPLE TEMPERATURE
 RMC .OHMM             .4:   RESISTIVITY MUD CAKE
 MCST.F                68:   MUD CAKE SAMPLE TEMPERATURE
 MFSS.           MEASURED:   MUD FILTRATE SAMPLE SOURCE
 RMB .OHMM            .24:   RESISTIVITY MUD AT BHT
 BHT .F                82:   BOTTOM HOLE TEMPERATURE
 TCS .HRS               4:   TIME CURCULATED STOPPED
 MRT .F                82:   MAXIMUM RECORDED TEMPERATURE
 LUN .               2958:   LOGGING UNIT NUMBER
 LUL .               CASP:   LOGGING UNIT LOCATION
 ENGI.            POINTER:   RECORDING ENGINEER
 WITN.           MCGINLEY:   WITNESSED BY
 CLNT.            A2DTECH:   CLIENT CODE
 ORIG.        2" 5" PRINT:   ORIGIN OF DATA
 UWI .       490251060300:   UNIQUE WELL ID
 DICO. A2D Technologies, Inc.:   DIGITIZING COMPANY
~OTHER INFORMATION
~A   DEPT      SPR         SN        ILD       CALD         GRD      CORR       RHOB       DPHI   
# ...
  627.0000   -51.2297     3.9008     3.6849     8.2565    89.0038     0.0189     2.3581     0.1793
  627.5000   -51.2834     3.7106     3.5017     8.2566    89.5846     0.0081     2.3307     0.1875
  628.0000   -51.4588     3.5296     3.3727     8.2568    93.9014     0.0053     2.3127     0.1932
  628.5000   -51.7678     3.3709     3.2527     8.2570    93.9565     0.0194     2.3056     0.1880
  629.0000   -52.0803     3.3328     3.2527     8.2572    94.3117     0.0306     2.3156     0.1798
  629.5000   -52.3988     3.3132     3.2527     8.2574    94.3716     0.0318     2.3296     0.1759
  630.0000   -52.7071     3.3312     3.2527     8.2569    92.7298     0.0296     2.3289     0.1862
  630.5000   -52.6917     3.3439     3.2527     8.2562    92.8417     0.0272     2.3163     0.1992
  631.0000   -52.6890     3.1956     3.1016     8.2555    93.0867     0.0249     2.2952     0.2022
  631.5000   -52.6923     3.0774     2.9637     8.2548    93.9854     0.0227     2.2866     0.2061
  632.0000   -52.9535     2.9111     2.8321     8.2540    92.1718     0.0207     2.2842     0.2104
  632.5000   -53.6150     2.7570     2.6933     8.2533    90.8073     0.0187     2.2745     0.2175
  633.0000   -53.8073     2.6105     2.5106     8.2526    93.4251     0.0108     2.2650     0.2220
  633.5000   -53.5507     2.4667     2.3340     8.2519    94.6482    -0.0015     2.2562     0.2224
  634.0000   -53.1814     2.4195     2.3340     8.2512    88.4275    -0.0096     2.2536     0.2217
  634.5000   -52.8132     2.3994     2.3340     8.2505    85.2739     0.0087     2.2556     0.2142
  635.0000   -52.4919     2.5461     2.4611     8.2498    84.8009     0.0331     2.2687     0.1461
  635.5000   -52.4913     2.6866     2.6049     8.2490    83.5344     0.0398     2.3479     0.1333
  636.0000   -52.4769     2.9650     2.7572     8.2483    82.6570     0.0388     2.4042     0.1354
  636.5000   -52.1710     3.3351     3.0001     8.2476    88.3859     0.0375     2.4065     0.1394
  637.0000   -51.8730     3.7515     3.3062     8.2469    90.5543     0.0362     2.3987     0.1437
  637.5000   -51.5765     4.0958     3.6429     8.2462    91.0821     0.0362     2.3887     0.1478
  638.0000   -51.3034     4.0958     3.8070     8.2455   101.9839     0.0366     2.3861     0.1524
  638.5000   -51.3811     4.0958     3.8641     8.2448   101.3205     0.0370     2.3789     0.1569
  639.0000   -51.4684     4.0384     3.9463     8.2440    98.5486     0.0374     2.3690     0.1615
  639.5000   -51.5542     3.9031     3.8133     8.2433    94.9185     0.0378     2.3588     0.1660
  640.0000   -51.6391     3.7723     3.6865     8.2426    94.2850     0.0364     2.3509     0.1718
  640.5000   -51.6940     3.6459     3.5639     8.2419    94.8924     0.0342     2.3415     0.1791
  641.0000   -51.6929     3.5388     3.4394     8.2412    97.5869     0.0319     2.3299     0.1864
  641.5000   -51.6928     3.3624     3.3342     8.2405   106.1295     0.0277     2.3183     0.1936
  642.0000   -51.6949     3.2045     3.1985     8.2398   113.0668     0.0162     2.3065     0.2020
  642.5000   -51.6955     3.0621     3.0043     8.2390   111.1563     0.0106     2.2875     0.2140
  643.0000   -52.0255     2.9260     2.7020     8.2383   102.1073     0.0088     2.2683     0.2209
  643.5000   -52.6971     2.8066     2.5359     8.2376    91.6032    -0.0058     2.2541     0.2276
  644.0000   -53.1020     2.6882     2.4896     8.2369    87.0641    -0.0288     2.2430     0.2371
  644.5000   -53.2156     2.6070     2.5379     8.2362    88.8338    -0.0161     2.2361     0.2236
  645.0000   -52.9066     2.7275     2.6459     8.2355    86.9350     0.0065     2.2529     0.1892
  645.5000   -52.6029     2.8760     2.7557     8.2348    84.8895     0.0147     2.3197     0.1547
  646.0000   -52.4954     3.0116     2.9112     8.2340    90.3369     0.0130     2.3805     0.1340
  646.5000   -52.4742     3.3645     3.0679     8.2333    92.8218     0.0112     2.4071     0.1369
  647.0000   -51.8868     4.2107     3.4809     8.2326    91.8104     0.0100     2.4017     0.1357
  647.5000   -51.2767     4.5196     4.1539     8.2319    90.7349     0.0105     2.4023     0.1340
  648.0000   -50.6673     4.8569     4.6184     8.2312    90.8764     0.0109     2.4048     0.1315
  648.5000   -50.0423     5.0526     4.9407     8.2305    92.5190     0.0113     2.4081     0.1293
  649.0000   -50.0078     5.1571     5.0219     8.2298    96.1822     0.0118     2.4126     0.1277
  649.5000   -50.1441     5.2637     5.1054     8.2290    97.5176     0.0122     2.4171     0.1241
  650.0000   -50.2918     5.3726     5.1910     8.2283    93.4868     0.0128     2.4216     0.1202
  650.5000   -50.3000     5.5012     5.3005     8.2276    87.5558     0.0133     2.4256     0.1202
  651.0000   -50.2991     5.7135     5.4643     8.2269    84.9942     0.0137     2.4250     0.1201
  651.5000   -50.2988     5.9153     5.6331     8.2262    84.8275     0.0183     2.4258     0.1191
  652.0000   -50.2989     6.1239     5.8071     8.2255    84.9324     0.0246     2.4279     0.1169
  652.5000   -50.2990     6.3400     5.9865     8.2248    88.3566     0.0251     2.4331     0.1164
  653.0000   -50.2984     6.5546     6.1714     8.2241    95.3706     0.0193     2.4398     0.1168
  653.5000   -50.2827     6.5546     6.2128     8.2233   100.8069     0.0141     2.4401     0.1171
  654.0000   -50.2113     6.5546     6.2262     8.2226   100.0475     0.0138     2.4369     0.1175
  654.5000   -50.1422     6.5546     6.2391     8.2219   101.6566     0.0136     2.4314     0.1178
  655.0000   -50.1954     6.5546     6.2522     8.2212   102.8475     0.0133     2.4311     0.1178
  655.5000   -50.4253     6.5546     6.2654     8.2205    96.2635     0.0131     2.4307     0.1173
  656.0000   -50.6585     6.5546     6.2786     8.2198    86.0952     0.0129     2.4320     0.1166
  656.5000   -50.5794     6.5546     6.2918     8.2191    86.7234     0.0127     2.4337     0.1200
  657.0000   -50.4363     6.5546     6.3051     8.2183    90.4514     0.0125     2.4316     0.1232
  657.5000   -50.2903     6.5546     6.3184     8.2176    91.8491     0.0123     2.4247     0.1244
  658.0000   -50.1447     6.5546     6.3317     8.2169    91.5316     0.0120     2.4243     0.1225
  658.5000   -49.9992     6.5546     6.3451     8.2162    91.5176     0.0141     2.4262     0.1202
  659.0000   -49.8523     6.5547     6.3584     8.2155    93.5763     0.0174     2.4295     0.1210
  659.5000   -49.7082     6.5544     6.3758     8.2148    96.8018     0.0207     2.4289     0.1189
  660.0000   -49.7982     6.5319     6.3511     8.2141    95.8799     0.0240     2.4304     0.1170
  660.5000   -49.9035     6.5072     6.3165     8.2134    95.5603     0.0254     2.4332     0.1182
  661.0000   -50.0079     6.4825     6.2820     8.2126    95.4127     0.0237     2.4314     0.1196
  661.5000   -50.0992     6.4580     6.2477     8.2119    95.2341     0.0159     2.4288     0.1211
  662.0000   -50.1000     6.4348     6.2018     8.2112    96.3267     0.0084     2.4248     0.1226
  662.5000   -50.0996     6.4565     6.2129     8.2105    96.8342     0.0134     2.4159     0.1242
  663.0000   -50.0996     6.4818     6.2372     8.2098    97.8134     0.0181     2.4091     0.1258
  663.5000   -50.0996     6.5072     6.2617     8.2091   100.2421     0.0180     2.4173     0.1258
  664.0000   -50.0998     6.5327     6.2862     8.2084    98.3626     0.0218     2.4204     0.1258
  664.5000   -50.0998     6.5583     6.3109     8.2076    95.1076     0.0267     2.4185     0.1228
  665.0000   -50.0223     6.5840     6.3356     8.2069    93.8885     0.0279     2.4243     0.1201
  665.5000   -49.9235     6.6098     6.3604     8.2062    93.6640     0.0292     2.4287     0.1182
  666.0000   -50.2001     6.6374     6.3758     8.2055    93.6533     0.0310     2.4330     0.1171
  666.5000   -50.6543     6.6954     6.4295     8.2048    93.6866     0.0340     2.4396     0.1120
  667.0000   -51.0822     6.7544     6.4847     8.2041    95.1382     0.0363     2.4410     0.1121
