~VERSION INFORMATION
 VERS.                2.0:   CWLS LOG ASCII STANDARD - VERSION 2.0
 WRAP.                 NO:   ONE LINE PER DEPTH STEP
~WELL INFORMATION
#MNEM.UNIT      DATA TYPE    INFORMATION
#----------   ------------   ------------------------------
 STRT.F           70.0000:   START DEPTH
 STOP.F         1088.0000:   STOP DEPTH
 STEP.F            0.5000:   STEP LENGTH
 NULL.          -999.2500:   NO VALUE
 COMP. U S NAVY/INTEX OIL CO:   COMPANY
 WELL. RES 3 TEAPOT DOME #66S-11:   WELL
 FLD .             TEAPOT:   FIELD
 LOC .      S11 T38N R78W:   LOCATION
 CNTY.            NATRONA:   COUNTY
 STAT.            WYOMING:   STATE
 CTRY. UNITED STATES OF AMERICA:   COUNTRY
 SRVC.         Lane Wells:   SERVICE COMPANY
 DATE.        06-MAR-1960:   LOGDATE
 API .       490250633400:   API NUMBER
~CURVE INFORMATION
#MNEM.UNIT       API CODE    CURVE DESCRIPTION
#----------   ------------   ------------------------------
 DEPT.F                  :   
 SPR .MV     05 010 01 00:   SPONTANEOUS POTENTIAL FROM RES.
 ILD .OHMM   05 120 46 00:   INDUCTION LOG DEEP
 CILD.MMHO   05 110 00 00:   CONDUCTIVITY INDUCTION LOG
 ASN .OHMM   05 041 16 00:   AMPLIFIED SHORT NORMAL 16"
~PARAMETER INFORMATION
#MNEM.UNIT          VALUE    DESCRIPTION
#----------   ------------   ------------------------------
 PD  .                 GL:   PERMANENT DATUM
 EPD .F              5238:   ELEVATION PERMANENT DATUM
 LMF .                 KB:   LOG MEASURED FROM
 DAPD.F                 5:   FEET ABOVE PERMANENT DATUM
 DMF .                 KB:   DRILLING MEASURED FROM
 EKB .F              5243:   KELLING BUSHING
 EGL .F              5238:   GROUND LEVEL
 DATE.             3-6-60:   RUN DATE
 RUN .                  1:   RUN NUMBER
 DD  .F              1085:   DEPTH DRILLER
 DL  .F              1087:   DEPTH LOGGER
 BLI .F              1085:   BOTTOM LOG INTERVAL
 TLI .F                70:   TOP LOG INTERVAL
 CS  .IN            8.625:   CASING SIZE
 CBD .F                12:   CASING BOTTOM DRILLER
 BS  .IN            7.875:   BIT SIZE
 BSD .F              1085:   BIT SIZE AT DEPTH
 DFT .   GEL/OIL EMULSION:   DRILLING FLUID TYPE
 DFD .               10.3:   DRILLING FLUID DENSITY
 DFV .                 37:   DRILLING FLUID VISCOSITY
 DFPH.                8.5:   DRILLING FLUID PH
 DFL .                7.2:   DRILLING FLUID LOSS
 MSS .          FLOW LINE:   MUD SAMPLE SOURCE
 RMS .OHMM           1.65:   RESISTIVITY MUD SAMPLE
 MST .F                70:   MUD SAMPLE TEMPERATURE
 RMF .OHMM            1.2:   RESISTIVITY MUD FILTRATE SAMPLE
 MFST.F                68:   MUD FILTRATE SAMPLE TEMPERATURE
 RMC .OHMM            1.8:   RESISTIVITY MUD CAKE
 MCST.F                68:   MUD CAKE SAMPLE TEMPERATURE
 MFSS.              PRESS:   MUD FILTRATE SAMPLE SOURCE
 MCSS.              PRESS:   MUD CAKE SAMPLE SOURCE
 RMB .OHMM            1.5:   RESISTIVITY MUD AT BHT
 BHT .F                74:   BOTTOM HOLE TEMPERATURE
 MRT .F                74:   MAXIMUM RECORDED TEMPERATURE
 LUN .               4474:   LOGGING UNIT NUMBER
 LUL .             CASPER:   LOGGING UNIT LOCATION
 ENGI.      NELSON/GRIGGS:   RECORDING ENGINEER
 WITN.   JORGENSEN/HUDSON:   WITNESSED BY
 CLNT.            A2DTECH:   CLIENT CODE
 ORIG.       2", 5" PRINT:   ORIGIN OF DATA
 UWI .       490250633400:   UNIQUE WELL ID
 DICO. A2D Technologies, Inc.:   DIGITIZING COMPANY
~OTHER INFORMATION
~A   DEPT      SPR          ILD      CILD         ASN 
# ...
  800.0000   -38.3517     4.6262   250.0680     5.4775
  800.5000   -38.1215     4.3556   264.4464     5.0891
  801.0000   -37.8943     4.0912   277.6506     4.6961
  801.5000   -37.7591     3.8175   296.0644     4.3033
  802.0000   -37.8464     3.5426   321.8396     3.9106
  802.5000   -37.9303     3.2677   348.5018     3.5179
  803.0000   -38.0155     3.0006   380.6599     3.1249
  803.5000   -38.1037     2.8048   416.2095     2.7638
  804.0000   -37.9369     2.6142   451.7591     2.4452
  804.5000   -37.7412     2.4224   484.1292     2.2070
  805.0000   -37.5461     2.2308   505.3947     2.0516
  805.5000   -37.4085     2.0071   509.1462     2.0091
  806.0000   -37.5684     2.0523   490.8372     2.0459
  806.5000   -37.7238     2.3052   471.3775     2.1876
  807.0000   -37.8768     2.5556   442.0846     2.4154
  807.5000   -38.0304     2.8067   404.5570     2.8324
  808.0000   -37.8798     3.0545   367.0295     3.2874
  808.5000   -37.6425     3.2580   329.5019     3.7451
  809.0000   -37.8979     3.5030   306.7727     4.1783
  809.5000   -38.1399     3.7510   291.0479     4.5560
  810.0000   -38.2153     4.0006   279.7997     4.7982
  810.5000   -38.0274     4.2480   275.6555     4.9448
  811.0000   -37.8427     4.3069   268.6323     4.9950
  811.5000   -37.6584     4.3565   265.3082     5.0223
  812.0000   -37.4714     4.4066   262.0751     5.0354
  812.5000   -37.6804     4.4183   262.9289     5.0347
  813.0000   -38.2169     4.3781   263.7599     5.0600
  813.5000   -38.6547     4.3384   267.1375     5.0593
  814.0000   -38.4827     4.2982   270.8414     4.8324
  814.5000   -38.3125     4.2587   274.5718     4.6031
  815.0000   -38.1439     4.2235   278.2946     4.3807
  815.5000   -37.9666     4.1802   282.0188     4.2075
  816.0000   -38.0431     4.1368   283.5421     4.0977
  816.5000   -38.2025     4.0915   280.6750     4.0343
  817.0000   -38.3648     4.1574   275.7997     4.1725
  817.5000   -38.5220     4.2808   270.9243     4.3186
  818.0000   -38.6399     4.4059   265.2032     4.4573
  818.5000   -38.7736     4.5309   257.3380     4.7434
  819.0000   -38.7001     4.6559   249.5707     5.0373
  819.5000   -38.4683     4.7807   241.6147     5.3338
  820.0000   -37.8400     4.9015   233.7269     5.6091
  820.5000   -37.5803     4.9945   225.8044     5.8891
  821.0000   -37.9476     5.0887   219.9284     6.1694
  821.5000   -38.3457     5.1829   215.3578     6.3216
  822.0000   -38.7480     5.2773   210.1968     6.4480
  822.5000   -39.1456     5.3713   209.8111     6.5535
  823.0000   -39.2015     5.4659   209.2397     6.6078
  823.5000   -38.4202     5.4891   208.6684     6.6257
  824.0000   -37.6768     5.4502   209.0860     6.5946
  824.5000   -36.9359     5.4104   210.3326     6.4904
  825.0000   -36.3318     5.3704   211.5791     6.3408
  825.5000   -36.8197     5.3339   212.8257     6.1586
  826.0000   -37.4574     5.2774   214.5787     6.0173
  826.5000   -37.8662     5.2123   217.9465     5.9054
  827.0000   -37.5373     5.1467   221.3144     5.8022
  827.5000   -37.2276     5.0814   224.6822     5.6711
  828.0000   -36.9194     5.0159   231.0555     5.5060
  828.5000   -36.6657     4.9251   240.1968     5.3409
  829.0000   -36.7093     4.7835   249.3348     5.1544
  829.5000   -36.7473     4.6425   258.4801     4.9417
  830.0000   -36.7850     4.5017   267.6299     4.6478
  830.5000   -36.8198     4.3622   276.7621     4.3173
  831.0000   -36.7350     4.2395   283.5421     4.0731
  831.5000   -36.3418     4.0501   282.4229     3.9432
  832.0000   -35.9596     3.9843   278.4235     4.0391
  832.5000   -35.9428     4.1216   274.4402     4.2350
  833.0000   -35.9917     4.2822   269.3517     4.5012
  833.5000   -36.2444     4.4388   258.0320     4.8962
  834.0000   -36.4903     4.5944   246.7007     5.3245
  834.5000   -36.6644     4.7501   235.3829     5.7078
  835.0000   -36.6356     4.9057   224.5081     5.9001
  835.5000   -36.6112     5.0614   220.6380     6.0017
  836.0000   -36.5867     5.2172   216.9138     6.0860
  836.5000   -36.5624     5.3725   213.1896     6.1748
  837.0000   -36.5380     5.5288   209.4653     6.2751
  837.5000   -36.5131     5.6074   205.7411     6.3816
  838.0000   -36.4857     5.6240   204.3852     6.4980
  838.5000   -36.6090     5.6392   203.5903     6.5941
  839.0000   -36.7492     5.6544   202.7954     6.5774
  839.5000   -36.8897     5.6696   202.0005     6.5947
  840.0000   -37.0296     5.6853   201.2522     6.6430
  840.5000   -37.1696     5.6744   202.1888     6.6912
  841.0000   -37.3117     5.6519   203.0735     6.7411
  841.5000   -37.5255     5.6289   203.9581     6.7367
  842.0000   -37.8354     5.6053   204.8427     6.6828
  842.5000   -38.1156     5.6004   205.7274     6.6290
  843.0000   -37.9966     5.6003   206.6190     6.5908
  843.5000   -37.8688     5.6004   206.0521     6.5526
  844.0000   -37.7647     5.6002   205.4808     6.5381
  844.5000   -38.2700     5.6012   204.9094     6.5757
  845.0000   -38.4641     5.5488   206.7191     6.6322
  845.5000   -38.4626     5.4734   208.9131     6.6900
  846.0000   -38.5059     5.3969   211.1070     6.7160
  846.5000   -39.3297     5.3201   213.3009     6.6335
  847.0000   -39.7918     5.2454   215.5635     6.5427
  847.5000   -40.2609     5.2119   217.7773     6.3932
  848.0000   -40.4479     5.1743   220.0626     6.1314
  848.5000   -40.3780     5.1363   222.3479     5.8638
  849.0000   -39.9969     5.0990   224.5081     5.6741
  849.5000   -38.8020     5.0565   230.5992     5.5836
  850.0000   -37.4910     4.9126   236.3740     5.4923
  850.5000   -37.2408     4.7712   242.1487     5.4014
  851.0000   -37.9737     4.6305   247.9235     5.2334
  851.5000   -38.6010     4.4891   253.6983     4.9964
  852.0000   -38.8126     4.3509   258.4973     4.7590
  852.5000   -38.2571     4.3441   258.0117     4.6447
  853.0000   -37.6664     4.4120   255.4102     4.7248
  853.5000   -37.2354     4.5216   252.8086     4.8101
  854.0000   -37.4579     4.6317   248.6941     4.9288
  854.5000   -37.7890     4.7420   242.6237     5.1855
  855.0000   -38.2784     4.8525   236.5534     5.4318
  855.5000   -38.7677     4.9613   230.4830     5.6044
  856.0000   -38.9845     4.9925   224.5081     5.7414
  856.5000   -38.9493     5.0193   224.5081     5.8217
  857.0000   -38.9096     5.0457   224.5081     5.8646
  857.5000   -38.8695     5.0436   231.8625     5.8772
  858.0000   -38.8276     4.9163   238.6073     5.8443
  858.5000   -38.7337     4.7902   245.3522     5.6498
  859.0000   -38.6362     4.6643   252.0970     5.3265
  859.5000   -38.5405     4.5390   258.8419     4.9782
  860.0000   -38.5042     4.4102   263.8640     4.6307
  860.5000   -38.6789     4.2779   263.5878     4.4630
  861.0000   -38.8222     4.2542   262.5760     4.5446
  861.5000   -38.7207     4.3553   259.7764     4.5366
  862.0000   -38.6908     4.5530   250.9678     4.7949
  862.5000   -38.8212     4.7502   240.4964     5.2598
  863.0000   -38.6847     4.9475   230.0250     5.6573
  863.5000   -38.5303     5.1448   219.5537     5.9491
  864.0000   -38.3814     5.3422   212.8578     6.2281
  864.5000   -38.4756     5.5392   207.1668     6.5077
  865.0000   -38.9397     5.7099   201.4758     6.7054
  865.5000   -39.3611     5.7882   197.0110     6.8573
  866.0000   -39.4179     5.8674   193.2171     6.9851
  866.5000   -39.4699     5.9466   190.5188     7.0069
  867.0000   -39.5232     6.0288   191.4230     7.0118
  867.5000   -39.6962     6.0665   192.3077     7.0162
  868.0000   -39.9785     6.0921   190.1878     7.0220
  868.5000   -40.2615     6.1173   187.9115     7.0678
  869.0000   -40.5443     6.1426   185.6351     7.1170
  869.5000   -40.8196     6.1679   183.3531     7.1661
  870.0000   -40.7117     6.1932   180.7645     7.2152
  870.5000   -40.0145     6.2190   180.5085     7.2645
  871.0000   -39.3850     6.2388   181.7173     7.3056
  871.5000   -39.4823     6.2644   182.9050     7.2364
  872.0000   -39.4049     6.2896   184.0927     7.1670
  872.5000   -39.1680     6.3150   184.9863     7.0977
