~VERSION INFORMATION
 VERS.                2.0:   CWLS LOG ASCII STANDARD - VERSION 2.0
 WRAP.                 NO:   ONE LINE PER DEPTH STEP
~WELL INFORMATION
#MNEM.UNIT      DATA TYPE    INFORMATION
#----------   ------------   ------------------------------
 STRT.F           31.0000:   START DEPTH
 STOP.F          662.0000:   STOP DEPTH
 STEP.F            0.5000:   STEP LENGTH
 NULL.          -999.2500:   NO VALUE
 COMP. FENIX & SCISSON INC:   COMPANY
 WELL.   NPR-3 #83SX15-15:   WELL
 FLD .             TEAPOT:   FIELD
 LOC .      S15 T38N R78W:   LOCATION
 CNTY.            NATRONA:   COUNTY
 STAT.            WYOMING:   STATE
 CTRY. UNITED STATES OF AMERICA:   COUNTRY
 SRVC.            Unknown:   SERVICE COMPANY
 DATE.        17-MAY-1978:   LOGDATE
 API .       490251062500:   API NUMBER
~CURVE INFORMATION
#MNEM.UNIT       API CODE    CURVE DESCRIPTION
#----------   ------------   ------------------------------
 DEPT.F                  :   
 SN  .OHMM   07 040 16 00:   SHORT NORMAL 16'
 ILD .OHMM   07 120 46 00:   INDUCTION LOG DEEP
 CALD.IN     45 280 60 00:   CALIPER
 GRD .GAPI   45 310 01 00:   GAMMA RAY FROM DENSITY LOG
 RHOB.G/C3   45 350 01 00:   BULK DENSITY
 DPHI.DEC    45 890 10 00:   DENSITY POROSITY SANDSTONE
 CORR.G/C3   45 356 01 00:   DENSITY CORRECTION
~PARAMETER INFORMATION
#MNEM.UNIT          VALUE    DESCRIPTION
#----------   ------------   ------------------------------
 PD  .                 GL:   PERMANENT DATUM
 EPD .F              5265:   ELEVATION PERMANENT DATUM
 LMF .                 KB:   LOG MEASURED FROM
 DMF .                 KB:   DRILLING MEASURED FROM
 EKB .F              5269:   KELLING BUSHING
 EGL .F              5265:   GROUND LEVEL
 DATE.          5-17-1978:   RUN DATE
 RUN .                  1:   RUN NUMBER
 DD  .F               670:   DEPTH DRILLER
 DL  .F               668:   DEPTH LOGGER
 BLI .F               662:   BOTTOM LOG INTERVAL
 TLI .F                40:   TOP LOG INTERVAL
 CS  .IN            8.625:   CASING SIZE
 CBD .F                40:   CASING BOTTOM DRILLER
 BS  .IN            7.875:   BIT SIZE
 BSD .F               670:   BIT SIZE AT DEPTH
 DFT .                KCL:   DRILLING FLUID TYPE
 DFD .                8.6:   DRILLING FLUID DENSITY
 DFV .                 31:   DRILLING FLUID VISCOSITY
 DFPH.                 10:   DRILLING FLUID PH
 BHT .F                75:   BOTTOM HOLE TEMPERATURE
 TCS .HRS               2:   TIME CURCULATED STOPPED
 MRT .F                75:   MAXIMUM RECORDED TEMPERATURE
 LUN .               3006:   LOGGING UNIT NUMBER
 LUL .                CPR:   LOGGING UNIT LOCATION
 ENGI.             MILLER:   RECORDING ENGINEER
 WITN.           MCGINLEY:   WITNESSED BY
 CLNT.            A2DTECH:   CLIENT CODE
 ORIG.      2" & 5" PRINT:   ORIGIN OF DATA
 UWI .       490251062500:   UNIQUE WELL ID
 DICO. A2D Technologies, Inc.:   DIGITIZING COMPANY
~OTHER INFORMATION
~A   DEPT       SN        ILD       CALD         GRD      RHOB       DPHI       CORR   
# ...
  531.5000    12.2711    16.0478     7.3325    50.8264     2.3577     0.1944     0.0410
  532.0000    12.1785    16.0281     7.3616    48.4453     2.3452     0.2007     0.0410
  532.5000    12.0866    16.0084     7.4036    47.6822     2.3398     0.2059     0.0408
  533.0000    11.9954    15.9883     7.4134    47.7163     2.3401     0.2065     0.0466
  533.5000    11.9048    15.9708     7.4244    48.9481     2.3567     0.1907     0.0534
  534.0000    11.8150    15.9599     7.4356    49.5333     2.3745     0.1782     0.0550
  534.5000    11.7258    15.8136     7.4333    49.6142     2.3913     0.1732     0.0550
  535.0000    11.6373    15.4148     7.4156    49.7519     2.3970     0.1706     0.0550
  535.5000    11.5494    15.0253     7.3981    51.2844     2.3997     0.1681     0.0550
  536.0000    11.4559    14.6456     7.3806    52.8506     2.4019     0.1656     0.0548
  536.5000    11.4196    14.2755     7.3647    53.6552     2.4004     0.1668     0.0486
  537.0000    11.3805    13.9144     7.2949    53.5185     2.3967     0.1704     0.0420
  537.5000    11.3416    13.6072     7.2188    54.4038     2.3930     0.1742     0.0410
  538.0000    11.3027    13.4450     7.1819    55.6808     2.3933     0.1746     0.0410
  538.5000    11.2641    13.2850     7.1810    56.2915     2.4085     0.1582     0.0410
  539.0000    11.2255    13.1265     7.1888    56.6134     2.4192     0.1539     0.0395
  539.5000    11.1871    12.9700     7.1991    57.5763     2.4253     0.1503     0.0364
  540.0000    11.1489    12.7957     7.2094    58.4038     2.4225     0.1529     0.0333
  540.5000    11.1107    12.9139     7.2196    55.9673     2.4160     0.1572     0.0302
  541.0000    11.0727    12.9130     7.2299    54.5587     2.4096     0.1614     0.0271
  541.5000    11.0348    12.9131     7.2402    53.1599     2.4031     0.1658     0.0263
  542.0000    10.9970    12.9131     7.2504    52.3826     2.3967     0.1670     0.0256
  542.5000    10.9594    12.9131     7.2607    53.9286     2.3924     0.1693     0.0251
  543.0000    10.9194    12.9131     7.2710    55.3295     2.3912     0.1723     0.0282
  543.5000    10.8780    12.9131     7.2812    55.7684     2.3926     0.1735     0.0313
  544.0000    10.8362    12.9131     7.2915    56.0625     2.3951     0.1712     0.0325
  544.5000    10.7947    12.9131     7.3018    56.3608     2.3965     0.1707     0.0314
  545.0000    10.7533    12.9131     7.3121    56.4966     2.3948     0.1670     0.0303
  545.5000    10.7208    12.9131     7.3191    56.5010     2.3932     0.1695     0.0292
  546.0000    10.6923    12.9131     7.3056    56.4928     2.3915     0.1724     0.0281
  546.5000    10.6638    12.9131     7.2923    57.3046     2.3899     0.1751     0.0270
  547.0000    10.6354    12.9131     7.2791    58.6794     2.3889     0.1774     0.0270
  547.5000    10.6071    12.9141     7.2659    60.0788     2.3897     0.1742     0.0295
  548.0000    10.5789    12.8747     7.2545    60.2344     2.3981     0.1690     0.0339
  548.5000    10.5507    12.8001     7.2449    60.1382     2.4088     0.1637     0.0401
  549.0000    10.5254    12.7259     7.2104    59.4927     2.4099     0.1598     0.0408
  549.5000    10.5009    12.6521     7.1648    58.1659     2.4081     0.1654     0.0404
  550.0000    10.4765    12.5787     7.1186    57.5952     2.4063     0.1666     0.0401
  550.5000    10.4522    12.5058     7.0731    58.4787     2.4057     0.1660     0.0398
  551.0000    10.4279    12.4432     7.0415    58.9440     2.4054     0.1666     0.0395
  551.5000    10.4037    12.4311     7.0582    58.4079     2.4050     0.1642     0.0392
  552.0000    10.3795    12.4183     7.1069    57.9548     2.4055     0.1610     0.0391
  552.5000    10.3554    12.4057     7.1552    59.5117     2.4065     0.1645     0.0398
  553.0000    10.3313    12.3931     7.2035    61.2184     2.4088     0.1571     0.0405
  553.5000    10.3073    12.3804     7.2455    61.4767     2.4116     0.1604     0.0412
  554.0000    10.2833    12.3678     7.2630    60.7366     2.4032     0.1664     0.0419
  554.5000    10.2594    12.3552     7.2810    59.9739     2.3969     0.1712     0.0426
  555.0000    10.2356    12.3425     7.2989    59.2181     2.3950     0.1721     0.0437
  555.5000    10.2118    12.3299     7.3168    58.4639     2.3963     0.1730     0.0454
  556.0000    10.1881    12.3174     7.3348    57.6787     2.4045     0.1668     0.0470
  556.5000    10.1644    12.3048     7.3527    57.8309     2.4149     0.1609     0.0486
  557.0000    10.1408    12.2922     7.3707    58.4611     2.4182     0.1605     0.0503
  557.5000    10.1172    12.2797     7.3887    59.0700     2.4213     0.1538     0.0519
  558.0000    10.0937    12.2672     7.4066    59.0431     2.4238     0.1521     0.0518
  558.5000    10.0703    12.2546     7.4246    57.5621     2.4219     0.1541     0.0476
  559.0000    10.0469    12.2421     7.4425    58.4548     2.4201     0.1561     0.0436
  559.5000    10.0235    12.2295     7.4605    60.8096     2.4188     0.1576     0.0396
  560.0000    10.0002    12.2073     7.4784    62.0581     2.4187     0.1564     0.0375
  560.5000     9.9770    12.1224     7.4964    61.9175     2.4185     0.1551     0.0392
  561.0000     9.9538    12.0379     7.5143    62.8951     2.4184     0.1546     0.0408
  561.5000     9.9307    11.9541     7.5323    64.3822     2.4182     0.1553     0.0396
  562.0000     9.9076    11.8709     7.5503    63.3005     2.4181     0.1587     0.0380
  562.5000     9.8846    11.7882     7.5681    61.3765     2.4179     0.1602     0.0378
  563.0000     9.8616    11.7061     7.5812    60.7412     2.4201     0.1549     0.0396
  563.5000     9.8387    11.6246     7.5850    59.5585     2.4271     0.1518     0.0414
  564.0000     9.8158    11.5436     7.5889    57.9230     2.4279     0.1542     0.0430
  564.5000     9.7953    11.4633     7.5929    57.2690     2.4287     0.1498     0.0433
  565.0000     9.7988    11.3834     7.5967    57.1842     2.4277     0.1532     0.0436
  565.5000     9.8016    11.3041     7.5957    57.1453     2.4270     0.1540     0.0439
  566.0000     9.8045    11.2254     7.5772    55.4873     2.4286     0.1521     0.0442
  566.5000     9.8073    11.1473     7.5593    53.8072     2.4318     0.1502     0.0445
  567.0000     9.8102    11.0696     7.5414    53.6980     2.4313     0.1498     0.0448
  567.5000     9.8130    10.9925     7.5235    54.0911     2.4313     0.1498     0.0450
  568.0000     9.8159    10.9160     7.5056    55.6354     2.4336     0.1488     0.0439
  568.5000     9.8187    10.8400     7.4877    57.9858     2.4348     0.1497     0.0377
  569.0000     9.8216    10.7645     7.4698    59.4906     2.4303     0.1533     0.0320
  569.5000     9.8244    10.6890     7.4520    59.6860     2.4216     0.1552     0.0275
  570.0000     9.8273    10.6415     7.4340    59.0230     2.4214     0.1563     0.0266
  570.5000     9.8301    10.6419     7.4135    58.3427     2.4210     0.1573     0.0232
  571.0000     9.8330    10.6422     7.3812    57.6632     2.4206     0.1583     0.0236
  571.5000     9.8359    10.6422     7.3495    56.9916     2.4203     0.1586     0.0245
  572.0000     9.8387    10.6422     7.3206    56.3951     2.4244     0.1515     0.0273
  572.5000     9.8416    10.6422     7.3142    54.5941     2.4399     0.1425     0.0331
  573.0000     9.8444    10.6422     7.3084    52.2073     2.4468     0.1415     0.0330
  573.5000     9.8473    10.6422     7.3042    51.1771     2.4469     0.1438     0.0330
  574.0000     9.8502    10.6422     7.2092    54.6722     2.4499     0.1374     0.0330
  574.5000     9.8530    10.6422     7.0851    59.3976     2.4522     0.1382     0.0330
  575.0000     9.8559    10.6422     7.0629    64.9277     2.4527     0.1390     0.0341
  575.5000     9.8588    10.6422     7.0657    60.0563     2.4532     0.1365     0.0369
  576.0000     9.8616    10.6422     7.0691    56.7446     2.4537     0.1326     0.0396
  576.5000     9.8645    10.6422     7.0722    66.9532     2.4548     0.1346     0.0424
