~VERSION INFORMATION
 VERS.                2.0:   CWLS LOG ASCII STANDARD - VERSION 2.0
 WRAP.                 NO:   ONE LINE PER DEPTH STEP
~WELL INFORMATION
#MNEM.UNIT      DATA TYPE    INFORMATION
#----------   ------------   ------------------------------
 STRT.F           12.0000:   START DEPTH
 STOP.F          510.0000:   STOP DEPTH
 STEP.F            0.5000:   STEP LENGTH
 NULL.          -999.2500:   NO VALUE
 COMP. LAWRENCE-ALLISON &AS:   COMPANY
 WELL. NPR 3 #51-41SX10UP4:   WELL
 FLD .            NATRONA:   FIELD
 LOC .      S10 T38N R78W:   LOCATION
 CNTY.            NATRONA:   COUNTY
 STAT.            WYOMING:   STATE
 CTRY. UNITED STATES OF AMERICA:   COUNTRY
 SRVC.      Dresser Atlas:   SERVICE COMPANY
 DATE.        15-DEC-1984:   LOGDATE
 API .       490251100000:   API NUMBER
~CURVE INFORMATION
#MNEM.UNIT       API CODE    CURVE DESCRIPTION
#----------   ------------   ------------------------------
 DEPT.F                  :   
 RD  .OHMM   11 220 10 00:   RESISTIVITY DEEP
 RS  .OHMM   11 220 09 00:   RESISTIVITY SHALLOW
 SPR .MV     11 010 01 00:   SPONTANEOUS POTENTIAL FROM RES.
 DT  .US/F   60 520 00 00:   INTERVAL TRANSIT TIME
 CALD.IN     45 280 60 00:   CALIPER FROM DENSITY LOG
 CNC .DEC    42 890 00 00:   NEUTRON POROSITY
 CORR.G/C3   45 356 01 00:   DENSITY CORRECTION
 GRD .GAPI   45 310 01 00:   GAMMA RAY FROM DENSITY LOG
 PORD.DEC    45 890 00 00:   POROSITY DENSITY
 RHOB.G/C3   45 350 01 00:   BULK DENSITY
~PARAMETER INFORMATION
#MNEM.UNIT          VALUE    DESCRIPTION
#----------   ------------   ------------------------------
 PD  .                 GL:   PERMANENT DATUM
 EPD .F              5207:   ELEVATION PERMANENT DATUM
 LMF .                 GL:   LOG MEASURED FROM
 DMF .                 GL:   DRILLING MEASURED FROM
 EGL .F              5207:   GROUND LEVEL
 DATE.        15-DEC-1984:   RUN DATE
 RUN .                  1:   RUN NUMBER
 DD  .F               515:   DEPTH DRILLER
 DL  .F               511:   DEPTH LOGGER
 BLI .F               510:   BOTTOM LOG INTERVAL
 TLI .F                20:   TOP LOG INTERVAL
 CS  .IN            8.625:   CASING SIZE
 CBD .F                20:   CASING BOTTOM DRILLER
 CBL .F                20:   CASING BOTTOM LOGGER
 BS  .IN            7.875:   BIT SIZE
 BSD .F               515:   BIT SIZE AT DEPTH
 DFT .          KCL/WATER:   DRILLING FLUID TYPE
 MSS .           FLOWLINE:   MUD SAMPLE SOURCE
 RMS .OHMM           .129:   RESISTIVITY MUD SAMPLE
 MST .F                94:   MUD SAMPLE TEMPERATURE
 RMF .OHMM            .10:   RESISTIVITY MUD FILTRATE SAMPLE
 MFST.F                94:   MUD FILTRATE SAMPLE TEMPERATURE
 RMC .OHMM            .16:   RESISTIVITY MUD CAKE
 MCST.F                94:   MUD CAKE SAMPLE TEMPERATURE
 MFSS.               CALC:   MUD FILTRATE SAMPLE SOURCE
 MCSS.               CALC:   MUD CAKE SAMPLE SOURCE
 TCS .HRS               2:   TIME CURCULATED STOPPED
 MRT .F               100:   MAXIMUM RECORDED TEMPERATURE
 LUN .               6270:   LOGGING UNIT NUMBER
 LUL .                 FM:   LOGGING UNIT LOCATION
 ENGI.            LEBSOCK:   RECORDING ENGINEER
 WITN.          DAN LUERS:   WITNESSED BY
 CLNT.            A2DTECH:   CLIENT CODE
 ORIG.           5" PRINT:   ORIGIN OF DATA
 UWI .       490251100000:   UNIQUE WELL ID
 DICO. A2D Technologies, Inc.:   DIGITIZING COMPANY
~OTHER INFORMATION
~A   DEPT       RD         RS        SPR         DT       CALD          CNC     CORR         GRD      PORD       RHOB   
# ...
  313.5000    25.1352    23.0020   -50.7843    96.9454     7.8799     0.2630     0.0097    80.0446     0.1890     2.3587
  314.0000    25.0055    23.0203   -50.9180    97.0986     7.8809     0.2521     0.0083    79.7555     0.1898     2.3595
  314.5000    25.0305    23.0387   -50.7523    97.1002     7.8819     0.2572     0.0160    79.9165     0.1937     2.3520
  315.0000    25.0505    22.7406   -51.0340    97.1020     7.8830     0.2592     0.0161    80.0750     0.1967     2.3506
  315.5000    24.7267    22.4470   -51.0197    97.1034     7.8842     0.2482     0.0223    79.7884     0.1961     2.3522
  316.0000    24.5757    22.1612   -51.0055    97.1808     7.8852     0.2423     0.0224    77.4247     0.1909     2.3552
  316.5000    24.4265    21.8704   -50.9911    97.4099     7.8862     0.2483     0.0194    76.6929     0.1924     2.3568
  317.0000    24.4509    21.8922   -50.9736    97.4872     7.8872     0.2507     0.0076    77.4649     0.1927     2.3561
  317.5000    24.1348    21.6049   -50.9593    97.4125     7.8882     0.2476     0.0047    78.9886     0.1917     2.3599
  318.0000    23.9879    21.4770   -50.6493    97.3381     7.8892     0.2410     0.0200    80.7318     0.1851     2.3645
  318.5000    23.8371    21.3469   -50.3392    97.2640     7.8904     0.2446     0.0170    81.0362     0.1872     2.3630
  319.0000    23.8609    21.3646   -50.3250    97.2656     7.8914     0.2505     0.0082    80.6037     0.1883     2.3608
  319.5000    23.8799    21.3853   -50.9025    97.2671     7.8924     0.2493    -0.0007    80.4630     0.1895     2.3594
  320.0000    23.8996    21.4024   -51.3285    96.9654     7.8934     0.2396     0.0356    80.7724     0.1889     2.3588
  320.5000    24.0886    21.4194   -51.9060    96.5116     7.8944     0.2339     0.0357    80.4866     0.1907     2.3596
  321.0000    23.9372    21.4365   -52.1877    95.9061     7.8954     0.2312     0.0358    79.0131     0.1894     2.3604
  321.5000    23.3084    21.3060   -52.6208    95.4524     7.8966     0.2299     0.0314    78.4272     0.1879     2.3612
  322.0000    22.6870    20.8747   -52.8989    95.1504     7.8976     0.2323     0.0150    78.4398     0.1870     2.3635
  322.5000    21.7881    20.1973   -52.5888    94.9242     7.8391     0.2473    -0.0016    78.4500     0.1869     2.3651
  323.0000    20.9056    19.5276   -52.5710    94.6981     7.8107     0.2571     0.0123    78.4601     0.1844     2.3712
  323.5000    19.6799    17.8655   -52.5568    94.6996     7.8117     0.2634     0.0365    78.7720     0.1737     2.3856
  324.0000    19.4216    17.1508   -52.6906    94.7769     7.8721     0.2679     0.0366    79.5190     0.1688     2.3946
  324.5000    19.8479    17.4066   -53.1201    95.6396     7.7842     0.2754     0.0337    76.7126     0.1700     2.3879
  325.0000    20.5614    17.9083   -53.1059    97.2459     7.7259     0.2772     0.0474    75.5358     0.1754     2.3740
  325.5000    21.3006    18.5922   -53.2396    99.9411     7.6653     0.2705     0.0431    76.7329     0.1883     2.3500
  326.0000    21.6140    19.0906   -53.6692   101.3083     7.5501     0.2585     0.0372    77.7816     0.2026     2.3251
  326.5000    21.7817    19.3715   -53.6514   101.2339     7.5514     0.2610     0.0403    77.3441     0.2187     2.3072
  327.0000    22.1060    19.3870   -53.9331   100.7043     7.6709     0.2752     0.0676    76.7608     0.2224     2.3087
  327.5000    22.2769    19.4025   -54.2183    99.4159     7.8200     0.2749     0.0828    76.7734     0.2182     2.3193
  328.0000    22.1413    19.4179   -54.2005    97.7482     7.8507     0.2676     0.0389    77.3770     0.2058     2.3419
  328.5000    21.8551    19.2997   -54.4822    95.0183     7.9110     0.2517     0.0138    80.0826     0.1941     2.3600
  329.0000    21.7216    18.9230   -54.7638    94.4886     7.9122     0.2504     0.0018    82.1652     0.1865     2.3707
  329.5000    21.4346    18.9381   -54.7460    94.2597     7.9132     0.2582     0.0140    83.3447     0.1799     2.3788
  330.0000    21.1641    18.6895   -54.7318    94.0263     7.8991     0.2618     0.0142    84.5417     0.1780     2.3826
  330.5000    21.1852    18.5758   -54.7176    93.7347     7.9004     0.2631     0.0128    84.8486     0.1762     2.3842
  331.0000    21.2022    18.7231   -54.7034    93.5082     7.8865     0.2656     0.0177    84.7893     0.1750     2.3843
  331.5000    21.5141    18.8679   -54.6892    93.2062     7.8579     0.2668     0.0312    84.1279     0.1744     2.3850
  332.0000    21.8307    19.0143   -54.6746    92.9042     7.8592     0.2604     0.0267    81.1707     0.1780     2.3754
  332.5000    22.4599    19.2974   -55.1010    92.6784     7.8601     0.2436     0.0208    80.1422     0.1827     2.3695
  333.0000    23.1078    19.5813   -55.2383    92.6037     7.8611     0.2423     0.0270    79.5589     0.1845     2.3710
  333.5000    22.1917    19.7327   -55.3720    92.4534     7.8621     0.2447     0.0378    79.1239     0.1823     2.3719
  334.0000    21.1615    19.0784   -55.8016    92.6070     7.8631     0.2447     0.0145    78.8373     0.1802     2.3742
  334.5000    20.3190    18.4457   -55.9317    92.7602     7.9086     0.2434     0.0033    78.6988     0.1802     2.3765
  335.0000    20.0564    17.9496   -56.0654    92.6024     7.9246     0.2500     0.0155    80.3412     0.1802     2.3833
  335.5000    19.6609    17.6035   -56.1992    92.3080     7.8661     0.2536     0.0337    82.3398     0.1723     2.3939
  336.0000    19.6768    17.6211   -56.0335    92.1577     7.8523     0.2529     0.0519    84.6667     0.1657     2.4014
  336.5000    19.6962    17.6351   -56.3151    92.4631     7.8385     0.2436     0.0340    83.4899     0.1657     2.3985
  337.0000    19.7120    17.6492   -56.3009    93.2233     7.8249     0.2402     0.0221    79.1974     0.1681     2.3896
  337.5000    19.7277    17.6633   -56.2867    94.4387     7.8111     0.2360     0.0162    78.7599     0.1718     2.3806
  338.0000    19.8802    17.6774   -56.4204    94.7437     7.8121     0.2360    -0.0138    78.6216     0.1788     2.3777
  338.5000    20.0339    17.5698   -56.4026    94.9728     7.8134     0.2437    -0.0136    78.4834     0.1800     2.3793
  339.0000    20.0499    17.5873   -56.5399    95.0501     7.8144     0.2503     0.0015    78.1968     0.1781     2.3840
  339.5000    20.2054    17.3600   -56.6736    95.1275     7.8003     0.2515     0.0167    78.2094     0.1727     2.3884
  340.0000    20.0820    17.2508   -56.6559    95.2048     7.7865     0.2517     0.0108    79.1098     0.1739     2.3900
  340.5000    19.2824    17.2680   -56.6416    95.5223     7.7877     0.2514     0.0110    80.7524     0.1702     2.3840
  341.0000    18.3910    16.9276   -56.6272    96.2704     7.7887     0.2490     0.0066    82.9902     0.1740     2.3781
  341.5000    17.7811    16.3662   -56.6097    96.5754     7.8048     0.2395     0.0052    82.4068     0.1804     2.3767
  342.0000    17.3106    15.6096   -56.7469    96.5006     7.8206     0.2372     0.0536    78.8561     0.1798     2.3880
  342.5000    17.3245    15.1965   -56.7292    96.0472     7.8216     0.2404     0.0597    77.6793     0.1725     2.3978
  343.0000    17.3417    15.3140   -56.7150    94.6830     7.8226     0.2407     0.0313    78.2829     0.1635     2.4009
  343.5000    17.5969    15.7554   -56.9966    94.3051     7.8236     0.2404     0.0118    79.1833     0.1629     2.4001
  344.0000    17.8558    15.9872   -57.1303    94.1548     7.8246     0.2367    -0.0182    80.3803     0.1664     2.3963
  344.5000    17.8700    16.0000   -57.2640    94.0805     7.8258     0.2379    -0.0060    80.8356     0.1685     2.3943
  345.0000    17.6390    15.4416   -57.2463    94.0061     7.8268     0.2442     0.0212    81.2908     0.1688     2.3951
  345.5000    17.4109    14.9594   -57.2321    93.8558     7.8278     0.2463     0.0244    82.8146     0.1684     2.3975
  346.0000    17.0677    14.7631   -57.2178    93.7055     7.8137     0.2306     0.0080    83.6875     0.1642     2.4058
  346.5000    16.9638    14.6732   -57.2036    93.5553     7.8298     0.2269     0.0005    82.2139     0.1612     2.4103
