~VERSION INFORMATION
 VERS.                2.0:   CWLS LOG ASCII STANDARD - VERSION 2.0
 WRAP.                 NO:   ONE LINE PER DEPTH STEP
~WELL INFORMATION
#MNEM.UNIT      DATA TYPE    INFORMATION
#----------   ------------   ------------------------------
 STRT.F            0.5000:   START DEPTH
 STOP.F         3087.0000:   STOP DEPTH
 STEP.F            0.5000:   STEP LENGTH
 NULL.          -999.2500:   NO VALUE
 COMP. DEPARTMENT OF ENERGY:   COMPANY
 WELL.    NPR-3 #201-A-29:   WELL
 FLD . TEAPOT NAVAL RESERVE:   FIELD
 LOC .      S29 T39N R78W:   LOCATION
 CNTY.            NATRONA:   COUNTY
 STAT.            WYOMING:   STATE
 CTRY. UNITED STATES OF AMERICA:   COUNTRY
 SRVC.      NL McCullough:   SERVICE COMPANY
 DATE.        24-JUN-1965:   LOGDATE
 API .       490251144400:   API NUMBER
~CURVE INFORMATION
#MNEM.UNIT       API CODE    CURVE DESCRIPTION
#----------   ------------   ------------------------------
 DEPT.F                  :   
 GRR .GAPI   30 310 01 00:   GAMMA RAY
 CALI.IN     30 280 01 00:   CALIPER
~PARAMETER INFORMATION
#MNEM.UNIT          VALUE    DESCRIPTION
#----------   ------------   ------------------------------
 PD  .                 GL:   PERMANENT DATUM
 LMF .                 GL:   LOG MEASURED FROM
 EDF .F              5012:   DRILLING FLOOR
 DATE.        24-JUN-1965:   RUN DATE
 RUN .                  1:   RUN NUMBER
 DD  .F              2782:   DEPTH DRILLER
 DL  .F              2772:   DEPTH LOGGER
 BLI .F              2770:   BOTTOM LOG INTERVAL
 TLI .F              2300:   TOP LOG INTERVAL
 CS  .IN            6.625:   CASING SIZE
 CBD .F              2756:   CASING BOTTOM DRILLER
 ENGI.         COWLTHORPE:   RECORDING ENGINEER
 WITN.             HUDSON:   WITNESSED BY
 CLNT.            A2DTECH:   CLIENT CODE
 ORIG.           5" PRINT:   ORIGIN OF DATA
 UWI .       490251144400:   UNIQUE WELL ID
 DICO. A2D Technologies, Inc.:   DIGITIZING COMPANY
~OTHER INFORMATION
~A    DEPT     GRR         CALI 
# ...
 1701.5000  -999.2500     6.6244
 1702.0000  -999.2500     6.6244
 1702.5000  -999.2500     6.6244
 1703.0000  -999.2500     6.6244
 1703.5000  -999.2500     6.6244
 1704.0000  -999.2500     6.6244
 1704.5000  -999.2500     6.6244
 1705.0000  -999.2500     6.6244
 1705.5000  -999.2500     6.6244
 1706.0000  -999.2500     6.6244
 1706.5000  -999.2500     6.6244
 1707.0000  -999.2500     6.6240
 1707.5000  -999.2500     6.6230
 1708.0000  -999.2500     6.6221
 1708.5000  -999.2500     6.6212
 1709.0000  -999.2500     6.6203
 1709.5000  -999.2500     6.6193
 1710.0000  -999.2500     6.6184
 1710.5000  -999.2500     6.6175
 1711.0000  -999.2500     6.6166
 1711.5000  -999.2500     6.6156
 1712.0000  -999.2500     6.6147
 1712.5000  -999.2500     6.6138
 1713.0000  -999.2500     6.6129
 1713.5000  -999.2500     6.6119
 1714.0000  -999.2500     6.6110
 1714.5000  -999.2500     6.6101
 1715.0000  -999.2500     6.6092
 1715.5000  -999.2500     6.6083
 1716.0000  -999.2500     6.6073
 1716.5000  -999.2500     6.6064
 1717.0000  -999.2500     6.6055
 1717.5000  -999.2500     6.6045
 1718.0000  -999.2500     6.6045
 1718.5000  -999.2500     6.6045
 1719.0000  -999.2500     6.6045
 1719.5000  -999.2500     6.6045
 1720.0000  -999.2500     6.6045
 1720.5000  -999.2500     6.6045
 1721.0000  -999.2500     6.6045
 1721.5000  -999.2500     6.6045
 1722.0000  -999.2500     6.6045
 1722.5000  -999.2500     6.6045
 1723.0000  -999.2500     6.6045
 1723.5000  -999.2500     6.6045
 1724.0000  -999.2500     6.6045
 1724.5000  -999.2500     6.6045
 1725.0000  -999.2500     6.6045
 1725.5000  -999.2500     6.6045
 1726.0000  -999.2500     6.6045
 1726.5000  -999.2500     6.6045
 1727.0000  -999.2500     6.6045
 1727.5000  -999.2500     6.6045
 1728.0000  -999.2500     6.6045
 1728.5000  -999.2500     6.6047
 1729.0000  -999.2500     6.6055
 1729.5000  -999.2500     6.6064
 1730.0000  -999.2500     6.6073
 1730.5000  -999.2500     6.6081
 1731.0000  -999.2500     6.6089
 1731.5000  -999.2500     6.6098
 1732.0000  -999.2500     6.6106
 1732.5000  -999.2500     6.6115
 1733.0000  -999.2500     6.6123
 1733.5000  -999.2500     6.6132
 1734.0000  -999.2500     6.6140
 1734.5000  -999.2500     6.6149
 1735.0000  -999.2500     6.6157
 1735.5000  -999.2500     6.6165
 1736.0000  -999.2500     6.6174
 1736.5000  -999.2500     6.6182
 1737.0000  -999.2500     6.6191
 1737.5000  -999.2500     6.6199
 1738.0000  -999.2500     6.6208
 1738.5000  -999.2500     6.6216
 1739.0000  -999.2500     6.6225
 1739.5000  -999.2500     6.6233
 1740.0000  -999.2500     6.6242
 1740.5000  -999.2500     6.6244
 1741.0000  -999.2500     6.6244
 1741.5000  -999.2500     6.6244
 1742.0000  -999.2500     6.6244
 1742.5000  -999.2500     6.6244
 1743.0000  -999.2500     6.6244
 1743.5000  -999.2500     6.6244
 1744.0000  -999.2500     6.6244
 1744.5000  -999.2500     6.6228
 1745.0000  -999.2500     6.6194
 1745.5000  -999.2500     6.6161
 1746.0000  -999.2500     6.6128
 1746.5000  -999.2500     6.6094
 1747.0000  -999.2500     6.6061
 1747.5000  -999.2500     6.6045
 1748.0000  -999.2500     6.6044
 1748.5000  -999.2500     6.6044
 1749.0000  -999.2500     6.6046
 1749.5000  -999.2500     6.6223
 1750.0000  -999.2500     6.6234
 1750.5000  -999.2500     6.6222
 1751.0000  -999.2500     6.6210
 1751.5000  -999.2500     6.6198
 1752.0000  -999.2500     6.6186
 1752.5000  -999.2500     6.6174
 1753.0000  -999.2500     6.6162
 1753.5000  -999.2500     6.6150
 1754.0000  -999.2500     6.6138
 1754.5000  -999.2500     6.6126
 1755.0000  -999.2500     6.6114
 1755.5000  -999.2500     6.6102
 1756.0000  -999.2500     6.6090
 1756.5000  -999.2500     6.6078
 1757.0000  -999.2500     6.6066
 1757.5000  -999.2500     6.6055
 1758.0000  -999.2500     6.6044
 1758.5000  -999.2500     6.6045
 1759.0000  -999.2500     6.6045
 1759.5000  -999.2500     6.6045
 1760.0000  -999.2500     6.6045
 1760.5000  -999.2500     6.6045
 1761.0000  -999.2500     6.6045
 1761.5000  -999.2500     6.6045
 1762.0000  -999.2500     6.6045
 1762.5000  -999.2500     6.6045
 1763.0000  -999.2500     6.6045
 1763.5000  -999.2500     6.6045
 1764.0000  -999.2500     6.6045
 1764.5000  -999.2500     6.6045
 1765.0000  -999.2500     6.6045
 1765.5000  -999.2500     6.6045
 1766.0000  -999.2500     6.6045
 1766.5000  -999.2500     6.6045
 1767.0000  -999.2500     6.6045
 1767.5000  -999.2500     6.6045
 1768.0000  -999.2500     6.6045
 1768.5000  -999.2500     6.6045
 1769.0000  -999.2500     6.6045
 1769.5000  -999.2500     6.6045
 1770.0000  -999.2500     6.6045
 1770.5000  -999.2500     6.6045
 1771.0000  -999.2500     6.6045
 1771.5000  -999.2500     6.6045
 1772.0000  -999.2500     6.6049
 1772.5000  -999.2500     6.6058
 1773.0000  -999.2500     6.6067
 1773.5000  -999.2500     6.6076
 1774.0000  -999.2500     6.6085
 1774.5000  -999.2500     6.6094
 1775.0000  -999.2500     6.6104
 1775.5000  -999.2500     6.6113
 1776.0000  -999.2500     6.6122
 1776.5000  -999.2500     6.6131
 1777.0000  -999.2500     6.6140
 1777.5000  -999.2500     6.6149
 1778.0000  -999.2500     6.6158
 1778.5000  -999.2500     6.6167
 1779.0000  -999.2500     6.6177
 1779.5000  -999.2500     6.6186
 1780.0000  -999.2500     6.6195
 1780.5000  -999.2500     6.6204
 1781.0000  -999.2500     6.6213
 1781.5000  -999.2500     6.6222
 1782.0000  -999.2500     6.6231
 1782.5000  -999.2500     6.6240
 1783.0000  -999.2500     6.6239
 1783.5000  -999.2500     6.6230
 1784.0000  -999.2500     6.6221
 1784.5000  -999.2500     6.6212
 1785.0000  -999.2500     6.6202
 1785.5000  -999.2500     6.6193
 1786.0000  -999.2500     6.6184
 1786.5000  -999.2500     6.6175
 1787.0000  -999.2500     6.6165
 1787.5000  -999.2500     6.6156
 1788.0000  -999.2500     6.6147
 1788.5000  -999.2500     6.6138
 1789.0000  -999.2500     6.6129
 1789.5000  -999.2500     6.6119
 1790.0000  -999.2500     6.6110
 1790.5000  -999.2500     6.6101
 1791.0000  -999.2500     6.6092
 1791.5000  -999.2500     6.6083
 1792.0000  -999.2500     6.6073
 1792.5000  -999.2500     6.6064
 1793.0000  -999.2500     6.6055
 1793.5000  -999.2500     6.6046
 1794.0000  -999.2500     6.6037
 1794.5000  -999.2500     6.6028
 1795.0000  -999.2500     6.6019
 1795.5000  -999.2500     6.6010
 1796.0000  -999.2500     6.6001
 1796.5000  -999.2500     6.5992
 1797.0000  -999.2500     6.5983
 1797.5000  -999.2500     6.5974
 1798.0000  -999.2500     6.5965
 1798.5000  -999.2500     6.5956
 1799.0000  -999.2500     6.5947
 1799.5000  -999.2500     6.5938
 1800.0000  -999.2500     6.5929
 1800.5000  -999.2500     6.5920
 1801.0000  -999.2500     6.5911
 1801.5000  -999.2500     6.5902
 1802.0000  -999.2500     6.5893
 1802.5000  -999.2500     6.5884
 1803.0000  -999.2500     6.5875
 1803.5000  -999.2500     6.5866
 1804.0000  -999.2500     6.5857
 1804.5000  -999.2500     6.5848
 1805.0000  -999.2500     6.5845
 1805.5000  -999.2500     6.5845
 1806.0000  -999.2500     6.5845
 1806.5000  -999.2500     6.5845
 1807.0000  -999.2500     6.5845
 1807.5000  -999.2500     6.5845
 1808.0000  -999.2500     6.5845
 1808.5000  -999.2500     6.5845
 1809.0000  -999.2500     6.5845
 1809.5000  -999.2500     6.5845
 1810.0000  -999.2500     6.5845
 1810.5000  -999.2500     6.5845
 1811.0000  -999.2500     6.5845
 1811.5000  -999.2500     6.5845
 1812.0000  -999.2500     6.5845
 1812.5000  -999.2500     6.5845
 1813.0000  -999.2500     6.5845
 1813.5000  -999.2500     6.5845
 1814.0000  -999.2500     6.5845
 1814.5000  -999.2500     6.5845
 1815.0000  -999.2500     6.5845
 1815.5000  -999.2500     6.5845
 1816.0000  -999.2500     6.5845
 1816.5000  -999.2500     6.5845
 1817.0000  -999.2500     6.5845
 1817.5000  -999.2500     6.5845
 1818.0000  -999.2500     6.5845
 1818.5000  -999.2500     6.5845
 1819.0000  -999.2500     6.5845
 1819.5000  -999.2500     6.5845
 1820.0000  -999.2500     6.5845
 1820.5000  -999.2500     6.5845
 1821.0000  -999.2500     6.5845
 1821.5000  -999.2500     6.5845
 1822.0000  -999.2500     6.5845
 1822.5000  -999.2500     6.5845
