~VERSION INFORMATION
 VERS.                2.0:   CWLS LOG ASCII STANDARD - VERSION 2.0
 WRAP.                 NO:   ONE LINE PER DEPTH STEP
~WELL INFORMATION
#MNEM.UNIT      DATA TYPE    INFORMATION
#----------   ------------   ------------------------------
 STRT.F            4.0000:   START DEPTH
 STOP.F          578.0000:   STOP DEPTH
 STEP.F            0.5000:   STEP LENGTH
 NULL.          -999.2500:   NO VALUE
 COMP.              FENIX:   COMPANY
 WELL.   NPR-3 #14SX11-11:   WELL
 FLD .             TEAPOT:   FIELD
 LOC .      S11 T38N R78W:   LOCATION
 CNTY.            NATRONA:   COUNTY
 STAT.            WYOMING:   STATE
 CTRY. UNITED STATES OF AMERICA:   COUNTRY
 SRVC.           BIRDWELL:   SERVICE COMPANY
 DATE.        14-FEB-1978:   LOGDATE
 API .       490251057100:   API NUMBER
~CURVE INFORMATION
#MNEM.UNIT       API CODE    CURVE DESCRIPTION
#----------   ------------   ------------------------------
 DEPT.F                  :   
 ILD .OHMM   05 120 46 00:   INDUCTION LOG DEEP
 SN  .OHMM   05 040 16 00:   SHORT NORMAL 16"
 SPR .MV     05 010 01 00:   SPONTANEOUS POTENTIAL FROM RES.
 CALD.IN     45 280 60 00:   CALIPER FROM DENSITY LOG
 CORR.G/C3   45 356 01 00:   DENSITY CORRECTION
 DPHI.DEC    45 890 12 00:   DENSITY POROSITY SANDSTONE
 GRD .GAPI   45 310 01 00:   GAMMA RAY FROM DENSITY LOG
 RHOB.G/C3   45 350 01 00:   BULK DENSITY
~PARAMETER INFORMATION
#MNEM.UNIT          VALUE    DESCRIPTION
#----------   ------------   ------------------------------
 PD  .                 GL:   PERMANENT DATUM
 EPD .F              5183:   ELEVATION PERMANENT DATUM
 LMF .                 KB:   LOG MEASURED FROM
 DAPD.F                 4:   FEET ABOVE PERMANENT DATUM
 DMF .                 KB:   DRILLING MEASURED FROM
 EKB .F              5187:   KELLING BUSHING
 EGL .F              5183:   GROUND LEVEL
 DATE.        14-FEB-1978:   RUN DATE
 RUN .                  1:   RUN NUMBER
 DD  .F               580:   DEPTH DRILLER
 DL  .F               580:   DEPTH LOGGER
 BLI .F               578:   BOTTOM LOG INTERVAL
 TLI .F                20:   TOP LOG INTERVAL
 CS  .IN            8.625:   CASING SIZE
 CBD .F                15:   CASING BOTTOM DRILLER
 CBL .F                39:   CASING BOTTOM LOGGER
 BS  .IN            7.875:   BIT SIZE
 BSD .F               580:   BIT SIZE AT DEPTH
 DFT .         LIGNO-SULF:   DRILLING FLUID TYPE
 DFD .                8.6:   DRILLING FLUID DENSITY
 DFV .                 33:   DRILLING FLUID VISCOSITY
 DFPH.                 11:   DRILLING FLUID PH
 DFL .                  4:   DRILLING FLUID LOSS
 MSS .           FLOWLINE:   MUD SAMPLE SOURCE
 RMS .OHMM            1.3:   RESISTIVITY MUD SAMPLE
 MST .F                62:   MUD SAMPLE TEMPERATURE
 RMF .OHMM            1.2:   RESISTIVITY MUD FILTRATE SAMPLE
 MFST.F                64:   MUD FILTRATE SAMPLE TEMPERATURE
 RMC .OHMM            1.6:   RESISTIVITY MUD CAKE
 MCST.F                62:   MUD CAKE SAMPLE TEMPERATURE
 MFSS.               MEAS:   MUD FILTRATE SAMPLE SOURCE
 BHT .F                70:   BOTTOM HOLE TEMPERATURE
 TCS .HRS               3:   TIME CURCULATED STOPPED
 MRT .F                70:   MAXIMUM RECORDED TEMPERATURE
 LUN .               2958:   LOGGING UNIT NUMBER
 LUL .               CASP:   LOGGING UNIT LOCATION
 ENGI.            POINTER:   RECORDING ENGINEER
 WITN.           MCGINLEY:   WITNESSED BY
 CLNT.            A2DTECH:   CLIENT CODE
 ORIG.           5" PRINT:   ORIGIN OF DATA
 UWI .       490251057100:   UNIQUE WELL ID
 DICO. A2D Technologies, Inc.:   DIGITIZING COMPANY
~OTHER INFORMATION
~A    DEPT     ILD         SN        SPR       CALD       CORR       DPHI         GRD      RHOB   
# ...
  125.5000     7.6505  -999.2500  -999.2500     7.6896     0.0194     0.1090    90.8313     2.4560
  126.0000     7.6993  -999.2500  -999.2500     7.6893     0.0193     0.1021    84.1297     2.4653
  126.5000     7.6956  -999.2500  -999.2500     7.7043     0.0194     0.1069    80.4870     2.4785
  127.0000     7.6918  -999.2500  -999.2500     7.7343     0.0193     0.0955    80.7865     2.4815
  127.5000     7.6874  -999.2500  -999.2500     7.7644     0.0223     0.0910    83.9736     2.4815
  128.0000     7.6838  -999.2500  -999.2500     7.8097     0.0222     0.0988    85.7940     2.4942
  128.5000     7.6802  -999.2500  -999.2500     7.8398     0.0207     0.1021    83.5089     2.5017
  129.0000     7.7847  -999.2500  -999.2500     7.8547     0.0176     0.1019    83.4934     2.4919
  129.5000     7.9436  -999.2500  -999.2500     7.8392     0.0191     0.1016    85.4200     2.4844
  130.0000     7.9961  -999.2500  -999.2500     7.8389     0.0205     0.1007    92.1572     2.4836
  130.5000     7.7727  -999.2500  -999.2500     7.8386     0.0220     0.1010    93.0646     2.4843
  131.0000     7.9921  -999.2500  -999.2500     7.8535     0.0219     0.1022    91.9964     2.4843
  131.5000     8.3810  -999.2500  -999.2500     7.8531     0.0204     0.1019    90.0163     2.4843
  132.0000     8.6117  -999.2500  -999.2500     7.8528     0.0204     0.1007    88.1882     2.4850
  132.5000     8.7278  -999.2500  -999.2500     7.8374     0.0173     0.1064    87.1199     2.4850
  133.0000     8.5441  -999.2500  -999.2500     7.8219     0.0158     0.1019    88.0395     2.4857
  133.5000     8.3064  -999.2500  -999.2500     7.8064     0.0247     0.0982    90.2457     2.4819
  134.0000     8.1881  -999.2500  -999.2500     7.8061     0.0307     0.0887    93.6406     2.4794
  134.5000     8.2412  -999.2500   -30.4649     7.7906     0.0306     0.0947    95.9158     2.4894
  135.0000     8.2947  -999.2500   -30.9249     7.7750     0.0306     0.0944    92.1120     2.4992
  135.5000     8.3484  -999.2500   -31.6868     7.7139     0.0290     0.0926    89.5240     2.4991
  136.0000     8.4026  -999.2500   -32.1457     7.7592     0.0305     0.0890    89.2156     2.4954
  136.5000     8.6899  -999.2500   -32.7561     7.8501     0.0274     0.0893    89.2112     2.4938
  137.0000     8.7487  -999.2500   -32.9252     7.9258     0.0259     0.0944    89.2239     2.4983
  137.5000     8.8078  -999.2500   -33.3720     7.9559     0.0214     0.0996    89.5052     2.5006
  138.0000     8.9286  -999.2500   -33.0734     7.9404     0.0243     0.1017    90.1087     2.4945
  138.5000     9.0515  -999.2500   -32.9251     7.9401     0.0288     0.0978    90.8642     2.4900
  139.0000     9.2399  -999.2500   -32.9306     7.9246     0.0317     0.0960    91.4677     2.4891
  139.5000     9.4397  -999.2500   -33.0865     7.9091     0.0317     0.0969    91.9203     2.4899
  140.0000     9.6287  -999.2500   -33.0909     7.9088     0.0331     0.0930    90.3951     2.4929
  140.5000     9.7607  -999.2500   -33.2478     7.8933     0.0331     0.0909    85.2585     2.4974
  141.0000     9.7588  -999.2500   -33.2522     7.8930     0.0330     0.0873    80.0508     2.5004
  141.5000     9.7568  -999.2500   -33.1039     7.8774     0.0330     0.0935    81.8701     2.5034
  142.0000     9.6205  -999.2500   -33.2598     7.8772     0.0285     0.0981    83.9933     2.5034
  142.5000     9.5520  -999.2500   -32.6592     7.8769     0.0269     0.0975    86.8765     2.4995
  143.0000     9.4181  -999.2500   -32.8151     7.8462     0.0284     0.0969    87.9370     2.4815
  143.5000     9.3512  -999.2500   -32.9721     7.7091     0.0313     0.0966    88.5394     2.4755
  144.0000     9.2847  -999.2500   -33.4310     7.7240     0.0343     0.0999    90.9787     2.4807
  144.5000     9.1549  -999.2500   -33.7384     7.7229     0.0357     0.1006    92.2026     2.4852
  145.0000     9.1531  -999.2500   -33.8943     7.5258     0.0387     0.0939    92.1725     2.4897
  145.5000     9.0880  -999.2500   -33.8986     7.7231     0.0416     0.0878    91.1042     2.4964
  146.0000     9.0861  -999.2500   -33.5960     7.9051     0.0416     0.0843    91.2518     2.5039
  146.5000     9.0211  -999.2500   -31.9388     7.9353     0.0413     0.0849    91.2474     2.5070
  147.0000     9.0825  -999.2500   -32.7007     7.9197     0.0400     0.0873    91.5469     2.5084
  147.5000     9.1435  -999.2500   -32.8566     7.9043     0.0415     0.0940    91.5425     2.5069
  148.0000     9.1416  -999.2500   -33.0125     7.9040     0.0429     0.0940    91.8421     2.4986
  148.5000     9.2035  -999.2500   -32.8653     7.8884     0.0444     0.0886    92.2936     2.4941
  149.0000     9.2016  -999.2500   -32.8697     7.8881     0.0458     0.0761    89.8565     2.4993
  149.5000     9.3282  -999.2500   -33.0267     7.8878     0.0443     0.0705    87.5724     2.5121
  150.0000     9.3913  -999.2500   -33.6371     7.8875     0.0382     0.0639    82.0969     2.5331
  150.5000     9.5201     3.4267   -34.0960     7.8720     0.0275     0.0729    76.1665     2.5443
  151.0000     9.7183     9.2926   -34.4034     7.8717     0.0276     0.0868    78.7446     2.5293
  151.5000     9.9206     9.8882   -34.5593     7.8546     0.0291     0.0943    82.9133     2.5097
  152.0000     9.9877     9.8840   -34.8667     7.8255     0.0290     0.0952    87.2453     2.4954
  152.5000     9.9856     9.8806   -35.0227     7.8100     0.0305     0.0940    91.0403     2.4894
  153.0000     9.9831     9.8766   -34.7250     7.7945     0.0320     0.0859    92.2528     2.4893
  153.5000    10.0511     9.8734   -34.2748     7.7942     0.0319     0.0748    90.1196     2.4916
  154.0000    10.0486     9.8701   -33.9751     7.7939     0.0334     0.0661    86.1639     2.5031
  154.5000    10.0466    10.0045   -33.8279     7.8088     0.0333     0.0567    79.4725     2.5305
  155.0000    10.1145    10.2113   -33.6818     7.8237     0.0318     0.0453    76.4184     2.5545
  155.5000    10.3983    10.5042   -33.6864     7.8386     0.0272     0.0333    75.9683     2.5733
  156.0000    10.6872    10.4180   -33.5391     7.8990     0.0242     0.0459    78.6983     2.5875
  156.5000    10.7595    10.3426   -33.3930     7.9444     0.0421     0.0689    87.2046     2.5341
  157.0000    10.5353    10.1968   -33.3974     7.7617     0.0631     0.0870    95.2549     2.5190
  157.5000     9.8958     9.9837   -33.2491     7.5942     0.0825     0.0908    96.4663     2.5032
  158.0000     8.9162     9.7750   -33.5576     7.3959     0.1035     0.0926    95.7020     2.4971
  158.5000     8.4333     9.4246   -34.0167     7.2568     0.1096     0.0938    94.7857     2.4956
  159.0000     8.2526     9.1137   -34.3250     7.2438     0.1109     0.0950    96.2452     2.4993
  159.5000     8.0301     9.0477   -34.7840     7.3802     0.1078     0.0962    99.9430     2.4940
  160.0000     7.9179     9.0447   -34.9398     7.6079     0.1018     0.0977   100.5476     2.4947
  160.5000     7.7533     8.9793   -34.9442     7.7292     0.0943     0.0977    96.2867     2.5007
  161.0000     7.5921     8.5512   -34.7970     7.6377     0.1152     0.0815    92.7869     2.4901
  161.5000     7.4343     8.1435   -34.6499     7.6526     0.1092     0.0974    92.3276     2.4954
  162.0000     7.3304     8.0840   -34.3512     7.6522     0.1061     0.1004    94.1458     2.5036
  162.5000     7.2782     8.0255   -34.6597     7.6519     0.1046     0.1050    95.0533     2.4855
  163.0000     7.2764     8.0786   -35.2702     7.6516     0.1150     0.1101    95.0478     2.4734
  163.5000     7.3766     8.1886   -35.5776     7.6513     0.1435     0.1107    95.0434     2.4667
  164.0000     7.5302     8.3002   -35.5819     7.6663     0.1569     0.0872    92.1514     2.5012
  164.5000     7.6870     8.5347   -35.2833     7.6660     0.1044     0.0770    90.7792     2.5222
  165.0000     7.7928     8.7675   -35.1361     7.6657     0.0519     0.1023    86.6715     2.4876
  165.5000     7.9048     8.8255   -34.9890     7.6653     0.0293     0.1203    83.7795     2.4492
