~VERSION INFORMATION
 VERS.                2.0:   CWLS LOG ASCII STANDARD - VERSION 2.0
 WRAP.                 NO:   ONE LINE PER DEPTH STEP
~WELL INFORMATION
#MNEM.UNIT      DATA TYPE    INFORMATION
#----------   ------------   ------------------------------
 STRT.F           28.0000:   START DEPTH
 STOP.F          636.0000:   STOP DEPTH
 STEP.F            0.5000:   STEP LENGTH
 NULL.          -999.2500:   NO VALUE
 COMP. FENIX & SCISSON INC:   COMPANY
 WELL.    NPR-3 #12S14-14:   WELL
 FLD .             TEAPOT:   FIELD
 LOC .      S14 T38N R78W:   LOCATION
 CNTY.            NATRONA:   COUNTY
 STAT.            WYOMING:   STATE
 CTRY. UNITED STATES OF AMERICA:   COUNTRY
 SRVC.           BIRDWELL:   SERVICE COMPANY
 DATE.        21-JUN-1978:   LOGDATE
 API .       490251065000:   API NUMBER
~CURVE INFORMATION
#MNEM.UNIT       API CODE    CURVE DESCRIPTION
#----------   ------------   ------------------------------
 DEPT.F                  :   
 SPR .MV     07 010 01 00:   SPONTANEOUS POTENTIAL
 ILD .OHMM   07 120 46 00:   INDUCTION LOG DEEP
 SN  .OHMM   07 040 16 00:   SHORT NORMAL 16"
 GRD .GAPI   45 310 01 00:   GAMMA RAY FROM DENSITY LOG
 CORR.G/C3   45 356 01 00:   DENSITY CORRECTION
 DEN .G/C3   45 350 01 00:   COMPENSATED BULK DENSTIY
 DPHI.DEC    45 890 12 00:   DENSITY POROSITY SANDSTONE
~PARAMETER INFORMATION
#MNEM.UNIT          VALUE    DESCRIPTION
#----------   ------------   ------------------------------
 PD  .                 GL:   PERMANENT DATUM
 EPD .F              5237:   ELEVATION PERMANENT DATUM
 LMF .                 KB:   LOG MEASURED FROM
 DMF .                 KB:   DRILLING MEASURED FROM
 EKB .F              5241:   KELLING BUSHING
 EGL .F              5237:   GROUND LEVEL
 DATE.        21-JUN-1978:   RUN DATE
 RUN .                  1:   RUN NUMBER
 DD  .F               637:   DEPTH DRILLER
 DL  .F               642:   DEPTH LOGGER
 BLI .F               636:   BOTTOM LOG INTERVAL
 TLI .F                40:   TOP LOG INTERVAL
 CS  .IN            8.625:   CASING SIZE
 CBD .F                40:   CASING BOTTOM DRILLER
 CBL .F                40:   CASING BOTTOM LOGGER
 BS  .IN            7.875:   BIT SIZE
 BSD .F               637:   BIT SIZE AT DEPTH
 DFT .                KCL:   DRILLING FLUID TYPE
 DFD .                8.7:   DRILLING FLUID DENSITY
 DFV .                 32:   DRILLING FLUID VISCOSITY
 DFPH.                 10:   DRILLING FLUID PH
 MSS .           FLOWLINE:   MUD SAMPLE SOURCE
 RMS .OHMM            .18:   RESISTIVITY MUD SAMPLE
 MST .F                84:   MUD SAMPLE TEMPERATURE
 RMF .OHMM            .17:   RESISTIVITY MUD FILTRATE SAMPLE
 MFST.F                72:   MUD FILTRATE SAMPLE TEMPERATURE
 RMC .OHMM            .28:   RESISTIVITY MUD CAKE
 MCST.F                82:   MUD CAKE SAMPLE TEMPERATURE
 MFSS.               MEAS:   MUD FILTRATE SAMPLE SOURCE
 MCSS.               MEAS:   MUD CAKE SAMPLE SOURCE
 BHT .F                72:   BOTTOM HOLE TEMPERATURE
 TCS .HRS            0230:   TIME CURCULATED STOPPED
 MRT .F                72:   MAXIMUM RECORDED TEMPERATURE
 LUN .               2958:   LOGGING UNIT NUMBER
 LUL .               CASP:   LOGGING UNIT LOCATION
 ENGI.             MILLER:   RECORDING ENGINEER
 WITN.           MCGINLEY:   WITNESSED BY
 CLNT.            A2DTECH:   CLIENT CODE
 ORIG.           5" PRINT:   ORIGIN OF DATA
 UWI .       490251065000:   UNIQUE WELL ID
 DICO. A2D Technologies, Inc.:   DIGITIZING COMPANY
~OTHER INFORMATION
~A   DEPT      SPR        ILD         SN        GRD       CORR        DEN       DPHI   
# ...
  301.0000   -52.8893     6.4780     8.0573    86.5604    -0.0076     2.4528     0.1276
  301.5000   -52.8727     6.4803     8.0606    88.0545    -0.0077     2.4535     0.1267
  302.0000   -52.7099     6.4829     8.0084    91.0500    -0.0093     2.4579     0.1283
  302.5000   -52.6966     6.4851     8.0117    90.8924    -0.0078     2.4609     0.1300
  303.0000   -52.6833     6.4873     8.0150    90.1342    -0.0079     2.4616     0.1229
  303.5000   -52.6699     6.4895     8.0183    89.8265    -0.0080     2.4571     0.1199
  304.0000   -52.6566     6.4466     8.0216    90.1193    -0.0081     2.4533     0.1217
  304.5000   -52.6433     6.4940     8.0256    91.0128    -0.0037     2.4525     0.1253
  305.0000   -52.6300     6.4510     8.0289    91.6078    -0.0022     2.4555     0.1292
  305.5000   -52.6167     6.3653     7.9761    91.5985    -0.0023     2.4584     0.1242
  306.0000   -52.4539     6.3231     7.9246    92.1916     0.0021     2.4584     0.1257
  306.5000   -52.4406     6.3258     7.8741    92.6346     0.0035     2.4696     0.1179
  307.0000   -52.4273     6.3280     7.8773    92.7792     0.0064     2.4733     0.1137
  307.5000   -52.5636     6.4181     7.8805    90.8179     0.0034     2.4740     0.1137
  308.0000   -52.5501     6.4647     7.8837    86.0057     0.0018     2.4642     0.1159
  308.5000   -52.5367     6.5117     7.8870    86.5988     0.0002     2.4642     0.1198
  309.0000   -52.5231     6.5139     7.9448    90.0448    -0.0028     2.4671     0.1216
  309.5000   -52.5097     6.5161     8.0030    90.1877    -0.0029     2.4686     0.1186
  310.0000   -52.6464     6.5635     8.0616    91.5314    -0.0030     2.4686     0.1168
  310.5000   -52.6298     6.6570     8.1207    83.4158    -0.0031     2.4603     0.1222
  311.0000   -52.6165     6.7054     8.1836    85.2102    -0.0031     2.4550     0.1208
  311.5000   -52.6032     6.8013     8.2472    85.5030     0.0000     2.4512     0.1262
  312.0000   -52.5898     6.8508     8.3581    83.5195     0.0059     2.4521     0.1304
  312.5000   -52.4271     6.9005     8.3622    83.3860     0.0086     2.4639     0.1187
  313.0000   -52.5666     6.9988     8.4235    85.5315     0.0088     2.4668     0.1139
  313.5000   -52.7027     7.0984     8.5439    86.0738     0.0174     2.4684     0.1183
  314.0000   -52.6861     7.1500     8.6065    79.3756     0.0263     2.4656     0.1206
  314.5000   -52.8256     7.2518     8.6100    77.9490     0.0323     2.4787     0.1102
  315.0000   -52.8089     7.3551     8.7331    77.6412     0.0322     2.4876     0.1077
  315.5000   -52.7956     7.4598     8.7971    76.8830     0.0366     2.4824     0.1140
  316.0000   -52.7823     7.5660     8.8616    72.8215     0.0560     2.4756     0.0841
  316.5000   -52.7690     7.6738     8.8652    69.9612     0.0619     2.5287     0.0769
  317.0000   -52.7557     7.7295     8.8688    69.2049     0.0259     2.4770     0.1093
  317.5000   -52.7424     7.7322     8.8724    73.7001    -0.0026     2.4665     0.1198
  318.0000   -52.7291     7.7348     8.9374    77.5965    -0.0057     2.4635     0.1177
  318.5000   -52.8655     7.6842     8.8796    79.9915    -0.0043     2.4544     0.1198
  319.0000   -52.8520     7.6868     8.8833    80.4363    -0.0044     2.4484     0.1285
  319.5000   -52.8385     7.5841     8.8870    79.9766    -0.0014     2.4424     0.1360
  320.0000   -52.8251     7.5345     8.8265    78.1673     0.0015     2.4424     0.1367
  320.5000   -52.8116     7.5372     8.7723    76.3580     0.0029     2.4498     0.1307
  321.0000   -52.7982     7.5403     8.7156    77.4016    -0.0046     2.4528     0.1286
  321.5000   -52.7821     7.5429     8.7200    79.3461    -0.0062     2.4400     0.1283
  322.0000   -52.7688     7.5454     8.6628    79.9412    -0.0093     2.4325     0.1418
  322.5000   -52.7555     7.5480     8.6672    79.3312    -0.0109     2.4272     0.1391
  323.0000   -52.7422     7.5506     8.6707    77.5220    -0.0109     2.4407     0.1370
  323.5000   -52.7288     7.5012     8.6742    76.3133    -0.0065     2.4286     0.1416
  324.0000   -52.5661     7.5038     8.6778    76.1557    -0.0006     2.4263     0.1446
  324.5000   -52.5528     7.4028     8.7414    76.1483     0.0068     2.4413     0.1371
  325.0000   -52.6922     7.3544     8.6847    75.9907    -0.0023     2.4480     0.1305
  325.5000   -52.6756     7.3576     8.6884    75.6829    -0.0113     2.4330     0.1356
  326.0000   -52.6623     7.3601     8.6919    76.4262    -0.0069     2.4269     0.1443
  326.5000   -52.6490     7.3118     8.6955    77.3197    -0.0010     2.4299     0.1408
  327.0000   -52.6357     7.3144     8.6991    77.9128     0.0019     2.4448     0.1345
  327.5000   -52.6224     7.2666     8.7026    78.5060     0.0034     2.4478     0.1288
  328.0000   -52.6091     7.1695     8.7070    79.5496     0.0033     2.4478     0.1285
  328.5000   -52.5958     7.1719     8.7105    79.5420     0.0047     2.4409     0.1325
  329.0000   -52.7324     7.1745     8.7141    79.6848     0.0061     2.4357     0.1352
  329.5000   -52.8685     7.1769     8.7176    79.8428     0.0061     2.4357     0.1397
  330.0000   -53.0043     7.1799     8.7212    80.7608     0.0060     2.4388     0.1358
  330.5000   -52.9910     7.1823     8.7247    81.3141    -0.0001     2.4408     0.1352
  331.0000   -53.1271     7.1847     8.6674    81.1271    -0.0016     2.4336     0.1373
  331.5000   -53.1136     7.1372     8.6718    78.5947    -0.0048     2.4295     0.1442
  332.0000   -53.1001     7.0424     8.6149    74.8334    -0.0003     2.4325     0.1410
  332.5000   -53.0867     6.9963     8.6193    73.0242     0.0026     2.4444     0.1350
  333.0000   -53.0706     6.9987     8.6228    73.4672    -0.0004     2.4504     0.1275
  333.5000   -53.0573     6.9530     8.6263    75.4117    -0.0005     2.4451     0.1308
  334.0000   -53.0439     6.9553     8.6895    77.0559    -0.0006     2.4406     0.1336
  334.5000   -53.0306     6.9099     8.6930    77.7992     0.0038     2.4323     0.1351
  335.0000   -53.0173     6.8641     8.7568    77.0410     0.0083     2.4375     0.1369
  335.5000   -53.0040     6.8192     8.7604    75.5320     0.0112     2.4479     0.1348
  336.0000   -52.9907     6.7751     8.6448    74.9240     0.0078     2.4546     0.1267
  336.5000   -53.1302     6.6847     8.4713    75.9676     0.0016     2.4419     0.1263
  337.0000   -53.2664     6.6410     8.3012    79.1133    -0.0070     2.4351     0.1382
  337.5000   -53.3992     6.6432     8.1909    79.7083    -0.0086     2.4261     0.1460
  338.0000   -53.5354     6.5998     8.0820    79.2485    -0.0072     2.4171     0.1490
  338.5000   -53.5221     6.6021     8.1412    79.0909    -0.0073     2.4170     0.1496
  339.0000   -53.5088     6.5589     8.1446    80.2847    -0.0073     2.4177     0.1496
  339.5000   -53.6483     6.6071     8.1479    81.9289    -0.0044     2.4200     0.1480
  340.0000   -53.7844     6.5633     8.0952    82.5220    -0.0015     2.4214     0.1466
  340.5000   -53.7678     6.5661     8.0985    83.2653     0.0014     2.4161     0.1518
  341.0000   -53.9044     6.5232     8.1018    84.1588     0.0043     2.4221     0.1482
  341.5000   -54.0403     6.4806     8.1051    84.3548     0.0073     2.4237     0.1422
  342.0000   -54.0268     6.4828     8.1084    82.4922     0.0072     2.4287     0.1398
  342.5000   -54.0134     6.4398     8.1117    81.2836     0.0041     2.4369     0.1378
  343.0000   -54.0000     6.4426     8.1151    80.2251     0.0010     2.4399     0.1369
  343.5000   -53.9866     6.4448     8.1184    79.0164    -0.0020     2.4376     0.1369
  344.0000   -53.9731     6.4916     8.0658    78.1081    -0.0036     2.4383     0.1366
  344.5000   -54.1097     6.4938     7.9594    78.2513    -0.0082     2.4256     0.1408
  345.0000   -54.0931     6.4960     7.9071    78.5485    -0.0082     2.4217     0.1447
  345.5000   -54.0798     6.4982     7.9112    78.9866    -0.0083     2.4119     0.1495
  346.0000   -54.0665     6.4557     7.8592    78.9790    -0.0084     2.4044     0.1579
