~VERSION INFORMATION
 VERS.                2.0:   CWLS LOG ASCII STANDARD - VERSION 2.0
 WRAP.                 NO:   ONE LINE PER DEPTH STEP
~WELL INFORMATION
#MNEM.UNIT      DATA TYPE    INFORMATION
#----------   ------------   ------------------------------
 STRT.F           20.0000:   START DEPTH
 STOP.F          503.5000:   STOP DEPTH
 STEP.F            0.5000:   STEP LENGTH
 NULL.          -999.2500:   NO VALUE
 COMP.   FLUOR DANIEL INC:   COMPANY
 WELL. NAVAL PETROLEUM RESERVE 3 X-10 #71-3-10:   WELL
 FLD .          N.P.R. #3:   FIELD
 LOC .      S10 T37N R78W:   LOCATION
 CNTY.            NATRONA:   COUNTY
 STAT.            WYOMING:   STATE
 CTRY. UNITED STATES OF AMERICA:   COUNTRY
 SRVC.      Western Atlas:   SERVICE COMPANY
 DATE.        02-MAY-1996:   LOGDATE
 API .       490252277900:   API NUMBER
~CURVE INFORMATION
#MNEM.UNIT       API CODE    CURVE DESCRIPTION
#----------   ------------   ------------------------------
 DEPT.F                  :   
 AMP .MV     81 524 00 00:   AMPLITUD
 GR  .GAPI   81 310 01 00:   GAMMA RAY
~PARAMETER INFORMATION
#MNEM.UNIT          VALUE    DESCRIPTION
#----------   ------------   ------------------------------
 PD  .                 GL:   PERMANENT DATUM
 EPD .F            5165.5:   ELEVATION PERMANENT DATUM
 LMF .                 KB:   LOG MEASURED FROM
 DAPD.F                10:   FEET ABOVE PERMANENT DATUM
 DMF .                 KB:   DRILLING MEASURED FROM
 EKB .F            5175.5:   KELLING BUSHING
 EDF .F            5174.5:   DRILLING FLOOR
 EGL .F            5165.5:   GROUND LEVEL
 DATE.        02-MAY-1996:   RUN DATE
 RUN .                  1:   RUN NUMBER
 DD  .F               515:   DEPTH DRILLER
 DL  .F               511:   DEPTH LOGGER
 BLI .F               504:   BOTTOM LOG INTERVAL
 TLI .F                20:   TOP LOG INTERVAL
 CS  .IN              4.5:   CASING SIZE
 BSD .F               515:   BIT SIZE AT DEPTH
 DFT .              WATER:   DRILLING FLUID TYPE
 TCS .HRS              75:   TIME CURCULATED STOPPED
 LUN .            ML 4116:   LOGGING UNIT NUMBER
 LUL .             CASPER:   LOGGING UNIT LOCATION
 ENGI.          MARK HAMM:   RECORDING ENGINEER
 WITN.        STEVE HARDY:   WITNESSED BY
 CLNT.            A2DTECH:   CLIENT CODE
 ORIG.           5" PRINT:   ORIGIN OF DATA
 UWI .       490252277900:   UNIQUE WELL ID
 DICO. A2D Technologies, Inc.:   DIGITIZING COMPANY
~OTHER INFORMATION
~A   DEPT        AMP        GR  
# ...
  263.0000     0.0096    38.9313
  263.5000     0.2318    44.6565
  264.0000     0.2402    46.7557
  264.5000     0.4623    44.4656
  265.0000     0.6845    42.1756
  265.5000     0.9066    39.3130
  266.0000     1.1287    39.6947
  266.5000     1.5646    40.0763
  267.0000     2.0106    39.6947
  267.5000     2.2229    41.2214
  268.0000     2.2332    43.5115
  268.5000     2.0257    43.8931
  269.0000     1.8204    43.1298
  269.5000     1.6150    42.9389
  270.0000     1.4118    42.1756
  270.5000     1.2044    40.8397
  271.0000     0.7874    39.1221
  271.5000     0.7958    35.8779
  272.0000     0.8042    33.3969
  272.5000     0.5985    34.3511
  273.0000     0.8210    37.5954
  273.5000     0.8294    37.4046
  274.0000     0.8379    32.2519
  274.5000     0.8464    29.0076
  275.0000     0.8550    33.9695
  275.5000     0.6514    38.1679
  276.0000     0.6598    37.9771
  276.5000     0.4523    36.6412
  277.0000     0.4628    37.6450
  277.5000     0.4712    40.1336
  278.0000     0.6934    39.6947
  278.5000     0.9155    37.9771
  279.0000     0.9239    35.8779
  279.5000     0.9323    35.8779
  280.0000     1.1545    39.1221
  280.5000     1.1627    43.1298
  281.0000     1.1713    44.2748
  281.5000     1.1798    43.5115
  282.0000     1.1884    41.7939
  282.5000     1.1986    41.9847
  283.0000     1.2070    41.4122
  283.5000     1.2154    40.6489
  284.0000     1.0080    38.1679
  284.5000     1.0185    38.1749
  285.0000     1.0269    39.1412
  285.5000     1.0353    40.5204
  286.0000     0.8299    42.7481
  286.5000     1.0521    42.3664
  287.0000     1.2742    40.8397
  287.5000     1.2826    38.5496
  288.0000     1.2910    36.0687
  288.5000     1.2995    33.9695
  289.0000     1.5218    32.0611
  289.5000     1.5321    31.4886
  290.0000     1.9680    33.9695
  290.5000     2.6176    36.2595
  291.0000     3.0535    35.1145
  291.5000     3.0619    33.5878
  292.0000     3.2840    33.9695
  292.5000     3.5061    36.0687
  293.0000     3.0871    36.0903
  293.5000     2.4543    37.3148
  294.0000     2.0348    40.8397
  294.5000     1.1886    41.9847
  295.0000     0.7695    39.8855
  295.5000     0.5642    38.9313
  296.0000     0.5728    39.6947
  296.5000     0.5814    38.5496
  297.0000     0.5915    36.6412
  297.5000     0.5999    36.2595
  298.0000     0.8221    37.7863
  298.5000     0.8305    42.9389
  299.0000     1.2663    47.3282
  299.5000     1.4885    52.2901
  300.0000     0.6421    54.0075
  300.5000     1.2938    53.0514
  301.0000     1.5179    48.8511
  301.5000     1.5284    48.8492
  302.0000     1.3251    48.8473
  302.5000     1.3074    48.6323
  303.0000     1.1322    47.6981
  303.5000     0.7152    45.0245
  304.0000     0.5119    37.9615
  304.5000     0.5250    32.4253
  305.0000     0.3190    29.9430
  305.5000     0.3321    32.0399
  306.0000     0.3425    34.5190
  306.5000     0.3530    36.0439
  307.0000     0.3634    35.8511
  307.5000     0.3740    35.2767
  308.0000     0.3847    35.8677
  308.5000     0.6111    38.1351
  309.0000     0.6216    40.4233
  309.5000     0.6320    40.8036
  310.0000     0.6424    41.1834
  310.5000     0.6529    41.3719
  311.0000     0.6633    41.9431
  311.5000     0.6738    42.8949
  312.0000     0.4702    44.6106
  312.5000     0.4809    46.7080
  313.0000     0.4916    48.9962
  313.5000     0.5044    47.4122
  314.0000     0.2985    43.4576
  314.5000     0.0952    38.1123
  315.0000     0.1083    38.1104
  315.5000     0.3324    39.0627
  316.0000     0.5566    39.4425
  316.5000     0.5671    40.3949
  317.0000     1.2187    42.8739
  317.5000     2.7254    45.3530
  318.0000     5.7511    46.1145
  318.5000     7.4485    45.3492
  319.0000     4.0417    44.1692
  319.5000     2.1285    42.1909
  320.0000     1.0703    39.6180
  320.5000     0.8644    38.0894
  321.0000     1.0912    36.7517
  321.5000     1.1016    36.1773
  322.0000     1.1120    35.2212
  322.5000     1.1225    34.4560
  323.0000     0.9191    34.8358
  323.5000     0.4909    38.8416
  324.0000     0.0851    41.1298
  324.5000    -0.1182    40.3352
  325.0000     0.1086    39.5992
  325.5000     0.1191    41.5054
  326.0000     0.3432    44.9386
  326.5000     2.2773    47.2268
  327.0000     4.4252    49.5150
  327.5000    10.4204    49.7045
  328.0000    18.9804    47.9846
  328.5000    24.3344    44.5476
  329.0000    23.2251    43.4007
  329.5000    18.5675    43.3900
  330.0000     9.4065    44.1603
  330.5000     4.5009    43.3353
  331.0000     2.1602    40.3393
  331.5000     1.9543    36.9024
  332.0000     1.9674    37.2826
  332.5000     1.7614    39.7612
  333.0000     1.7745    41.0957
  333.5000     1.5710    40.5208
  334.0000     1.1542    39.7561
  334.5000     0.9509    42.6164
  335.0000     0.3227    45.2862
  335.5000     0.3331    45.2627
  336.0000     0.3436    41.7020
  336.5000     0.5678    37.6466
  337.0000     0.7920    37.6447
  337.5000     1.0161    38.4062
  338.0000     1.2403    40.6944
  338.5000     1.2508    41.4564
  339.0000     1.4749    40.3090
  339.5000     1.6992    39.7351
  340.0000     1.4958    45.6488
  340.5000     1.5089    46.4103
  341.0000     1.5193    44.2735
  341.5000     1.5298    41.1494
  342.0000     1.5402    37.6256
  342.5000     1.5507    34.1886
  343.0000     1.5611    33.4234
  343.5000     1.7853    34.5666
  344.0000     2.0095    37.2364
  344.5000     2.4474    39.5247
  345.0000     2.8998    41.8129
  345.5000     3.3579    41.2385
  346.0000     3.7638    38.9465
  346.5000     4.2017    38.7538
  347.0000     4.6396    38.7519
  347.5000     5.5050    38.7496
  348.0000     6.1567    37.6027
  348.5000     6.8084    36.4620
  349.0000     7.4600    40.4649
  349.5000     8.1117    45.4230
  350.0000     7.9094    46.5652
  350.5000     7.4945    44.8429
  351.0000     7.0797    43.1216
  351.5000     6.2373    43.4996
  352.0000     5.1812    45.0225
  352.5000     4.1145    46.3546
  353.0000     3.9239    46.3509
  353.5000     4.1533    44.8204
  354.0000     4.5934    43.4808
  354.5000     4.8197    42.3320
  355.0000     4.8323    40.2290
  355.5000     5.2724    39.0744
  356.0000     5.7124    39.0942
  356.5000     5.9388    40.9097
  357.0000     6.1651    44.4115
  357.5000     6.1379    45.5528
  358.0000     6.1903    45.5490
  358.5000     5.7754    44.4002
  359.0000     5.1369    40.7705
  359.5000     4.4921    39.6217
  360.0000     3.4651    42.0989
  360.5000     3.2608    43.0502
  361.0000     3.0597    41.9005
  361.5000     3.2891    41.1334
  362.0000     3.7292    43.9922
  362.5000     4.3840    46.6602
  363.0000     5.0378    46.4656
  363.5000     5.6916    44.5534
  364.0000     6.3455    44.9924
  364.5000     6.5686    48.4924
  365.0000     6.3675    51.0298
  365.5000     5.9557    51.4087
  366.0000     5.7546    46.8238
  366.5000     5.1259    45.8659
  367.0000     4.4973    44.7171
  367.5000     4.2961    43.3774
  368.0000     4.0950    42.9929
  368.5000     3.6801    44.8966
  369.0000     3.2683    47.5646
  369.5000     2.8503    49.4702
  370.0000     2.4385    48.3205
  370.5000     2.0205    47.5534
  371.0000     1.8193    47.5496
  371.5000     2.0488    46.9625
  372.0000     2.2751    45.4198
  372.5000     2.2877    45.5440
  373.0000     2.3003    48.2970
  373.5000     2.3129    50.2016
  374.0000     2.5421    51.3429
  374.5000     2.9795    50.9575
  375.0000     3.2417    46.5644
  375.5000     3.8625    40.6446
  376.0000     4.0889    40.6409
  376.5000     3.8877    42.3547
  377.0000     3.2591    43.8776
  377.5000     2.4167    44.0649
  378.0000     2.2124    45.0152
  378.5000     1.5869    46.7290
  379.0000     0.7445    46.7252
  379.5000     0.1159    45.3455
  380.0000    -0.0855    44.2112
  380.5000    -0.0727    46.3313
  381.0000    -0.2739    49.7636
  381.5000    -0.2608    47.4688
  382.0000    -0.2455    46.3200
  382.5000    -0.0192    45.5529
  383.0000     0.2071    44.0224
  383.5000     0.0059    39.8202
  384.0000     0.0185    35.6180
