~VERSION INFORMATION
 VERS.                2.0:   CWLS LOG ASCII STANDARD - VERSION 2.0
 WRAP.                 NO:   ONE LINE PER DEPTH STEP
~WELL INFORMATION
#MNEM.UNIT      DATA TYPE    INFORMATION
#----------   ------------   ------------------------------
 STRT.F           40.0000:   START DEPTH
 STOP.F          684.0000:   STOP DEPTH
 STEP.F            0.5000:   STEP LENGTH
 NULL.          -999.2500:   NO VALUE
 COMP.    FENIX & SCISSON:   COMPANY
 WELL.   N P R-3 #26SX2-2:   WELL
 FLD .             TEAPOT:   FIELD
 LOC .       S2 T38N R78W:   LOCATION
 CNTY.            NATRONA:   COUNTY
 STAT.            WYOMING:   STATE
 CTRY. UNITED STATES OF AMERICA:   COUNTRY
 SRVC.            Unknown:   SERVICE COMPANY
 DATE.        26-JAN-1978:   LOGDATE
 API .       490251056400:   API NUMBER
~CURVE INFORMATION
#MNEM.UNIT       API CODE    CURVE DESCRIPTION
#----------   ------------   ------------------------------
 DEPT.F                  :   
 ILD .OHMM   05 120 46 00:   INDUCTION LOG DEEP
 SN  .OHMM   05 040 16 00:   SHORT NORMAL 16"
 SPR .MV     05 010 01 00:   SPONTANEOUS POTENTIAL FROM RES.
 CALD.IN     45 280 60 00:   CALIPER FROM DENSITY LOG
 CORR.G/C3   45 356 01 00:   DENSITY CORRECTION
 DPHI.DEC    45 890 12 00:   DENSITY POROSITY SANDSTONE
 GRD .GAPI   45 310 01 00:   GAMMA RAY FROM DENSITY LOG
 RHOB.G/C3   45 350 01 00:   BULK DENSITY
~PARAMETER INFORMATION
#MNEM.UNIT          VALUE    DESCRIPTION
#----------   ------------   ------------------------------
 PD  .                 GL:   PERMANENT DATUM
 EPD .F              5142:   ELEVATION PERMANENT DATUM
 LMF .                 KB:   LOG MEASURED FROM
 DMF .                 KB:   DRILLING MEASURED FROM
 EKB .F              5146:   KELLING BUSHING
 EGL .F              5142:   GROUND LEVEL
 DATE.        26-JAN-1978:   RUN DATE
 RUN .                  1:   RUN NUMBER
 DD  .F               690:   DEPTH DRILLER
 DL  .F               684:   DEPTH LOGGER
 BLI .F               684:   BOTTOM LOG INTERVAL
 TLI .F                50:   TOP LOG INTERVAL
 CS  .IN            8.625:   CASING SIZE
 CBD .F                39:   CASING BOTTOM DRILLER
 CBL .F                40:   CASING BOTTOM LOGGER
 BS  .IN            7.875:   BIT SIZE
 BSD .F               690:   BIT SIZE AT DEPTH
 DFT .                KCL:   DRILLING FLUID TYPE
 DFD .                8.5:   DRILLING FLUID DENSITY
 DFV .                 33:   DRILLING FLUID VISCOSITY
 DFPH.                  9:   DRILLING FLUID PH
 MSS .           FLOWLINE:   MUD SAMPLE SOURCE
 RMS .OHMM           0.48:   RESISTIVITY MUD SAMPLE
 MST .F                75:   MUD SAMPLE TEMPERATURE
 RMF .OHMM           0.46:   RESISTIVITY MUD FILTRATE SAMPLE
 MFST.F                75:   MUD FILTRATE SAMPLE TEMPERATURE
 RMC .OHMM              1:   RESISTIVITY MUD CAKE
 MCST.F                75:   MUD CAKE SAMPLE TEMPERATURE
 MFSS.               MEAS:   MUD FILTRATE SAMPLE SOURCE
 MCSS.               MEAS:   MUD CAKE SAMPLE SOURCE
 RMB .OHMM           0.47:   RESISTIVITY MUD AT BHT
 BHT .F                76:   BOTTOM HOLE TEMPERATURE
 TCS .HRS               1:   TIME CURCULATED STOPPED
 MRT .F                76:   MAXIMUM RECORDED TEMPERATURE
 LUN .               2958:   LOGGING UNIT NUMBER
 LUL .             CASPER:   LOGGING UNIT LOCATION
 ENGI.           REYNOLDS:   RECORDING ENGINEER
 WITN.       MR. MCGINLEY:   WITNESSED BY
 CLNT.            A2DTECH:   CLIENT CODE
 ORIG.      2.5" 5" PRINT:   ORIGIN OF DATA
 UWI .       490251056400:   UNIQUE WELL ID
 DICO. A2D Technologies, Inc.:   DIGITIZING COMPANY
~OTHER INFORMATION
~A   DEPT      ILD         SN        SPR       CALD       CORR       DPHI         GRD        RHOB 
   40.0000  -999.2500  -999.2500  -999.2500  -999.2500  -999.2500  -999.2500    93.9347     2.0008
   40.5000  -999.2500  -999.2500  -999.2500  -999.2500  -999.2500  -999.2500    97.7090     2.0023
   41.0000  -999.2500  -999.2500  -999.2500  -999.2500  -999.2500  -999.2500    97.7115     2.0023
   41.5000  -999.2500  -999.2500  -999.2500  -999.2500  -999.2500  -999.2500    97.7141     2.0023
   42.0000  -999.2500    41.8252  -999.2500  -999.2500  -999.2500  -999.2500    97.7166     2.0023
   42.5000   831.1957  2504.0684  -999.2500  -999.2500  -999.2500  -999.2500    97.7192     2.0024
   43.0000  2399.2065  2259.7769  -999.2500  -999.2500  -999.2500  -999.2500    97.7222     2.0024
   43.5000     0.1174  2226.7593  -999.2500  -999.2500  -999.2500  -999.2500    97.7247     2.0024
   44.0000     0.4556   516.8314  -999.2500  -999.2500     0.2108  -999.2500    97.7271     2.0024
   44.5000     1.3979   299.1784  -999.2500  -999.2500     0.2202  -999.2500    97.7296     2.0022
   45.0000    10.2912  3025.1179  -999.2500  -999.2500     0.2717  -999.2500    97.7321     2.0009
   45.5000    20.9160  3449.3811  -999.2500  -999.2500     0.3893  -999.2500    97.7346     2.0010
   46.0000     8.4426   318.9259  -999.2500  -999.2500     0.5945  -999.2500    98.0429     2.0010
   46.5000    14.6480    44.4091  -999.2500  -999.2500     0.6191  -999.2500    98.0454     1.9995
   47.0000     4.0935     0.5046  -999.2500    11.9980     0.5919  -999.2500   100.0663     1.9995
   47.5000    61.3522    58.1220  -999.2500    14.6125     0.5710  -999.2500   109.3145     1.9980
   48.0000     1.0248     4.0402  -999.2500    15.8896     0.6350  -999.2500   114.8930     1.9974
   48.5000     1.0472     4.0143  -999.2500    14.7655     0.6507  -999.2500   118.7131     1.9965
   49.0000     1.0193     4.0451  -999.2500    14.3709     0.6559  -999.2500   120.6878     1.9966
   49.5000     1.0063     4.1037  -999.2500    16.7118     0.6517  -999.2500   111.9190     1.9966
   50.0000     3.4499     2.7788  -999.2500    17.7154     0.6501  -999.2500   106.3201     2.2330
   50.5000     2.8672     1.4218  -999.2500    17.8374     0.6502  -999.2500   104.9822     2.3740
   51.0000     2.7533     0.1289  -999.2500    17.8480     0.6503  -999.2500   104.3578     2.4033
   51.5000     2.9521    86.8183  -999.2500    17.1697     0.6504  -999.2500   112.0821     2.3281
   52.0000     3.2551    42.6317  -999.2500    16.1976     0.6535  -999.2500   116.2997     2.1505
   52.5000     3.2547    28.3837  -999.2500    15.5767     0.6536  -999.2500   110.1555     1.9682
   53.0000     3.2577    36.5413  -999.2500    15.0469     0.6537  -999.2500   106.6416     1.8894
   53.5000     3.2826    42.2500  -999.2500    14.5780     0.6568  -999.2500   104.5034     1.8832
   54.0000     3.3767     3.3801  -999.2500    14.0044     0.6569  -999.2500   107.5640     2.0322
   54.5000     3.5458     0.3895  -999.2500    13.4189     0.5634  -999.2500   109.0956     2.0594
   55.0000     3.6726     0.0747  -999.2500    13.1002     0.2946  -999.2500   107.2632     1.8297
   55.5000     3.8566     0.0098   -47.1521    13.0399     0.0741  -999.2500   106.0424     1.8054
   56.0000     4.0778     0.0091   -48.3253    13.0101     0.0078  -999.2500   115.8309     1.8059
   56.5000     4.1947     0.0097   -48.0125    12.9347     0.0048  -999.2500   127.4542     1.8074
   57.0000     4.0845     0.0105   -48.2960    12.6025     0.0049  -999.2500   128.9857     1.8075
   57.5000     3.8422     0.0108   -48.8761    11.5528     0.0081  -999.2500   122.6682     1.8075
   58.0000     3.4920     0.0091   -49.3080    11.1581     0.0084  -999.2500   112.9460     1.8075
   58.5000     3.2399     0.0085   -50.0363    11.0067     0.0113  -999.2500   105.5479     1.8075
   59.0000     3.1327     0.0082   -50.6164    10.9160     0.0148  -999.2500    89.7503     1.8075
   59.5000     3.2896     0.0081   -51.2096    10.9165     0.0186  -999.2500    84.7477     1.8076
   60.0000     3.7259     0.0080   -51.7766    10.9169     0.0317  -999.2500    79.5617     1.8076
   60.5000     3.7803     0.0079   -52.0602    10.9174     0.0541  -999.2500    75.8180     1.8076
   61.0000     3.7572     0.0078   -52.3437    10.9179     0.0882  -999.2500    75.1937     1.8076
   61.5000     3.7349     0.0078   -52.3275    10.9184     0.1541  -999.2500    78.9730     1.8076
   62.0000     3.7894     0.0080   -52.3145    10.9189     0.1751  -999.2500    81.7941     1.8077
   62.5000     4.5348     0.0086   -52.5980    10.9195     0.1589  -999.2500    83.0148     1.8077
   63.0000     5.3897     0.0093   -53.0299    10.9200     0.1512  -999.2500    83.1452     1.8062
   63.5000     6.9568     0.0103   -54.0548    10.9205     0.1513  -999.2500    86.5116     1.8062
   64.0000     7.3558     0.0107   -56.4494    10.9210     0.1530  -999.2500    96.9117     1.7911
   64.5000     7.1614     0.0106   -60.8460    10.9215     0.1592  -999.2500   106.0884     1.7547
   65.0000     6.4111     0.0104   -70.3719    10.9929     0.0730  -999.2500   110.6781     1.7410
   65.5000     5.3000     0.0440   -26.7189    11.3936     0.0308  -999.2500   114.3503     1.7381
   66.0000     4.8170     0.9535   -26.2399    11.7504     0.0128  -999.2500   117.1051     1.7381
   66.5000     4.5624     3.6023   -26.5447    11.9570     0.0068  -999.2500   119.2482     1.7381
   67.0000     4.5026     1.1108   -26.5315    11.9271     0.0009  -999.2500   116.7329     1.7381
   67.5000     4.6644     2.4194   -26.2189    11.9276    -0.0020  -999.2500   112.3981     1.7382
   68.0000     4.8645     4.2565   -26.0577    12.3537     0.0011  -999.2500   110.9988     1.7382
   68.5000     4.7687     2.5950   -25.7481    12.4757     0.0103  -999.2500   111.0015     1.7382
   69.0000     4.7395     0.6714   -25.7352    12.5066     0.0225  -999.2500   111.0754     1.7382
   69.5000     4.7104     0.2384   -25.8704    12.5071     0.0407  -999.2500   111.3991     1.7382
   70.0000     5.5610     0.0619   -26.0090    12.5076     0.0801  -999.2500   110.8053     1.7383
   70.5000     6.0857     1.4491   -26.1415    12.4760     0.1770  -999.2500   103.9629     1.7383
   71.0000     6.3033     4.5069   -26.2764    12.3533     0.2966  -999.2500    93.5729     1.7383
   71.5000     6.3515     5.6695   -26.5598    12.2558     0.2807  -999.2500    93.2187     1.7383
   72.0000     6.2693     0.7921   -26.8685    12.1179     0.2557  -999.2500   105.3924     1.7416
   72.5000     5.9380     3.0345   -27.2720    11.7823     0.3131  -999.2500   113.1371     1.9808
   73.0000     5.6242     5.0882   -27.8521    11.4367     0.3419  -999.2500   115.9179     2.1066
   73.5000     5.4008     5.3060   -28.7287    11.4119     0.3370  -999.2500   116.0168     2.0642
   74.0000     5.3639     5.3092   -29.6053    10.1746     0.2788  -999.2500   114.3938     2.1233
   74.5000     5.3348     5.3124   -30.6302     9.7006     0.2449  -999.2500   112.8672     2.2117
   75.0000     5.3397     5.3156   -31.6551     9.6386     0.2214  -999.2500   111.6465     2.1612
   75.5000     5.3061     5.2824   -32.3835     9.5952     0.2025  -999.2500   109.8141     2.1551
   76.0000     5.2384     5.2493   -32.9636     9.5958     0.1858  -999.2500   108.2875     2.1370
   76.5000     5.1000     5.1807   -33.5437     9.5963     0.1720  -999.2500   106.1494     2.1082
   77.0000     4.4785     5.0438   -34.1238     9.5664     0.1924  -999.2500   109.8827     2.0688
   77.5000     3.7997     4.9098   -34.7006     9.5973     0.2037  -999.2500   112.9332     2.0022
   78.0000     3.2230     4.4614   -35.1325     9.5978     0.2025  -999.2500   114.5362     1.9470
   78.5000     2.8432     3.9438   -35.5643     9.5983     0.1996  -999.2500   116.2510     1.8804
   79.0000     2.5558     3.3453   -35.8478     9.6900     0.1997  -999.2500   114.0622     1.8586
   79.5000     2.3229     2.8376   -35.8348     9.7850     0.2028  -999.2500   111.4093     1.8299
   80.0000     2.0823     2.5784   -35.8219     9.9375     0.2060  -999.2500   109.5311     1.8149
