~VERSION INFORMATION
 VERS.                2.0:   CWLS LOG ASCII STANDARD - VERSION 2.0
 WRAP.                 NO:   ONE LINE PER DEPTH STEP
~WELL INFORMATION
#MNEM.UNIT      DATA TYPE    INFORMATION
#----------   ------------   ------------------------------
 STRT.F            4.0000:   START DEPTH
 STOP.F          510.0000:   STOP DEPTH
 STEP.F            0.5000:   STEP LENGTH
 NULL.          -999.2500:   NO VALUE
 COMP. LAWRENCE/ALLISON INC:   COMPANY
 WELL.     68-46 SX #68-3:   WELL
 FLD .             TEAPOT:   FIELD
 LOC .       S3 T38N R78W:   LOCATION
 CNTY.            NATRONA:   COUNTY
 STAT.            WYOMING:   STATE
 CTRY. UNITED STATES OF AMERICA:   COUNTRY
 SRVC.           Gearhart:   SERVICE COMPANY
 DATE.        15-SEP-1987:   LOGDATE
 API .       490251116400:   API NUMBER
~CURVE INFORMATION
#MNEM.UNIT       API CODE    CURVE DESCRIPTION
#----------   ------------   ------------------------------
 DEPT.F                  :   
 GRR .GAPI   07 310 01 00:   GAMMA RAY
 RILD.OHMM   07 120 46 00:   INDUCTION LOG DEEP RESISTIVITY
 RILM.OHMM   07 120 44 00:   INDUCTION LOG MEDIUM RESISTIVITY
 RLL .OHMM   07 220 00 00:   LATEROLOG RESISTIVITY
 SPR .MV     07 010 01 00:   SPONTANEOUS POTENTIAL
~PARAMETER INFORMATION
#MNEM.UNIT          VALUE    DESCRIPTION
#----------   ------------   ------------------------------
 ENGI.           JOHNSTON:   RECORDING ENGINEER
 WITN.         MR. STRONG:   WITNESSED BY
 PD  .                 GL:   PERMANENT DATUM
 EPD .F              5162:   ELEVATION PERMANENT DATUM
 LMF .                 KB:   LOG MEASURED FROM
 DAPD.F                 8:   FEET ABOVE PERMANENT DATUM
 DMF .                 KB:   DRILLING MEASURED FROM
 EKB .F              5170:   KELLING BUSHING
 EDF .F              5169:   DRILLING FLOOR
 EGL .F              5162:   GROUND LEVEL
 DATE.        15-SEP-1987:   RUN DATE
 RUN .                  1:   RUN NUMBER
 DD  .F               519:   DEPTH DRILLER
 DL  .F               512:   DEPTH LOGGER
 BLI .F               500:   BOTTOM LOG INTERVAL
 TLI .F                50:   TOP LOG INTERVAL
 CS  .IN            8.625:   CASING SIZE
 CBD .F                50:   CASING BOTTOM DRILLER
 CBL .F                50:   CASING BOTTOM LOGGER
 BS  .IN             7.87:   BIT SIZE
 BSD .F               519:   BIT SIZE AT DEPTH
 DFT .                MUD:   DRILLING FLUID TYPE
 RMS .OHMM           0.64:   RESISTIVITY MUD SAMPLE
 MST .F                71:   MUD SAMPLE TEMPERATURE
 RMF .OHMM           0.48:   RESISTIVITY MUD FILTRATE SAMPLE
 MFST.F                71:   MUD FILTRATE SAMPLE TEMPERATURE
 RMC .OHMM           0.76:   RESISTIVITY MUD CAKE
 MCST.F                71:   MUD CAKE SAMPLE TEMPERATURE
 MFSS.              CHART:   MUD FILTRATE SAMPLE SOURCE
 MCSS.              CHART:   MUD CAKE SAMPLE SOURCE
 TCS .HRS            1100:   TIME CURCULATED STOPPED
 TLAB.HRS            1638:   TIME LOGGER AT BOTTOM
 LUN .               7650:   LOGGING UNIT NUMBER
 LUL .           GILLETTE:   LOGGING UNIT LOCATION
 CLNT.            A2DTECH:   CLIENT CODE
 ORIG.           5" PRINT:   ORIGIN OF DATA
 UWI .       490251116400:   UNIQUE WELL ID
 DICO. A2D Technologies, Inc.:   DIGITIZING COMPANY
~OTHER INFORMATION
~A    DEPT       GRR     RILD       RILM        RLL        SPR   
# ...
  187.0000   110.8067     5.6980     4.7856     5.9901    -7.0912
  187.5000   110.1979     5.9005     4.9816     6.2547    -6.4785
  188.0000   113.5464     6.0674     5.1235     6.6542    -5.8657
  188.5000   116.2861     6.2394     5.3065     6.9400    -5.2530
  189.0000   117.5038     6.4608     5.5738     7.2381    -4.9451
  189.5000   119.0259     6.6904     5.9373     7.4961    -5.5520
  190.0000   120.5479     6.9836     6.3246     7.7092    -4.9385
  190.5000   120.5479     7.3785     6.5966     7.9281    -4.6306
  191.0000   120.2435     7.6407     6.8333     8.0396    -4.6277
  191.5000   118.4170     7.8569     7.0333     8.0957    -5.0820
  192.0000   116.5297     8.0226     7.2270     8.1522    -4.9266
  192.5000   113.7494     8.0779     7.2779     8.1515    -4.0090
  193.0000   113.2420     8.0193     7.3292     8.0939    -3.7011
  193.5000   114.7641     7.9058     7.2779     8.0368    -3.5457
  194.0000   116.5906     7.8488     7.1764     7.9242    -3.5427
  194.5000   117.5038     7.7923     6.9289     7.7936    -3.6915
  195.0000   116.2861     7.7358     6.7845     7.5963    -4.6031
  195.5000   113.8508     7.6263     6.6431     7.4375    -4.6002
  196.0000   112.0244     7.4134     6.5966     7.2786    -3.9874
  196.5000   112.3288     7.1561     6.5047     7.0797    -3.8320
  197.0000   117.5850     6.5301     6.3246     7.0793    -4.1339
  197.5000   122.1208     6.1719     6.1064     7.0788    -4.4366
  198.0000   120.5479     5.8746     5.8136     7.0288    -3.6707
  198.5000   118.7215     5.5135     5.4195     6.6913    -3.5152
  199.0000   117.1994     5.3181     4.9122     5.9800    -3.5122
  199.5000   117.1994     5.1733     4.4524     5.3443    -3.5086
  200.0000   117.8082     5.0645     4.1215     5.0521    -3.5056
  200.5000   117.4653     4.9579     4.0927     4.9772    -3.2072
  201.0000   114.7507     5.1338     4.3903     5.1227    -2.7558
  201.5000   112.0051     5.4678     4.7762     5.5336    -2.1535
  202.0000   110.7815     5.8645     5.0521     5.9774    -1.7021
  202.5000   113.8197     6.1589     5.3439     6.5481    -1.2508
  203.0000   116.8579     6.5595     5.6526     7.0734    -0.9518
  203.5000   118.3741     7.0355     5.9792     7.4291    -0.5005
  204.0000   119.2816     7.4931     6.2364     7.5867    -0.2016
  204.5000   119.2754     7.7594     6.5047     7.6935     0.1229
  205.0000   119.2897     7.8676     6.6994     7.7471     0.5482
  205.5000   120.4812     7.9773     6.9777     7.8012     0.5423
  206.0000   120.7797     7.9756     7.0764     7.9109     0.0790
  206.5000   120.4679     7.9736     7.1764     7.9660     0.2255
  207.0000   119.2443     8.0847     7.2270     8.0217     0.3750
  207.5000   117.7163     8.2552     7.2779     8.1917     0.8410
  208.0000   116.7986     8.3122     7.2779     8.3655     0.9698
  208.5000   119.8353     8.3690     7.2779     8.4832     0.9624
  209.0000   121.3515     8.3669     7.2779     8.4826     1.1104
  209.5000   124.0934     8.3066     7.2270     8.3637     1.4093
  210.0000   118.4373     8.1890     7.1764     8.1315     1.7082
  210.5000   114.3307     8.1300     7.0764     7.9615     2.0071
  211.0000   111.8894     8.0714     6.9777     7.9053     2.6109
  211.5000   115.8409     8.0697     6.9777     7.9047     3.0608
  212.0000   121.0100     8.0112     6.9777     7.9042     3.0549
  212.5000   122.8306     7.9535     6.9777     7.9037     3.3664
  213.0000   122.8246     7.9518     7.1550     8.0387     3.8051
  213.5000   121.2966     8.0067     7.1026     8.0359     4.2550
  214.0000   120.0730     7.9486     7.1006     8.0337     4.0966
  214.5000   122.2263     7.8913     7.0987     8.0315     4.3956
  215.0000   123.1053     7.8344     7.0967     8.4925     5.0008
  215.5000   120.9670     7.7235     7.0948     8.4308     5.2998
  216.0000   119.4390     7.5080     6.9940     8.1329     5.2923
  216.5000   121.8684     7.0882     6.8947     8.0222     5.5915
  217.0000   122.7757     6.7460     6.5965     7.9084     5.2804
  217.5000   123.9889     6.6117     6.0101     7.3710     5.1220
  218.0000   126.7212     6.5640     5.3889     6.9185     5.2906
  218.5000   131.8903     6.5167     5.3498     6.5854     5.8723
  219.0000   136.1949     6.4698     5.5782     6.3569     6.1712
  219.5000   137.0535     6.3336     5.7354     6.2666     6.3177
  220.0000   135.5240     5.9442     5.7338     6.8626     6.1593
  220.5000   129.4298     5.7783     5.5737     7.3589     6.4568
  221.0000   126.0753     5.6170     5.3801     7.4607     5.3837
  221.5000   122.4164     5.4987     5.0496     7.2954     5.4050
  222.0000   119.9752     5.4976     4.5039     6.2139     5.0670
  222.5000   122.1002     5.4964     4.2598     5.3996     4.9085
  223.0000   124.2251     5.4186     4.2636     5.2858     5.0722
  223.5000   122.9894     5.4557     4.3224     5.3219     5.5049
  224.0000   118.9284     5.5765     4.6679     5.5099     5.9563
  224.5000   114.7690     5.8091     4.9707     6.4720     6.4076
  225.0000   115.3719     6.2306     5.4057     7.2381     6.5556
  225.5000   118.4101     6.5433     5.5581     7.5469     7.0070
  226.0000   119.6233     6.9202     5.6747     7.7052     7.3059
  226.5000   117.4850     7.2167     5.9587     7.5427     7.6048
  227.0000   115.0438     7.3689     6.2131     7.3318     7.9024
  227.5000   114.1246     7.3673     6.3882     7.0773     8.2012
  228.0000   114.4231     7.3658     6.5222     6.6895     7.8902
  228.5000   113.7839     7.3643     6.5664     6.2788     7.5793
  229.0000   114.7142     7.3628     6.2496     6.0186     7.7260
  229.5000   117.1436     7.3008     5.7033     5.7692     7.5661
  230.0000   119.2685     6.3055     5.0608     5.9316     7.5602
  230.5000   122.6111     5.7945     4.6184     5.7660     7.5542
  231.0000   121.9964     5.6327     4.5529     5.6050     7.2449
  231.5000   121.3816     5.6316     4.6159     5.5644     7.8472
  232.0000   120.1580     5.6304     4.8153     5.6807     7.8412
  232.5000   120.4566     5.6692     5.0244     5.9647     7.8353
  233.0000   120.7550     5.7885     5.2325     6.8126     7.5173
  233.5000   120.0508     6.3855     5.4943     7.2035     7.2134
  234.0000   117.3931     6.9477     5.8508     7.5109     6.7489
  234.5000   116.7784     7.4087     6.1436     7.7223     5.8283
  235.0000   119.5121     7.6604     6.5421     8.0518     5.3650
  235.5000   122.5504     7.8216     6.8695     8.1633     5.0542
  236.0000   123.7621     7.9865     7.1628     8.2762     4.8958
  236.5000   121.9297     8.0979     7.3132     8.3908     5.0438
  237.0000   121.6193     8.2108     7.4179     8.5069     4.8839
  237.5000   119.7869     8.3252     7.5259     8.5040     4.5730
  238.0000   119.1395     8.4417     7.6213     8.5017     4.4146
  238.5000   117.6427     8.6193     7.6187     8.6193     4.1037
  239.0000   116.7235     8.8011     7.6166     8.6782     3.9439
  239.5000   118.2396     8.7993     7.6145     8.7368     3.1758
  240.0000   119.1484     8.7974     7.6124     8.8571     3.0174
  240.5000   116.4013     8.7952     7.6644     8.9170     2.8590
  241.0000   113.0468     8.7934     7.6618     8.9145     2.5482
  241.5000   112.4320     8.7916     7.7137     8.9121     2.0849
  242.0000   114.2526     8.7898     7.7115     8.8399     1.3168
  242.5000   118.5693     8.7880     7.6465     8.5999     0.2437
  243.0000   120.9904     8.7862     7.4412     8.4778     0.0978
  243.5000   120.0172     8.8467     7.3871     8.2992    -0.0740
  244.0000   117.5760     8.9697     7.5952     8.2389    -0.5373
  244.5000   114.5259     9.1588     7.7010     8.2952    -1.7628
  245.0000   112.6935     9.2215     7.8621     8.4686    -2.5309
  245.5000   112.0787     9.1447     7.9715     8.5858    -2.9942
  246.0000   112.0728     8.6524     8.0249     8.8275    -3.3050
  246.5000   112.0668     8.1206     8.0227     9.1398    -4.2256
  247.0000   111.4521     7.5681     7.7913     9.5356    -5.9482
  247.5000   111.4460     7.3054     7.1339     9.7297    -7.2878
