~VERSION INFORMATION
 VERS.                2.0:   CWLS LOG ASCII STANDARD - VERSION 2.0
 WRAP.                 NO:   ONE LINE PER DEPTH STEP
~WELL INFORMATION
#MNEM.UNIT      DATA TYPE    INFORMATION
#----------   ------------   ------------------------------
 STRT.F           70.0000:   START DEPTH
 STOP.F         1072.0000:   STOP DEPTH
 STEP.F            0.5000:   STEP LENGTH
 NULL.          -999.2500:   NO VALUE
 COMP. LAWRENCE/ALLISON INC:   COMPANY
 WELL.    67-66 SX #11-11:   WELL
 FLD .             TEAPOT:   FIELD
 LOC .      S11 T38N R78W:   LOCATION
 CNTY.            NATRONA:   COUNTY
 STAT.            WYOMING:   STATE
 CTRY. UNITED STATES OF AMERICA:   COUNTRY
 SRVC.      Dresser Atlas:   SERVICE COMPANY
 DATE.        03-FEB-1986:   LOGDATE
 API .       490251105700:   API NUMBER
~CURVE INFORMATION
#MNEM.UNIT       API CODE    CURVE DESCRIPTION
#----------   ------------   ------------------------------
 DEPT.F                  :   
 RILD.OHMM   07 120 46 00:   RESISTIVITY INDUCTION LOG DEEP
 RILM.OHMM   07 120 44 00:   RESISTIVITY INDUCTION LOG MEDIUM
 GRD .GAPI   45 310 01 00:   GAMMA RAY FROM DENSITY LOG
 CALD.IN     45 280 60 00:   CALIPER FROM DENSITY LOG
 CORR.G/C3   45 356 01 00:   DENSITY CORRECTION
 PORD.DEC    45 890 12 00:   POROSITY DENSITY SANDSTONE
 DEN .G/C3   45 350 01 00:   COMPENSATED BULK DENSTIY
~PARAMETER INFORMATION
#MNEM.UNIT          VALUE    DESCRIPTION
#----------   ------------   ------------------------------
 PD  .                 GL:   PERMANENT DATUM
 EPD .F              5245:   ELEVATION PERMANENT DATUM
 LMF .                 GL:   LOG MEASURED FROM
 DMF .                 GL:   DRILLING MEASURED FROM
 EGL .F              5245:   GROUND LEVEL
 DATE.        03-FEB-1986:   RUN DATE
 RUN .                  1:   RUN NUMBER
 DD  .F              1120:   DEPTH DRILLER
 DL  .F              1074:   DEPTH LOGGER
 BLI .F              1068:   BOTTOM LOG INTERVAL
 TLI .F                86:   TOP LOG INTERVAL
 CS  .IN            8.625:   CASING SIZE
 CBD .F                86:   CASING BOTTOM DRILLER
 CBL .F                86:   CASING BOTTOM LOGGER
 BS  .IN             6.25:   BIT SIZE
 BSD .F              1120:   BIT SIZE AT DEPTH
 DFT .                AIR:   DRILLING FLUID TYPE
 TCS .HRS               2:   TIME CURCULATED STOPPED
 LUN .               6274:   LOGGING UNIT NUMBER
 LUL .           GILLETTE:   LOGGING UNIT LOCATION
 ENGI.             MILLER:   RECORDING ENGINEER
 WITN.           JENNINGS:   WITNESSED BY
 CLNT.            A2DTECH:   CLIENT CODE
 ORIG.           5" PRINT:   ORIGIN OF DATA
 UWI .       490251105700:   UNIQUE WELL ID
 DICO. A2D Technologies, Inc.:   DIGITIZING COMPANY
~OTHER INFORMATION
~A   DEPT     RILD       RILM        GRD       CALD       CORR       PORD        DEN   
# ...
  115.5000     6.1743     6.3298   130.6288     6.5349     0.1090     0.1293     2.4632
  116.0000     6.2247     6.1622   130.9058     6.5363     0.1198     0.1503     2.4369
  116.5000     6.1040     6.0798   130.9327     6.5526     0.1260     0.1627     2.4075
  117.0000     5.9856     6.0124   132.7537     6.5540     0.1171     0.1632     2.4024
  117.5000     5.9496     5.9395   140.5539     6.5703     0.0841     0.1593     2.4108
  118.0000     5.9156     5.9044   151.6425     6.6015     0.0707     0.1571     2.4169
  118.5000     5.8818     5.9143   155.8553     6.6029     0.0679     0.1568     2.4154
  119.0000     5.8500     5.9222   153.4910     6.6192     0.0711     0.1622     2.4080
  119.5000     5.8570     5.9284   147.8383     6.6053     0.0667     0.1661     2.4020
  120.0000     5.8640     5.9362   150.2573     6.6070     0.0548     0.1630     2.4051
  120.5000     5.8780     5.9854   163.7376     6.5931     0.0505     0.1594     2.4112
  121.0000     5.9174     5.9932   169.4451     6.6097     0.0650     0.1623     2.4120
  121.5000     5.9243     6.0428   170.6615     6.5809     0.0880     0.1629     2.4069
  122.0000     5.9313     6.0509   165.0156     6.5673     0.1133     0.1632     2.4017
  122.5000     5.9384     6.0171   157.1251     6.5989     0.1340     0.1676     2.3957
  123.0000     5.9455     6.0252   152.8064     6.6152     0.1402     0.1697     2.3943
  123.5000     5.9526     5.9912   154.9397     6.6312     0.1238     0.1680     2.4015
  124.0000     5.9186     5.9995   156.1497     6.6326     0.1104     0.1600     2.4103
  124.5000     5.8847     5.9661   154.0844     6.6339     0.0834     0.1597     2.4096
  125.0000     5.8511     5.8918   152.0191     6.6203     0.0625     0.1611     2.4096
  125.5000     5.7377     5.8166   151.7475     6.6217     0.0597     0.1602     2.4120
  126.0000     5.7049     5.7442   148.4864     6.6231     0.0568     0.1578     2.4166
  126.5000     5.6706     5.6728   142.2358     6.5795     0.0811     0.1562     2.4189
  127.0000     5.6382     5.6822   140.1705     6.6258     0.0858     0.1586     2.4145
  127.5000     5.6466     5.8092   139.5999     6.6421     0.0814     0.1616     2.4093
  128.0000     5.6534     5.8574   139.9263     6.5986     0.1117     0.1612     2.4124
  128.5000     5.6601     5.8652   141.1495     6.5698     0.1119     0.1597     2.4139
  129.0000     5.6261     5.7523   142.0737     6.6014     0.1075     0.1590     2.4155
  129.5000     5.5893     5.6807   142.0349     6.6476     0.1002     0.1566     2.4186
  130.0000     5.5212     5.6008   140.2491     6.6336     0.0883     0.1523     2.4247
  130.5000     5.4921     5.5769   137.6647     6.6051     0.0794     0.1529     2.4263
  131.0000     5.4986     5.5845   138.5890     6.5766     0.0705     0.1556     2.4196
  131.5000     5.4295     5.5917   141.0080     6.5932     0.0526     0.1595     2.4129
  132.0000     5.3982     5.5222   138.9427     6.6093     0.0558     0.1642     2.4082
  132.5000     5.3660     5.4535   131.7952     6.6106     0.0729     0.1687     2.4009
  133.0000     5.2257     5.3856   130.3210     6.6119     0.0847     0.1684     2.3965
  133.5000     5.0890     5.2093   133.9426     6.5984     0.0619     0.1648     2.4019
  134.0000     4.9573     5.0737   136.3617     6.6147     0.0489     0.1610     2.4102
  134.5000     4.9633     5.0106   135.4854     6.6310     0.0793     0.1576     2.4163
  135.0000     4.9334     4.9466   135.5196     6.6324     0.1080     0.1540     2.4247
  135.5000     4.9408     4.9190   137.6396     6.5889     0.1187     0.1504     2.4316
  136.0000     4.9467     4.9272   140.9555     6.6351     0.1204     0.1486     2.4316
  136.5000     4.9526     5.0026   141.2750     6.6511     0.1205     0.1522     2.4257
  137.0000     4.9930     5.0441   138.3377     6.6225     0.1312     0.1558     2.4197
  137.5000     5.0442     5.0859   134.4046     6.5940     0.1420     0.1587     2.4100
  138.0000     5.1480     5.2357   133.5844     6.5957     0.1512     0.1620     2.4078
  138.5000     5.2949     5.2791   135.7044     6.5971     0.1363     0.1665     2.4011
  139.0000     5.4124     5.3598   136.0308     6.5984     0.1199     0.1716     2.3899
  139.5000     5.5327     5.4797   135.7579     6.5998     0.1005     0.1752     2.3870
  140.0000     5.6949     5.6803   136.0855     6.6009     0.0825     0.1739     2.3884
  140.5000     5.8214     5.8476   144.4836     6.6022     0.0677     0.1621     2.4060
  141.0000     5.9096     5.9016   155.8712     6.6036     0.0482     0.1561     2.4206
  141.5000     5.9167     6.0261   160.3829     6.6049     0.0363     0.1488     2.4295
  142.0000     5.9238     6.0341   157.1218     6.5764     0.0606     0.1473     2.4333
  142.5000     5.9308     6.0002   138.9130     6.5778     0.0984     0.1442     2.4386
  143.0000     5.9379     6.0082   135.9440     6.6090     0.1152     0.1406     2.4447
  143.5000     5.9450     5.9334   141.3595     6.6253     0.1108     0.1387     2.4478
  144.0000     5.9521     5.9414   146.9696     6.6566     0.1044     0.1429     2.4441
  144.5000     5.9593     5.9082   151.0364     6.5982     0.0928     0.1492     2.4269
  145.0000     5.9664     5.9161   154.6288     6.5693     0.0809     0.1569     2.4149
  145.5000     5.9721     5.9240   160.2962     6.5710     0.0631     0.1603     2.4105
  146.0000     5.9791     5.9731   166.6016     6.5873     0.0514     0.1584     2.4143
  146.5000     6.0278     6.0645   172.0102     6.6036     0.0561     0.1545     2.4242
  147.0000     6.0780     6.2000   175.9240     6.6050     0.0623     0.1544     2.4228
  147.5000     6.1689     6.3386   176.8482     6.6213     0.0685     0.1592     2.4161
  148.0000     6.2192     6.3912   173.2881     6.6227     0.0704     0.1607     2.4101
  148.5000     6.2266     6.3534   162.2542     6.6238     0.0598     0.1591     2.4112
  149.0000     6.2341     6.2331   153.0141     6.6101     0.0494     0.1543     2.4205
  149.5000     6.1557     6.0290   135.4032     6.5957     0.0435     0.1473     2.4347
  150.0000     6.0437     5.9826   129.4447     6.5979     0.0625     0.1187     2.4578
  150.5000     5.8504     5.8550   137.8473     6.6293     0.0710     0.1150     2.4873
  151.0000     5.6446     5.7462   141.1631     6.6308     0.0696     0.1255     2.4753
  151.5000     5.4966     5.5282   145.0768     6.6323     0.0774     0.1339     2.4596
  152.0000     5.3509     5.4628   146.8979     6.6339     0.1001     0.1357     2.4506
  152.5000     5.4332     5.5448   144.8326     6.6354     0.1199     0.1278     2.4665
  153.0000     5.5921     5.7462   142.1693     6.6369     0.1141     0.1194     2.4809
  153.5000     5.9173     5.9964   139.5061     6.6533     0.1067     0.1160     2.4870
  154.0000     6.1327     6.4331   138.2840     6.6844     0.0963     0.1169     2.4848
  154.5000     6.2684     6.9017   137.1052     6.6709     0.1041     0.1181     2.4818
  155.0000     6.4966     7.1030   134.1604     6.6575     0.1359     0.1180     2.4812
  155.5000     6.7331     7.1105   130.6400     6.6146     0.1782     0.1164     2.4820
  156.0000     6.9300     7.0183   128.8736     6.5858     0.1935     0.1109     2.4934
  156.5000     6.9844     6.9291   132.1894     6.6026     0.1665     0.1059     2.5055
  157.0000     7.0407     6.9382   142.0822     6.6340     0.1110     0.1052     2.5026
  157.5000     7.0485     6.9456   152.2740     6.6057     0.0852     0.1076     2.4918
  158.0000     7.0076     6.8555   162.1668     6.5919     0.0795     0.1178     2.4752
  158.5000     6.8712     6.7127   168.7711     6.5934     0.0737     0.1316     2.4611
  159.0000     6.6908     6.5845   169.9874     6.5949     0.0620     0.1391     2.4485
  159.5000     6.5156     6.4171   160.7540     6.5964     0.0667     0.1445     2.4337
  160.0000     6.4761     6.4239   152.4107     6.5979     0.0729     0.1505     2.4202
  160.5000     6.4387     6.4307   155.7265     6.5994     0.0776     0.1598     2.4127
