~VERSION INFORMATION
 VERS.                2.0:   CWLS LOG ASCII STANDARD - VERSION 2.0
 WRAP.                 NO:   ONE LINE PER DEPTH STEP
~WELL INFORMATION
#MNEM.UNIT      DATA TYPE    INFORMATION
#----------   ------------   ------------------------------
 STRT.F          149.5000:   START DEPTH
 STOP.F          864.5000:   STOP DEPTH
 STEP.F            0.5000:   STEP LENGTH
 NULL.          -999.2500:   NO VALUE
 COMP. U S NAVY/INTEX OIL CO:   COMPANY
 WELL.    NPR #3 #78-S-27:   WELL
 FLD .             TEAPOT:   FIELD
 LOC .      S27 T39N R78W:   LOCATION
 CNTY.            NATRONA:   COUNTY
 STAT.            WYOMING:   STATE
 CTRY. UNITED STATES OF AMERICA:   COUNTRY
 SRVC. Schlumberger Well Surveying Corp:   SERVICE COMPANY
 DATE.        25-FEB-1961:   LOGDATE
 API .       490250657800:   API NUMBER
~CURVE INFORMATION
#MNEM.UNIT       API CODE    CURVE DESCRIPTION
#----------   ------------   ------------------------------
 DEPT.F                  :   
 SPR .MV     05 010 01 00:   SPONTANEOUS POTENTIAL FROM RES.
 CILD.MMHO   05 110 46 00:   CONDUCTIVITY INDUCTION LOG DEEP
 ASN .OHMM   05 041 16 00:   AMPLIFIED SHORT NORMAL 16"
 ILD .OHMM   05 120 46 00:   INDUCTION LOG DEEP
 GR  .GAPI   81 310 01 00:   GAMMA RAY
~PARAMETER INFORMATION
#MNEM.UNIT          VALUE    DESCRIPTION
#----------   ------------   ------------------------------
 PD  .                 GL:   PERMANENT DATUM
 EPD .F              5038:   ELEVATION PERMANENT DATUM
 LMF .                 KB:   LOG MEASURED FROM
 DAPD.F                 4:   FEET ABOVE PERMANENT DATUM
 DMF .                 KB:   DRILLING MEASURED FROM
 EKB .F              5042:   KELLING BUSHING
 EGL .F              5038:   GROUND LEVEL
 DATE.            2-25-61:   RUN DATE
 RUN .                  1:   RUN NUMBER
 DD  .F               865:   DEPTH DRILLER
 DL  .F               869:   DEPTH LOGGER
 BLI .F               864:   BOTTOM LOG INTERVAL
 TLI .F               150:   TOP LOG INTERVAL
 CBD .F                12:   CASING BOTTOM DRILLER
 BS  .IN            7.875:   BIT SIZE
 BSD .F               865:   BIT SIZE AT DEPTH
 DFT .       OIL EMULSION:   DRILLING FLUID TYPE
 DFD .               10.2:   DRILLING FLUID DENSITY
 DFV .                 48:   DRILLING FLUID VISCOSITY
 DFPH.                8.5:   DRILLING FLUID PH
 DFL .               10.2:   DRILLING FLUID LOSS
 RMS .OHMM            1.7:   RESISTIVITY MUD SAMPLE
 MST .F                57:   MUD SAMPLE TEMPERATURE
 MFSS.                  C:   MUD FILTRATE SAMPLE SOURCE
 MCSS.                  C:   MUD CAKE SAMPLE SOURCE
 RMB .OHMM            1.3:   RESISTIVITY MUD AT BHT
 BHT .F                75:   BOTTOM HOLE TEMPERATURE
 TCS .HRS               1:   TIME CURCULATED STOPPED
 MRT .F                75:   MAXIMUM RECORDED TEMPERATURE
 LUN .               2572:   LOGGING UNIT NUMBER
 LUL .                 NC:   LOGGING UNIT LOCATION
 ENGI.             ROUSER:   RECORDING ENGINEER
 WITN.          JORGENSEN:   WITNESSED BY
 CLNT.            A2DTECH:   CLIENT CODE
 ORIG.       2", 5" PRINT:   ORIGIN OF DATA
 UWI .       490250657800:   UNIQUE WELL ID
 DICO. A2D Technologies, Inc.:   DIGITIZING COMPANY
~OTHER INFORMATION
~A   DEPT      SPR       CILD        ASN        ILD         GR   
# ...
  576.5000   -47.5925   131.6487     9.1395     7.7487  -999.2500
  577.0000   -47.8295   130.5945     9.1922     7.8421  -999.2500
  577.5000   -47.6466   129.5403     9.2379     7.8706  -999.2500
  578.0000   -47.3864   128.7575     9.2887     7.8635  -999.2500
  578.5000   -47.1303   128.7575     9.3110     7.8653  -999.2500
  579.0000   -46.8914   128.7575     9.3069     7.8675  -999.2500
  579.5000   -46.6027   128.7575     9.3084     7.8592  -999.2500
  580.0000   -46.7937   128.2009     9.2765     7.9309  -999.2500
  580.5000   -47.1916   127.0764     9.2806     8.0716  -999.2500
  581.0000   -47.5533   126.7535     9.3862     8.1956  -999.2500
  581.5000   -47.8532   125.1916     9.4887     8.3274  -999.2500
  582.0000   -47.4136   122.2150     9.6784     8.4555  -999.2500
  582.5000   -46.6839   119.2385     9.8577     8.5847  -999.2500
  583.0000   -46.2665   116.7335     9.9944     8.7149  -999.2500
  583.5000   -46.0706   115.1348    10.0633     8.8418  -999.2500
  584.0000   -45.9648   113.7548    10.1235     8.9761  -999.2500
  584.5000   -46.1589   112.3747    10.1402     9.0671  -999.2500
  585.0000   -46.5226   110.7214    10.1489     9.0664  -999.2500
  585.5000   -46.8727   110.7214    10.1671     9.0287  -999.2500
  586.0000   -47.2171   112.0430    10.1424     8.9778  -999.2500
  586.5000   -47.5831   113.1371    10.0418     8.9302  -999.2500
  587.0000   -47.3751   114.2312     9.9398     8.8808  -999.2500
  587.5000   -46.9506   115.3252     9.8419     8.8324  -999.2500
  588.0000   -46.6517   116.4193     9.7302     8.7833  -999.2500
  588.5000   -46.8687   117.5134     9.6610     8.7349  -999.2500
  589.0000   -47.1688   118.7375     9.6948     8.6858  -999.2500
  589.5000   -47.4865   118.7375     9.7680     8.6383  -999.2500
  590.0000   -47.4482   118.7375     9.8399     8.5877  -999.2500
  590.5000   -47.1037   118.7375     9.9216     8.5642  -999.2500
  591.0000   -46.7538   117.7537     9.9261     8.5836  -999.2500
  591.5000   -46.4368   116.3737     9.8613     8.6405  -999.2500
  592.0000   -46.8336   116.1293     9.8103     8.6688  -999.2500
  592.5000   -47.4443   116.8735     9.7524     8.6701  -999.2500
  593.0000   -47.9686   117.6176     9.7183     8.6335  -999.2500
  593.5000   -48.2188   118.3617     9.7059     8.5348  -999.2500
  594.0000   -47.9883   119.1059     9.6325     8.4429  -999.2500
  594.5000   -47.5867   119.8500     9.5255     8.3464  -999.2500
  595.0000   -47.2156   120.7415     9.4314     8.2532  -999.2500
  595.5000   -46.8551   121.6237     9.3356     8.1562  -999.2500
  596.0000   -46.4319   122.7237     9.2690     8.0731  -999.2500
  596.5000   -46.1671   123.8237     9.2719     8.0655  -999.2500
  597.0000   -46.2015   124.9238     9.2452     8.0675  -999.2500
  597.5000   -46.1825   125.7515     9.1583     8.0581  -999.2500
  598.0000   -46.1956   125.7515     9.0716     7.9128  -999.2500
  598.5000   -46.1842   127.2831     8.9792     7.7226  -999.2500
  599.0000   -46.1997   130.3207     8.8234     7.5430  -999.2500
  599.5000   -46.1730   134.1308     8.6699     7.3544  -999.2500
  600.0000   -46.3663   137.9409     8.5096     7.1942  -999.2500
  600.5000   -46.9468   141.7510     8.3116     7.0582  -999.2500
  601.0000   -47.1215   145.5611     8.0492     6.9199  -999.2500
  601.5000   -47.2717   149.7996     7.7601     6.7798  -999.2500
  602.0000   -47.3645   149.7996     7.5273     6.6461  -999.2500
  602.5000   -47.2257   152.1668     7.3720     6.5018  -999.2500
  603.0000   -46.9281   154.3499     7.3431     6.4626  -999.2500
  603.5000   -46.9997   156.8136     7.6008     6.4497  -999.2500
  604.0000   -47.7160   156.8136     7.9566     6.6002  -999.2500
  604.5000   -48.5203   150.8558     8.2668     6.8702  -999.2500
  605.0000   -49.0685   145.2788     8.4695     7.0982  -999.2500
  605.5000   -48.7718   139.7018     8.5800     7.3444  -999.2500
  606.0000   -48.3979   134.5090     8.7098     7.5781  -999.2500
  606.5000   -48.0388   130.7615     8.7908     7.7183  -999.2500
  607.0000   -47.6627   129.6617     8.8251     7.7635  -999.2500
  607.5000   -47.4014   128.7811     8.8690     7.7688  -999.2500
  608.0000   -47.4022   127.7555     8.8933     7.7655  -999.2500
  608.5000   -47.3575   129.3587     8.8655     7.7710  -999.2500
  609.0000   -46.8228   131.2779     8.8123     7.7498  -999.2500
  609.5000   -46.0319   132.7655     8.7528     7.6142  -999.2500
  610.0000   -45.9105   132.7655     8.6103     7.4876  -999.2500
  610.5000   -46.3262   132.7655     8.4823     7.3671  -999.2500
  611.0000   -46.5889   135.0294     8.3520     7.2342  -999.2500
  611.5000   -46.4538   140.5023     8.2225     6.9504  -999.2500
  612.0000   -46.0317   145.9752     8.0797     6.6900  -999.2500
  612.5000   -45.9895   151.4481     7.9548     6.4314  -999.2500
  613.0000   -45.9687   156.9209     7.7342     6.1670  -999.2500
  613.5000   -45.6410   162.3938     7.4428     5.9521  -999.2500
  614.0000   -45.2947   166.8337     7.1795     5.8110  -999.2500
  614.5000   -44.9235   170.3928     6.9565     5.6848  -999.2500
  615.0000   -44.8054   173.3868     6.9873     5.5678  -999.2500
  615.5000   -44.9093   175.8517     7.1701     5.5578  -999.2500
  616.0000   -44.9758   175.8517     7.5882     5.5681  -999.2500
  616.5000   -44.8201   169.7304     7.9985     5.8520  -999.2500
  617.0000   -44.6270   161.7918     8.3294     6.2626  -999.2500
  617.5000   -44.8154   153.7469     8.5133     6.6504  -999.2500
  618.0000   -45.0996   145.7710     8.6521     7.0466  -999.2500
  618.5000   -45.0539   139.9065     8.7697     7.2619  -999.2500
  619.0000   -44.9652   137.8814     8.8729     7.4783  -999.2500
  619.5000   -45.0150   135.8712     8.9795     7.5751  -999.2500
  620.0000   -44.8040   133.7321     9.0843     7.5673  -999.2500
  620.5000   -44.4804   132.5874     9.1899     7.6437  -999.2500
  621.0000   -44.2340   131.3484     9.2952     7.6721  -999.2500
  621.5000   -44.3911   130.1003     9.4006     7.7291  -999.2500
  622.0000   -44.6377   128.8524     9.5060     7.8017  -999.2500
  622.5000   -44.8592   127.6018     9.6109     7.8701  -999.2500
  623.0000   -45.0972   126.3537     9.7171     7.9409  -999.2500
  623.5000   -45.3147   125.1061     9.8132     8.0106  -999.2500
  624.0000   -45.4146   123.8582     9.9035     8.0808  -999.2500
  624.5000   -45.1905   122.6089     9.9826     8.1512  -999.2500
  625.0000   -44.7995   121.3677    10.0409     8.2207  -999.2500
  625.5000   -44.9497   120.1202    10.0857     8.2921  -999.2500
  626.0000   -45.2505   119.7395    10.1328     8.3600  -999.2500
  626.5000   -45.5009   119.7395    10.1666     8.4350  -999.2500
  627.0000   -45.6115   119.7395    10.1766     8.4713  -999.2500
  627.5000   -45.4813   119.7395    10.1206     8.4649  -999.2500
  628.0000   -45.2041   119.7395    10.0251     8.4467  -999.2500
  628.5000   -45.2616   119.7395     9.9354     8.4171  -999.2500
  629.0000   -45.4115   119.7395     9.8184     8.3951  -999.2500
  629.5000   -45.3568   121.4356     9.6863     8.3533  -999.2500
  630.0000   -45.0588   123.0233     9.5599     8.1863  -999.2500
  630.5000   -44.5741   124.6110     9.4191     8.0149  -999.2500
  631.0000   -44.4869   126.1988     9.2725     7.8411  -999.2500
  631.5000   -44.8045   128.3768     9.0839     7.6754  -999.2500
  632.0000   -45.0615   130.8717     8.8257     7.4933  -999.2500
  632.5000   -45.3634   134.7233     8.5387     7.3466  -999.2500
  633.0000   -45.3913   139.3294     8.1391     7.0793  -999.2500
  633.5000   -45.3971   143.7876     7.7430     6.7464  -999.2500
  634.0000   -45.3558   153.8076     7.2173     6.2882  -999.2500
  634.5000   -45.0913   166.9430     6.6149     5.6185  -999.2500
  635.0000   -44.8332   182.8202     6.0118     4.9684  -999.2500
  635.5000   -44.7732   210.4810     5.2964     4.3036  -999.2500
  636.0000   -44.8425   245.4108     4.9061     3.6688  -999.2500
  636.5000   -45.3513   280.0601     4.4264     3.2306  -999.2500
  637.0000   -45.3478   306.8871     3.8821     2.7880  -999.2500
