~VERSION INFORMATION
 VERS.                2.0:   CWLS LOG ASCII STANDARD - VERSION 2.0
 WRAP.                 NO:   ONE LINE PER DEPTH STEP
~WELL INFORMATION
#MNEM.UNIT      DATA TYPE    INFORMATION
#----------   ------------   ------------------------------
 STRT.F           12.5000:   START DEPTH
 STOP.F          688.0000:   STOP DEPTH
 STEP.F            0.5000:   STEP LENGTH
 NULL.          -999.2500:   NO VALUE
 COMP. FENIX & SCISSON INC:   COMPANY
 WELL. 26-66 SX 11 WO #26-11:   WELL
 FLD .             TEAPOT:   FIELD
 LOC .      S11 T38N R78W:   LOCATION
 CNTY.            NATRONA:   COUNTY
 STAT.            WYOMING:   STATE
 CTRY. UNITED STATES OF AMERICA:   COUNTRY
 SRVC.      Dresser Atlas:   SERVICE COMPANY
 DATE.        28-AUG-1980:   LOGDATE
 API .       490251084700:   API NUMBER
~CURVE INFORMATION
#MNEM.UNIT       API CODE    CURVE DESCRIPTION
#----------   ------------   ------------------------------
 DEPT.F                  :   
 SFL .OHMM   07 220 01 00:   SHALLOW FOCUSED LOG RESISTIVITY
 ILD .OHMM   07 120 46 00:   INDUCTION LOG DEEP
 ILM .OHMM   07 120 44 00:   INDUCTION LOG MEDIUM
 SPR .MV     07 010 01 00:   SPONTANEOUS POTENTIAL
 CORR.G/C3   45 356 01 00:   DENSITY CORRECTION
 RHOB.G/C3   45 350 01 00:   BULK DENSITY
 DPOR.DEC    45 890 12 00:   DENSITY POROSITY SANDSTONE
 NPOR.DEC    42 890 03 00:   NEUTRON POROSITY SANDSTONE
 GRD .GAPI   45 310 01 00:   GAMMA RAY FROM DENSITY LOG
~PARAMETER INFORMATION
#MNEM.UNIT          VALUE    DESCRIPTION
#----------   ------------   ------------------------------
 PD  .                 GL:   PERMANENT DATUM
 EPD .F              5194:   ELEVATION PERMANENT DATUM
 LMF .                 KB:   LOG MEASURED FROM
 DAPD.F                 5:   FEET ABOVE PERMANENT DATUM
 DMF .                 KB:   DRILLING MEASURED FROM
 EKB .F              5199:   KELLING BUSHING
 EGL .F              5194:   GROUND LEVEL
 DATE.          8-28-1980:   RUN DATE
 RUN .                  1:   RUN NUMBER
 DD  .F               700:   DEPTH DRILLER
 DL  .F               689:   DEPTH LOGGER
 BLI .F               688:   BOTTOM LOG INTERVAL
 TLI .F                14:   TOP LOG INTERVAL
 BS  .IN             8.75:   BIT SIZE
 BSD .F               700:   BIT SIZE AT DEPTH
 DFT .                KCL:   DRILLING FLUID TYPE
 DFD .                8.8:   DRILLING FLUID DENSITY
 DFV .                 55:   DRILLING FLUID VISCOSITY
 DFPH.                 11:   DRILLING FLUID PH
 DFL .                  8:   DRILLING FLUID LOSS
 MSS .           FLOWLINE:   MUD SAMPLE SOURCE
 RMS .OHMM            .72:   RESISTIVITY MUD SAMPLE
 MST .F                66:   MUD SAMPLE TEMPERATURE
 RMF .OHMM            .21:   RESISTIVITY MUD FILTRATE SAMPLE
 MFST.F                66:   MUD FILTRATE SAMPLE TEMPERATURE
 RMC .OHMM           1.24:   RESISTIVITY MUD CAKE
 MCST.F                66:   MUD CAKE SAMPLE TEMPERATURE
 MFSS.               MEAS:   MUD FILTRATE SAMPLE SOURCE
 MCSS.               MEAS:   MUD CAKE SAMPLE SOURCE
 BHT .F               100:   BOTTOM HOLE TEMPERATURE
 TCS .HRS               2:   TIME CURCULATED STOPPED
 MRT .F               100:   MAXIMUM RECORDED TEMPERATURE
 LUN .               6240:   LOGGING UNIT NUMBER
 LUL .               RYTN:   LOGGING UNIT LOCATION
 ENGI.           J. GETTY:   RECORDING ENGINEER
 WITN.              FIVAS:   WITNESSED BY
 CLNT.            A2DTECH:   CLIENT CODE
 ORIG.      1" 2.5" PRINT:   ORIGIN OF DATA
 UWI .       490251084700:   UNIQUE WELL ID
 DICO. A2D Technologies, Inc.:   DIGITIZING COMPANY
~OTHER INFORMATION
~A   DEPT      SFL        ILD        ILM        SPR       CORR       RHOB       DPOR         NPOR      GRD   
# ...
  633.0000    10.4538    10.0310     9.6229   -71.5462     0.0395     2.4531     0.1291     0.2371   116.4791
  633.5000    10.4548     9.9449     9.5534   -72.4443     0.0273     2.4666     0.1327     0.2456   116.7141
  634.0000    10.4555     9.8595     9.4843   -73.3421     0.0136     2.4523     0.1418     0.2568   116.7583
  634.5000    10.4558     9.7751     9.4088   -74.2587    -0.0011     2.4274     0.1504     0.2677   118.0941
  635.0000    10.4561     9.7011     9.3477   -75.1841     0.0019     2.4390     0.1379     0.2669   122.1464
  635.5000    10.4563     9.0236     8.6587   -76.0956     0.0201     2.4789     0.1175     0.2661   126.2755
  636.0000    10.3987     8.4544     8.0821   -76.8253     0.0377     2.5282     0.0921     0.2725   128.6422
  636.5000    10.3098     7.9212     7.5444   -77.1356     0.0536     2.5139     0.0998     0.2823   126.2520
  637.0000    10.2196     7.4214     7.0428   -76.9596     0.0582     2.4815     0.1147     0.2980   122.6033
  637.5000    10.1284     6.9529     6.5746   -76.5476     0.0498     2.4598     0.1283     0.3016   122.8261
  638.0000     9.5891     6.5136     6.1373   -76.1298     0.0375     2.4486     0.1394     0.3056   126.8754
  638.5000     8.0255     6.1022     5.7257   -75.7243     0.0259     2.4221     0.1638     0.3259   132.9588
  639.0000     6.7201     5.5673     5.3436   -75.3161     0.0144     2.3696     0.1825     0.3488   139.0658
  639.5000     5.9916     5.0751     4.9820   -74.9067     0.0022     2.3764     0.1676     0.3133   145.2926
  640.0000     5.7799     5.0755     4.8906   -74.5001    -0.0059     2.4365     0.1401     0.2858   143.8732
  640.5000     7.1612     5.5717     5.1501   -74.0895     0.0119     2.4904     0.1127     0.2630   135.6740
  641.0000    10.6510     6.1863     5.6825   -73.8920     0.0392     2.5262     0.0941     0.2637   128.4433
  641.5000    10.6121     6.8683     6.2700   -73.7799     0.0392     2.5289     0.0901     0.2637   122.1361
  642.0000    10.4973     7.6280     6.9182   -73.6728     0.0372     2.5273     0.0892     0.2494   117.1413
  642.5000    10.3837     8.4701     7.6334   -73.5739     0.0342     2.5226     0.0956     0.2606   115.2012
  643.0000    10.2713     9.3551     8.4226   -73.6420     0.0323     2.5208     0.0956     0.2672   114.4873
  643.5000    10.1601     9.3864     8.7475   -73.7025     0.0340     2.5451     0.0825     0.2693   115.8190
  644.0000    10.0750     9.4162     8.8492   -73.7706     0.0603     2.5661     0.0657     0.2653   117.5064
  644.5000    10.0750     9.4462     8.9008   -73.8389     0.0896     2.5915     0.0518     0.2519   119.0904
  645.0000    10.0750     9.4762     9.0058   -73.8970     0.0766     2.5538     0.0733     0.2391   121.5924
  645.5000    10.0750     9.5063     9.1119   -73.9629     0.0558     2.5054     0.0981     0.2335   124.8765
  646.0000    10.0750     9.5301     9.2184   -73.7353     0.0331     2.4818     0.1203     0.2461   128.1943
  646.5000    10.3140     9.6542     9.3274   -73.4815     0.0244     2.4901     0.1096     0.2614   131.0843
  647.0000    10.6037     9.8029     9.3663   -73.2139     0.0448     2.5185     0.0945     0.2621   131.7752
  647.5000    10.9015     9.9538     9.3962   -72.9578     0.0675     2.5461     0.0794     0.2573   131.4793
  648.0000    11.2599    10.1071     9.4261   -72.7907     0.0735     2.5814     0.0605     0.2526   131.1546
  648.5000    11.3966    10.2628     9.4561   -72.9610     0.0651     2.5718     0.0689     0.2526   132.5485
  649.0000    11.5632    10.4208     9.4861   -73.1279     0.0579     2.5395     0.0919     0.2526   136.4998
  649.5000    11.7404    10.5813     9.5162   -72.7257     0.0515     2.5068     0.1101     0.2353   138.5642
  650.0000    11.9425    10.7442     9.5465   -72.3255     0.0447     2.4977     0.1108     0.2271   138.2480
  650.5000    12.1480    10.9096     9.5768   -71.9048     0.0472     2.5058     0.1062     0.2295   135.3308
  651.0000    12.3570    11.0776     9.6072   -71.4844     0.0509     2.5130     0.1004     0.2781   130.7430
  651.5000    12.5841    11.2599     9.6377   -71.0673     0.0547     2.5186     0.0946     0.2850   125.9014
  652.0000    12.5841    11.2709     9.6683   -70.6530     0.0562     2.5266     0.0900     0.2903   122.3552
  652.5000    12.5841    11.2902     9.6990   -70.2947     0.0455     2.5122     0.0966     0.2928   120.7258
  653.0000    12.5841    11.3095     9.7298   -70.2412     0.0319     2.4912     0.1122     0.2993   124.7947
  653.5000    12.5841    11.3289     9.7606   -70.1904     0.0177     2.4779     0.1217     0.2991   129.0857
  654.0000    12.4681    11.3487     9.7916   -70.1454     0.0108     2.4744     0.1243     0.2988   132.4195
  654.5000    11.9970    11.3680     9.8227   -70.1010     0.0153     2.4649     0.1299     0.2983   131.6548
  655.0000    11.9036    11.3874     9.8539   -70.0553     0.0263     2.4857     0.1235     0.2825   127.1643
  655.5000    12.1075    11.4067     9.8852   -70.0091     0.0318     2.5113     0.1004     0.2662   122.4528
  656.0000    12.3003    11.4263     9.9166   -69.9628     0.0159     2.5066     0.1009     0.2435   118.5960
  656.5000    12.4962    11.4459     9.9481   -69.9211    -0.0004     2.4802     0.1157     0.2271   115.5003
  657.0000    12.6952    11.4656     9.9796   -69.8843    -0.0178     2.4581     0.1332     0.2315   114.8895
  657.5000    12.9538    11.4294    10.0113   -69.9774    -0.0327     2.4342     0.1506     0.2490   115.5323
  658.0000    12.5608    11.3745    10.0431   -70.0621    -0.0135     2.4168     0.1557     0.2664   116.3862
  658.5000    12.1797    11.3199    10.0750   -70.1486     0.0159     2.4490     0.1430     0.2749   116.3857
  659.0000    11.8102    11.2656    10.1070   -70.2308     0.0472     2.4907     0.1157     0.2757   119.1660
  659.5000    11.4705    11.2115    10.1391   -70.4387     0.0658     2.5338     0.0884     0.2645   119.4764
  660.0000    11.6144    11.1576    10.1713   -70.8242     0.0638     2.5515     0.0797     0.2502   119.8024
  660.5000    11.7574    11.1040    10.2036   -71.2003     0.0534     2.5363     0.0822     0.2494   120.7331
  661.0000    11.8972    11.0507    10.2359   -71.5071     0.0376     2.5228     0.0932     0.2591   122.8993
  661.5000    12.1227    10.9976    10.2685   -71.5090     0.0218     2.4975     0.1077     0.2721   125.1160
  662.0000    12.0547    10.9448    10.3012   -71.5173     0.0083     2.4645     0.1240     0.2813   126.4323
  662.5000    11.8498    10.8922    10.3341   -71.5156     0.0050     2.4468     0.1387     0.2813   127.5508
  663.0000    11.6758    10.8341    10.3672   -71.4282     0.0011     2.4500     0.1363     0.2698   124.4064
  663.5000    11.6159    10.7526    10.4004   -71.0211    -0.0009     2.4474     0.1385     0.2598   123.3495
  664.0000    11.5565    10.6717    10.4487   -70.6181    -0.0021     2.4456     0.1402     0.2669   126.5471
  664.5000    11.4974    10.5914    10.4118   -70.2099     0.0276     2.4797     0.1262     0.2914   132.7624
  665.0000    11.3410    10.5118    10.2686   -69.8000     0.0559     2.5248     0.0990     0.2988   137.2572
  665.5000    11.1192    10.4325    10.1271   -69.3920     0.0764     2.5711     0.0717     0.2901   135.5378
  666.0000    10.9015    10.3536     9.9881   -68.9849     0.0753     2.5903     0.0534     0.2751   132.4340
  666.5000    10.6882    10.2744     9.8510   -68.5755     0.0641     2.5850     0.0568     0.2635   131.0090
  667.0000    10.4528    10.1946     9.7160   -68.1626     0.0526     2.5854     0.0598     0.2548   129.7798
  667.5000    10.5633    10.1145     9.5830   -67.8233     0.0451     2.5900     0.0548     0.2502   126.7945
  668.0000    10.7591    10.0346     9.4517   -67.6223     0.0518     2.5874     0.0534     0.2575   118.9395
  668.5000    10.9619     9.9560     9.3222   -67.4499     0.0422     2.5487     0.0700     0.2757   113.6685
  669.0000    11.2599     9.8740     9.1848   -67.2745     0.0246     2.5168     0.1004     0.2988   120.2459
