~VERSION INFORMATION
 VERS.                2.0:   CWLS LOG ASCII STANDARD - VERSION 2.0
 WRAP.                 NO:   ONE LINE PER DEPTH STEP
~WELL INFORMATION
#MNEM.UNIT      DATA TYPE    INFORMATION
#----------   ------------   ------------------------------
 STRT.F            0.0000:   START DEPTH
 STOP.F         2230.0000:   STOP DEPTH
 STEP.F            0.5000:   STEP LENGTH
 NULL.          -999.2500:   NO VALUE
 COMP. LAWRENCE/ALLISON INC:   COMPANY
 WELL. NPR 3 SH X 34 #48-34:   WELL
 FLD .            WILDCAT:   FIELD
 LOC .      S34 T39N R78W:   LOCATION
 CNTY.            NATRONA:   COUNTY
 STAT.            WYOMING:   STATE
 CTRY. UNITED STATES OF AMERICA:   COUNTRY
 SRVC.            Unknown:   SERVICE COMPANY
 DATE.        02-SEP-1991:   LOGDATE
 API .       490251110600:   API NUMBER
~CURVE INFORMATION
#MNEM.UNIT       API CODE    CURVE DESCRIPTION
#----------   ------------   ------------------------------
 DEPT.F                  :   
 ROP .MIN/FT 91 810 01 00:   RAT OF DRILLING PENETRATION
 TGAS.UNITS  91 830 01 00:   TOTAL GAS FROM HOTWIRE
 C1  .VF     91 831 01 00:   METHANE
 C2  .VF     91 832 01 00:   ETHANE
 C3  .VF     91 833 01 00:   PROPANE
 C4  .VF     91 834 01 00:   BUTANE
 TT  .US/F   81 520 00 00:   TRANSIT TIME
 GR  .GAPI   81 310 01 00:   GAMMA RAY FROM CEMENT BOND LOG
~PARAMETER INFORMATION
#MNEM.UNIT          VALUE    DESCRIPTION
#----------   ------------   ------------------------------
 EKB .F              5145:   KELLING BUSHING
 EGL .F              5135:   GROUND LEVEL
 DATE.          09-2-1991:   RUN DATE
 RUN .                  1:   RUN NUMBER
 BLI .F              2400:   BOTTOM LOG INTERVAL
 TLI .F              2200:   TOP LOG INTERVAL
 ENGI.           C. TOWER:   RECORDING ENGINEER
 WITN.            R. HUSK:   WITNESSED BY
 CLNT.            A2DTECH:   CLIENT CODE
 ORIG.           5" PRINT:   ORIGIN OF DATA
 UWI .       490251110600:   UNIQUE WELL ID
 DICO. A2D Technologies, Inc.:   DIGITIZING COMPANY
~OTHER INFORMATION
~A    DEPT     ROP       TGAS         C1         C2         C3         C4          TT         GR  
# ...
 2187.0000     0.5326  -999.2500   396.7556   406.8182  -999.2500  -999.2500  -999.2500  -999.2500
 2187.5000     0.5326  -999.2500   496.3069   406.8754  -999.2500  -999.2500  -999.2500  -999.2500
 2188.0000     0.5326  -999.2500   595.7422   406.6741   310.1989  -999.2500  -999.2500  -999.2500
 2188.5000     0.5326  -999.2500   695.1777   390.7358   299.2405  -999.2500  -999.2500  -999.2500
 2189.0000     0.5326  -999.2500   794.6130   374.2821   288.2821  -999.2500  -999.2500  -999.2500
 2189.5000     0.5326  -999.2500   900.6277   357.8035   277.4568  -999.2500  -999.2500  -999.2500
 2190.0000     0.5326  -999.2500   895.1937   341.2663   261.5222  -999.2500  -999.2500  -999.2500
 2190.5000     0.5326  -999.2500   884.3257   325.6103   266.5956  -999.2500  -999.2500  -999.2500
 2191.0000     0.5326  1583.8260   873.4577   319.4833   283.2527  -999.2500  -999.2500  -999.2500
 2191.5000     0.5326  1576.6902   862.5988   318.4106   299.5627  -999.2500  -999.2500  -999.2500
 2192.0000     0.5326  1569.5543   851.6935   317.3272   315.8343  -999.2500  -999.2500  -999.2500
 2192.5000     0.5326  1562.4185   840.8926   316.1113   332.1059  -999.2500  -999.2500  -999.2500
 2193.0000     0.5326  1555.2826   829.9800   314.9161   348.3774  -999.2500  -999.2500  -999.2500
 2193.5000     0.5326  1548.1456   821.3215   313.7142   364.8462  -999.2500  -999.2500  -999.2500
 2194.0000     0.5326  1541.0068   812.2466   312.5154   369.4005  -999.2500  -999.2500  -999.2500
 2194.5000     0.5326  1533.8932   803.2436   311.3440   374.8140  -999.2500  -999.2500  -999.2500
 2195.0000     0.5326  1526.8096   794.2296   310.1330   380.3137  -999.2500  -999.2500  -999.2500
 2195.5000     0.5326  1519.6053   785.2156   308.9485   385.7789  -999.2500  -999.2500  -999.2500
 2196.0000     0.5326  1512.2430   776.2056   307.7670   391.0154  -999.2500  -999.2500  -999.2500
 2196.5000     0.5326  1504.9126   767.2180   306.5861   390.7117  -999.2500  -999.2500  -999.2500
 2197.0000     0.5326  1497.6073   758.3955   305.4049   390.2643  -999.2500  -999.2500  -999.2500
 2197.5000     0.5326  1490.3000   748.9582   304.2237   389.8564  -999.2500  -999.2500  -999.2500
 2198.0000     0.5326  1482.9918   739.6711   303.0425   389.4308  -999.2500  -999.2500  -999.2500
 2198.5000     0.5326  1475.6835   730.5526   301.8614   389.0058  -999.2500  -999.2500  -999.2500
 2199.0000     0.5326  1468.3752   723.2545   300.6803   388.5808  -999.2500  -999.2500  -999.2500
 2199.5000     0.5326  1461.0669   714.4168   299.4989   388.1559  -999.2500  -999.2500  -999.2500
 2200.0000     0.5326  1453.7587   705.5555   298.3176   387.7308  -999.2500  -999.2500  -999.2500
 2200.5000     0.5326  1446.4503   696.6811   297.1072   387.3058  -999.2500  -999.2500  -999.2500
 2201.0000     0.5326  1439.1420   687.8084   295.8677   386.8809  -999.2500  -999.2500  -999.2500
 2201.5000     0.5326  1431.8337   678.9367   294.6282   386.4558  -999.2500  -999.2500  -999.2500
 2202.0000     0.5326  1424.5254   670.0649   293.3885   386.0309  -999.2500  -999.2500  -999.2500
 2202.5000     0.5322  1417.2172   661.1932   292.1488   385.6059  -999.2500  -999.2500  -999.2500
 2203.0000     0.5308  1409.9088   652.3215   290.9091   385.1808  -999.2500  -999.2500  -999.2500
 2203.5000     0.5295  1402.6006   643.4498   289.6694   384.7550  -999.2500  -999.2500  -999.2500
 2204.0000     0.5281  1395.2922   634.5781   288.4298   384.3277  -999.2500  -999.2500  -999.2500
 2204.5000     0.5268  1387.9840   625.7064   287.1903   383.9049  -999.2500  -999.2500  -999.2500
 2205.0000     0.5254  1380.6757   616.8347   285.9500   383.6846  -999.2500  -999.2500  -999.2500
 2205.5000     0.5241  1373.3673   607.9628   284.7098   384.6503  -999.2500  -999.2500  -999.2500
 2206.0000     0.5227  1366.0591   599.0911   283.3568   385.6205  -999.2500  -999.2500  -999.2500
 2206.5000     0.5214  1358.7507   590.2188   281.8911   386.5868  -999.2500  -999.2500  -999.2500
 2207.0000     0.5200  1351.4425   581.3499   280.4254   387.5533  -999.2500  -999.2500  -999.2500
 2207.5000     0.5186  1344.1342   572.3314   278.9590   388.5195  -999.2500  -999.2500  -999.2500
 2208.0000     0.5173  1336.8259   563.2319   277.4927   389.4857  -999.2500  -999.2500  -999.2500
 2208.5000     0.5159  1329.5176   554.1313   276.0264   390.4518  -999.2500  -999.2500  -999.2500
 2209.0000     0.5146  1322.2094   545.0305   274.5601   391.4180  -999.2500  -999.2500  -999.2500
 2209.5000     0.5132  1314.9010   535.9299   273.0938   392.3842  -999.2500  -999.2500  -999.2500
 2210.0000     0.5119  1307.5928   526.8293   271.6276   393.3504  -999.2500  -999.2500  -999.2500
 2210.5000     0.5104  1300.2844   517.7266   270.1609   394.3166  -999.2500  -999.2500  -999.2500
 2211.0000     0.5087  1292.9761   508.6315   268.6930   395.2851  -999.2500  -999.2500  -999.2500
 2211.5000     0.5079  1285.6678   499.5346   267.2306   396.2577  -999.2500  -999.2500  -999.2500
 2212.0000     0.5397  1278.3595   490.2475   265.9095   397.2102  -999.2500  -999.2500  -999.2500
 2212.5000     0.7280  1271.0513   478.3598   264.7120   398.1415  -999.2500  -999.2500  -999.2500
 2213.0000     0.9157  1263.7429   466.2238   263.4014   395.6443  -999.2500  -999.2500  -999.2500
 2213.5000     1.1036  1256.4347   454.0887   261.9860   388.3441  -999.2500  -999.2500  -999.2500
 2214.0000     1.3027  1249.1263   441.9398   258.9173   381.0902  -999.2500  -999.2500  -999.2500
 2214.5000     1.1524  1241.8181   429.8255   249.5365   373.8186  -999.2500  -999.2500  -999.2500
 2215.0000     1.0033  1234.5098   417.3395   240.4373   366.5461  -999.2500  -999.2500  -999.2500
 2215.5000     0.9018  1227.2015   407.6574   233.8452   359.2798  -999.2500  -999.2500  -999.2500
 2216.0000     0.7993  1219.8932   397.8459   227.4197   352.0136  -999.2500  -999.2500  -999.2500
 2216.5000     0.7997  1212.5848   387.9907   221.2795   344.7333  -999.2500  -999.2500  -999.2500
 2217.0000     0.8070  1205.2766   378.1335   216.4381   337.9213  -999.2500  -999.2500  -999.2500
 2217.5000     0.8141  1197.9685   368.2777   211.2412   334.0252  -999.2500  -999.2500  -999.2500
 2218.0000     0.8214  1190.6609   358.4013   208.8348   330.3326  -999.2500  -999.2500  -999.2500
 2218.5000     0.7877  1183.3485   349.0321   206.3408   326.6459  -999.2500  -999.2500  -999.2500
 2219.0000     0.7119  1176.0311   340.1282   203.9762   322.9569  -999.2500  -999.2500  -999.2500
 2219.5000     0.6378  1168.6575   331.2175   202.1057   319.2446  -999.2500  -999.2500  -999.2500
 2220.0000     0.5586  1161.2319   322.3037   199.1412   315.6405  -999.2500  -999.2500  -999.2500
 2220.5000     0.5466  1153.8003   313.3901   196.2364   311.7237  -999.2500  -999.2500  -999.2500
 2221.0000     0.5498  1146.3652   304.4764   193.3565   306.7754  -999.2500  -999.2500  -999.2500
 2221.5000     0.5532  1138.9307   295.5627   190.4823   301.7993  -999.2500  -999.2500  -999.2500
 2222.0000     0.5565  1131.4958   286.6490   187.6066   296.8188  -999.2500  -999.2500  -999.2500
 2222.5000     0.5598  1124.0577   277.7353   184.7312   291.8419  -999.2500  -999.2500  -999.2500
 2223.0000     0.5629  1116.6296   268.8216   181.8555   286.8679  -999.2500  -999.2500  -999.2500
 2223.5000     0.5657  1109.2520   259.9079   178.9790   281.8701  -999.2500  -999.2500  -999.2500
 2224.0000     0.5689  1102.1705   250.9942   176.1108   277.2787  -999.2500  -999.2500  -999.2500
 2224.5000     0.6547  1093.1434   242.0805   172.6860   273.5555  -999.2500  -999.2500  -999.2500
 2225.0000     0.9522  1084.5548   233.1698   168.9398   269.3330  -999.2500  -999.2500  -999.2500
 2225.5000     1.2488  1076.0396   224.2302   165.1903   265.0797  -999.2500  -999.2500  -999.2500
 2226.0000     1.5411  1067.5000   215.3830   161.4391   260.8276  -999.2500  -999.2500  -999.2500
 2226.5000     1.5254  1058.9596   206.9124   157.6938   256.5774  -999.2500  -999.2500  -999.2500
 2227.0000     1.4627  1050.4924   195.9008   153.9418   252.3272  -999.2500  -999.2500  -999.2500
