~VERSION INFORMATION
 VERS.                2.0:   CWLS LOG ASCII STANDARD - VERSION 2.0
 WRAP.                 NO:   ONE LINE PER DEPTH STEP
~WELL INFORMATION
#MNEM.UNIT      DATA TYPE    INFORMATION
#----------   ------------   ------------------------------
 STRT.F          520.5000:   START DEPTH
 STOP.F         3119.5000:   STOP DEPTH
 STEP.F            0.5000:   STEP LENGTH
 NULL.          -999.2500:   NO VALUE
 COMP.   FLUOR DANIEL INC:   COMPANY
 WELL. NAVAL PETROLEUM RESERVE 3 X-10 #52-10:   WELL
 FLD .            WILDCAT:   FIELD
 LOC .      S10 T38N R78W:   LOCATION
 CNTY.            NATRONA:   COUNTY
 STAT.            WYOMING:   STATE
 CTRY. UNITED STATES OF AMERICA:   COUNTRY
 SRVC.            Unknown:   SERVICE COMPANY
 DATE.        16-AUG-1995:   LOGDATE
 API .       490252275200:   API NUMBER
~CURVE INFORMATION
#MNEM.UNIT       API CODE    CURVE DESCRIPTION
#----------   ------------   ------------------------------
 DEPT.F                  :   
 ROP .MIN/FT 91 810 01 00:   RAT OF DRILLING PENETRATION
 TGAS.UNITS  91 830 01 00:   TOTAL GAS FROM HOTWIRE
~PARAMETER INFORMATION
#MNEM.UNIT          VALUE    DESCRIPTION
#----------   ------------   ------------------------------
 EKB .F              5206:   KELLING BUSHING
 EGL .F              5196:   GROUND LEVEL
 DATE.            8-16-95:   RUN DATE
 DD  .F              3120:   DEPTH DRILLER
 CS  .IN            9.625:   CASING SIZE
 CBD .F               508:   CASING BOTTOM DRILLER
 BS  .IN             8.75:   BIT SIZE
 BSD .F              3120:   BIT SIZE AT DEPTH
 ENGI.               HUSK:   RECORDING ENGINEER
 WITN.              TOWER:   WITNESSED BY
 CLNT.            A2DTECH:   CLIENT CODE
 ORIG.           5" PRINT:   ORIGIN OF DATA
 UWI .       490252275200:   UNIQUE WELL ID
 DICO. A2D Technologies, Inc.:   DIGITIZING COMPANY
~OTHER INFORMATION
~A   DEPT        ROP     TGAS   
# ...
  885.0000     0.4158    23.6833
  885.5000     0.4158    23.6861
  886.0000     0.4264    23.6889
  886.5000     0.4264    23.6917
  887.0000     0.4371    23.6944
  887.5000     0.4371    23.6972
  888.0000     0.4478    23.7000
  888.5000     0.4478    23.7028
  889.0000     0.4478    23.7056
  889.5000     0.4478    23.7084
  890.0000     0.4486    23.7111
  890.5000     0.4371    23.7139
  891.0000     0.4158    23.7167
  891.5000     0.4158    23.7195
  892.0000     0.4051    23.7223
  892.5000     0.3945    23.7251
  893.0000     0.3945    23.7278
  893.5000     0.3838    23.7306
  894.0000     0.3731    23.7334
  894.5000     0.3731    23.7362
  895.0000     0.3731    23.7390
  895.5000     0.3731    23.7418
  896.0000     0.3731    23.7445
  896.5000     0.3731    23.7473
  897.0000     0.3731    23.7501
  897.5000     0.3731    23.7529
  898.0000     0.3731    23.7557
  898.5000     0.3838    23.7585
  899.0000     0.3838    23.7612
  899.5000     0.3838    23.7640
  900.0000     0.3838    23.7649
  900.5000     0.3945    23.7650
  901.0000     0.3945    23.7650
  901.5000     0.3945    23.7650
  902.0000     0.3945    23.7650
  902.5000     0.3945    23.7651
  903.0000     0.3945    23.7651
  903.5000     0.3945    23.7651
  904.0000     0.3945    23.7651
  904.5000     0.3945    23.7652
  905.0000     0.3945    23.7652
  905.5000     0.3945    23.7652
  906.0000     0.3945    23.7653
  906.5000     0.3945    23.7653
  907.0000     0.3945    23.7653
  907.5000     0.3945    23.7653
  908.0000     0.3838    23.7654
  908.5000     0.3945    23.7654
  909.0000     0.3838    23.7654
  909.5000     0.3838    23.7655
  910.0000     0.3838    23.7655
  910.5000     0.3838    23.7655
  911.0000     0.3838    23.7655
  911.5000     0.3838    23.7656
  912.0000     0.3838    23.7656
  912.5000     0.3838    23.7656
  913.0000     0.3838    23.7656
  913.5000     0.3838    23.7657
  914.0000     0.3838    23.7657
  914.5000     0.3838    23.7657
  915.0000     0.3838    23.7658
  915.5000     0.3838    23.7658
  916.0000     0.3838    23.7658
  916.5000     0.3838    23.7658
  917.0000     0.3838    23.7659
  917.5000     0.3838    23.7659
  918.0000     0.3838    23.7659
  918.5000     0.3838    23.7660
  919.0000     0.3838    23.7660
  919.5000     0.3731    23.7660
  920.0000     0.3731    23.7660
  920.5000     0.4232    23.7661
  921.0000     0.4012    23.7661
  921.5000     0.4005    23.7661
  922.0000     0.3999    23.7661
  922.5000     0.3886    23.7662
  923.0000     0.3880    23.7662
  923.5000     0.3873    23.7662
  924.0000     0.3867    23.7663
  924.5000     0.3860    23.7663
  925.0000     0.3852    23.7663
  925.5000     0.3845    23.7663
  926.0000     0.3839    23.7664
  926.5000     0.3832    23.7664
  927.0000     0.3826    23.7664
  927.5000     0.3819    23.7665
  928.0000     0.3707    23.7665
  928.5000     0.3700    23.7665
  929.0000     0.3694    23.7665
  929.5000     0.3687    23.7666
  930.0000     0.3681    23.7666
  930.5000     0.3568    23.7666
  931.0000     0.3562    23.7667
  931.5000     0.3555    23.7667
  932.0000     0.3549    23.7667
  932.5000     0.3436    23.7667
  933.0000     0.3430    23.7668
  933.5000     0.3423    23.7668
  934.0000     0.3310    23.7668
  934.5000     0.3303    23.7668
  935.0000     0.3296    23.7669
  935.5000     0.3289    23.7669
  936.0000     0.3283    23.7669
  936.5000     0.3384    23.7670
  937.0000     0.3482    23.7670
  937.5000     0.3475    23.7670
  938.0000     0.3576    23.7670
  938.5000     0.3676    23.7671
  939.0000     0.3667    23.7671
  939.5000     0.3661    23.7671
  940.0000     0.3761    23.7672
  940.5000     0.3754    23.7672
  941.0000     0.3747    23.7672
  941.5000     0.3740    23.7672
  942.0000     0.3734    23.7673
  942.5000     0.3727    23.7673
  943.0000     0.3827    23.7673
  943.5000     0.3819    23.7673
  944.0000     0.3812    23.7674
  944.5000     0.3806    23.7674
  945.0000     0.3799    23.7674
  945.5000     0.3793    23.7675
  946.0000     0.3786    23.7675
  946.5000     0.3780    23.7675
  947.0000     0.3773    23.7675
  947.5000     0.3767    23.7676
  948.0000     0.3760    23.7676
  948.5000     0.3754    23.7676
  949.0000     0.3855    23.7677
  949.5000     0.3846    23.7677
  950.0000     0.3734    23.7677
  950.5000     0.3727    23.7677
  951.0000     0.3718    23.7678
  951.5000     0.3608    23.7678
  952.0000     0.3602    23.7678
  952.5000     0.3595    23.7678
  953.0000     0.3587    23.7679
  953.5000     0.3581    23.7679
  954.0000     0.3682    23.7679
  954.5000     0.3781    23.7680
  955.0000     0.3773    23.7680
  955.5000     0.3766    23.7680
  956.0000     0.3760    23.7680
  956.5000     0.3753    23.7681
  957.0000     0.3747    23.7681
  957.5000     0.3740    23.7681
  958.0000     0.3734    23.7682
  958.5000     0.3833    23.7682
  959.0000     0.3827    23.7682
  959.5000     0.3820    23.7682
  960.0000     0.3814    23.7683
  960.5000     0.3806    23.7683
  961.0000     0.3800    23.7683
  961.5000     0.3793    23.7683
  962.0000     0.3681    23.7684
  962.5000     0.3568    23.7684
  963.0000     0.3562    23.7684
  963.5000     0.3554    23.7685
  964.0000     0.3442    23.7685
  964.5000     0.3435    23.7685
  965.0000     0.3429    23.7685
  965.5000     0.3422    23.7686
  966.0000     0.3524    23.7686
  966.5000     0.3515    23.7686
  967.0000     0.3509    23.7687
  967.5000     0.3502    23.7687
  968.0000     0.3495    23.7687
  968.5000     0.3596    23.7687
  969.0000     0.3588    23.7688
  969.5000     0.3581    23.7688
  970.0000     0.3575    23.7688
  970.5000     0.3568    23.7688
  971.0000     0.3562    23.7689
  971.5000     0.3555    23.7689
  972.0000     0.3547    23.7689
  972.5000     0.3541    23.7690
  973.0000     0.3535    23.7690
  973.5000     0.3528    23.7690
  974.0000     0.3522    23.7690
  974.5000     0.3515    23.7691
  975.0000     0.3403    23.7691
  975.5000     0.3396    23.7691
  976.0000     0.3389    23.7692
  976.5000     0.3382    23.7692
  977.0000     0.3376    23.7692
  977.5000     0.3477    23.7692
  978.0000     0.3575    23.7693
  978.5000     0.3568    23.7693
  979.0000     0.3562    23.7693
  979.5000     0.3661    23.7694
  980.0000     0.3655    23.7694
  980.5000     0.3754    23.7694
  981.0000     0.3854    23.7694
  981.5000     0.3846    23.7695
  982.0000     0.3839    23.7695
  982.5000     0.3833    23.7695
  983.0000     0.3827    23.7695
  983.5000     0.3820    23.7696
  984.0000     0.3814    23.7696
  984.5000     0.3806    23.7696
  985.0000     0.3905    23.7697
  985.5000     0.3793    23.7697
  986.0000     0.3786    23.7697
  986.5000     0.3780    23.7697
  987.0000     0.3774    23.7698
  987.5000     0.3767    23.7698
  988.0000     0.3761    23.7698
  988.5000     0.3753    23.7699
  989.0000     0.3746    23.7699
  989.5000     0.3740    23.7699
  990.0000     0.3733    23.7699
  990.5000     0.3727    23.7700
  991.0000     0.3721    23.7700
  991.5000     0.3714    23.7700
  992.0000     0.3602    23.7700
  992.5000     0.3701    23.7701
  993.0000     0.3693    23.7701
  993.5000     0.3581    23.7701
  994.0000     0.3574    23.7702
  994.5000     0.3568    23.7702
  995.0000     0.3456    23.7702
  995.5000     0.3449    23.7702
  996.0000     0.3443    23.7703
  996.5000     0.3436    23.7703
  997.0000     0.3428    23.7703
  997.5000     0.3422    23.7704
  998.0000     0.3416    23.7704
  998.5000     0.3303    23.7704
  999.0000     0.3297    23.7704
  999.5000     0.3396    23.7705
 1000.0000     0.3708    23.7695
 1000.5000     0.3701    23.7674
 1001.0000     0.3801    23.7653
 1001.5000     0.3793    23.7633
 1002.0000     0.3786    23.7612
 1002.5000     0.3780    23.7591
 1003.0000     0.3773    23.7571
 1003.5000     0.3767    23.7550
 1004.0000     0.3760    23.7529
 1004.5000     0.3754    23.7508
 1005.0000     0.3747    23.7488
 1005.5000     0.3741    23.7467
 1006.0000     0.3734    23.7446
