~VERSION INFORMATION
 VERS.                2.0:   CWLS LOG ASCII STANDARD - VERSION 2.0
 WRAP.                 NO:   ONE LINE PER DEPTH STEP
~WELL INFORMATION
#MNEM.UNIT      DATA TYPE    INFORMATION
#----------   ------------   ------------------------------
 STRT.F            0.0000:   START DEPTH
 STOP.F         2720.0000:   STOP DEPTH
 STEP.F            0.5000:   STEP LENGTH
 NULL.          -999.2500:   NO VALUE
 COMP. DEPARTMENT OF ENERGY:   COMPANY
 WELL.       NPR-3 #410-A:   WELL
 FLD . TEAPOT NAVAL RESERVE:   FIELD
 LOC .      S20 T39N R78W:   LOCATION
 CNTY.            NATRONA:   COUNTY
 STAT.            WYOMING:   STATE
 CTRY. UNITED STATES OF AMERICA:   COUNTRY
 SRVC.      NL McCullough:   SERVICE COMPANY
 DATE.        26-JUL-1965:   LOGDATE
 API .       490251144500:   API NUMBER
~CURVE INFORMATION
#MNEM.UNIT       API CODE    CURVE DESCRIPTION
#----------   ------------   ------------------------------
 DEPT.F                  :   
 GR  .GAPI   30 310 01 00:   GAMMA RAY
 CALI.IN     30 280 01 00:   CALIPER
~PARAMETER INFORMATION
#MNEM.UNIT          VALUE    DESCRIPTION
#----------   ------------   ------------------------------
 PD  .                 GL:   PERMANENT DATUM
 LMF .                 GL:   LOG MEASURED FROM
 DATE.            7-16-65:   RUN DATE
 RUN .                  1:   RUN NUMBER
 DD  .F              2720:   DEPTH DRILLER
 TLI .F              2100:   TOP LOG INTERVAL
 CS  .IN            6.875:   CASING SIZE
 DFT .              WATER:   DRILLING FLUID TYPE
 ENGI. FITZSIMMONE/COWLTHORPE:   RECORDING ENGINEER
 WITN.             HUDSON:   WITNESSED BY
 CLNT.            A2DTECH:   CLIENT CODE
 ORIG.           5" PRINT:   ORIGIN OF DATA
 UWI .       490251144500:   UNIQUE WELL ID
 DICO. A2D Technologies, Inc.:   DIGITIZING COMPANY
~OTHER INFORMATION
~A    DEPT      GR         CALI 
# ...
  121.5000  -999.2500     5.9296
  122.0000  -999.2500     5.9385
  122.5000  -999.2500     5.9476
  123.0000  -999.2500     5.9566
  123.5000  -999.2500     5.9656
  124.0000  -999.2500     5.9679
  124.5000  -999.2500     5.9645
  125.0000  -999.2500     5.9609
  125.5000  -999.2500     5.9573
  126.0000  -999.2500     5.9538
  126.5000  -999.2500     5.9507
  127.0000  -999.2500     5.9335
  127.5000  -999.2500     5.9153
  128.0000  -999.2500     5.8967
  128.5000  -999.2500     5.9131
  129.0000  -999.2500     5.9490
  129.5000  -999.2500     5.9500
  130.0000  -999.2500     5.9498
  130.5000  -999.2500     5.9497
  131.0000  -999.2500     5.9553
  131.5000  -999.2500     5.9627
  132.0000  -999.2500     5.9695
  132.5000  -999.2500     5.9632
  133.0000  -999.2500     5.9564
  133.5000  -999.2500     5.9497
  134.0000  -999.2500     5.9430
  134.5000  -999.2500     5.9363
  135.0000  -999.2500     5.9302
  135.5000  -999.2500     5.9390
  136.0000  -999.2500     5.9485
  136.5000  -999.2500     5.9579
  137.0000  -999.2500     5.9674
  137.5000  -999.2500     5.9767
  138.0000  -999.2500     5.9863
  138.5000  -999.2500     5.9783
  139.0000  -999.2500     5.9591
  139.5000  -999.2500     5.9397
  140.0000  -999.2500     5.9305
  140.5000  -999.2500     5.9384
  141.0000  -999.2500     5.9464
  141.5000  -999.2500     5.9544
  142.0000  -999.2500     5.9624
  142.5000  -999.2500     5.9696
  143.0000  -999.2500     5.9668
  143.5000  -999.2500     5.9638
  144.0000  -999.2500     5.9609
  144.5000  -999.2500     5.9579
  145.0000  -999.2500     5.9550
  145.5000  -999.2500     5.9520
  146.0000  -999.2500     5.9486
  146.5000  -999.2500     5.9432
  147.0000  -999.2500     5.9378
  147.5000  -999.2500     5.9325
  148.0000  -999.2500     5.9272
  148.5000  -999.2500     5.9219
  149.0000  -999.2500     5.9166
  149.5000  -999.2500     5.9112
  150.0000  -999.2500     5.9141
  150.5000  -999.2500     5.9204
  151.0000  -999.2500     5.9269
  151.5000  -999.2500     5.9297
  152.0000  -999.2500     5.9297
  152.5000  -999.2500     5.9297
  153.0000  -999.2500     5.9293
  153.5000  -999.2500     5.9446
  154.0000  -999.2500     5.9619
  154.5000  -999.2500     5.9658
  155.0000  -999.2500     5.9585
  155.5000  -999.2500     5.9505
  156.0000  -999.2500     5.9707
  156.5000  -999.2500     5.9963
  157.0000  -999.2500     6.0010
  157.5000  -999.2500     5.9826
  158.0000  -999.2500     5.9791
  158.5000  -999.2500     6.0077
  159.0000  -999.2500     6.0241
  159.5000  -999.2500     5.9860
  160.0000  -999.2500     5.9492
  160.5000  -999.2500     5.9317
  161.0000  -999.2500     5.9361
  161.5000  -999.2500     5.9403
  162.0000  -999.2500     5.9447
  162.5000  -999.2500     5.9491
  163.0000  -999.2500     5.9478
  163.5000  -999.2500     5.9454
  164.0000  -999.2500     5.9429
  164.5000  -999.2500     5.9405
  165.0000  -999.2500     5.9380
  165.5000  -999.2500     5.9355
  166.0000  -999.2500     5.9331
  166.5000  -999.2500     5.9306
  167.0000  -999.2500     5.9314
  167.5000  -999.2500     5.9352
  168.0000  -999.2500     5.9390
  168.5000  -999.2500     5.9429
  169.0000  -999.2500     5.9467
  169.5000  -999.2500     5.9498
  170.0000  -999.2500     5.9472
  170.5000  -999.2500     5.9445
  171.0000  -999.2500     5.9419
  171.5000  -999.2500     5.9392
  172.0000  -999.2500     5.9366
  172.5000  -999.2500     5.9339
  173.0000  -999.2500     5.9314
  173.5000  -999.2500     5.9361
  174.0000  -999.2500     5.9521
  174.5000  -999.2500     5.9681
  175.0000  -999.2500     5.9598
  175.5000  -999.2500     5.9451
  176.0000  -999.2500     5.9304
  176.5000  -999.2500     5.9155
  177.0000  -999.2500     5.9151
  177.5000  -999.2500     5.9239
  178.0000  -999.2500     5.9330
  178.5000  -999.2500     5.9420
  179.0000  -999.2500     5.9489
  179.5000  -999.2500     5.9393
  180.0000  -999.2500     5.9299
  180.5000  -999.2500     5.9205
  181.0000  -999.2500     5.9107
  181.5000  -999.2500     5.9198
  182.0000  -999.2500     5.9319
  182.5000  -999.2500     5.9441
  183.0000  -999.2500     5.9471
  183.5000  -999.2500     5.9423
  184.0000  -999.2500     5.9373
  184.5000  -999.2500     5.9326
  185.0000  -999.2500     5.9374
  185.5000  -999.2500     5.9548
  186.0000  -999.2500     5.9690
  186.5000  -999.2500     5.9565
  187.0000  -999.2500     5.9442
  187.5000  -999.2500     5.9317
  188.0000  -999.2500     5.9356
  188.5000  -999.2500     5.9430
  189.0000  -999.2500     5.9498
  189.5000  -999.2500     5.9442
  190.0000  -999.2500     5.9363
  190.5000  -999.2500     5.9325
  191.0000  -999.2500     5.9525
  191.5000  -999.2500     5.9723
  192.0000  -999.2500     5.9921
  192.5000  -999.2500     6.0091
  193.0000  -999.2500     5.9932
  193.5000  -999.2500     5.9770
  194.0000  -999.2500     5.9700
  194.5000  -999.2500     5.9699
  195.0000  -999.2500     5.9699
  195.5000  -999.2500     5.9699
  196.0000  -999.2500     5.9699
  196.5000  -999.2500     5.9703
  197.0000  -999.2500     5.9719
  197.5000  -999.2500     5.9734
  198.0000  -999.2500     5.9749
  198.5000  -999.2500     5.9764
  199.0000  -999.2500     5.9780
  199.5000  -999.2500     5.9795
  200.0000  -999.2500     5.9810
  200.5000  -999.2500     5.9825
  201.0000  -999.2500     5.9841
  201.5000  -999.2500     5.9856
  202.0000  -999.2500     5.9871
  202.5000  -999.2500     5.9887
  203.0000  -999.2500     5.9891
  203.5000  -999.2500     5.9824
  204.0000  -999.2500     5.9757
  204.5000  -999.2500     5.9691
  205.0000  -999.2500     5.9624
  205.5000  -999.2500     5.9557
  206.0000  -999.2500     5.9491
  206.5000  -999.2500     5.9424
  207.0000  -999.2500     5.9354
  207.5000  -999.2500     5.9315
  208.0000  -999.2500     5.9639
  208.5000  -999.2500     5.9865
  209.0000  -999.2500     5.9594
  209.5000  -999.2500     5.9570
  210.0000  -999.2500     5.9731
  210.5000  -999.2500     5.9891
  211.0000  -999.2500     5.9778
  211.5000  -999.2500     5.9646
  212.0000  -999.2500     5.9514
  212.5000  -999.2500     5.9545
  213.0000  -999.2500     5.9614
  213.5000  -999.2500     5.9687
  214.0000  -999.2500     5.9649
  214.5000  -999.2500     5.9586
  215.0000  -999.2500     5.9522
  215.5000  -999.2500     5.9459
  216.0000  -999.2500     5.9395
  216.5000  -999.2500     5.9334
  217.0000  -999.2500     5.9348
  217.5000  -999.2500     5.9465
  218.0000  -999.2500     5.9580
  218.5000  -999.2500     5.9697
  219.0000  -999.2500     5.9813
  219.5000  -999.2500     5.9875
  220.0000  -999.2500     5.9746
  220.5000  -999.2500     5.9622
  221.0000  -999.2500     5.9503
  221.5000  -999.2500     5.9535
  222.0000  -999.2500     5.9574
  222.5000  -999.2500     5.9613
  223.0000  -999.2500     5.9652
  223.5000  -999.2500     5.9693
  224.0000  -999.2500     5.9647
  224.5000  -999.2500     5.9582
  225.0000  -999.2500     5.9515
  225.5000  -999.2500     5.9466
  226.0000  -999.2500     5.9420
  226.5000  -999.2500     5.9374
  227.0000  -999.2500     5.9330
  227.5000  -999.2500     5.9317
  228.0000  -999.2500     5.9403
  228.5000  -999.2500     5.9486
  229.0000  -999.2500     5.9568
  229.5000  -999.2500     5.9651
  230.0000  -999.2500     5.9733
  230.5000  -999.2500     5.9817
  231.0000  -999.2500     5.9895
  231.5000  -999.2500     5.9815
  232.0000  -999.2500     5.9727
  232.5000  -999.2500     5.9640
  233.0000  -999.2500     5.9553
  233.5000  -999.2500     5.9466
  234.0000  -999.2500     5.9379
  234.5000  -999.2500     5.9298
  235.0000  -999.2500     5.9297
  235.5000  -999.2500     5.9297
  236.0000  -999.2500     5.9297
  236.5000  -999.2500     5.9297
  237.0000  -999.2500     5.9293
  237.5000  -999.2500     5.9442
  238.0000  -999.2500     5.9611
  238.5000  -999.2500     5.9780
  239.0000  -999.2500     5.9948
  239.5000  -999.2500     6.0119
  240.0000  -999.2500     6.0292
  240.5000  -999.2500     6.0115
  241.0000  -999.2500     5.9904
  241.5000  -999.2500     5.9693
  242.0000  -999.2500     5.9503
  242.5000  -999.2500     5.9555
