~VERSION INFORMATION
 VERS.                2.0:   CWLS LOG ASCII STANDARD - VERSION 2.0
 WRAP.                 NO:   ONE LINE PER DEPTH STEP
~WELL INFORMATION
#MNEM.UNIT      DATA TYPE    INFORMATION
#----------   ------------   ------------------------------
 STRT.F          748.0000:   START DEPTH
 STOP.F         2238.0000:   STOP DEPTH
 STEP.F            0.5000:   STEP LENGTH
 NULL.          -999.2500:   NO VALUE
 COMP. LAWRENCE/ALLISON INC:   COMPANY
 WELL. NPR 3 #36-2-SHX-10:   WELL
 FLD .             TEAPOT:   FIELD
 LOC .      S10 T38N R78W:   LOCATION
 CNTY.            NATRONA:   COUNTY
 STAT.            WYOMING:   STATE
 CTRY. UNITED STATES OF AMERICA:   COUNTRY
 SRVC.            Unknown:   SERVICE COMPANY
 DATE.        02-JUN-1984:   LOGDATE
 API .       490256012900:   API NUMBER
~CURVE INFORMATION
#MNEM.UNIT       API CODE    CURVE DESCRIPTION
#----------   ------------   ------------------------------
 DEPT.F                  :   
 ROP .MIN/FT 91 810 01 00:   RATE OF DRILLING PENETRATION
 TGAS.UNITS  91 830 01 00:   TOTAL GAS FROM HOTWIRE
~PARAMETER INFORMATION
#MNEM.UNIT          VALUE    DESCRIPTION
#----------   ------------   ------------------------------
 EKB .F              5223:   KELLING BUSHING
 EGL .F              5213:   GROUND LEVEL
 DATE.             6-2-84:   RUN DATE
 DD  .F              2238:   DEPTH DRILLER
 BLI .F              2238:   BOTTOM LOG INTERVAL
 TLI .F               740:   TOP LOG INTERVAL
 CS  .IN            8.625:   CASING SIZE
 CBD .F               717:   CASING BOTTOM DRILLER
 LUN .               T-83:   LOGGING UNIT NUMBER
 ENGI.            JOHNSON:   RECORDING ENGINEER
 WITN.           SCHERGER:   WITNESSED BY
 CLNT.            A2DTECH:   CLIENT CODE
 ORIG.           5" PRINT:   ORIGIN OF DATA
 UWI .       490256012900:   UNIQUE WELL ID
 DICO. A2D Technologies, Inc.:   DIGITIZING COMPANY
~OTHER INFORMATION
~A   DEPT        ROP     TGAS   
# ...
 1963.0000     1.2744   188.1553
 1963.5000     1.4129   124.8004
 1964.0000     1.5154   114.6794
 1964.5000     1.5159   115.1028
 1965.0000     1.5163   115.5261
 1965.5000     1.5167   115.9495
 1966.0000     1.5599   116.3728
 1966.5000     1.6918   117.7751
 1967.0000     1.8236   134.4466
 1967.5000     1.9555   146.9577
 1968.0000     2.1863   156.3543
 1968.5000     2.9731   163.6690
 1969.0000     3.7599   167.8694
 1969.5000     4.5466   167.9093
 1970.0000     4.7420   168.9918
 1970.5000     3.9619   170.0710
 1971.0000     3.1818   170.2011
 1971.5000     2.4016   170.3808
 1972.0000     1.9983   170.5604
 1972.5000     1.9270   170.7401
 1973.0000     1.8557   170.9198
 1973.5000     1.7843   171.0994
 1974.0000     1.7130   171.2791
 1974.5000     1.7499   171.4587
 1975.0000     1.8516   171.6384
 1975.5000     1.9533   171.8181
 1976.0000     2.0062   171.9977
 1976.5000     1.9901   172.1774
 1977.0000     1.9740   172.3570
 1977.5000     1.9579   172.5367
 1978.0000     2.0646   172.7164
 1978.5000     2.2189   172.8152
 1979.0000     2.3732   172.8551
 1979.5000     2.5274   176.0162
 1980.0000     2.4390   177.0954
 1980.5000     2.2058   177.1387
 1981.0000     1.9725   178.2179
 1981.5000     1.7392   180.3396
 1982.0000     1.4488   181.4189
 1982.5000     1.4492   181.4621
 1983.0000     1.4496   181.5021
 1983.5000     1.4500   181.5453
 1984.0000     1.4504   181.5853
 1984.5000     1.4508   181.6285
 1985.0000     1.4512   181.6685
 1985.5000     1.4516   181.7117
 1986.0000     1.4520   182.7909
 1986.5000     1.4524   200.5016
 1987.0000     1.4528   227.5624
 1987.5000     1.4533   220.3308
 1988.0000     1.4537   201.6640
 1988.5000     1.4541   191.3080
 1989.0000     1.4545   187.1843
 1989.5000     1.4549   186.1883
 1990.0000     1.4553   186.2415
 1990.5000     1.6249   185.9068
 1991.0000     1.7959   185.5157
 1991.5000     1.9669   185.1246
 1992.0000     2.0129   184.7335
 1992.5000     1.8605   184.3423
 1993.0000     1.7081   183.9512
 1993.5000     1.5556   183.5601
 1994.0000     1.3976   252.9151
 1994.5000     1.4154   270.7168
 1995.0000     1.4339   217.0688
 1995.5000     1.4524   193.9724
 1996.0000     1.3872   187.7767
 1996.5000     1.2641   183.6596
 1997.0000     1.1410   182.6536
 1997.5000     1.0968   186.8673
 1998.0000     1.2373   191.0643
 1998.5000     1.3778   196.3038
 1999.0000     1.5183   199.4615
 1999.5000     1.6588   199.5048
 2000.0000     1.7993   200.5840
 2000.5000     1.9398   200.6240
 2001.0000     2.0803   200.6672
 2001.5000     2.2167   200.7072
 2002.0000     1.9439   200.7504
 2002.5000     1.6778   199.7378
 2003.0000     1.4117   196.6633
 2003.5000     1.1457   195.6640
 2004.0000     0.9786   194.6680
 2004.5000     0.9784   192.6294
 2005.0000     0.9782   194.3418
 2005.5000     0.9779   195.3811
 2006.0000     1.0628   195.3811
 2006.5000     1.1717   195.3811
 2007.0000     1.2806   195.3811
 2007.5000     1.3895   195.3811
 2008.0000     1.4463   195.3811
 2008.5000     1.3372   195.3811
 2009.0000     1.2408   195.3811
 2009.5000     1.1444   195.3811
 2010.0000     1.2899   195.3811
 2010.5000     1.5096   195.3811
 2011.0000     1.7293   196.4203
 2011.5000     1.9489   196.4203
 2012.0000     2.0329   196.4203
 2012.5000     2.0256   196.4203
 2013.0000     2.0182   196.4203
 2013.5000     2.0109   196.4203
 2014.0000     2.0036   195.3811
 2014.5000     1.9962   195.3811
 2015.0000     1.9889   195.3811
 2015.5000     1.9816   192.2633
 2016.0000     2.0487   191.2240
 2016.5000     2.1893   190.1848
 2017.0000     2.3299   188.1062
 2017.5000     2.4705   188.1062
 2018.0000     2.6089   187.0670
 2018.5000     2.3946   187.0670
 2019.0000     2.1835   188.1062
 2019.5000     1.9723   190.1848
 2020.0000     1.7967   191.2240
 2020.5000     1.8957   192.2633
 2021.0000     1.9804   192.2633
 2021.5000     2.0652   194.3418
 2022.0000     2.0885   194.3418
 2022.5000     1.9819   192.2633
 2023.0000     1.8753   192.2633
 2023.5000     1.7372   191.2240
 2024.0000     1.7247   221.2410
 2024.5000     1.7370   299.3072
 2025.0000     1.7493   232.7945
 2025.5000     1.7616   199.5381
 2026.0000     1.7739   196.4203
 2026.5000     1.7154   225.5196
 2027.0000     1.6069   224.4804
 2027.5000     1.4984   216.1663
 2028.0000     1.5514   200.5774
 2028.5000     1.7395   195.3811
 2029.0000     1.9275   194.3418
 2029.5000     2.1156   193.3025
 2030.0000     2.3090   192.2633
 2030.5000     2.4049   192.2633
 2031.0000     2.4896   192.2445
 2031.5000     2.5738   192.1857
 2032.0000     2.4208   192.1269
 2032.5000     2.2689   192.0681
 2033.0000     2.1169   192.0093
 2033.5000     1.9649   191.9506
 2034.0000     1.8130   191.8918
 2034.5000     1.6610   191.8330
 2035.0000     1.5090   191.7742
 2035.5000     1.5187   191.7154
 2036.0000     1.5835   191.6566
 2036.5000     1.6482   191.5979
 2037.0000     1.7130   191.5391
 2037.5000     1.7632   191.4803
 2038.0000     1.6867   191.4215
 2038.5000     1.6199   191.3627
 2039.0000     1.5531   191.3040
 2039.5000     1.4795   191.2452
 2040.0000     1.7630   190.4183
 2040.5000     2.0788   189.1591
 2041.0000     2.3946   187.9000
 2041.5000     2.6185   186.6408
 2042.0000     2.4501   181.7540
 2042.5000     2.3161   181.7825
 2043.0000     2.1820   179.7029
 2043.5000     2.0480   179.7314
 2044.0000     1.9894   179.7516
 2044.5000     1.9896   179.7717
 2045.0000     1.9898   179.7919
 2045.5000     1.9900   177.7207
 2046.0000     1.9903   177.7425
 2046.5000     1.9161   177.7643
 2047.0000     1.8272   177.7845
 2047.5000     1.7267   177.8046
 2048.0000     1.9016   177.8264
 2048.5000     2.0830   179.9413
 2049.0000     2.2643   179.9614
 2049.5000     2.3597   179.9832
 2050.0000     2.2131   180.0034
 2050.5000     2.0664   180.0235
 2051.0000     1.9198   182.1384
 2051.5000     1.7732   186.3445
 2052.0000     1.8018   188.4594
 2052.5000     1.9077   196.8516
 2053.0000     2.0135   207.3385
 2053.5000     2.1356   230.3819
 2054.0000     2.1245   297.3805
 2054.5000     2.1113   330.8890
 2055.0000     2.0982   316.2580
 2055.5000     2.0850   289.0705
 2056.0000     2.0560   259.7900
 2056.5000     1.9860   222.1357
 2057.0000     1.9159   180.2954
 2057.5000     1.8459   163.5714
 2058.0000     1.7758   153.1297
 2058.5000     1.7058   146.8658
 2059.0000     1.6357   140.6085
 2059.5000     1.5657   138.5340
 2060.0000     1.4956   136.4611
 2060.5000     1.4255   134.3899
 2061.0000     1.3555   132.3170
 2061.5000     1.2854   132.3439
 2062.0000     1.2244   132.3640
 2062.5000     1.2291   132.3842
 2063.0000     1.2350   132.4060
 2063.5000     1.2410   136.6155
 2064.0000     1.2703   138.7287
 2064.5000     1.4162   138.7505
 2065.0000     1.5621   138.7706
 2065.5000     1.7080   140.8855
 2066.0000     1.7393   142.9986
 2066.5000     1.6012   147.2065
 2067.0000     1.4631   147.2267
 2067.5000     1.3250   151.4328
 2068.0000     1.1862   155.6407
 2068.5000     1.2774   155.6608
 2069.0000     1.3873   157.7757
 2069.5000     1.4971   161.9819
 2070.0000     1.5732   164.0967
 2070.5000     1.4486   166.2099
 2071.0000     1.3432   170.4178
 2071.5000     1.2486   172.5309
 2072.0000     1.3187   172.5527
 2072.5000     1.3930   174.6659
 2073.0000     1.4674   174.6877
 2073.5000     1.5418   176.8009
 2074.0000     1.6162   178.9157
 2074.5000     1.6905   181.0289
 2075.0000     1.7649   183.1421
 2075.5000     1.8393   189.4429
 2076.0000     1.9212   189.4631
 2076.5000     2.0318   189.4849
 2077.0000     2.1842   191.5981
 2077.5000     2.3365   191.6199
 2078.0000     2.4254   195.8261
 2078.5000     2.4557   197.9392
 2079.0000     2.4860   197.9594
 2079.5000     2.5163   200.0742
 2080.0000     2.5466   204.2804
 2080.5000     2.4609   206.3969
 2081.0000     2.3448   206.4171
 2081.5000     2.2286   208.5319
 2082.0000     2.1124   208.5521
 2082.5000     1.9962   208.5739
 2083.0000     1.8800   208.5940
 2083.5000     1.7639   206.5195
 2084.0000     1.6477   206.5430
