~VERSION INFORMATION
 VERS.                2.0:   CWLS LOG ASCII STANDARD - VERSION 2.0
 WRAP.                 NO:   ONE LINE PER DEPTH STEP
~WELL INFORMATION
#MNEM.UNIT      DATA TYPE    INFORMATION
#----------   ------------   ------------------------------
 STRT.F           28.5000:   START DEPTH
 STOP.F          625.0000:   STOP DEPTH
 STEP.F            0.5000:   STEP LENGTH
 NULL.          -999.2500:   NO VALUE
 COMP. FENIX & SCISSON INC:   COMPANY
 WELL.    NPR ##3 13-SX-3:   WELL
 FLD .             TEAPOT:   FIELD
 LOC .       S3 T38N R78W:   LOCATION
 CNTY.            NATRONA:   COUNTY
 STAT.            WYOMING:   STATE
 CTRY. UNITED STATES OF AMERICA:   COUNTRY
 SRVC.       Schlumberger:   SERVICE COMPANY
 DATE.        25-FEB-1977:   LOGDATE
 API .       490251028400:   API NUMBER
~CURVE INFORMATION
#MNEM.UNIT       API CODE    CURVE DESCRIPTION
#----------   ------------   ------------------------------
 DEPT.F                  :   
 SPR .MV     07 010 01 00:   SPONTANEOUS POTENTIAL
 ILD .OHMM   07 120 46 00:   INDUCTION LOG DEEP
 LL8 .OHMM   07 220 08 00:   LATEROLOG-8 RES.
 ILM .OHMM   07 120 44 00:   INDUCTION LOG MEDIUM
 GRD .GAPI   45 310 01 00:   GAMMA RAY FROM DENSITY LOG
 CALD.IN     45 280 60 00:   CALIPER
 RHOB.G/C3   45 350 01 00:   BULK DENSITY
 CORR.G/C3   45 356 01 00:   DENSITY CORRECTION
 DPOR.DEC    45 890 12 00:   DENSITY POROSITY SANDSTONE
~PARAMETER INFORMATION
#MNEM.UNIT          VALUE    DESCRIPTION
#----------   ------------   ------------------------------
 PD  .                 GL:   PERMANENT DATUM
 EPD .F              5227:   ELEVATION PERMANENT DATUM
 LMF .                 GL:   LOG MEASURED FROM
 DMF .                 GL:   DRILLING MEASURED FROM
 EKB .F              5232:   KELLING BUSHING
 EGL .F              5227:   GROUND LEVEL
 DATE.          2-25-1977:   RUN DATE
 RUN .                  1:   RUN NUMBER
 DD  .F               629:   DEPTH DRILLER
 DL  .F               626:   DEPTH LOGGER
 BLI .F               620:   BOTTOM LOG INTERVAL
 TLI .F                40:   TOP LOG INTERVAL
 CS  .IN            8.625:   CASING SIZE
 CBD .F                40:   CASING BOTTOM DRILLER
 CBL .F                40:   CASING BOTTOM LOGGER
 BS  .IN            7.875:   BIT SIZE
 BSD .F               629:   BIT SIZE AT DEPTH
 DFT .                KCL:   DRILLING FLUID TYPE
 DFD .                8.8:   DRILLING FLUID DENSITY
 DFV .                 45:   DRILLING FLUID VISCOSITY
 DFPH.                  8:   DRILLING FLUID PH
 DFL .                8.2:   DRILLING FLUID LOSS
 MSS .                PIT:   MUD SAMPLE SOURCE
 RMS .OHMM           .508:   RESISTIVITY MUD SAMPLE
 MST .F                60:   MUD SAMPLE TEMPERATURE
 RMF .OHMM           .419:   RESISTIVITY MUD FILTRATE SAMPLE
 MFST.F                58:   MUD FILTRATE SAMPLE TEMPERATURE
 MFSS.                  M:   MUD FILTRATE SAMPLE SOURCE
 RMB .OHMM            .41:   RESISTIVITY MUD AT BHT
 BHT .F                75:   BOTTOM HOLE TEMPERATURE
 TCS .HRS            1700:   TIME CURCULATED STOPPED
 TLAB.HRS            2130:   TIME LOGGER AT BOTTOM
 MRT .F                75:   MAXIMUM RECORDED TEMPERATURE
 LUN .               5642:   LOGGING UNIT NUMBER
 LUL .               CSPR:   LOGGING UNIT LOCATION
 ENGI.             MARTIN:   RECORDING ENGINEER
 CLNT.            A2DTECH:   CLIENT CODE
 ORIG.       2", 5" PRINT:   ORIGIN OF DATA
 UWI .       490251028400:   UNIQUE WELL ID
 DICO. A2D Technologies, Inc.:   DIGITIZING COMPANY
~OTHER INFORMATION
~A   DEPT      SPR        ILD        LL8        ILM         GRD      CALD         RHOB     CORR       DPOR   
# ...
  138.0000   -94.4522    11.5961     9.8583    10.9149   110.9405     8.2012     2.4732     0.0097     0.1168
  138.5000   -94.2871    11.8091    10.4699    11.1714   109.5918     8.2006     2.4666     0.0016     0.1190
  139.0000   -94.2804    12.0260    11.4303    11.4352   109.5738     8.2000     2.4640    -0.0106     0.1210
  139.5000   -94.3257    12.2470    11.2167    11.8571   109.5706     8.1994     2.4713    -0.0043     0.1168
  140.0000   -94.4375    12.4223    11.0152    11.7951   109.9709     8.1988     2.4768     0.0075     0.1142
  140.5000   -94.4883    12.2726    11.0854    11.6891   110.5240     8.1982     2.4601     0.0015     0.1216
  141.0000   -94.7344    12.1511    11.1176    11.5841   111.0814     8.1976     2.4433    -0.0112     0.1272
  141.5000   -94.9853    12.0132    11.0512    11.4800   111.5608     8.1970     2.4351    -0.0049     0.1279
  142.0000   -95.2348    11.8555    10.8983    11.3768   111.2761     8.1964     2.4389    -0.0003     0.1268
  142.5000   -95.3261    11.6990    10.7476    11.2746   110.9940     8.1959     2.4356    -0.0058     0.1293
  143.0000   -95.4724    11.5964    10.5990    11.1733   111.8688     8.1953     2.4374    -0.0026     0.1315
  143.5000   -95.5378    11.5232    10.4522    11.0989   112.3743     8.1947     2.4466     0.0013     0.1226
  144.0000   -95.5963    11.4505    10.3073    11.0238   113.0138     8.1941     2.4559     0.0052     0.1242
  144.5000   -95.6543    11.3783    10.2298    10.9492   114.2937     8.1935     2.4653     0.0090     0.1176
  145.0000   -95.6813    11.3248    10.2298    10.8750   115.1534     8.1929     2.4733     0.0123     0.1130
  145.5000   -95.2620    11.3245    10.2298    10.8014   110.4193     8.1923     2.4686     0.0052     0.1170
  146.0000   -94.6548    11.3260    10.2298    10.7282   106.7704     8.1917     2.4639    -0.0022     0.1203
  146.5000   -94.0380    11.1974    10.2298    10.6556   106.8650     8.1911     2.4706    -0.0063     0.1172
  147.0000   -93.7848    11.1111    10.2298    10.5835   109.0155     8.1905     2.4785    -0.0052     0.1126
  147.5000   -93.5647    11.0254    10.2295    10.5175   111.0867     8.1899     2.4800     0.0015     0.1140
  148.0000   -93.3486    10.9404    10.2171    10.5175   113.1356     8.1894     2.4761     0.0057     0.1160
  148.5000   -93.2168    10.9138    10.1909    10.5175   114.8551     8.1888     2.4842    -0.0033     0.1151
  149.0000   -93.0730    11.0152    10.1655    10.5175   115.7751     8.1882     2.4927    -0.0108     0.1112
  149.5000   -92.9241    10.9486    10.1445    10.5174   116.7020     8.1876     2.5044    -0.0069     0.1078
  150.0000   -93.1149    10.9040     9.8404    10.5181   117.1752     8.1870     2.4856    -0.0029     0.1135
  150.5000   -93.4298    10.8597     9.5211    10.5207   117.0993     8.1864     2.4658    -0.0072     0.1187
  151.0000   -93.7504    10.8155     9.2403    10.3769   115.5990     8.1858     2.4517    -0.0147     0.1266
  151.5000   -94.0710    10.7715     9.4982    10.2502   114.1423     8.1856     2.4447    -0.0108     0.1247
  152.0000   -94.3910    10.7279     9.7895    10.1356   113.7223     8.1856     2.4604    -0.0049     0.1209
  152.5000   -94.7109    10.6996    10.0384    10.1544   114.4342     8.1856     2.4716     0.0011     0.1172
  153.0000   -94.8787    10.6710     9.9950    10.1717   115.1445     8.1856     2.4800     0.0071     0.1138
  153.5000   -94.8824    10.6421     9.9583    10.1891   115.8532     8.1856     2.4764     0.0130     0.1120
  154.0000   -94.8941    10.6133     9.9216    10.2065   116.5533     8.1856     2.4899     0.0189     0.1102
  154.5000   -94.6702    10.5846     9.8839    10.2239   116.1248     8.1856     2.5002     0.0149     0.1118
  155.0000   -94.3313    10.5562     9.7704    10.2298   114.2598     8.1856     2.4726     0.0007     0.1166
  155.5000   -93.9951    10.5274     9.5309    10.0646   113.4897     8.1856     2.4472    -0.0054     0.1209
  156.0000   -93.6878    10.4488     9.3150     9.9113   116.1913     8.1856     2.4188    -0.0106     0.1265
  156.5000   -93.6903    10.3447     9.2403     9.7603   118.2772     8.1856     2.4351    -0.0065     0.1234
  157.0000   -93.8663    10.2417     9.2403     9.6116   120.3723     8.1856     2.4535     0.0027     0.1196
  157.5000   -94.3094    10.1397     9.2403     9.4652   121.3056     8.1856     2.4658    -0.0014     0.1162
  158.0000   -95.2430    10.0423     9.2403     9.4128   121.9214     8.1856     2.4742    -0.0041     0.1191
  158.5000   -95.1604     9.7064     9.2403     9.3680   121.3904     8.1856     2.4539     0.0122     0.1208
  159.0000   -94.9689     9.4719     9.0514     9.3262   121.0470     8.1856     2.4459    -0.0093     0.1188
  159.5000   -94.7786     9.2428     8.7542     9.0650   125.0926     8.1856     2.4507    -0.0066     0.1178
  160.0000   -94.5984     9.0196     8.4685     8.8179   127.4651     8.1856     2.4430    -0.0033     0.1202
  160.5000   -94.5919     8.8015     8.1924     8.5776   126.5946     8.1856     2.4344    -0.0077     0.1218
  161.0000   -94.3299     8.5888     7.9252     8.3439   125.7749     8.1856     2.4563     0.0009     0.1117
  161.5000   -94.6163     8.3466     7.7848     8.1165   125.0322     8.1856     2.4814     0.0114     0.1054
  162.0000   -94.8903     8.3050     7.7217     7.8945   121.7251     8.1856     2.4912     0.0110     0.1130
  162.5000   -95.1661     8.2705     7.6593     7.8945   120.5523     8.1856     2.4944     0.0124     0.1126
  163.0000   -95.1642     8.6061     7.6062     8.0436   121.4888     8.1856     2.4905     0.0166     0.1063
  163.5000   -94.8805     8.9594     7.9242     8.4211   121.5302     8.1856     2.4910     0.0145     0.1008
  164.0000   -94.5976     9.3254     8.3375     8.8179   116.1618     8.1856     2.4987     0.0126     0.0935
  164.5000   -94.3140     9.7065     8.7728     9.2335   109.9727     8.1856     2.5054     0.0264     0.0854
  165.0000   -94.0304     9.9705     9.2403     9.4626   106.8007     8.1856     2.4939     0.0205     0.0943
  165.5000   -93.7466    10.0302     9.2773     9.5942   107.4335     8.1856     2.4807     0.0104     0.1041
  166.0000   -93.4662    10.1230     9.3249     9.6864   108.6474     8.1856     2.4671     0.0031     0.1092
  166.5000   -93.3148    10.2306     9.3727     9.7099   109.8816     8.1856     2.4666     0.0041     0.1114
  167.0000   -93.5194    10.1817     9.4128     9.7335   110.9061     8.1856     2.4705     0.0049     0.1101
  167.5000   -93.6800    10.1185     9.3589     9.7675   109.5554     8.1856     2.4688     0.0057     0.1089
  168.0000   -93.2946    10.0558     9.3128     9.7148   108.7512     8.1856     2.4630     0.0066     0.1089
  168.5000   -92.8850     9.9936     9.2670     9.6196   109.5461     8.1856     2.4669     0.0060     0.1096
  169.0000   -92.4725     9.9319     9.2214     9.5258   110.6518     8.1856     2.4733     0.0042     0.1102
  169.5000   -92.0434     9.8705     9.1760     9.4329   111.9741     8.1856     2.4718     0.0023     0.1100
  170.0000   -91.9516     9.8095     9.1211     9.3409   113.1604     8.1856     2.4695     0.0013     0.1052
  170.5000   -92.4798     9.7488     9.0216     9.2498   114.4239     8.1856     2.4723     0.0080     0.0999
  171.0000   -93.0111     9.6886     8.9233     9.1596   114.1954     8.1856     2.4897     0.0146     0.0945
  171.5000   -93.5605     9.6287     8.8259     9.0703   112.8094     8.1856     2.5002     0.0084     0.0930
  172.0000   -93.6327     9.5885     8.7416     8.9819   109.4042     8.1856     2.4859     0.0036     0.0954
  172.5000   -93.2360     9.8299     9.9315     8.9048   106.0011     8.1826     2.4954     0.0165     0.0939
  173.0000   -92.8643    10.0496    11.4029     9.3747   105.2969     8.1755     2.5046     0.0079     0.0858
  173.5000   -93.0786    10.2742    13.6258     9.9139   106.0548     8.1684     2.4940     0.0036     0.0984
  174.0000   -93.0891    10.5038    12.1287    10.4207   106.8007     8.1613     2.4798     0.0028     0.1098
