~VERSION INFORMATION
 VERS.                2.0:   CWLS LOG ASCII STANDARD - VERSION 2.0
 WRAP.                 NO:   ONE LINE PER DEPTH STEP
~WELL INFORMATION
#MNEM.UNIT      DATA TYPE    INFORMATION
#----------   ------------   ------------------------------
 STRT.F           35.0000:   START DEPTH
 STOP.F          977.0000:   STOP DEPTH
 STEP.F            0.5000:   STEP LENGTH
 NULL.          -999.2500:   NO VALUE
 COMP. FENIX & SCISSON INC:   COMPANY
 WELL.  NPR-3 "SX" #52-14:   WELL
 FLD .             TEAPOT:   FIELD
 LOC .      S14 T38N R78W:   LOCATION
 CNTY.            NATRONA:   COUNTY
 STAT.            WYOMING:   STATE
 CTRY. UNITED STATES OF AMERICA:   COUNTRY
 SRVC.            Unknown:   SERVICE COMPANY
 DATE.        13-MAR-1978:   LOGDATE
 API .       490251059900:   API NUMBER
~CURVE INFORMATION
#MNEM.UNIT       API CODE    CURVE DESCRIPTION
#----------   ------------   ------------------------------
 DEPT.F                  :   
 CALD.IN     45 280 60 00:   CALIPER FROM DENSITY LOG
 GRD .GAPI   45 310 01 00:   GAMMA RAY FROM DENSITY LOG
 CORR.G/C3   45 356 01 00:   DENSITY CORRECTION
 RHOB.G/C3   45 350 01 00:   BULK DENSITY
 DPHI.DEC    45 890 12 00:   DENSITY POROSITY SANDSTONE
 SPR .MV     07 010 01 00:   SPONTANEOUS POTENTIAL FROM RES. LOG
 ILD .OHMM   07 120 46 00:   INDUCTION LOG DEEP
 SN  .OHMM   07 040 16 00:   SHORT NORMAL 16'
~PARAMETER INFORMATION
#MNEM.UNIT          VALUE    DESCRIPTION
#----------   ------------   ------------------------------
 PD  .                 GL:   PERMANENT DATUM
 EPD .F              5223:   ELEVATION PERMANENT DATUM
 LMF .                 KB:   LOG MEASURED FROM
 DAPD.F                 4:   FEET ABOVE PERMANENT DATUM
 DMF .                 KB:   DRILLING MEASURED FROM
 EKB .F              5227:   KELLING BUSHING
 EGL .F              5223:   GROUND LEVEL
 DATE.            3-13-78:   RUN DATE
 RUN .                  1:   RUN NUMBER
 DD  .F               975:   DEPTH DRILLER
 DL  .F               977:   DEPTH LOGGER
 BLI .F               971:   BOTTOM LOG INTERVAL
 TLI .F                50:   TOP LOG INTERVAL
 CS  .IN            8.625:   CASING SIZE
 CBD .F                40:   CASING BOTTOM DRILLER
 CBL .F                40:   CASING BOTTOM LOGGER
 BS  .IN            7.875:   BIT SIZE
 BSD .F               975:   BIT SIZE AT DEPTH
 DFT .                KCL:   DRILLING FLUID TYPE
 DFD .                8.6:   DRILLING FLUID DENSITY
 DFV .                 33:   DRILLING FLUID VISCOSITY
 DFPH.               10.5:   DRILLING FLUID PH
 DFL .               11.6:   DRILLING FLUID LOSS
 MSS .          FLOW LINE:   MUD SAMPLE SOURCE
 RMS .OHMM            .34:   RESISTIVITY MUD SAMPLE
 MST .F                60:   MUD SAMPLE TEMPERATURE
 RMF .OHMM            .36:   RESISTIVITY MUD FILTRATE SAMPLE
 MFST.F                62:   MUD FILTRATE SAMPLE TEMPERATURE
 RMC .OHMM            .75:   RESISTIVITY MUD CAKE
 MCST.F                59:   MUD CAKE SAMPLE TEMPERATURE
 MFSS.               MEAS:   MUD FILTRATE SAMPLE SOURCE
 MCSS.               MEAS:   MUD CAKE SAMPLE SOURCE
 RMB .OHMM            .27:   RESISTIVITY MUD AT BHT
 BHT .F                75:   BOTTOM HOLE TEMPERATURE
 TCS .HRS               4:   TIME CURCULATED STOPPED
 MRT .F                75:   MAXIMUM RECORDED TEMPERATURE
 LUN .               2958:   LOGGING UNIT NUMBER
 LUL .               CASP:   LOGGING UNIT LOCATION
 ENGI.             MILLER:   RECORDING ENGINEER
 WITN.            RHOADES:   WITNESSED BY
 CLNT.            A2DTECH:   CLIENT CODE
 ORIG.       2", 5" PRINT:   ORIGIN OF DATA
 UWI .       490251059900:   UNIQUE WELL ID
 DICO. A2D Technologies, Inc.:   DIGITIZING COMPANY
~OTHER INFORMATION
~A   DEPT     CALD         GRD      CORR       RHOB       DPHI        SPR        ILD         SN   
# ...
  804.5000     7.9640    72.6058     0.0172     2.4123     0.1435   -47.1083    14.6975    14.1388
  805.0000     7.9719    70.9319     0.0231     2.3995     0.1496   -47.3553    14.4392    13.9303
  805.5000     7.9759    71.3544     0.0301     2.3874     0.1489   -47.6024    14.1855    13.7247
  806.0000     7.9760    73.4082     0.0534     2.4031     0.1437   -47.8491    13.9362    13.5223
  806.5000     7.9760    75.4416     0.0424     2.4232     0.1376   -48.0965    13.6912    13.3228
  807.0000     7.9759    77.4792     0.0284     2.4103     0.1434   -48.3499    13.4506    13.1931
  807.5000     7.9759    78.9082     0.0123     2.4033     0.1534   -48.3486    13.2142    13.1813
  808.0000     7.9759    74.8579    -0.0001     2.3854     0.1619   -48.2798    12.9820    13.1693
  808.5000     7.9759    71.3201     0.0128     2.3727     0.1621   -48.2053    12.7538    13.1576
  809.0000     7.9759    71.1172     0.0270     2.3768     0.1537   -48.1014    12.6017    13.1459
  809.5000     7.9759    71.1587     0.0386     2.3892     0.1481   -47.9919    12.5781    13.1341
  810.0000     7.9759    72.2206     0.0368     2.4015     0.1425   -47.8820    12.5534    13.1223
  810.5000     7.9760    72.8208     0.0353     2.4076     0.1400   -47.7722    12.5286    13.1106
  811.0000     7.9762    72.9279     0.0340     2.4064     0.1472   -47.6626    12.5036    13.0989
  811.5000     7.9761    73.7709     0.0330     2.3970     0.1491   -47.5529    12.4863    13.0871
  812.0000     7.9617    74.6326     0.0352     2.3909     0.1473   -47.4374    12.5149    13.0754
  812.5000     7.8819    71.2467     0.0400     2.3958     0.1452   -47.4730    12.5379    13.0388
  813.0000     7.8050    69.1411     0.0448     2.3940     0.1544   -47.5726    12.5608    13.0038
  813.5000     7.7644    69.0048     0.0537     2.3847     0.1515   -47.6742    12.5838    12.9688
  814.0000     7.7330    72.1769     0.0646     2.3874     0.1479   -47.7757    12.6017    12.9340
  814.5000     7.7233    74.3698     0.0756     2.3957     0.1449   -47.8772    12.4351    12.8993
  815.0000     7.7218    74.2659     0.0852     2.3999     0.1427   -47.9782    12.3004    12.8646
  815.5000     7.7554    74.2107     0.0854     2.4075     0.1404   -48.0800    12.1672    12.8300
  816.0000     7.7880    76.1685     0.0784     2.4130     0.1388   -48.1884    12.0328    12.7956
  816.5000     7.8196    82.5367     0.0717     2.4076     0.1393   -48.0213    12.0259    12.7612
  817.0000     7.8412    83.8208     0.0649     2.4090     0.1398   -47.7908    12.0189    12.7269
  817.5000     7.8635    78.1972     0.0581     2.4129     0.1407   -47.5597    12.0118    12.6927
  818.0000     7.8776    73.5162     0.0476     2.4088     0.1420   -47.4255    12.0048    12.6585
  818.5000     7.8816    73.9228     0.0367     2.4046     0.1421   -47.5073    11.9978    12.6244
  819.0000     7.8857    77.4473     0.0341     2.4023     0.1409   -47.5850    11.9907    12.6018
  819.5000     7.8897    78.2707     0.0318     2.4061     0.1396   -47.5572    11.9837    12.6217
  820.0000     7.8938    78.5913     0.0296     2.4101     0.1364   -47.4683    11.9767    12.6369
  820.5000     7.8978    78.5805     0.0273     2.4139     0.1324   -47.4048    11.9697    12.6521
  821.0000     7.9019    78.5822     0.0300     2.4165     0.1294   -47.5878    11.9626    12.6673
  821.5000     7.9059    78.4763     0.0358     2.4139     0.1274   -47.7937    11.9556    12.6825
  822.0000     7.9100    77.2870     0.0417     2.4409     0.1088   -48.0000    11.9486    12.6975
  822.5000     7.9141    75.4448     0.0445     2.4737     0.0830   -48.2068    11.9418    12.7127
  823.0000     7.9181    74.9898     0.0446     2.5070     0.0636   -48.4017    11.9346    12.8628
  823.5000     7.9222    70.1068     0.0331     2.5409     0.0576   -48.3398    11.9276    13.0901
  824.0000     7.9262    63.4229     0.0135     2.5480     0.0594   -48.2626    11.9222    13.3210
  824.5000     7.9303    59.1489     0.0033     2.5389     0.0698   -48.2086    12.1464    13.5559
  825.0000     7.9344    62.4665     0.0071     2.5102     0.0802   -48.4512    12.3329    13.7950
  825.5000     7.9314    65.4033     0.0107     2.4981     0.0898   -48.6995    12.8307    14.0346
  826.0000     7.9244    68.8616     0.0148     2.4691     0.1014   -48.9440    13.4311    14.2804
  826.5000     7.9172    73.1744     0.0324     2.4342     0.1365   -49.2119    14.0595    15.1779
  827.0000     7.9101    74.8278     0.0468     2.4011     0.1476   -50.0141    14.7174    16.3342
  827.5000     7.9029    75.8344     0.0452     2.3914     0.1532   -50.1249    15.4060    17.0145
  828.0000     7.8958    78.6231     0.0439     2.3857     0.1540   -49.6538    16.1269    17.5736
  828.5000     7.8887    80.8432     0.0426     2.3795     0.1601   -49.1741    16.9361    17.7634
  829.0000     7.8815    80.2099     0.0434     2.3729     0.1601   -48.6961    16.9361    17.9013
  829.5000     7.8744    79.4604     0.0444     2.3766     0.1513   -48.2184    16.1256    16.6476
  830.0000     7.8672    82.2861     0.0453     2.3858     0.1508   -47.7435    15.2879    15.7069
  830.5000     7.8601    83.6353     0.0463     2.3830     0.1565   -47.4000    14.4936    14.7076
  831.0000     7.8530    80.2272     0.0472     2.3770     0.1610   -47.4877    13.7407    13.7719
  831.5000     7.8458    78.9028     0.0481     2.3665     0.1681   -47.5659    13.0268    12.9558
  832.0000     7.8387    81.5913     0.0499     2.3554     0.1634   -47.8148    12.3500    12.5653
  832.5000     7.8316    82.5079     0.0523     2.3528     0.1596   -48.2742    12.1581    12.2992
  833.0000     7.8244    80.8314     0.0546     2.3830     0.1604   -48.7677    12.0436    12.1427
  833.5000     7.8173    79.0561     0.0552     2.3735     0.1655   -47.8657    11.9302    11.9882
  834.0000     7.8101    75.1315     0.0558     2.3623     0.1733   -47.2772    11.8178    11.8357
  834.5000     7.8029    73.0353     0.0563     2.3512     0.1737   -47.5728    11.7067    11.5963
  835.0000     7.7960    73.7539     0.0567     2.3473     0.1678   -47.8644    11.5966    11.6033
  835.5000     7.8055    75.5424     0.0457     2.3690     0.1613   -48.1590    11.5735    11.6180
  836.0000     7.8160    77.8932     0.0302     2.3749     0.1634   -48.4115    11.5503    11.6328
  836.5000     7.8264    79.2291     0.0356     2.3712     0.1643   -48.4031    11.5273    11.6480
  837.0000     7.8370    75.4352     0.0494     2.3683     0.1532   -48.4043    11.5044    11.6631
  837.5000     7.8475    73.7000     0.0616     2.3893     0.1487   -48.4058    11.4816    11.6783
  838.0000     7.8465    73.2032     0.0660     2.3980     0.1469   -48.6786    11.4588    11.6940
  838.5000     7.7481    74.1814     0.0706     2.3957     0.1477   -49.1691    11.4360    11.7030
  839.0000     7.6315    75.1834     0.0747     2.3939     0.1471   -49.5605    11.4133    11.6449
  839.5000     7.5888    77.4066     0.0746     2.3978     0.1427   -49.2572    11.3906    11.6004
  840.0000     7.5701    77.6142     0.0715     2.4096     0.1412   -48.9448    11.3505    11.5562
  840.5000     7.6540    74.4666     0.0631     2.4116     0.1453   -48.6389    11.3035    11.5123
  841.0000     7.8926    73.0584     0.0547     2.4025     0.1493   -48.6131    11.2566    11.4683
  841.5000     7.9478    73.8293     0.0470     2.3940     0.1453   -48.6572    11.2099    11.4238
  842.0000     7.9643    74.8152     0.0410     2.4000     0.1416   -48.7007    11.1278    11.3826
  842.5000     7.9739    76.4686     0.0350     2.4124     0.1379   -48.7443    10.9475    11.1104
  843.0000     7.9760    77.3657     0.0327     2.4162     0.1356   -48.7829    10.7702    10.8701
  843.5000     7.9760    75.8813     0.0330     2.4180     0.1346   -49.1528    10.5957    10.8186
  844.0000     7.9759    74.5697     0.0333     2.4205     0.1332   -49.6852    10.4241    10.7692
  844.5000     7.9760    74.7546     0.0336     2.4230     0.1330   -49.9310    10.2551    10.7201
