~VERSION INFORMATION
 VERS.                2.0:   CWLS LOG ASCII STANDARD - VERSION 2.0
 WRAP.                 NO:   ONE LINE PER DEPTH STEP
~WELL INFORMATION
#MNEM.UNIT      DATA TYPE    INFORMATION
#----------   ------------   ------------------------------
 STRT.F          779.5000:   START DEPTH
 STOP.F         2194.0000:   STOP DEPTH
 STEP.F            0.5000:   STEP LENGTH
 NULL.          -999.2500:   NO VALUE
 COMP. LAWRENCE/ALLISON INC:   COMPANY
 WELL.        27 X #10-10:   WELL
 FLD .             TEAPOT:   FIELD
 LOC .      S10 T38N R78W:   LOCATION
 CNTY.            NATRONA:   COUNTY
 STAT.            WYOMING:   STATE
 CTRY. UNITED STATES OF AMERICA:   COUNTRY
 SRVC.            Unknown:   SERVICE COMPANY
 DATE.        21-AUG-1987:   LOGDATE
 API .       490251118900:   API NUMBER
~CURVE INFORMATION
#MNEM.UNIT       API CODE    CURVE DESCRIPTION
#----------   ------------   ------------------------------
 DEPT.F                  :   
 ROP .MIN/FT 91 810 01 00:   RATE OF DRILLING PENETRATION
 TGAS.UNITS  91 830 01 00:   TOTAL GAS FROM HOTWIRE
~PARAMETER INFORMATION
#MNEM.UNIT          VALUE    DESCRIPTION
#----------   ------------   ------------------------------
 EKB .F              5237:   KELLING BUSHING
 EGL .F              5236:   GROUND LEVEL
 DATE.        21-AUG-1987:   RUN DATE
 BLI .F              2180:   BOTTOM LOG INTERVAL
 TLI .F               780:   TOP LOG INTERVAL
 LUN .              T-148:   LOGGING UNIT NUMBER
 ENGI.            R. HUSK:   RECORDING ENGINEER
 WITN.           C. TOWER:   WITNESSED BY
 CLNT.            A2DTECH:   CLIENT CODE
 ORIG.           5" PRINT:   ORIGIN OF DATA
 UWI .       490251118900:   UNIQUE WELL ID
 DICO. A2D Technologies, Inc.:   DIGITIZING COMPANY
~OTHER INFORMATION
~A   DEPT      ROP         TGAS 
  779.5000  -999.2500     1.3300
  780.0000     0.8082     1.3300
  780.5000     0.7761     1.3300
  781.0000     0.7764     1.3300
  781.5000     0.7767     1.3300
  782.0000     0.7785     1.3300
  782.5000     0.7879     1.3300
  783.0000     0.7609     1.3300
  783.5000     0.6588     1.3300
  784.0000     0.5582     1.3300
  784.5000     0.5389     1.3300
  785.0000     0.5307     1.3300
  785.5000     0.5336     1.3300
  786.0000     0.5420     1.3300
  786.5000     0.5394     1.3300
  787.0000     0.5039     1.3300
  787.5000     0.4188     1.3300
  788.0000     0.3712     1.3300
  788.5000     0.3387     1.3300
  789.0000     0.3136     1.3300
  789.5000     0.3068     1.3300
  790.0000     0.3071     1.3300
  790.5000     0.3074     1.3300
  791.0000     0.3077     1.3300
  791.5000     0.3124     1.3300
  792.0000     0.3330     1.3300
  792.5000     0.3709     1.3300
  793.0000     0.4149     1.3300
  793.5000     0.4589     1.3300
  794.0000     0.4816     1.3300
  794.5000     0.4711     1.3300
  795.0000     0.4737     1.3300
  795.5000     0.4759     1.3300
  796.0000     0.4781     1.3300
  796.5000     0.4803     1.3300
  797.0000     0.4825     1.3300
  797.5000     0.4847     1.3300
  798.0000     0.4869     1.3300
  798.5000     0.4891     1.3300
  799.0000     0.4913     1.3300
  799.5000     0.4935     1.3300
  800.0000     0.4957     1.3300
  800.5000     0.4782     1.3300
  801.0000     0.4644     1.3300
  801.5000     0.4650     1.3300
  802.0000     0.4655     1.3300
  802.5000     0.4663     1.3300
  803.0000     0.4679     1.3300
  803.5000     0.4695     1.3300
  804.0000     0.4711     1.3300
  804.5000     0.4727     1.3300
  805.0000     0.4742     1.3300
  805.5000     0.4758     1.3300
  806.0000     0.4774     1.3300
  806.5000     0.4790     1.3300
  807.0000     0.4806     1.3642
  807.5000     0.4823     1.4461
  808.0000     0.4720     1.5279
  808.5000     0.4833     5.0918
  809.0000     0.4823    27.7749
  809.5000     0.4813    38.6876
  810.0000     0.4803    37.8314
  810.5000     0.4793    30.0060
  811.0000     0.4783    30.0228
  811.5000     0.4773    32.6547
  812.0000     0.4763    35.2865
  812.5000     0.4753    37.0467
  813.0000     0.4743    36.6277
  813.5000     0.4733    36.6474
  814.0000     0.4723    61.0724
  814.5000     0.4713    61.0892
  815.0000     0.4703    61.5356
  815.5000     0.4693    61.5321
  816.0000     0.4806    61.5286
  816.5000     0.4484    61.5252
  817.0000     0.3831    61.5217
  817.5000     0.3313    61.5182
  818.0000     0.3591    61.5148
  818.5000     0.4347    61.5113
  819.0000     0.4864    61.5078
  819.5000     0.5075    61.5044
  820.0000     0.5172    61.5009
  820.5000     0.4849    61.4974
  821.0000     0.4978    61.4940
  821.5000     0.5323    61.4905
  822.0000     0.5769    61.4870
  822.5000     0.6196    61.4836
  823.0000     0.6552    61.4801
  823.5000     0.7022    61.4766
  824.0000     0.7446    61.4732
  824.5000     0.7273    61.4697
  825.0000     0.6884    61.4662
  825.5000     0.6318    61.4675
  826.0000     0.5820    61.4773
  826.5000     0.5555    61.4871
  827.0000     0.5440    61.4969
  827.5000     0.5371    61.5067
  828.0000     0.5368    61.5166
  828.5000     0.5310    61.5264
  829.0000     0.5136    61.5362
  829.5000     0.4972    61.5460
  830.0000     0.4924    61.5558
  830.5000     0.4922    61.5656
  831.0000     0.4919    61.5754
  831.5000     0.4916    61.5852
  832.0000     0.4913    61.5950
  832.5000     0.4910    61.6049
  833.0000     0.4908    61.6147
  833.5000     0.4905    61.6245
  834.0000     0.4902    61.6343
  834.5000     0.4792    61.6441
  835.0000     0.4789    61.6539
  835.5000     0.4895    61.6637
  836.0000     0.4784    61.6735
  836.5000     0.4889    61.6833
  837.0000     0.4778    61.6931
  837.5000     0.4775    61.7030
  838.0000     0.4773    61.7128
  838.5000     0.4802    61.7226
  839.0000     0.4839    61.7324
  839.5000     0.4805    61.7422
  840.0000     0.5086    61.7536
  840.5000     0.5078    61.7352
  841.0000     0.5070    61.7132
  841.5000     0.5062    61.6911
  842.0000     0.5054    61.6691
  842.5000     0.5046    61.6471
  843.0000     0.5038    61.6250
  843.5000     0.5030    61.6030
  844.0000     0.5022    61.5810
  844.5000     0.5014    61.5589
  845.0000     0.5005    61.5369
  845.5000     0.4997    61.5149
  846.0000     0.4989    61.4928
  846.5000     0.4981    61.4708
  847.0000     0.4973    61.4488
  847.5000     0.4965    61.4267
  848.0000     0.4991    61.4047
  848.5000     0.5131    61.3827
  849.0000     0.5424    61.3606
  849.5000     0.5944    61.3386
  850.0000     0.6466    61.3166
  850.5000     0.6504    61.2945
  851.0000     0.6062    61.2725
  851.5000     0.5553    61.2505
  852.0000     0.4989    61.2284
  852.5000     0.4433    61.2064
  853.0000     0.4104    61.1844
  853.5000     0.4002    61.1623
  854.0000     0.3994    61.1403
  854.5000     0.3985    61.1183
  855.0000     0.3977    61.0962
  855.5000     0.3969    61.0742
  856.0000     0.3961    61.0522
  856.5000     0.3953    61.0301
  857.0000     0.3945    61.0081
  857.5000     0.3937    60.9861
  858.0000     0.3927    60.9640
  858.5000     0.3811    60.9420
  859.0000     0.3803    60.9200
  859.5000     0.3795    60.8979
  860.0000     0.3896    60.8759
  860.5000     0.3888    60.8652
  861.0000     0.3880    60.8545
  861.5000     0.3873    60.8437
  862.0000     0.3973    60.8330
  862.5000     0.3964    60.8222
  863.0000     0.3956    60.8115
  863.5000     0.3948    60.8008
  864.0000     0.3939    60.7900
  864.5000     0.3976    60.7793
  865.0000     0.4031    60.7686
  865.5000     0.4078    60.7578
  866.0000     0.4123    60.7471
  866.5000     0.4115    60.7364
  867.0000     0.4107    60.7256
  867.5000     0.4099    60.7149
  868.0000     0.3773    60.7042
  868.5000     0.3566    60.6934
  869.0000     0.3316    60.6827
  869.5000     0.3308    60.6720
  870.0000     0.3300    60.6612
  870.5000     0.3184    60.6505
  871.0000     0.3176    60.6398
  871.5000     0.3168    60.6290
  872.0000     0.3160    60.6183
  872.5000     0.3152    60.6076
  873.0000     0.3144    60.5968
  873.5000     0.3136    60.5861
  874.0000     0.3158    60.5754
  874.5000     0.3228    60.5646
  875.0000     0.3260    60.5539
  875.5000     0.3365    60.5432
  876.0000     0.3470    60.5324
  876.5000     0.3575    60.5217
  877.0000     0.3862    60.5110
  877.5000     0.4764    60.5002
  878.0000     0.5298    60.4895
  878.5000     0.5327    60.4788
  879.0000     0.5400    60.4680
  879.5000     0.5419    60.4573
  880.0000     0.5303    60.4466
  880.5000     0.5622    61.3634
  881.0000     0.5725    60.0920
  881.5000     0.6048    59.2586
  882.0000     0.6266    57.9872
  882.5000     0.6467    56.7153
  883.0000     0.6461    55.4087
  883.5000     0.6472    54.6109
  884.0000     0.6559    53.7775
  884.5000     0.6553    53.8306
  885.0000     0.6548    53.8730
  885.5000     0.6542    53.9155
  886.0000     0.6537    53.9580
  886.5000     0.6531    54.0004
  887.0000     0.6526    54.0438
  887.5000     0.6521    54.0960
  888.0000     0.6710    54.1385
  888.5000     0.7518    54.1809
  889.0000     0.8743    54.2234
  889.5000     1.0146    54.2659
  890.0000     1.0823    54.3083
  890.5000     1.0483    54.3508
  891.0000     0.9637    54.3942
  891.5000     0.8773    54.4464
  892.0000     0.8373    54.4888
  892.5000     0.8225    54.5313
  893.0000     0.8108    54.5738
  893.5000     0.7753    54.6162
  894.0000     0.6774    54.6587
  894.5000     0.6120    54.7012
  895.0000     0.5465    54.7445
  895.5000     0.4919    54.3482
  896.0000     0.4480    54.4012
  896.5000     0.4811    54.4437
  897.0000     0.5487    54.4862
  897.5000     0.6340    54.5286
  898.0000     0.6732    54.5711
  898.5000     0.6726    54.6136
  899.0000     0.6721    54.6569
  899.5000     0.6753    54.7091
  900.0000     0.6926    54.7436
  900.5000     0.6818    54.7765
