~VERSION INFORMATION
 VERS.                2.0:   CWLS LOG ASCII STANDARD - VERSION 2.0
 WRAP.                 NO:   ONE LINE PER DEPTH STEP
~WELL INFORMATION
#MNEM.UNIT      DATA TYPE    INFORMATION
#----------   ------------   ------------------------------
 STRT.F           30.5000:   START DEPTH
 STOP.F          692.0000:   STOP DEPTH
 STEP.F            0.5000:   STEP LENGTH
 NULL.          -999.2500:   NO VALUE
 COMP. FENIX & SCISSON INC:   COMPANY
 WELL.   27-S-11-WP #3-11:   WELL
 FLD .  TEAPOT DOME NPR-3:   FIELD
 LOC .      S11 T38N R78W:   LOCATION
 CNTY.            NATRONA:   COUNTY
 STAT.            WYOMING:   STATE
 CTRY. UNITED STATES OF AMERICA:   COUNTRY
 SRVC.       Schlumberger:   SERVICE COMPANY
 DATE.        18-FEB-1978:   LOGDATE
 API .       490251058100:   API NUMBER
~CURVE INFORMATION
#MNEM.UNIT       API CODE    CURVE DESCRIPTION
#----------   ------------   ------------------------------
 DEPT.F                  :   
 CALD.IN     45 280 60 00:   CALIPER FROM DENSITY LOG
 CORR.G/C3   45 356 01 00:   DENSITY CORRECTION
 DPHI.DEC    45 890 12 00:   DENSITY POROSITY SANDSTONE
 GRD .GAPI   45 310 01 00:   GAMMA RAY FROM DENSITY LOG
 RHOB.G/C3   45 350 01 00:   BULK DENSITY
 ILD .OHMM   05 110 46 00:   INDUCTION LOG DEEP
 SN  .OHMM   05 040 16 00:   SHORT NORMAL 16"
 SPR .MV     05 010 01 00:   SPONTANEOUS POTENSIAL FROM RES.
~PARAMETER INFORMATION
#MNEM.UNIT          VALUE    DESCRIPTION
#----------   ------------   ------------------------------
 PD  .                 GL:   PERMANENT DATUM
 EPD .F              5195:   ELEVATION PERMANENT DATUM
 LMF .                 KB:   LOG MEASURED FROM
 DAPD.F                 4:   FEET ABOVE PERMANENT DATUM
 DMF .                 KB:   DRILLING MEASURED FROM
 EKB .F              5199:   KELLING BUSHING
 EGL .F              5195:   GROUND LEVEL
 DATE.        18-FEB-1978:   RUN DATE
 RUN .                  1:   RUN NUMBER
 DD  .F               690:   DEPTH DRILLER
 DL  .F               695:   DEPTH LOGGER
 BLI .F               688:   BOTTOM LOG INTERVAL
 TLI .F                40:   TOP LOG INTERVAL
 CS  .IN            8.625:   CASING SIZE
 CBD .F                40:   CASING BOTTOM DRILLER
 CBL .F                40:   CASING BOTTOM LOGGER
 BS  .IN            7.875:   BIT SIZE
 BSD .F               690:   BIT SIZE AT DEPTH
 DFT .       LIGNO/ SULF.:   DRILLING FLUID TYPE
 DFD .                8.8:   DRILLING FLUID DENSITY
 DFV .                 33:   DRILLING FLUID VISCOSITY
 DFPH.               10.0:   DRILLING FLUID PH
 DFL .                5.0:   DRILLING FLUID LOSS
 MSS .           FLOWLINE:   MUD SAMPLE SOURCE
 RMS .OHMM            1.7:   RESISTIVITY MUD SAMPLE
 MST .F                66:   MUD SAMPLE TEMPERATURE
 RMF .OHMM            2.0:   RESISTIVITY MUD FILTRATE SAMPLE
 MFST.F                58:   MUD FILTRATE SAMPLE TEMPERATURE
 RMC .OHMM            3.0:   RESISTIVITY MUD CAKE
 MCST.F                60:   MUD CAKE SAMPLE TEMPERATURE
 MFSS.               MEAS:   MUD FILTRATE SAMPLE SOURCE
 RMB .OHMM           1.65:   RESISTIVITY MUD AT BHT
 BHT .F                68:   BOTTOM HOLE TEMPERATURE
 TCS .HRS               2:   TIME CURCULATED STOPPED
 MRT .F                68:   MAXIMUM RECORDED TEMPERATURE
 LUN .               2958:   LOGGING UNIT NUMBER
 LUL .             CASPER:   LOGGING UNIT LOCATION
 ENGI.            POINTER:   RECORDING ENGINEER
 WITN.           MCGINLEY:   WITNESSED BY
 CLNT.            A2DTECH:   CLIENT CODE
 ORIG.           5" PRINT:   ORIGIN OF DATA
 UWI .       490251058100:   UNIQUE WELL ID
~OTHER INFORMATION
~A   DEPT     CALD       CORR       DPHI         GRD      RHOB        ILD         SN        SPR   
# ...
  597.5000     7.7162     0.0785     0.1226    81.2904     2.4478    11.4734    11.6622   -41.5381
  598.0000     7.8361     0.0479     0.1233    81.5879     2.4385    11.4638    11.6470   -41.2664
  598.5000     7.9264     0.0310     0.1233    81.7216     2.4247    11.4542    11.6318   -41.2933
  599.0000     7.9849     0.0277     0.1197    81.8553     2.4367    11.2837    11.6167   -41.6255
  599.5000     8.0132     0.0260     0.1153    81.5300     2.4518    11.2743    11.6015   -41.9578
  600.0000     8.0108     0.0289     0.1129    80.7510     2.4646    11.3456    11.3432   -41.8321
  600.5000     8.0181     0.0294     0.1111    80.6521     2.4722    11.1796    11.4880   -40.4831
  601.0000     8.0164     0.0299     0.1105    80.7556     2.4714    11.1603    11.5689   -40.6734
  601.5000     8.0126     0.0298     0.1066    82.3120     2.4766    11.0836    11.5579   -40.7257
  602.0000     7.9979     0.0296     0.1062    84.0869     2.4750    11.1533    11.4686   -40.7335
  602.5000     7.9959     0.0310     0.1085    83.5577     2.4696    11.1451    11.3800   -40.6107
  603.0000     7.9942     0.0293     0.1106    82.4822     2.4665    11.2172    11.2921   -40.3318
  603.5000     7.9926     0.0291     0.1113    81.2551     2.4649    11.2070    11.2836   -40.0604
  604.0000     8.0065     0.0293     0.1098    80.4825     2.4641    11.1988    11.2750   -40.0916
  604.5000     8.0045     0.0333     0.1077    80.4675     2.4648    11.1914    11.2665   -40.1281
  605.0000     8.0028     0.0377     0.1068    81.8162     2.4693    11.1825    11.2580   -40.1582
  605.5000     8.0012     0.0406     0.1048    82.5625     2.4746    11.0964    11.2500   -39.8754
  606.0000     7.9995     0.0419     0.1007    82.3960     2.4775    11.0883    11.2410   -39.6001
  606.5000     7.9827     0.0417     0.1002    83.2901     2.4789    11.0029    11.1541   -39.6377
  607.0000     7.9810     0.0400     0.0996    80.9987     2.4803    10.7664    11.1457   -39.5076
  607.5000     7.9794     0.0398     0.0960    80.7198     2.4856    10.6089    11.1372   -39.3851
  608.0000     7.9777     0.0381     0.0945    84.3021     2.4969    10.5173    11.0510   -39.5753
  608.5000     7.9761     0.0349     0.1024    85.0484     2.4884    10.2992    11.0408   -39.7581
  609.0000     7.9744     0.0317     0.1070    83.9691     2.4808    10.2199    10.8791   -39.9408
  609.5000     7.9728     0.0315     0.1085    83.1965     2.4799    10.2124    10.7950   -40.7343
  610.0000     7.9863     0.0313     0.1076    83.1816     2.4791    10.2049    10.7869   -41.0697
  610.5000     7.9847     0.0311     0.1092    84.2272     2.4714    10.1811    10.7035   -41.0998
  611.0000     7.9830     0.0309     0.1107    85.2728     2.4653    10.1198    10.6209   -40.5192
  611.5000     7.9813     0.0307     0.1095    84.9435     2.4645    10.1116    10.4653   -39.9386
  612.0000     7.9797     0.0305     0.1059    84.3151     2.4689    10.0337    10.3845   -39.6633
  612.5000     7.9780     0.0304     0.1056    84.4950     2.4704     9.9565    10.3042   -40.0509
  613.0000     7.9760     0.0318     0.1066    85.5122     2.4688     9.8798    10.2246   -40.4944
  613.5000     7.9744     0.0316     0.1072    85.3457     2.4664     9.8037    10.0749   -40.3643
  614.0000     7.9727     0.0313     0.1072    86.0883     2.4679     9.7283    10.0673   -40.0890
  614.5000     7.9713     0.0312     0.1045    87.2855     2.4701     9.5823     9.9198   -39.8137
  615.0000     7.9694     0.0310     0.1015    88.6341     2.4746     9.3798     9.8430   -39.8513
  615.5000     7.9680     0.0308     0.0994    89.6835     2.4790     9.2412     9.7668   -39.7212
  616.0000     7.9661     0.0306     0.0985    88.3011     2.4790     9.1061     9.6223   -39.7588
  616.5000     7.9643     0.0305     0.0967    87.2255     2.4834     8.9729     9.5479   -40.5523
  617.0000     7.9630     0.0318     0.0946    86.4530     2.4818     8.8417     9.3425   -40.8877
  617.5000     7.9613     0.0316     0.0934    86.2865     2.4924     8.7737     9.1415   -40.9178
  618.0000     7.9748     0.0314     0.0948    86.7261     2.4908     8.6454     8.8204   -40.3372
  618.5000     7.9730     0.0312     0.0997    88.8323     2.4839     8.4006     8.5107   -40.0611
  619.0000     7.9870     0.0311     0.1043    90.7870     2.4937     8.0492     8.2118   -39.7863
  619.5000     7.9849     0.0294     0.1099    91.8333     2.4775     7.4997     7.8681   -39.9705
  620.0000     7.9833     0.0291     0.1151    89.6965     2.4523     6.7947     7.4863   -40.7634
  620.5000     7.9851     0.0274     0.1218    86.1966     2.4460     6.0705     7.1230   -40.5831
  621.0000     7.9951     0.0242     0.1279    86.0061     2.4266     5.4999     6.6831   -38.8112
  621.5000     7.9935     0.0119     0.1352    89.5105     2.4128     5.0886     6.2253   -38.2577
  622.0000     7.9918     0.0056     0.1131    95.9859     2.3907     5.2745     5.7948   -38.7533
  622.5000     7.9901     0.0146     0.0943   104.4240     2.4165     5.4868     5.5526   -40.0048
  623.0000     7.9885     0.0220     0.0933   107.0970     2.4847     5.5991     5.4379   -40.6455
  623.5000     7.9865     0.0264     0.0882   103.9818     2.5165     5.7943     5.7871   -40.6756
  624.0000     7.9851     0.0278     0.0840    92.1487     2.5180     6.2974     6.5133   -40.5530
  624.5000     7.9835     0.0275     0.0825    86.8307     2.5171     7.1877     8.0290   -40.1251
  625.0000     7.9815     0.0273     0.0822    85.6036     2.5140     7.9775     9.1640   -40.4605
  625.5000     7.9801     0.0272     0.0833    85.8954     2.5109     8.4900     9.6168   -41.1013
  626.0000     7.9938     0.0270     0.0847    86.0319     2.5078     8.8476     9.8153   -41.1314
  626.5000     7.9917     0.0268     0.0860    85.7102     2.5062     8.9674     9.9461   -40.8550
  627.0000     8.0055     0.0266     0.0872    85.2406     2.5046     9.1493    10.0084   -40.5802
  627.5000     8.0192     0.0264     0.0875    84.7711     2.5015     9.1426    10.0694   -40.6109
  628.0000     8.0327     0.0263     0.0878    84.4568     2.4999     9.1360    10.1324   -40.3357
  628.5000     8.0307     0.0276     0.0879    87.3169     2.5014     9.1958    10.1957   -40.5184
  629.0000     8.0446     0.0274     0.0885    90.6353     2.5036     9.3231    10.3358   -40.5720
  629.5000     8.0275     0.0272     0.0891    93.0445     2.5065     9.4406    10.4786   -41.6548
  630.0000     8.0106     0.0285     0.0895    93.4878     2.5087     9.6321    10.7583   -42.2956
  630.5000     8.0090     0.0284     0.0898    91.6509     2.5033     9.7607    10.9783   -42.0203
  631.0000     8.0073     0.0297     0.0898    90.5754     2.4979     9.8929    11.1225   -41.4322
  631.5000     8.0056     0.0310     0.0889    89.9543     2.4979    10.0954    11.3521   -40.8516
  632.0000     8.0039     0.0309     0.0871    90.6969     2.4993    10.3002    11.5820   -41.1945
  632.5000     7.9871     0.0322     0.0853    92.2070     2.4992    10.5111    11.7364   -41.6826
  633.0000     7.9854     0.0351     0.0841    93.5697     2.5030    10.6534    11.8951   -42.1707
  633.5000     7.9838     0.0364     0.0851    92.5635     2.5068    10.7204    12.1360   -42.5062
  634.0000     7.9808     0.0362     0.0875    91.0384     2.5089    10.8620    12.3001   -42.3836
  634.5000     7.9649     0.0376     0.0885    90.1637     2.5065    10.9301    12.3751   -42.2535
  635.0000     7.9633     0.0374     0.0894    89.8457     2.5042    10.9987    12.5397   -41.9847
  635.5000     7.9616     0.0372     0.0908    89.0732     2.5003    11.0678    12.5302   -41.7099
  636.0000     7.9600     0.0385     0.0967    89.2097     2.4926    11.1374    12.5206   -41.5878
  636.5000     7.9583     0.0399     0.1004    89.9523     2.4971    11.2074    12.5991   -41.9308
  637.0000     7.9569     0.0412     0.0995    90.2441     2.4925    11.1972    12.5892   -42.4285
  637.5000     7.9552     0.0426     0.0989    90.2254     2.4863    11.2696    12.5777   -42.7481
