~VERSION INFORMATION
 VERS.                2.0:   CWLS LOG ASCII STANDARD - VERSION 2.0
 WRAP.                 NO:   ONE LINE PER DEPTH STEP
~WELL INFORMATION
#MNEM.UNIT      DATA TYPE    INFORMATION
#----------   ------------   ------------------------------
 STRT.F            0.0000:   START DEPTH
 STOP.F          752.0000:   STOP DEPTH
 STEP.F            0.1000:   STEP LENGTH
 NULL.          -999.2500:   NO VALUE
 COMP. BROWN JOHN E&C INC:   COMPANY
 WELL. N P R 3 STX-34 #53-1-34:   WELL
 FLD .             TEAPOT:   FIELD
 LOC .      S34 T39N R78W:   LOCATION
 CNTY.            NATRONA:   COUNTY
 STAT.            WYOMING:   STATE
 CTRY. UNITED STATES OF AMERICA:   COUNTRY
 SRVC.     Atlas Wireline:   SERVICE COMPANY
 DATE.        29-OCT-1991:   LOGDATE
 API .       490252248700:   API NUMBER
~CURVE INFORMATION
#MNEM.UNIT       API CODE    CURVE DESCRIPTION
#----------   ------------   ------------------------------
 DEPT.F                  :   
 GRR .GAPI   07 310 01 00:   GAMMA RAY
 RILD.OHMM   07 120 46 00:   INDUCTION LOG DEEP RESISTIVITY
 RILM.OHMM   07 120 44 00:   RESITIVITY LONG MEDIUM
~PARAMETER INFORMATION
#MNEM.UNIT          VALUE    DESCRIPTION
#----------   ------------   ------------------------------
 PD  .                 GL:   PERMANENT DATUM
 EPD .F              5067:   ELEVATION PERMANENT DATUM
 LMF .                 KB:   LOG MEASURED FROM
 DAPD.F                10:   FEET ABOVE PERMANENT DATUM
 DMF .                 KB:   DRILLING MEASURED FROM
 EKB .F              5077:   KELLING BUSHING
 EGL .F              5067:   GROUND LEVEL
 DATE.        29-OCT-1991:   RUN DATE
 RUN .                  1:   RUN NUMBER
 DD  .F               760:   DEPTH DRILLER
 DL  .F               760:   DEPTH LOGGER
 BLI .F               758:   BOTTOM LOG INTERVAL
 TLI .F                 0:   TOP LOG INTERVAL
 CS  .IN            9.625:   CASING SIZE
 CBD .F                52:   CASING BOTTOM DRILLER
 CBL .F                52:   CASING BOTTOM LOGGER
 BS  .IN             8.75:   BIT SIZE
 BSD .F               760:   BIT SIZE AT DEPTH
 DFT .        AIR DRILLED:   DRILLING FLUID TYPE
 MRT .F               154:   MAXIMUM RECORDED TEMPERATURE
 LUN .            HL 6307:   LOGGING UNIT NUMBER
 LUL .             CASPER:   LOGGING UNIT LOCATION
 ENGI.          RASMUSSEN:   RECORDING ENGINEER
 WITN.        GARY STRONG:   WITNESSED BY
 CLNT.            A2DTECH:   CLIENT CODE
 ORIG.           5" PRINT:   ORIGIN OF DATA
 UWI .       490252248700:   UNIQUE WELL ID
 DICO. A2D Technologies, Inc.:   DIGITIZING COMPANY
~OTHER INFORMATION
~A    DEPT      GRR      RILD       RILM   
# ...
  728.0000   110.8301     6.8065     7.1785
  728.1000   111.2524     6.8062     7.1369
  728.2000   111.6362     6.8058     7.0875
  728.3000   111.8879     6.8054     7.0048
  728.4000   112.1395     6.8050     7.0046
  728.5000   112.4267     6.8034     6.9415
  728.6000   112.6431     6.7568     6.9070
  728.7000   112.7304     6.7565     6.8778
  728.8000   112.7310     6.7319     6.8107
  728.9000   112.7316     6.6926     6.8105
  729.0000   112.7322     6.6456     6.7730
  729.1000   112.7329     6.5683     6.7338
  729.2000   112.7334     6.4178     6.7155
  729.3000   112.7340     6.2706     6.7153
  729.4000   112.7346     6.1683     6.7151
  729.5000   112.7353     6.1104     6.7149
  729.6000   112.7359     6.0747     6.6444
  729.7000   112.7366     6.0384     6.6213
  729.8000   112.9408     6.0380     6.6211
  729.9000   113.0402     6.0377     6.6210
  730.0000   113.0408     6.0178     6.6208
  730.1000   113.0909     5.9826     6.6206
  730.2000   113.3446     5.9529     6.6204
  730.3000   113.5943     5.9526     6.6202
  730.4000   113.8461     5.9522     6.6200
  730.5000   114.0978     5.9519     6.6198
  730.6000   114.3496     5.9516     6.6197
  730.7000   114.6013     5.9512     6.6194
  730.8000   114.8611     5.9509     6.6193
  730.9000   115.1049     5.9506     6.6191
  731.0000   115.1649     5.9503     6.6189
  731.1000   115.1655     5.9499     6.6187
  731.2000   115.1661     5.9671     6.6186
  731.3000   115.1667     6.0014     6.6184
  731.4000   115.1674     6.0327     6.6182
  731.5000   115.1679     6.0323     6.6180
  731.6000   115.1685     6.0944     6.6178
  731.7000   115.1691     6.1408     6.6176
  731.8000   115.1697     6.2106     6.6174
  731.9000   115.1703     6.3090     6.6543
  732.0000   115.1710     6.3846     6.6635
  732.1000   115.4026     6.5121     6.6845
  732.2000   115.4747     6.5770     6.7098
  732.3000   115.4753     6.6787     6.7149
  732.4000   115.5525     6.7777     6.7565
  732.5000   115.7791     6.8563     6.7927
  732.6000   115.7798     6.9358     6.8319
  732.7000   116.0053     7.0300     6.8713
  732.8000   116.2570     7.0977     6.9110
  732.9000   116.5087     7.1801     6.9509
  733.0000   116.7604     7.2457     6.9956
  733.1000   117.0312     7.2874     7.0314
  733.2000   117.5989     7.3293     7.0720
  733.3000   118.0372     7.3800     7.1324
  733.4000   118.5401     7.4140     7.1931
  733.5000   119.0430     7.4826     7.1976
  733.6000   119.4166     7.5522     7.2939
  733.7000   119.4042     7.5956     7.3296
  733.8000   119.1154     7.6403     7.3720
  733.9000   118.4774     7.7271     7.4333
  734.0000   117.7246     7.7817     7.5096
  734.1000   117.0817     7.8524     7.5530
  734.2000   116.6386     7.9435     7.6049
  734.3000   116.3813     8.0283     7.6765
  734.4000   115.7907     8.0769     7.7116
  734.5000   115.3777     8.1659     7.7468
  734.6000   115.0314     8.2607     7.8281
  734.7000   114.6769     8.3565     7.8743
  734.8000   114.1753     8.4371     7.9188
  734.9000   113.6746     8.4857     7.9646
  735.0000   113.4241     8.5384     8.0106
  735.1000   112.9729     8.6296     8.0568
  735.2000   112.6205     8.6936     8.1033
  735.3000   112.3699     8.7436     8.1529
  735.4000   112.1194     8.7785     8.1527
  735.5000   111.8639     8.7879     8.1524
  735.6000   111.8644     8.9010     8.1522
  735.7000   111.8651     8.9006     8.1371
  735.8000   111.8657     8.9355     8.0950
  735.9000   111.8663     8.9870     8.0947
  736.0000   111.8669     9.0243     8.0524
  736.1000   111.8675     9.0238     8.0380
  736.2000   111.8681     9.0233     8.0377
  736.3000   111.8687     9.0228     8.0246
  736.4000   111.8693     9.0223     7.9813
  736.5000   111.8699     9.0218     7.9811
  736.6000   111.8705     9.0213     7.9411
  736.7000   111.8711     9.0208     7.9251
  736.8000   111.8717     9.0202     7.9044
  736.9000   111.8723     8.9764     7.8694
  737.0000   111.8729     8.9565     7.8677
  737.1000   111.8735     8.9560     7.8142
  737.2000   111.8741     8.9555     7.8140
  737.3000   111.8748     8.9545     7.8138
  737.4000   111.8753     8.8920     7.8321
  737.5000   111.8759     8.8916     7.8681
  737.6000   111.8765     8.8911     7.8679
  737.7000   111.8772     8.8906     7.9131
  737.8000   111.8778     8.8806     7.9226
  737.9000   111.8784     8.8277     7.9224
  738.0000   112.1009     8.8272     7.9222
  738.1000   112.1822     8.8268     7.9220
  738.2000   112.1828     8.8263     7.9217
  738.3000   112.2508     8.8258     7.9655
  738.4000   112.5026     8.8253     7.9768
  738.5000   112.7898     8.8248     7.9766
  738.6000   113.0062     8.8243     7.9918
  738.7000   113.0935     8.8620     8.0321
  738.8000   113.2070     8.8852     8.0319
  738.9000   113.5201     8.8847     8.0317
  739.0000   114.0030     8.8842     8.0314
  739.1000   114.0037     8.8836     8.0312
  739.2000   114.4239     8.8832     8.0310
  739.3000   114.6100     8.8827     8.0308
  739.4000   114.8244     8.8822     8.0305
  739.5000   115.2718     8.8817     8.0303
  739.6000   115.5236     8.8812     8.0613
  739.7000   115.8228     8.8806     8.0862
  739.8000   116.2308     8.8802     8.0860
  739.9000   116.5813     8.8797     8.0879
  740.0000   116.6314     8.8792     8.1422
  740.1000   116.4301     8.8787     8.1420
  740.2000   116.4309     8.8782     8.1417
  740.3000   115.9333     8.8777     8.1415
  740.4000   115.6293     8.8772     8.1413
  740.5000   115.0863     8.8767     8.1411
  740.6000   114.3335     8.8762     8.1408
  740.7000   113.4939     8.8757     8.1406
  740.8000   112.1985     8.8752     8.1404
  740.9000   110.9837     8.8747     8.1402
  741.0000   109.7289     8.8742     8.1399
  741.1000   108.7541     8.8738     8.1397
  741.2000   108.2675     8.8733     8.1395
  741.3000   108.3427     8.8728     8.1392
  741.4000   108.8739     8.8723     8.1390
  741.5000   109.5854     8.8717     8.1388
  741.6000   110.3393     8.8713     8.1386
  741.7000   110.8252     8.8708     8.1383
  741.8000   110.9943     8.8703     8.1381
  741.9000   110.9636     8.8504     8.1379
  742.0000   110.6929     8.7462     8.1376
  742.1000   110.6935     8.7457     8.1374
  742.2000   110.5146     8.7452     8.1372
  742.3000   110.2641     8.7158     8.1369
  742.4000   110.0135     8.6833     8.1367
  742.5000   109.7881     8.6748     8.1365
  742.6000   110.0914     8.6219     8.1363
  742.7000   110.3170     8.6214     8.1361
  742.8000   110.3952     8.6209     8.1358
  742.9000   110.3958     8.6205     8.1356
  743.0000   110.4669     8.6200     8.0953
  743.1000   110.6995     8.6195     8.0785
  743.2000   110.7002     8.6190     8.0579
  743.3000   110.7008     8.6185     8.0218
  743.4000   110.8688     8.6181     8.0216
  743.5000   111.1204     8.6176     8.0213
  743.6000   111.4367     8.6171     7.9835
  743.7000   111.9266     8.6166     7.9372
  743.8000   112.2167     8.6161     7.9093
  743.9000   112.4301     8.6156     7.9091
  744.0000   112.6818     8.6152     7.9089
  744.1000  -999.2500     8.6147     7.9087
  744.2000  -999.2500     8.6142     7.9085
  744.3000  -999.2500     8.6137     7.9082
  744.4000  -999.2500     8.6132     7.9080
  744.5000  -999.2500     8.6128     7.9078
  744.6000  -999.2500     8.6123     7.9076
  744.7000  -999.2500     8.6118     7.9074
  744.8000  -999.2500     8.6113     7.9071
  744.9000  -999.2500     8.6064     7.9069
  745.0000  -999.2500     8.4908     7.9067
  745.1000  -999.2500     8.4904     7.9065
  745.2000  -999.2500     8.4280     7.9062
  745.3000  -999.2500     8.3304     7.9060
  745.4000  -999.2500     8.2549     7.9058
  745.5000  -999.2500     8.2530     7.9056
  745.6000  -999.2500     8.1394     7.9054
  745.7000  -999.2500     8.1009     7.9052
  745.8000  -999.2500     8.0537     7.9049
  745.9000  -999.2500     8.0067     7.9047
  746.0000  -999.2500     7.9599     7.9045
  746.1000  -999.2500     7.9129     7.8631
