~VERSION INFORMATION
 VERS.                2.0:   CWLS LOG ASCII STANDARD - VERSION 2.0
 WRAP.                 NO:   ONE LINE PER DEPTH STEP
~WELL INFORMATION
#MNEM.UNIT      DATA TYPE    INFORMATION
#----------   ------------   ------------------------------
 STRT.F           30.0000:   START DEPTH
 STOP.F         2432.5000:   STOP DEPTH
 STEP.F            0.5000:   STEP LENGTH
 NULL.          -999.2500:   NO VALUE
 COMP. FENIX & SCISSON INC:   COMPANY
 WELL.     72 SHX 4 #72-4:   WELL
 FLD .             TEAPOT:   FIELD
 LOC .       S4 T38N R78W:   LOCATION
 CNTY.            NATRONA:   COUNTY
 STAT.            WYOMING:   STATE
 CTRY. UNITED STATES OF AMERICA:   COUNTRY
 SRVC.           BIRDWELL:   SERVICE COMPANY
 DATE.        05-MAR-1979:   LOGDATE
 API .       490251074300:   API NUMBER
~CURVE INFORMATION
#MNEM.UNIT       API CODE    CURVE DESCRIPTION
#----------   ------------   ------------------------------
 DEPT.F                  :   
 SPR .MV     05 010 01 00:   SPONTANEOUS POTENTIAL FROM RES.
 SN  .OHMM   05 040 16 00:   SHORT NORMAL 16"
 ILD .OHMM   05 120 46 00:   INDUCTION LOG DEEP
 CALD.IN     45 280 60 00:   CALIPER
 GRD .GAPI   45 310 01 00:   GAMMA RAY FROM DENSITY LOG
 RHOB.G/C3   45 350 01 00:   BULK DENSITY
 CORR.G/C3   45 356 01 00:   DENSITY CORRECTION
 DPHI.DEC    45 890 12 00:   DENSITY POROSITY SANDSTONE
~PARAMETER INFORMATION
#MNEM.UNIT          VALUE    DESCRIPTION
#----------   ------------   ------------------------------
 PD  .                 GL:   PERMANENT DATUM
 EPD .F              5194:   ELEVATION PERMANENT DATUM
 LMF .                 KB:   LOG MEASURED FROM
 DAPD.F                10:   FEET ABOVE PERMANENT DATUM
 DMF .                 KB:   DRILLING MEASURED FROM
 EKB .F              5204:   KELLING BUSHING
 EGL .F              5194:   GROUND LEVEL
 DATE.             3-5-79:   RUN DATE
 RUN .                  1:   RUN NUMBER
 DD  .F              2560:   DEPTH DRILLER
 DL  .F              2432:   DEPTH LOGGER
 BLI .F              2432:   BOTTOM LOG INTERVAL
 TLI .F               400:   TOP LOG INTERVAL
 CS  .IN            9.625:   CASING SIZE
 CBD .F               685:   CASING BOTTOM DRILLER
 CBL .F               685:   CASING BOTTOM LOGGER
 BS  .IN             8.75:   BIT SIZE
 BSD .F              2560:   BIT SIZE AT DEPTH
 DFT .                AIR:   DRILLING FLUID TYPE
 TCS .HRS               5:   TIME CURCULATED STOPPED
 LUN .               3006:   LOGGING UNIT NUMBER
 LUL .             CASPER:   LOGGING UNIT LOCATION
 ENGI.         B. ROLLINS:   RECORDING ENGINEER
 WITN.           DINSMORE:   WITNESSED BY
 CLNT.            A2DTECH:   CLIENT CODE
 ORIG.           5" PRINT:   ORIGIN OF DATA
 UWI .       490251074300:   UNIQUE WELL ID
 DICO. A2D Technologies, Inc.:   DIGITIZING COMPANY
~OTHER INFORMATION
~A   DEPT      SPR         SN        ILD        CALD       GRD       RHOB         CORR      DPHI  
# ...
 1447.5000  -999.2500  -999.2500  -999.2500     9.4970    74.6667     2.5440     0.0389    -0.0060
 1448.0000  -999.2500  -999.2500  -999.2500     9.4948    75.7921     2.5498     0.0344    -0.0037
 1448.5000  -999.2500  -999.2500  -999.2500     9.4925    77.2153     2.5489     0.0298    -0.0018
 1449.0000  -999.2500  -999.2500  -999.2500     9.4903    78.6604     2.5476     0.0285    -0.0007
 1449.5000  -999.2500  -999.2500  -999.2500     9.4881    79.3566     2.5463     0.0309     0.0004
 1450.0000  -999.2500  -999.2500  -999.2500     9.4858    78.2211     2.5449     0.0332     0.0006
 1450.5000  -999.2500  -999.2500  -999.2500     9.4836    76.8842     2.5437     0.0355    -0.0013
 1451.0000  -999.2500  -999.2500  -999.2500     9.4813    75.5891     2.5450     0.0379    -0.0032
 1451.5000  -999.2500  -999.2500  -999.2500     9.4791    75.9896     2.5465     0.0400    -0.0026
 1452.0000  -999.2500  -999.2500  -999.2500     9.4769    78.4189     2.5479     0.0379     0.0039
 1452.5000  -999.2500  -999.2500  -999.2500     9.4746    80.6037     2.5396     0.0277     0.0104
 1453.0000  -999.2500  -999.2500  -999.2500     9.4724    81.5326     2.5304     0.0178     0.0169
 1453.5000  -999.2500  -999.2500  -999.2500     9.4701    81.4196     2.5210     0.0077     0.0184
 1454.0000  -999.2500  -999.2500  -999.2500     9.4679    80.4435     2.5171     0.0083    -0.0016
 1454.5000  -999.2500  -999.2500  -999.2500     9.4657    79.4888     2.5365     0.0200    -0.0185
 1455.0000  -999.2500  -999.2500  -999.2500     9.4634    79.0517     2.5593     0.0281    -0.0196
 1455.5000  -999.2500  -999.2500  -999.2500     9.4612    78.8699     2.5672     0.0215    -0.0083
 1456.0000  -999.2500  -999.2500  -999.2500     9.4592    79.8138     2.5542     0.0143    -0.0003
 1456.5000  -999.2500  -999.2500  -999.2500     9.4512    80.5149     2.5378     0.0072     0.0031
 1457.0000  -999.2500  -999.2500  -999.2500     9.4415    79.4022     2.5358     0.0024     0.0035
 1457.5000  -999.2500  -999.2500  -999.2500     9.4317    78.2070     2.5361     0.0046     0.0039
 1458.0000  -999.2500  -999.2500  -999.2500     9.4219    78.1688     2.5363     0.0042     0.0135
 1458.5000  -999.2500  -999.2500  -999.2500     9.4122    79.6318     2.5299    -0.0012     0.0236
 1459.0000  -999.2500  -999.2500  -999.2500     9.4021    81.1256     2.5126    -0.0066     0.0169
 1459.5000  -999.2500  -999.2500  -999.2500     9.4127    80.9903     2.5121     0.0170     0.0088
 1460.0000  -999.2500  -999.2500  -999.2500     9.4340    80.1189     2.5306     0.0442     0.0007
 1460.5000  -999.2500  -999.2500  -999.2500     9.4556    79.2898     2.5482     0.0559    -0.0061
 1461.0000  -999.2500  -999.2500  -999.2500     9.4772    78.7609     2.5564     0.0561    -0.0064
 1461.5000  -999.2500  -999.2500  -999.2500     9.4988    79.4541     2.5577     0.0556    -0.0068
 1462.0000  -999.2500  -999.2500  -999.2500     9.5187    81.2053     2.5607     0.0742    -0.0144
 1462.5000  -999.2500  -999.2500  -999.2500     9.5219    82.7822     2.5734     0.0952    -0.0283
 1463.0000  -999.2500  -999.2500  -999.2500     9.5249    81.4399     2.5856     0.1161    -0.0345
 1463.5000  -999.2500  -999.2500  -999.2500     9.5281    79.6224     2.5957     0.1327    -0.0331
 1464.0000  -999.2500  -999.2500  -999.2500     9.5312    79.4581     2.5967     0.1324    -0.0297
 1464.5000  -999.2500  -999.2500  -999.2500     9.5344    79.3066     2.5936     0.1250    -0.0295
 1465.0000  -999.2500  -999.2500  -999.2500     9.5376    77.9131     2.5949     0.1128    -0.0337
 1465.5000  -999.2500  -999.2500  -999.2500     9.5407    76.0792     2.5961     0.0966    -0.0261
 1466.0000  -999.2500  -999.2500  -999.2500     9.5439    74.2806     2.5819     0.0803    -0.0130
 1466.5000  -999.2500  -999.2500  -999.2500     9.5470    73.9292     2.5647     0.0642     0.0003
 1467.0000  -999.2500  -999.2500  -999.2500     9.5502    75.1863     2.5477     0.0498     0.0091
 1467.5000  -999.2500  -999.2500  -999.2500     9.5534    77.1194     2.5364     0.0521     0.0089
 1468.0000  -999.2500  -999.2500  -999.2500     9.5565    79.0863     2.5366     0.0582     0.0089
 1468.5000  -999.2500  -999.2500  -999.2500     9.5580    79.6821     2.5368     0.0645     0.0019
 1469.0000  -999.2500  -999.2500  -999.2500     9.5504    79.7276     2.5415     0.0701    -0.0064
 1469.5000  -999.2500  -999.2500  -999.2500     9.5429    78.6671     2.5466     0.0664    -0.0067
 1470.0000  -999.2500  -999.2500  -999.2500     9.5355    77.5784     2.5459     0.0528    -0.0025
 1470.5000  -999.2500  -999.2500  -999.2500     9.5281    76.4955     2.5410     0.0392     0.0017
 1471.0000  -999.2500  -999.2500  -999.2500     9.5206    75.4145     2.5362     0.0256     0.0056
 1471.5000  -999.2500  -999.2500  -999.2500     9.5132    74.3137     2.5314     0.0154     0.0118
 1472.0000  -999.2500  -999.2500  -999.2500     9.5057    74.7321     2.5265     0.0142     0.0156
 1472.5000  -999.2500  -999.2500  -999.2500     9.4983    75.5589     2.5238     0.0196     0.0066
 1473.0000  -999.2500  -999.2500  -999.2500     9.4908    75.9028     2.5341     0.0255    -0.0001
 1473.5000  -999.2500  -999.2500  -999.2500     9.4834    76.2238     2.5449     0.0314    -0.0068
 1474.0000  -999.2500  -999.2500  -999.2500     9.4789    76.5445     2.5555     0.0315    -0.0129
 1474.5000  -999.2500  -999.2500  -999.2500     9.4790    76.8661     2.5627     0.0294    -0.0116
 1475.0000  -999.2500  -999.2500  -999.2500     9.4789    77.1534     2.5597     0.0272    -0.0032
 1475.5000  -999.2500  -999.2500  -999.2500     9.4790    77.1614     2.5520     0.0217    -0.0020
 1476.0000  -999.2500  -999.2500  -999.2500     9.4789    76.9231     2.5445     0.0112    -0.0020
 1476.5000  -999.2500  -999.2500  -999.2500     9.4789    76.6443     2.5429     0.0007     0.0019
 1477.0000  -999.2500  -999.2500  -999.2500     9.4793    75.0747     2.5419    -0.0096     0.0142
 1477.5000  -999.2500  -999.2500  -999.2500     9.4876    73.2832     2.5337    -0.0052     0.0241
 1478.0000  -999.2500  -999.2500  -999.2500     9.4960    71.6771     2.5132     0.0076     0.0213
 1478.5000  -999.2500  -999.2500  -999.2500     9.5042    72.7988     2.5105     0.0208     0.0172
 1479.0000  -999.2500  -999.2500  -999.2500     9.5125    74.3494     2.5161     0.0270     0.0089
 1479.5000  -999.2500  -999.2500  -999.2500     9.5208    75.8982     2.5270     0.0312     0.0012
 1480.0000  -999.2500  -999.2500  -999.2500     9.5291    77.4465     2.5380     0.0354    -0.0064
 1480.5000  -999.2500  -999.2500  -999.2500     9.5373    78.9930     2.5489     0.0355    -0.0092
 1481.0000  -999.2500  -999.2500  -999.2500     9.5456    80.5489     2.5569     0.0348    -0.0012
 1481.5000  -999.2500  -999.2500  -999.2500     9.5539    81.1218     2.5506     0.0342     0.0043
 1482.0000  -999.2500  -999.2500  -999.2500     9.5622    79.4516     2.5420     0.0402     0.0056
 1482.5000  -999.2500  -999.2500  -999.2500     9.5705    77.0936     2.5413     0.0573    -0.0205
 1483.0000  -999.2500  -999.2500  -999.2500     9.5787    75.9455     2.5626     0.0743    -0.0277
 1483.5000  -999.2500  -999.2500  -999.2500     9.5675    77.2277     2.5857     0.0759    -0.0175
 1484.0000  -999.2500  -999.2500  -999.2500     9.5549    78.9398     2.5766     0.0441    -0.0027
 1484.5000  -999.2500  -999.2500  -999.2500     9.5424    79.9029     2.5591     0.0083     0.0037
 1485.0000  -999.2500  -999.2500  -999.2500     9.5299    79.6437     2.5429     0.0002    -0.0017
 1485.5000  -999.2500  -999.2500  -999.2500     9.5174    79.3302     2.5462     0.0116    -0.0070
 1486.0000  -999.2500  -999.2500  -999.2500     9.5049    79.0096     2.5519     0.0235    -0.0093
 1486.5000  -999.2500  -999.2500  -999.2500     9.4923    79.2077     2.5566     0.0240    -0.0064
 1487.0000  -999.2500  -999.2500  -999.2500     9.4798    79.5496     2.5553     0.0303    -0.0052
 1487.5000  -999.2500  -999.2500  -999.2500     9.4674    78.4738     2.5557     0.0375    -0.0072
