~VERSION INFORMATION
 VERS.                2.0:   CWLS LOG ASCII STANDARD - VERSION 2.0
 WRAP.                 NO:   ONE LINE PER DEPTH STEP
~WELL INFORMATION
#MNEM.UNIT      DATA TYPE    INFORMATION
#----------   ------------   ------------------------------
 STRT.F            8.0000:   START DEPTH
 STOP.F         2320.0000:   STOP DEPTH
 STEP.F            0.5000:   STEP LENGTH
 NULL.          -999.2500:   NO VALUE
 COMP.    FENIX & SCISSON:   COMPANY
 WELL. N.P.R #3 #77-SHX-10:   WELL
 FLD .             TEAPOT:   FIELD
 LOC .      S10 T38N R78W:   LOCATION
 CNTY.            NATRONA:   COUNTY
 STAT.            WYOMING:   STATE
 CTRY. UNITED STATES OF AMERICA:   COUNTRY
 SRVC.              Welex:   SERVICE COMPANY
 DATE.        05-JUN-1980:   LOGDATE
 API .       490251064900:   API NUMBER
~CURVE INFORMATION
#MNEM.UNIT       API CODE    CURVE DESCRIPTION
#----------   ------------   ------------------------------
 DEPT.F                  :   
 GRD .GAPI   45 310 01 00:   GAMMA RAY FROM DENSITY LOG
 CALD.IN     45 280 60 00:   CALIPER FROM DENSITY LOG
 RHOB.G/C3   45 350 01 00:   BULK DENSITY
 DPHI.DEC    45 890 12 00:   DENSITY POROSITY SANDSTONE
 ILD .OHMM   05 120 46 00:   INDUCTION LOG DEEP
 CORR.G/C3   45 356 01 00:   DENSITY CORRECTION
~PARAMETER INFORMATION
#MNEM.UNIT          VALUE    DESCRIPTION
#----------   ------------   ------------------------------
 PD  .                 GL:   PERMANENT DATUM
 EPD .F              5210:   ELEVATION PERMANENT DATUM
 LMF .                 KB:   LOG MEASURED FROM
 DAPD.F                10:   FEET ABOVE PERMANENT DATUM
 DMF .                 KB:   DRILLING MEASURED FROM
 EKB .F              5220:   KELLING BUSHING
 EGL .F              5210:   GROUND LEVEL
 DATE.        05-JUN-1980:   RUN DATE
 RUN .                  1:   RUN NUMBER
 DD  .F              2358:   DEPTH DRILLER
 DL  .F              2322:   DEPTH LOGGER
 BLI .F              2320:   BOTTOM LOG INTERVAL
 TLI .F               900:   TOP LOG INTERVAL
 CS  .IN                7:   CASING SIZE
 BS  .IN             6.25:   BIT SIZE
 BSD .F              2358:   BIT SIZE AT DEPTH
 DFT .        AIR DRILLED:   DRILLING FLUID TYPE
 MRT .F               107:   MAXIMUM RECORDED TEMPERATURE
 ENGI.               REIN:   RECORDING ENGINEER
 WITN.              AMEND:   WITNESSED BY
 CLNT.            A2DTECH:   CLIENT CODE
 ORIG.           5" PRINT:   ORIGIN OF DATA
 UWI .       490251064900:   UNIQUE WELL ID
 DICO. A2D Technologies, Inc.:   DIGITIZING COMPANY
~OTHER INFORMATION
~A    DEPT      GRD      CALD       RHOB       DPHI        ILD       CORR   
# ...
 1464.0000    96.0356     7.0265     2.5114     0.0328  -999.2500     0.2385
 1464.5000    96.1821     7.0110     2.5136     0.0205  -999.2500     0.2415
 1465.0000    96.4777     6.9657     2.4963     0.0334  -999.2500     0.2066
 1465.5000    96.6239     6.9396     2.5195     0.0322  -999.2500     0.2005
 1466.0000    96.9191     7.0240     2.5053     0.0382  -999.2500     0.1854
 1466.5000    97.3648     7.0831     2.4819     0.0442  -999.2500     0.1551
 1467.0000    97.5105     7.1123     2.4760     0.0488  -999.2500     0.1430
 1467.5000    97.5075     7.1565     2.4595     0.0473  -999.2500     0.1474
 1468.0000    97.5041     7.2175     2.4730     0.0494  -999.2500     0.1443
 1468.5000    97.5013     7.2597     2.4647     0.0605  -999.2500     0.1367
 1469.0000    97.4984     7.2142     2.4456     0.0704  -999.2500     0.1231
 1469.5000    96.8464     7.1989     2.4309     0.0806  -999.2500     0.1076
 1470.0000    95.7010     7.2876     2.4196     0.0798  -999.2500     0.0807
 1470.5000    96.2952     7.3465     2.4009     0.1017  -999.2500     0.0504
 1471.0000    97.0386     7.3609     2.3889     0.1023  -999.2500     0.0428
 1471.5000    97.9313     7.3753     2.4008     0.0981  -999.2500     0.0593
 1472.0000    98.9726     7.3746     2.4091     0.0921  -999.2500     0.0713
 1472.5000    99.1197     7.3728     2.4120     0.0897  -999.2500     0.0743
 1473.0000    97.6236     7.3436     2.4210     0.0879  -999.2500     0.0758
 1473.5000    96.1283     7.3430     2.4382     0.0747  -999.2500     0.0999
 1474.0000    95.2099     7.3126     2.4120     0.0877  -999.2500     0.0981
 1474.5000    94.6293     7.2674     2.4089     0.0904  -999.2500     0.1013
 1475.0000    94.3280     7.2517     2.4352     0.0802  -999.2500     0.1269
 1475.5000    95.5192     7.2214     2.4666     0.0529  -999.2500     0.1555
 1476.0000    95.8149     7.2208     2.4801     0.0469  -999.2500     0.1677
 1476.5000    96.1217     7.1606     2.4651     0.0541  -999.2500     0.1422
 1477.0000    96.4060     7.0841     2.4755     0.0451  -999.2500     0.1493
 1477.5000    96.4027     6.8613     2.4680     0.0511  -999.2500     0.1417
 1478.0000    96.1013     6.6372     2.4455     0.0625  -999.2500     0.1069
 1478.5000    95.4990     6.6664     2.4717     0.0499  -999.2500     0.1204
 1479.0000    95.0502     6.8745     2.4650     0.0593  -999.2500     0.1113
 1479.5000    95.6444     7.0861     2.4514     0.0687  -999.2500     0.1007
 1480.0000    96.3878     7.2160     2.4394     0.0668  -999.2500     0.1066
 1480.5000    96.8327     7.2305     2.4680     0.0557  -999.2500     0.1247
 1481.0000    97.3074     7.2597     2.4881     0.0410  -999.2500     0.1417
 1481.5000    97.5734     7.2590     2.4986     0.0374  -999.2500     0.1593
 1482.0000    96.8235     7.2285     2.4993     0.0344  -999.2500     0.1623
 1482.5000    96.0744     7.2279     2.4978     0.0338  -999.2500     0.1547
 1483.0000    95.7731     7.2274     2.4930     0.0392  -999.2500     0.1516
 1483.5000    95.9783     7.2417     2.4768     0.0416  -999.2500     0.1546
 1484.0000    96.1254     7.2411     2.5037     0.0367  -999.2500     0.1681
 1484.5000    96.6601     7.2106     2.5119     0.0270  -999.2500     0.1756
 1485.0000    96.8066     7.1654     2.5292     0.0083  -999.2500     0.1846
 1485.5000    96.3402     7.1499     2.5476     0.0003  -999.2500     0.1966
 1486.0000    95.6054     7.1940     2.5059     0.0153  -999.2500     0.1603
 1486.5000    95.3041     7.2255     2.4916     0.0255  -999.2500     0.1466
 1487.0000    95.4512     7.2226     2.4766     0.0387  -999.2500     0.1285
 1487.5000    96.0447     7.2220     2.4473     0.0517  -999.2500     0.1103
 1488.0000    97.1064     7.2215     2.4541     0.0610  -999.2500     0.1110
 1488.5000    97.8294     7.2209     2.4510     0.0592  -999.2500     0.1328
 1489.0000    98.4236     7.2202     2.4353     0.0742  -999.2500     0.1116
 1489.5000    99.0185     7.2047     2.4360     0.0754  -999.2500     0.1055
 1490.0000    97.8209     7.1594     2.4444     0.0673  -999.2500     0.1205
 1490.5000    98.4144     7.1141     2.4539     0.0610  -999.2500     0.1416
 1491.0000    99.0086     7.0510     2.4637     0.0531  -999.2500     0.1536
 1491.5000    99.0057     6.9638     2.4682     0.0526  -999.2500     0.1521
 1492.0000    97.2118     6.8590     2.4621     0.0533  -999.2500     0.1490
 1492.5000    96.9105     6.7989     2.4770     0.0440  -999.2500     0.1567
 1493.0000    97.9517     6.9025     2.4988     0.0263  -999.2500     0.1761
 1493.5000    98.5459     6.9467     2.5093     0.0215  -999.2500     0.1957
 1494.0000    98.6931     6.8864     2.5153     0.0224  -999.2500     0.1805
 1494.5000    97.7940     6.8411     2.4965     0.0350  -999.2500     0.1547
 1495.0000    96.5964     6.8107     2.4695     0.0437  -999.2500     0.1426
 1495.5000    95.9966     6.7952     2.4515     0.0548  -999.2500     0.1335
 1496.0000    95.5460     6.8989     2.4387     0.0696  -999.2500     0.1228
 1496.5000    95.2446     6.9580     2.4612     0.0540  -999.2500     0.1288
 1497.0000    94.7940     7.0468     2.4687     0.0510  -999.2500     0.1227
 1497.5000    94.7905     7.1058     2.4754     0.0492  -999.2500     0.1166
 1498.0000    95.0862     7.1350     2.4776     0.0468  -999.2500     0.1165
 1498.5000    95.8296     7.1643     2.4566     0.0585  -999.2500     0.1180
 1499.0000    96.8716     7.1934     2.4596     0.0597  -999.2500     0.1240
 1499.5000    98.0801     7.2079     2.4648     0.0540  -999.2500     0.1412
 1500.0000    97.7607     7.2072     2.4310     0.0601  -999.2500     0.1088
 1500.5000    96.5646     7.2064     2.4190     0.0721  -999.2500     0.1011
 1501.0000    97.1588     7.1910     2.4235     0.0805  -999.2500     0.1026
 1501.5000    97.9015     7.1904     2.4310     0.0811  -999.2500     0.1040
 1502.0000    98.4950     7.1004     2.4422     0.0739  -999.2500     0.1146
 1502.5000    98.0388     7.1309     2.4242     0.0818  -999.2500     0.0918
 1503.0000    96.5490     7.1954     2.4301     0.0715  -999.2500     0.0978
 1503.5000    95.9491     7.2774     2.4376     0.0698  -999.2500     0.1068
 1504.0000    95.9562     7.3216     2.4543     0.0686  -999.2500     0.1255
 1504.5000    96.9875     7.3359     2.4781     0.0437  -999.2500     0.1626
 1505.0000    97.8802     7.2756     2.5155     0.0242  -999.2500     0.2048
 1505.5000    97.7282     7.2303     2.5327     0.0122  -999.2500     0.2093
 1506.0000    96.5313     7.1850     2.5252     0.0129  -999.2500     0.2017
 1506.5000    95.3119     7.1100     2.5202     0.0163  -999.2500     0.1793
 1507.0000    95.1823     7.0945     2.4652     0.0510  -999.2500     0.1185
 1507.5000    95.9251     7.1683     2.4382     0.0640  -999.2500     0.0882
 1508.0000    96.8178     7.2124     2.4454     0.0700  -999.2500     0.1063
 1508.5000    97.1134     7.1076     2.4521     0.0652  -999.2500     0.1213
 1509.0000    96.3636     6.8983     2.4603     0.0583  -999.2500     0.1273
 1509.5000    95.7638     6.6988     2.4547     0.0593  -999.2500     0.1091
 1510.0000    94.8654     6.8822     2.4423     0.0684  -999.2500     0.0970
 1510.5000    94.2656     7.1201     2.4542     0.0647  -999.2500     0.0909
 1511.0000    95.8000     7.2387     2.4422     0.0635  -999.2500     0.0878
 1511.5000    96.4987     7.2978     2.4504     0.0665  -999.2500     0.0892
 1512.0000    95.8982     7.3121     2.4669     0.0498  -999.2500     0.1103
 1512.5000    94.1043     7.3263     2.4863     0.0402  -999.2500     0.1193
 1513.0000    94.5808     7.3108     2.4718     0.0537  -999.2500     0.1117
 1513.5000    95.9169     7.3103     2.4555     0.0580  -999.2500     0.1055
 1514.0000    96.6578     7.2948     2.4487     0.0662  -999.2500     0.0980
 1514.5000    96.9491     7.2643     2.4419     0.0703  -999.2500     0.0949
 1515.0000    97.2388     7.2637     2.4314     0.0832  -999.2500     0.0918
 1515.5000    97.2313     7.2781     2.4344     0.0742  -999.2500     0.1008
