~VERSION INFORMATION
 VERS.                2.0:   CWLS LOG ASCII STANDARD - VERSION 2.0
 WRAP.                 NO:   ONE LINE PER DEPTH STEP
~WELL INFORMATION
#MNEM.UNIT      DATA TYPE    INFORMATION
#----------   ------------   ------------------------------
 STRT.F           66.0000:   START DEPTH
 STOP.F          794.0000:   STOP DEPTH
 STEP.F            0.5000:   STEP LENGTH
 NULL.          -999.2500:   NO VALUE
 COMP. LAWRENCE/ALLISON INC:   COMPANY
 WELL.    27-16 SX #35-35:   WELL
 FLD .           NPR NO 3:   FIELD
 LOC .      S35 T39N R78W:   LOCATION
 CNTY.            NATRONA:   COUNTY
 STAT.            WYOMING:   STATE
 CTRY. UNITED STATES OF AMERICA:   COUNTRY
 SRVC.           Gearhart:   SERVICE COMPANY
 DATE.        16-MAY-1986:   LOGDATE
 API .       490251106100:   API NUMBER
~CURVE INFORMATION
#MNEM.UNIT       API CODE    CURVE DESCRIPTION
#----------   ------------   ------------------------------
 DEPT.F                  :   
 GRN .GAPI   42 310 01 00:   GAMMA RAY FROM COMPENSATED NEUTRON LOG
 CNC .DEC    42 890 01 00:   NEUTRON POROSITY LIMESTONE
~PARAMETER INFORMATION
#MNEM.UNIT          VALUE    DESCRIPTION
#----------   ------------   ------------------------------
 PD  .                 GL:   PERMANENT DATUM
 LMF .                 GL:   LOG MEASURED FROM
 DMF .                 GL:   DRILLING MEASURED FROM
 DATE.        16-MAY-1986:   RUN DATE
 RUN .                  1:   RUN NUMBER
 DD  .F               803:   DEPTH DRILLER
 DL  .F             793.5:   DEPTH LOGGER
 BLI .F             793.5:   BOTTOM LOG INTERVAL
 TLI .F                50:   TOP LOG INTERVAL
 BS  .IN             7.87:   BIT SIZE
 BSD .F               803:   BIT SIZE AT DEPTH
 DFT .              WATER:   DRILLING FLUID TYPE
 LUN .               6084:   LOGGING UNIT NUMBER
 LUL .           GILLETTE:   LOGGING UNIT LOCATION
 ENGI.                COX:   RECORDING ENGINEER
 WITN.             STRONG:   WITNESSED BY
 CLNT.            A2DTECH:   CLIENT CODE
 ORIG.           5" PRINT:   ORIGIN OF DATA
 UWI .       490251106100:   UNIQUE WELL ID
 DICO. A2D Technologies, Inc.:   DIGITIZING COMPANY
~OTHER INFORMATION
~A   DEPT       GRN       CNC   
# ...
  673.5000    87.1339     0.2462
  674.0000    84.3672     0.2495
  674.5000    82.2139     0.2401
  675.0000    81.9011     0.2380
  675.5000    83.1235     0.2443
  676.0000    84.0377     0.2569
  676.5000    82.4964     0.2687
  677.0000    79.4229     0.2632
  677.5000    76.9629     0.2505
  678.0000    75.4231     0.2466
  678.5000    74.4968     0.2612
  679.0000    73.8772     0.2761
  679.5000    74.4847     0.2802
  680.0000    79.5493     0.2779
  680.5000    79.0398     0.2624
  681.0000    80.3194     0.2652
  681.5000    85.5019     0.2747
  682.0000    86.7244     0.2833
  682.5000    86.1033     0.2686
  683.0000    84.5635     0.2503
  683.5000    82.7170     0.2388
  684.0000    79.9502     0.2315
  684.5000    77.4902     0.2267
  685.0000    75.9504     0.2246
  685.5000    76.2511     0.2243
  686.0000    78.0855     0.2267
  686.5000    81.1469     0.2236
  687.0000    84.8219     0.2191
  687.5000    88.1901     0.2154
  688.0000    90.9447     0.2118
  688.5000    93.7086     0.2081
  689.0000    95.8936     0.2071
  689.5000    96.4481     0.2113
  690.0000    95.5203     0.2163
  690.5000    94.5940     0.2199
  691.0000    93.3609     0.2236
  691.5000    91.5144     0.2259
  692.0000    90.5881     0.2193
  692.5000    89.9685     0.2117
  693.0000    89.3490     0.2081
  693.5000    89.3429     0.2096
  694.0000    90.2571     0.2196
  694.5000    91.7848     0.2238
  695.0000    93.3125     0.2217
  695.5000    92.6930     0.2211
  696.0000    88.6992     0.2272
  696.5000    84.7054     0.2354
  697.0000    84.6994     0.2402
  697.5000    87.1782     0.2436
  698.0000    86.4292     0.2363
  698.5000    82.3837     0.2242
  699.0000    80.6859     0.2151
  699.5000    82.5204     0.2154
  700.0000    86.4036     0.2321
  700.5000    88.9211     0.2349
  701.0000    91.3928     0.2302
  701.5000    90.4294     0.2239
  702.0000    89.4889     0.2302
  702.5000    88.2976     0.2289
  703.0000    89.8203     0.2240
  703.5000    91.9584     0.2198
  704.0000    92.5651     0.2180
  704.5000    91.6334     0.2107
  705.0000    90.7041     0.2062
  705.5000    91.0017     0.2050
  706.0000    93.1398     0.2141
  706.5000    96.5049     0.2165
  707.0000    98.6453     0.2105
  707.5000    97.4070     0.2026
  708.0000    94.9438     0.2039
  708.5000    92.4807     0.2154
  709.0000    90.3244     0.2312
  709.5000    88.4748     0.2418
  710.0000    87.5477     0.2466
  710.5000    89.6835     0.2360
  711.0000    91.5149     0.2285
  711.5000    92.7328     0.2255
  712.0000    92.7237     0.2243
  712.5000    92.4078     0.2264
  713.0000    91.4784     0.2286
  713.5000    90.8558     0.2328
  714.0000    90.5399     0.2389
  714.5000    94.2118     0.2349
  715.0000    92.9141     0.2299
  715.5000    89.7723     0.2262
  716.0000    85.7426     0.2301
  716.5000    84.3594     0.2374
  717.0000    87.1087     0.2359
  717.5000    90.4738     0.2247
  718.0000    94.4524     0.2190
  718.5000    97.2041     0.2217
  719.0000    98.1175     0.2281
  719.5000    97.1858     0.2308
  720.0000    96.8699     0.2251
  720.5000    97.1699     0.2278
  721.0000    98.0787     0.2430
  721.5000   100.8303     0.2636
  722.0000   108.1832     0.2852
  722.5000   112.7753     0.3003
  723.0000   114.3022     0.2952
  723.5000   108.7693     0.2879
  724.0000   101.0915     0.2684
  724.5000    97.7081     0.2459
  725.0000    95.5518     0.2301
  725.5000    94.9292     0.2216
  726.0000    96.4538     0.2262
  726.5000    98.8986     0.2325
  727.0000    98.5828     0.2368
  727.5000    97.6534     0.2371
  728.0000    97.6442     0.2221
  728.5000    98.2760     0.2134
  729.0000    99.5439     0.2047
  729.5000   101.9114     0.2011
  730.0000    99.4460     0.2187
  730.5000    98.2099     0.2269
  731.0000    99.4301     0.2196
  731.5000    99.1119     0.2057
  732.0000    96.3421     0.2021
  732.5000    93.8268     0.2097
  733.0000    90.6099     0.2212
  733.5000    88.9162     0.2297
  734.0000    88.9937     0.2382
  734.5000    90.7742     0.2279
  735.0000    93.5259     0.2200
  735.5000    96.8910     0.2179
  736.0000   100.5628     0.2152
  736.5000    96.8727     0.2083
  737.0000    96.5592     0.2153
  737.5000    97.7770     0.2225
  738.0000    94.3914     0.2286
  738.5000    92.8485     0.2235
  739.0000    91.3057     0.2176
  739.5000    90.6831     0.2092
  740.0000    91.5942     0.2038
  740.5000    93.7323     0.2137
  741.0000    95.5637     0.2268
  741.5000    95.8636     0.2365
  742.0000    94.3184     0.2439
  742.5000    92.7756     0.2236
  743.0000    91.8462     0.2143
  743.5000    90.9168     0.1956
  744.0000    91.2145     0.1652
  744.5000    92.4324     0.1312
  745.0000    97.9447     0.1185
  745.5000   101.6166     0.1494
  746.0000    98.4794     0.2194
  746.5000    93.2452     0.2240
  747.0000    90.2046     0.2228
  747.5000    90.5371     0.2268
  748.0000    91.8689     0.2404
  748.5000    95.1179     0.2428
  749.0000    97.8695     0.2392
  749.5000    99.3964     0.2329
  750.0000    97.8512     0.2302
  750.5000    95.0814     0.2290
  751.0000    94.1543     0.2264
  751.5000    96.9036     0.2202
  752.0000    96.5878     0.2153
  752.5000    94.1247     0.2160
  753.0000    93.8111     0.2245
  753.5000    95.6402     0.2363
  754.0000    97.2453     0.2484
  754.5000    99.2441     0.2727
  755.0000   101.2429     0.2745
  755.5000   101.7402     0.2679
  756.0000    99.2748     0.2643
  756.5000    95.2779     0.2776
  757.0000    93.1216     0.3050
  757.5000    94.9530     0.3327
  758.0000    92.7966     0.3673
  758.5000    86.3458     0.3977
  759.0000    78.6679     0.4001
  759.5000    73.1373     0.3992
  760.0000    69.4472     0.3995
  760.5000    67.9044     0.4000
  761.0000    71.5762     0.3999
  761.5000    75.5549     0.3998
  762.0000    78.9200     0.3998
  762.5000    82.2851     0.3997
  763.0000    85.3435     0.3996
  763.5000    88.4018     0.3995
  764.0000    90.8630     0.3994
  764.5000    92.7169     0.3993
  765.0000    94.2331     0.3875
  765.5000    94.1514     0.3458
  766.0000    93.2106     0.3055
  766.5000    92.0258     0.2904
  767.0000    91.7099     0.2823
  767.5000    92.0076     0.2829
  768.0000    93.8389     0.2961
  768.5000    96.5906     0.2997
  769.0000    99.0354     0.2858
  769.5000   100.8668     0.2710
  770.0000   102.3914     0.2573
  770.5000   102.9981     0.2436
  771.0000   102.3732     0.2331
  771.5000   102.0573     0.2474
  772.0000   102.3572     0.2644
  772.5000   104.7998     0.2674
  773.0000   106.3244     0.2678
  773.5000   106.3153     0.2678
  774.0000   105.6927     0.2712
  774.5000   104.1498     0.2836
  775.0000   101.0732     0.2896
  775.5000    98.9169     0.2807
  776.0000    99.3876     0.2653
  776.5000   101.0437     0.2551
  777.0000   103.4892     0.2660
  777.5000   104.7094     0.2682
  778.0000   104.0845     0.2576
  778.5000   104.3821     0.2612
  779.0000   105.2933     0.2673
  779.5000   107.7381     0.2607
  780.0000   108.3448     0.2498
  780.5000   106.1861     0.2389
  781.0000   102.8028     0.2383
  781.5000   101.5689     0.2595
  782.0000   103.3838     0.2569
  782.5000   104.8126     0.2496
  783.0000   106.4465     0.2450
  783.5000   106.1307     0.2514
  784.0000   105.8171     0.2487
  784.5000   110.7136     0.2369
  785.0000   115.9193     0.2341
  785.5000   116.5259     0.2423
  786.0000   113.4470     0.2481
  786.5000   109.7569     0.2408
  787.0000   106.3736     0.2418
  787.5000   104.5240     0.2610
  788.0000   108.1958     0.2699
  788.5000   111.5610     0.2803
  789.0000   113.3923     0.2746
  789.5000   112.7697     0.2673
  790.0000   110.6133     0.2640
  790.5000   108.4570     0.2719
  791.0000   106.6051     0.2798
  791.5000   105.6779     0.2807
  792.0000   105.6687     0.2692
  792.5000   106.9585     0.2503
  793.0000   108.1046     0.2356
  793.5000   108.0951     0.2213
  794.0000   106.8571     0.2183
