~VERSION INFORMATION
 VERS.                2.0:   CWLS LOG ASCII STANDARD - VERSION 2.0
 WRAP.                 NO:   ONE LINE PER DEPTH STEP
~WELL INFORMATION
#MNEM.UNIT      DATA TYPE    INFORMATION
#----------   ------------   ------------------------------
 STRT.F          217.0000:   START DEPTH
 STOP.F         3170.0000:   STOP DEPTH
 STEP.F            0.5000:   STEP LENGTH
 NULL.          -999.2500:   NO VALUE
 COMP. FENIX & SCISSON INC:   COMPANY
 WELL.    51 TX 33 #51-33:   WELL
 FLD .             TEAPOT:   FIELD
 LOC .      S33 T39N R78W:   LOCATION
 CNTY.            NATRONA:   COUNTY
 STAT.            WYOMING:   STATE
 CTRY. UNITED STATES OF AMERICA:   COUNTRY
 SRVC.            Unknown:   SERVICE COMPANY
 DATE.        02-APR-1978:   LOGDATE
 API .       490251068600:   API NUMBER
~CURVE INFORMATION
#MNEM.UNIT       API CODE    CURVE DESCRIPTION
#----------   ------------   ------------------------------
 DEPT.F                  :   
 TGAS.UNITS  91 830 01 00:   TOTAL GAS FROM HOTWIRE
 ROP .MIN/FT 91 810 01 00:   RATE OF DRILLING PENETRATION
~PARAMETER INFORMATION
#MNEM.UNIT          VALUE    DESCRIPTION
#----------   ------------   ------------------------------
 DATE.         2-APR-1978:   RUN DATE
 RUN .                  1:   RUN NUMBER
 BLI .F              3150:   BOTTOM LOG INTERVAL
 TLI .F               250:   TOP LOG INTERVAL
 DFT .       CHEMICAL GEL:   DRILLING FLUID TYPE
 ENGI.            R. CABS:   RECORDING ENGINEER
 CLNT.            A2DTECH:   CLIENT CODE
 ORIG.           5" PRINT:   ORIGIN OF DATA
 UWI .       490251068600:   UNIQUE WELL ID
 DICO. A2D Technologies, Inc.:   DIGITIZING COMPANY
~OTHER INFORMATION
~A   DEPT       TGAS      ROP   
# ...
 2404.0000     3.4262     4.7799
 2404.5000     3.4304     5.0954
 2405.0000     3.5226     5.0759
 2405.5000     3.6137     5.0563
 2406.0000     3.6179     5.3324
 2406.5000     3.6221     5.6873
 2407.0000     3.5393     5.6875
 2407.5000     3.4565     5.6680
 2408.0000     3.4609     5.0771
 2408.5000     3.3780     5.0575
 2409.0000     3.2952     5.0577
 2409.5000     3.3004     5.0579
 2410.0000     3.1307     5.5901
 2410.5000     3.1349     5.6100
 2411.0000     3.1391     5.6102
 2411.5000     3.0563     5.6006
 2412.0000     2.9736     5.1378
 2412.5000     2.8908     5.1182
 2413.0000     2.8091     5.1184
 2413.5000     2.8132     5.1186
 2414.0000     2.6435     5.1188
 2414.5000     2.6478     5.1190
 2415.0000     2.4780     5.1192
 2415.5000     2.3963     5.1194
 2416.0000     2.3124     5.1196
 2416.5000     2.3038     5.1001
 2417.0000     2.2875     4.8047
 2417.5000     2.2711     4.4897
 2418.0000     2.2548     4.4899
 2418.5000     2.2384     4.5098
 2419.0000     2.2221     4.5296
 2419.5000     2.2077     4.5298
 2420.0000     2.2088     4.4906
 2420.5000     2.2096     4.1558
 2421.0000     2.2974     4.1561
 2421.5000     2.2983     4.1563
 2422.0000     2.2123     4.1565
 2422.5000     2.2131     4.1567
 2423.0000     2.2140     4.1568
 2423.5000     2.2148     4.1373
 2424.0000     2.2157     4.2163
 2424.5000     2.2167     4.6106
 2425.0000     2.2175     4.5912
 2425.5000     2.1314     4.5716
 2426.0000     2.0451     4.5718
 2426.5000     2.0461     4.5720
 2427.0000     2.0470     4.5525
 2427.5000     2.0480     4.5527
 2428.0000     1.9617     4.5529
 2428.5000     1.8755     4.5334
 2429.0000     1.9635     4.5336
 2429.5000     2.0513     4.5338
 2430.0000     2.0522     4.4946
 2430.5000     1.9661     4.4948
 2431.0000     1.8799     4.4950
 2431.5000     1.8810     4.4755
 2432.0000     1.8818     4.4757
 2432.5000     1.9696     4.4759
 2433.0000     1.9704     4.4760
 2433.5000     2.0584     4.4762
 2434.0000     2.0593     4.4764
 2434.5000     2.0601     4.4767
 2435.0000     2.0609     4.4769
 2435.5000     2.0618     4.4771
 2436.0000     2.0626     5.3639
 2436.5000     2.0635     5.3641
 2437.0000     2.0645     5.3643
 2437.5000     2.0653     5.3645
 2438.0000     2.0661     5.0297
 2438.5000     2.0670     5.0300
 2439.0000     2.0678     5.0301
 2439.5000     2.1557     5.0107
 2440.0000     2.1567     4.8138
 2440.5000     2.2445     4.7943
 2441.0000     2.2453     4.7945
 2441.5000     2.2461     4.7947
 2442.0000     2.1600     5.4254
 2442.5000     2.0739     5.4256
 2443.0000     2.0749     5.4258
 2443.5000     2.0758     5.3866
 2444.0000     2.0766     5.0124
 2444.5000     2.2513     5.0323
 2445.0000     2.2522     5.0128
 2445.5000     2.2530     4.6583
 2446.0000     2.2541     4.5994
 2446.5000     2.2549     4.5799
 2447.0000     2.2557     4.5801
 2447.5000     2.3435     4.5803
 2448.0000     2.4313     4.6002
 2448.5000     2.4322     5.0339
 2449.0000     2.4332     5.0341
 2449.5000     2.4340     5.0343
 2450.0000     2.4349     5.1265
 2450.5000     2.2618     5.3298
 2451.0000     2.2626     5.3296
 2451.5000     2.2635     5.3295
 2452.0000     2.0906     4.9155
 2452.5000     2.0914     4.8956
 2453.0000     2.0922     4.8954
 2453.5000     2.0931     4.8952
 2454.0000     2.0939     4.8752
 2454.5000     2.0950     4.8554
 2455.0000     2.1003     4.8355
 2455.5000     2.1157     4.8353
 2456.0000     2.1183     4.8154
 2456.5000     2.1213     4.8152
 2457.0000     2.1238     4.8150
 2457.5000     2.1263     4.7951
 2458.0000     2.1289     5.0313
 2458.5000     2.0443     5.0311
 2459.0000     2.0499     5.0310
 2459.5000     2.1370     5.0307
 2460.0000     2.1395     4.8335
 2460.5000     2.1421     4.8333
 2461.0000     2.1446     4.8331
 2461.5000     2.1471     4.8329
 2462.0000     2.1496     4.8130
 2462.5000     2.1522     4.8325
 2463.0000     2.2422     4.8323
 2463.5000     2.3317     4.8321
 2464.0000     2.3342     4.5560
 2464.5000     2.4237     4.5361
 2465.0000     2.5131     4.5360
 2465.5000     2.5157     4.5161
 2466.0000     2.6922     4.5159
 2466.5000     2.7822     4.5157
 2467.0000     2.7847     4.5155
 2467.5000     2.8742     4.7517
 2468.0000     2.9636     4.9683
 2468.5000     3.1401     4.9681
 2469.0000     3.2326     4.9679
 2469.5000     3.4066     5.6376
 2470.0000     3.5830     7.2675
 2470.5000     3.8464     7.2913
 2471.0000     4.1098     7.3152
 2471.5000     4.5471     7.3150
 2472.0000     5.0667     6.7846
 2472.5000     5.6517     6.7964
 2473.0000     6.4541     6.8082
 2473.5000     6.9443     5.5966
 2474.0000     7.2718     5.5964
 2474.5000     7.4368     5.5963
 2475.0000     7.5204     5.5961
 2475.5000     7.5241     5.1033
 2476.0000     7.1186     5.1031
 2476.5000     6.7964     5.0832
 2477.0000     6.3922     5.0830
 2477.5000     6.0694     4.3143
 2478.0000     5.8278     4.2944
 2478.5000     5.5862     4.2745
 2479.0000     5.1821     4.2546
 2479.5000     4.8501     4.2544
 2480.0000     4.5048     4.2542
 2480.5000     4.3334     4.2343
 2481.0000     4.3359     4.2341
 2481.5000     4.3384     4.5689
 2482.0000     4.3351     4.5687
 2482.5000     4.3583     4.5685
 2483.0000     4.7814     4.5486
 2483.5000     6.9930     4.5287
 2484.0000    10.6796     5.0999
 2484.5000    12.1970     5.0997
 2485.0000    12.5380     5.0995
 2485.5000    11.1983     6.5612
 2486.0000     8.7613     6.5610
 2486.5000     7.5768     6.5607
 2487.0000     6.3597     6.5605
 2487.5000     5.7929     8.2960
 2488.0000     5.5514     8.3221
 2488.5000     5.5537     8.3218
 2489.0000     5.4748     7.8607
 2489.5000     5.3958     7.8123
 2490.0000     5.3988     7.8121
 2490.5000     5.4011     7.8118
 2491.0000     5.4848     7.8116
 2491.5000     5.4871     7.4620
 2492.0000     5.5708     7.3773
 2492.5000     5.5732     7.3531
 2493.0000     5.5761     7.3769
 2493.5000     5.5784     7.3766
 2494.0000     5.6621     7.3764
 2494.5000     5.7457     7.3762
 2495.0000     5.7481     7.3759
 2495.5000     5.7504     6.9660
 2496.0000     5.6715     6.9417
 2496.5000     5.6744     6.9173
 2497.0000     5.6768     6.9171
 2497.5000     5.6791     6.9169
 2498.0000     5.6815     6.9166
 2498.5000     5.6838     6.9164
 2499.0000     5.7675     6.9162
 2499.5000     5.8517     6.9159
 2500.0000     6.0167     6.9157
 2500.5000     6.2629     5.9013
 2501.0000     7.0783     5.9011
 2501.5000    15.9288     5.8812
 2502.0000    33.3072     5.9204
 2502.5000    50.6855     6.1193
 2503.0000    68.0639     6.3118
 2503.5000    85.4423     6.6007
 2504.0000    17.7720     7.0101
 2504.5000     7.4205     7.8773
 2505.0000     6.0407     8.8131
 2505.5000     5.1488     9.1550
 2506.0000     4.6167     9.1810
 2506.5000     3.9474     9.1808
 2507.0000     3.6021     9.1805
 2507.5000     3.2562     9.1540
 2508.0000     3.0848     8.0221
 2508.5000     3.4357     7.9959
 2509.0000     4.6641     7.9957
 2509.5000     5.8192     7.9954
 2510.0000     6.1467     8.8105
 2510.5000     6.0678     8.8366
 2511.0000     5.7449     8.8363
 2511.5000     5.4221     8.8361
 2512.0000     5.0992     8.2042
 2512.5000     4.7536     8.2303
 2513.0000     4.4161     8.0505
 2513.5000     4.2447     7.8850
 2514.0000     4.0733     7.8728
 2514.5000     3.9019     7.8966
 2515.0000     3.8174     7.8964
 2515.5000     3.7330     7.8961
 2516.0000     3.6486     6.5224
 2516.5000     3.4772     6.4740
 2517.0000     3.3934     6.4738
 2517.5000     3.3083     6.4735
 2518.0000     3.3115     7.9191
 2518.5000     3.1400     7.9429
 2519.0000     3.0556     7.9667
 2519.5000     3.0295     7.9665
 2520.0000     3.0086     6.9060
 2520.5000     3.0078     6.9058
 2521.0000     3.0941     6.9056
 2521.5000     3.1800     6.9053
 2522.0000     3.1791     7.1942
 2522.5000     3.0912     8.3039
 2523.0000     3.0903     8.3037
 2523.5000     3.0025     8.3034
 2524.0000     3.0017     8.3031
 2524.5000     3.0008     8.3029
 2525.0000     3.0000     8.3026
