~VERSION INFORMATION
 VERS.                2.0:   CWLS LOG ASCII STANDARD - VERSION 2.0
 WRAP.                 NO:   ONE LINE PER DEPTH STEP
~WELL INFORMATION
#MNEM.UNIT      DATA TYPE    INFORMATION
#----------   ------------   ------------------------------
 STRT.F           36.0000:   START DEPTH
 STOP.F          592.0000:   STOP DEPTH
 STEP.F            0.5000:   STEP LENGTH
 NULL.          -999.2500:   NO VALUE
 COMP. FENIX & SCISSON INC:   COMPANY
 WELL.           S #35-10:   WELL
 FLD .              NPR-3:   FIELD
 LOC .      S10 T38N R78W:   LOCATION
 CNTY.            NATRONA:   COUNTY
 STAT.            WYOMING:   STATE
 CTRY. UNITED STATES OF AMERICA:   COUNTRY
 SRVC.              Welex:   SERVICE COMPANY
 DATE.        07-MAR-1977:   LOGDATE
 API .       490251029000:   API NUMBER
~CURVE INFORMATION
#MNEM.UNIT       API CODE    CURVE DESCRIPTION
#----------   ------------   ------------------------------
 DEPT.F                  :   
 SPR .MV     07 010 01 00:   SPONTANEOUS POTENTIAL
 ILM .OHMM   07 120 44 00:   INDUCTION LOG MEDIUM
 ILD .OHMM   07 120 46 00:   INDUCTION LOG DEEP
 SGRD.OHMM   07 220 05 00:   SHALLOW GUARD RESISTIVITY
 CALD.IN     45 280 60 00:   CALIPER FROM DENSITY LOG
 RHOB.G/C3   45 350 01 00:   BULK DENSITY
 CORR.G/C3   45 356 01 00:   DENSITY CORRECTION
 DPHI.DEC    45 890 12 00:   DENSITY POROSITY SANDSTONE
 GRD .GAPI   45 310 01 00:   GAMMA RAY FROM DENSITY LOG
~PARAMETER INFORMATION
#MNEM.UNIT          VALUE    DESCRIPTION
#----------   ------------   ------------------------------
 PD  .                 GL:   PERMANENT DATUM
 EPD .F              5234:   ELEVATION PERMANENT DATUM
 LMF .                 GL:   LOG MEASURED FROM
 DMF .                 GL:   DRILLING MEASURED FROM
 EGL .F              5234:   GROUND LEVEL
 DATE.             3-7-77:   RUN DATE
 RUN .                  1:   RUN NUMBER
 DD  .F               600:   DEPTH DRILLER
 DL  .F               593:   DEPTH LOGGER
 BLI .F               591:   BOTTOM LOG INTERVAL
 TLI .F                35:   TOP LOG INTERVAL
 CS  .IN            8.625:   CASING SIZE
 CBD .F                42:   CASING BOTTOM DRILLER
 CBL .F                42:   CASING BOTTOM LOGGER
 BS  .IN            7.875:   BIT SIZE
 BSD .F               600:   BIT SIZE AT DEPTH
 DFT .            KCL MUD:   DRILLING FLUID TYPE
 MSS .          FLOW LINE:   MUD SAMPLE SOURCE
 RMS .OHMM            .40:   RESISTIVITY MUD SAMPLE
 MST .F                58:   MUD SAMPLE TEMPERATURE
 RMF .OHMM            .33:   RESISTIVITY MUD FILTRATE SAMPLE
 MFST.F                58:   MUD FILTRATE SAMPLE TEMPERATURE
 RMC .OHMM            .44:   RESISTIVITY MUD CAKE
 MCST.F                58:   MUD CAKE SAMPLE TEMPERATURE
 MFSS.           FANN KIT:   MUD FILTRATE SAMPLE SOURCE
 MCSS.           FANN KIT:   MUD CAKE SAMPLE SOURCE
 RMB .OHMM            .31:   RESISTIVITY MUD AT BHT
 BHT .F                62:   BOTTOM HOLE TEMPERATURE
 TCS .HRS               3:   TIME CURCULATED STOPPED
 MRT .F                62:   MAXIMUM RECORDED TEMPERATURE
 LUN .               8611:   LOGGING UNIT NUMBER
 LUL .           GILLETTE:   LOGGING UNIT LOCATION
 ENGI.            C. DOAK:   RECORDING ENGINEER
 WITN.      L. STUEBINGER:   WITNESSED BY
 CLNT.            A2DTECH:   CLIENT CODE
 ORIG.        2" 5" PRINT:   ORIGIN OF DATA
 UWI .       490251029000:   UNIQUE WELL ID
 DICO. A2D Technologies, Inc.:   DIGITIZING COMPANY
~OTHER INFORMATION
~A   DEPT      SPR        ILM        ILD       SGRD         CALD       RHOB      CORR        DPHI       GRD  
# ...
  291.5000   -53.1808    10.0976     7.9365    10.9667     7.8798     2.4758     0.0295     0.1033   125.9989
  292.0000   -53.1695    10.0975     7.9917    10.7673     7.8555     2.4806     0.0338     0.1008   125.8407
  292.5000   -53.1381    10.0976     8.0472    10.8287     7.8260     2.4856     0.0352     0.0983   126.7616
  293.0000   -53.1071    10.1042     8.1032    10.9317     7.8289     2.4862     0.0335     0.0966   129.6447
  293.5000   -53.0760    10.1333     8.1595    10.9999     7.8481     2.4836     0.0318     0.0988   127.9445
  294.0000   -53.0447    10.1621     8.1930    11.0711     7.8808     2.4788     0.0307     0.1010   125.9168
  294.5000   -53.0127    10.1910     8.2253    11.1428     7.8964     2.4747     0.0296     0.1026   124.9152
  295.0000   -52.9861    10.2200     8.2578    11.2150     7.9142     2.4772     0.0285     0.1020   125.4445
  295.5000   -53.1133    10.2491     8.2905    11.2820     7.9185     2.4797     0.0263     0.1007   125.9577
  296.0000   -53.2490    10.2782     8.3232    11.3264     7.9186     2.4760     0.0253     0.1018   126.5352
  296.5000   -53.3839    10.3075     8.3561    11.3712     7.9185     2.4701     0.0249     0.1057   125.0063
  297.0000   -53.5188    10.3368     8.3892    11.4161     7.9185     2.4662     0.0244     0.1077   122.2214
  297.5000   -53.6536    10.3662     8.4050    11.4814     7.9185     2.4687     0.0238     0.1069   119.7869
  298.0000   -53.7884    10.3793     8.3411    11.3902     7.9185     2.4712     0.0254     0.1064   119.7108
  298.5000   -53.9232    10.2841     8.2932    11.2276     7.9185     2.4723     0.0275     0.1050   120.8114
  299.0000   -54.0580    10.2146     8.2456    11.0673     7.9186     2.4740     0.0296     0.1030   122.3267
  299.5000   -54.1928    10.1457     8.1984    10.9093     7.9177     2.4808     0.0317     0.0986   125.5380
  300.0000   -54.3275    10.0773     8.1514    10.7536     7.8986     2.4878     0.0338     0.0944   126.7303
  300.5000   -54.4624    10.0057     8.1021    10.6000     7.8784     2.4950     0.0360     0.0899   126.9169
  301.0000   -54.6085     9.8154     7.9293    10.4487     7.9333     2.4954     0.0381     0.0904   128.8959
  301.5000   -54.8068     9.6185     7.8002    10.2995     7.9786     2.4922     0.0395     0.0913   131.0801
  302.0000   -55.0048     9.4256     7.6731    10.1525     7.9696     2.4889     0.0379     0.0930   131.6998
  302.5000   -55.2028     9.2366     7.5482    10.0076     7.9594     2.4857     0.0363     0.0955   128.9178
  303.0000   -55.4207     9.0450     7.4253     9.8647     7.9489     2.4839     0.0357     0.0978   129.2611
  303.5000   -55.7317     8.8610     7.3044     9.7239     7.9387     2.4848     0.0394     0.0958   130.0853
  304.0000   -56.0437     8.6745     7.1885     9.4211     7.9383     2.4855     0.0436     0.0976   127.7467
  304.5000   -56.3552     8.4934     6.6002     8.9268     7.9384     2.4803     0.0476     0.1018   124.7527
  305.0000   -56.7496     8.1993     6.0779     8.6330     7.9384     2.4746     0.0497     0.1063   123.4857
  305.5000   -57.3089     7.7984     5.5986     8.1278     7.9379     2.4724     0.0516     0.1108   125.0439
  306.0000   -57.8662     7.3394     5.1687     7.6564     7.9374     2.4713     0.0536     0.1154   126.7303
  306.5000   -58.4237     6.9075     4.6662     7.2126     7.9368     2.4546     0.0556     0.1199   126.4550
  307.0000   -58.9829     6.5296     4.2238     6.7910     7.9363     2.4407     0.0526     0.1288   124.4486
  307.5000   -59.5332     5.7583     3.8234     6.1127     7.9358     2.4180     0.0491     0.1416   122.3813
  308.0000   -59.7739     5.0781     3.4609     5.4040     7.9352     2.3905     0.0457     0.1543   120.2333
  308.5000   -59.9043     4.4783     3.1655     4.7788     7.9347     2.3630     0.0423     0.1671   119.9338
  309.0000   -59.7215     3.9493     3.0083     4.2261     7.9342     2.3370     0.0388     0.1820   121.3630
  309.5000   -59.5423     3.6786     2.8670     3.7373     7.9336     2.3170     0.0354     0.1983   122.8231
  310.0000   -59.2063     3.6474     2.7431     3.2672     7.9331     2.2993     0.0320     0.2060   125.0617
  310.5000   -58.8071     3.7838     2.6930     3.3893     7.9325     2.3002     0.0286     0.2092   130.3462
  311.0000   -58.1755     4.0391     2.8227     4.2874     7.9320     2.3031     0.0258     0.2036   134.5666
  311.5000   -57.6720     4.3054     2.9341     6.6214     7.9315     2.3274     0.0270     0.1964   133.2418
  312.0000   -57.1543     4.6680     3.0473     7.0606     7.9310     2.3554     0.0281     0.1757   131.0767
  312.5000   -56.6393     5.0939     3.3216     3.6810     7.9304     2.3835     0.0293     0.1581   130.9597
  313.0000   -56.2930     5.5587     3.6206     5.8253     7.9299     2.3995     0.0292     0.1491   132.5851
  313.5000   -55.9809     5.9440     3.9465     8.4297     7.9293     2.4050     0.0271     0.1455   132.3913
  314.0000   -55.6677     6.2096     4.3259     8.9624     7.9288     2.4189     0.0258     0.1369   131.4933
  314.5000   -55.3738     6.4346     4.7988     8.8268     7.9283     2.4372     0.0274     0.1268   130.5780
  315.0000   -55.3660     6.7502     5.3129     8.5863     7.9277     2.4537     0.0294     0.1166   129.6589
  315.5000   -55.3675     7.0813     5.5677     8.3523     7.9272     2.4586     0.0313     0.1131   128.7528
  316.0000   -55.3674     7.4287     5.8918     8.1248     7.9267     2.4576     0.0333     0.1132   127.8467
  316.5000   -55.3630     7.6110     5.9911     7.8102     7.9261     2.4515     0.0338     0.1159   128.8093
  317.0000   -55.5389     7.7688     6.0410     8.0121     7.9256     2.4453     0.0323     0.1185   130.4581
  317.5000   -55.7469     7.9548     5.8878     8.3783     7.9251     2.4392     0.0298     0.1214   133.5711
  318.0000   -55.9555     7.7934     5.7028     8.7612     7.9245     2.4329     0.0272     0.1241   138.3017
  318.5000   -56.1638     7.4756     5.5236     8.9624     7.9240     2.4345     0.0274     0.1225   143.1483
  319.0000   -56.3725     7.1707     5.3501     8.7995     7.9235     2.4389     0.0311     0.1257   142.4073
  319.5000   -56.5599     6.8781     5.1820     6.7572     7.9229     2.4311     0.0295     0.1301   139.3501
  320.0000   -56.5607     6.5948     5.0284     5.5115     7.9224     2.4167     0.0263     0.1381   136.1318
  320.5000   -56.4878     6.4985     4.9809     6.5043     7.9219     2.4017     0.0231     0.1471   132.9430
  321.0000   -56.2838     6.7462     4.9363     7.6682     7.9213     2.3923     0.0221     0.1527   130.6089
  321.5000   -56.0818     6.9431     4.8919     6.7862     7.9208     2.3963     0.0228     0.1519   132.4025
  322.0000   -55.8795     7.1459     4.8919     5.4612     7.9202     2.4032     0.0235     0.1425   135.8076
  322.5000   -55.6775     7.3541     5.0394     7.3913     7.9197     2.4098     0.0269     0.1335   136.7466
  323.0000   -55.4756     7.5293     5.1460     8.5749     7.9192     2.4229     0.0305     0.1283   135.6432
  323.5000   -55.2698     7.7568     5.3619     8.1573     7.9186     2.4360     0.0341     0.1244   134.3207
  324.0000   -54.9882     7.9912     5.6263     7.8868     7.9185     2.4491     0.0376     0.1180   132.1398
  324.5000   -54.6160     8.2326     5.9128     8.6102     7.9185     2.4622     0.0412     0.1092   130.3594
  325.0000   -54.2409     8.4814     6.2138     9.2662     7.9184     2.4753     0.0449     0.1009   129.4159
  325.5000   -54.1044     8.7376     6.5302     9.7930     7.9184     2.4805     0.0453     0.0999   130.3487
  326.0000   -54.0175     9.0015     6.8626     9.9751     7.9197     2.4772     0.0421     0.1003   130.2706
  326.5000   -54.0151     9.2141     7.1097    10.1605     7.9550     2.4824     0.0389     0.0982   128.6330
  327.0000   -54.0884     9.2134     7.3013    10.1906     7.9535     2.4836     0.0359     0.0991   127.2036
  327.5000   -54.1628     9.1939     7.4982    10.1671     7.9424     2.4791     0.0353     0.1018   127.6870
