~VERSION INFORMATION
 VERS.                2.0:   CWLS LOG ASCII STANDARD - VERSION 2.0
 WRAP.                 NO:   ONE LINE PER DEPTH STEP
~WELL INFORMATION
#MNEM.UNIT      DATA TYPE    INFORMATION
#----------   ------------   ------------------------------
 STRT.F           32.0000:   START DEPTH
 STOP.F          697.0000:   STOP DEPTH
 STEP.F            0.5000:   STEP LENGTH
 NULL.          -999.2500:   NO VALUE
 COMP.    FENIX & SCISSON:   COMPANY
 WELL.      NPR-3 #81S3-3:   WELL
 FLD .        TEAPOT DOME:   FIELD
 LOC .       S3 T38N R78W:   LOCATION
 CNTY.            NATRONA:   COUNTY
 STAT.            WYOMING:   STATE
 CTRY. UNITED STATES OF AMERICA:   COUNTRY
 SRVC.           BIRDWELL:   SERVICE COMPANY
 DATE.        11-JAN-1978:   LOGDATE
 API .       490251055400:   API NUMBER
~CURVE INFORMATION
#MNEM.UNIT       API CODE    CURVE DESCRIPTION
#----------   ------------   ------------------------------
 DEPT.F                  :   
 ILD .OHMM   05 120 46 00:   INDUCTION LOG DEEP
 SN  .OHMM   05 040 16 00:   SHORT NORMAL 16"
 SPR .MV     05 010 01 00:   SPONTANEOUS POTENTIAL FROM RES.
 CALD.IN     45 280 60 00:   CALIPER FROM DENSITY LOG
 DPHI.DEC    45 890 12 00:   DENSITY POROSITY SANDSTONE
 DRHO.G/C3   45 356 01 00:   DENSITY CORRECTION
 GRD .GAPI   45 310 01 00:   GAMMA RAY FROM DENSITY LOG
 RHOB.G/C3   45 350 01 00:   BULK DENSITY
~PARAMETER INFORMATION
#MNEM.UNIT          VALUE    DESCRIPTION
#----------   ------------   ------------------------------
 PD  .                 GL:   PERMANENT DATUM
 EPD .F              5119:   ELEVATION PERMANENT DATUM
 LMF .                 KB:   LOG MEASURED FROM
 DAPD.F                 4:   FEET ABOVE PERMANENT DATUM
 DMF .                 KB:   DRILLING MEASURED FROM
 EKB .F              5123:   KELLING BUSHING
 EGL .F              5119:   GROUND LEVEL
 DATE.        11-JAN-1978:   RUN DATE
 RUN .                  1:   RUN NUMBER
 DD  .F               695:   DEPTH DRILLER
 DL  .F               704:   DEPTH LOGGER
 BLI .F               697:   BOTTOM LOG INTERVAL
 TLI .F                40:   TOP LOG INTERVAL
 CS  .IN            8.625:   CASING SIZE
 CBD .F                40:   CASING BOTTOM DRILLER
 CBL .F                40:   CASING BOTTOM LOGGER
 BS  .IN            7.875:   BIT SIZE
 BSD .F               695:   BIT SIZE AT DEPTH
 DFT .                KCL:   DRILLING FLUID TYPE
 DFD .                8.6:   DRILLING FLUID DENSITY
 DFV .                 31:   DRILLING FLUID VISCOSITY
 DFPH.                9.5:   DRILLING FLUID PH
 DFL .                7.6:   DRILLING FLUID LOSS
 MSS .           FLOWLINE:   MUD SAMPLE SOURCE
 RMS .OHMM           0.32:   RESISTIVITY MUD SAMPLE
 MST .F                62:   MUD SAMPLE TEMPERATURE
 RMF .OHMM           0.32:   RESISTIVITY MUD FILTRATE SAMPLE
 MFST.F                62:   MUD FILTRATE SAMPLE TEMPERATURE
 RMC .OHMM            0.8:   RESISTIVITY MUD CAKE
 MCST.F                63:   MUD CAKE SAMPLE TEMPERATURE
 MFSS.               MEAS:   MUD FILTRATE SAMPLE SOURCE
 MCSS.               MEAS:   MUD CAKE SAMPLE SOURCE
 TCS .HRS               2:   TIME CURCULATED STOPPED
 LUN .               2958:   LOGGING UNIT NUMBER
 LUL .             CASPER:   LOGGING UNIT LOCATION
 ENGI.           REYNOLDS:   RECORDING ENGINEER
 WITN.         HARRINGTON:   WITNESSED BY
 CLNT.            A2DTECH:   CLIENT CODE
 ORIG.           5" PRINT:   ORIGIN OF DATA
 UWI .       490251055400:   UNIQUE WELL ID
 DICO. A2D Technologies, Inc.:   DIGITIZING COMPANY
~OTHER INFORMATION
~A   DEPT      ILD         SN        SPR       CALD       DPHI       DRHO         GRD      RHOB   
# ...
  396.5000     7.8848     9.1953   -42.5579     8.6556     0.0899     0.0455    91.6667     2.4964
  397.0000     8.0522     9.7886   -42.5549     8.6712     0.0837     0.0455    91.8246     2.5047
  397.5000     8.2804    10.3484   -42.5520     8.6719     0.0777     0.0441    94.3670     2.5168
  398.0000     8.9387    10.7151   -42.5491     8.6726     0.0732     0.0366    95.7171     2.5220
  398.5000     9.8522    10.8668   -42.6961     8.6734     0.0688     0.0336    95.1299     2.5258
  399.0000    10.7840    11.0972   -42.6924     8.6742     0.0658     0.0458    95.1387     2.5334
  399.5000    11.2445    11.1766   -42.6895     8.6749     0.0688     0.0458    95.4457     2.5357
  400.0000    11.4039    11.3348   -42.3881     8.6905     0.0745     0.0444    95.9016     2.5229
  400.5000    11.5656    11.4953   -42.0866     8.7062     0.0751     0.0474    91.1267     2.5222
  401.0000    11.7296    11.5872   -41.7851     8.7069     0.0759     0.0505    91.7665     2.5199
  401.5000    11.8959    11.7561   -41.6323     8.7063     0.0771     0.0508    92.9627     2.5170
  402.0000    11.9812    11.9081   -41.4801     8.7056     0.0720     0.0446    93.5526     2.5230
  402.5000    12.1515    12.0767   -41.7764     8.7050     0.0684     0.0356    92.8163     2.5291
  403.0000    12.2386    12.1631   -41.9227     8.7043     0.0665     0.0387    92.8274     2.5329
  403.5000    12.2411    12.2501   -41.4713     8.7037     0.0683     0.0449    90.8989     2.5164
  404.0000    12.3289    12.3378   -41.1698     8.7031     0.0728     0.0463    88.6723     2.5066
  404.5000    12.3314    12.3403   -41.0179     8.7024     0.0785     0.0449    89.1282     2.5074
  405.0000    12.4198    12.3428   -41.0149     8.7018     0.0806     0.0450    94.3532     2.5089
  405.5000    12.4223    12.3454   -41.0119     8.7011     0.0794     0.0465    96.0014     2.5082
  406.0000    12.5114    12.4337   -41.0090     8.7005     0.0833     0.0511    96.3083     2.5060
  406.5000    12.5139    12.4362   -41.4539     8.6986     0.0872     0.0527    96.4662     2.5015
  407.0000    12.5165    12.4388   -41.7495     8.6927     0.0867     0.0542    96.4751     2.4985
  407.5000    12.5191    12.4413   -41.7458     8.6868     0.0799     0.0588    96.4528     2.5084
  408.0000    12.5217    12.4439   -41.8928     8.6809     0.0766     0.0679    91.5265     2.5121
  408.5000    12.5242    12.5329   -41.7399     8.6749     0.0820     0.0679    87.3595     2.5091
  409.0000    12.4250    12.5355   -41.7370     8.6714     0.0774     0.0647    86.4709     2.5077
  409.5000    12.2026    12.4515   -41.7058     8.6571     0.0726     0.0588    87.3713     2.5165
  410.0000    11.9546    12.3510   -41.8506     8.6578     0.0696     0.0558    89.3146     2.5265
  410.5000    11.7090    12.0987   -42.4432     8.6435     0.0765     0.0573    90.6617     2.5145
  411.0000    11.4684    11.9339   -42.5881     8.6291     0.0792     0.0664    91.4208     2.5131
  411.5000    11.3110    11.8532   -42.5835     8.6148     0.0828     0.0725    91.8659     2.5108
  412.0000    11.0121    11.6918   -42.4298     8.5709     0.0888     0.0755    91.0730     2.4891
  412.5000    10.7883    11.5325   -42.2761     8.4971     0.0993     0.0771    89.4685     2.4793
  413.0000    10.5698    11.3755   -42.1224     8.4826     0.1065     0.0786    90.0965     2.4719
  413.5000    10.4270    11.2209   -41.8195     8.4834     0.1131     0.0817    92.1889     2.4636
  414.0000    10.2862    11.1446   -42.1254     8.4840     0.1216     0.0862    93.3870     2.4396
  414.5000    10.1473    10.9929   -42.4234     8.4846     0.1282     0.0938    92.6478     2.4269
  415.0000    10.0096    10.7687   -42.7214     8.4851     0.1357     0.0999    86.5434     2.4126
  415.5000     9.8069    10.4759   -42.9957     8.4857     0.1417     0.1134    84.7594     2.3894
  416.0000     9.4752    10.1911   -42.8418     8.4863     0.1510     0.1315    87.3003     2.3669
  416.5000     9.1548     9.8456   -42.6872     8.4720     0.1622     0.1286    88.7965     2.3458
  417.0000     8.8452     9.3810   -42.5335     8.4578     0.1721     0.1256    88.9500     2.3248
  417.5000     7.8636     8.8767   -42.3798     8.4435     0.1868     0.1452    87.0199     2.3286
  418.0000     6.4327     8.3415   -42.3753     8.4292     0.2037     0.1528    84.7903     2.3377
  418.5000     5.1897     7.5718   -42.3709     8.4224     0.2157     0.1618    84.1986     2.2926
  419.0000     4.3346     6.7318   -42.2172     8.3857     0.2329     0.1622    85.6963     2.2603
  419.5000     4.0452     6.1106   -42.2127     8.3863     0.2431     0.1514    85.4041     2.2469
  420.0000     3.9628     5.7025   -42.2083     8.3720     0.2334     0.1469    83.9197     2.2499
  420.5000     3.9641     5.3947   -42.2038     8.3726     0.2069     0.1560    83.4784     2.3025
  421.0000     3.9928     5.3992   -42.1994     8.3732     0.1924     0.1771    84.0805     2.3273
  421.5000     4.0217     5.5529   -42.1949     8.3760     0.1792     0.1952    86.1798     2.3371
  422.0000     4.1074     5.7110   -42.0412     8.3919     0.1650     0.2148    89.6304     2.3454
  422.5000     4.4962     5.9213   -42.0373     8.4346     0.1523     0.2118    90.3577     2.3748
  423.0000     5.0954     6.7862   -41.8831     8.4501     0.1368     0.2088    91.3888     2.4018
  423.5000     5.9369     7.8496   -41.8786     8.4656     0.1267     0.2121    93.6495     2.4462
  424.0000     7.6228     8.6499   -41.7249     8.4662     0.1144     0.2351    93.5049     2.4733
  424.5000     9.0059     9.4007   -41.7205     8.4668     0.1116     0.2560    93.8103     2.4741
  425.0000     9.4565     9.9376   -41.5668     8.4674     0.1205     0.2647    98.5852     2.4380
  425.5000     9.7252    10.3606   -41.5623     8.4680     0.1239     0.2692   100.9756     2.4396
  426.0000     9.7956    10.6531   -41.5579     8.4685     0.1245     0.2648    98.7460     2.4426
  426.5000     9.7983    10.8031   -41.5535     8.4690     0.1179     0.1971    94.5790     2.4695
  427.0000     9.8010    10.8797   -41.5490     8.4696     0.0543     0.1385    94.2854     2.5505
  427.5000     9.8037    10.9568   -41.0968     8.4702     0.0266     0.1235    95.1869     2.5900
  428.0000     9.8752    10.9583   -40.1968     8.4708     0.0335     0.1236    96.2360     2.5774
  428.5000     9.8780    11.0360   -39.4461     8.4714     0.0799     0.1266    97.2851     2.5445
  429.0000     9.8807    11.0375   -38.6954     8.4571     0.0792     0.1267    98.1852     2.5187
  429.5000     9.9522    11.0390   -38.9894     8.4578     0.0780     0.1237    98.0421     2.5067
  430.0000    10.0242    10.9640   -39.5820     8.4584     0.0837     0.1162    96.8557     2.5044
  430.5000    10.0270    10.9658   -40.0253     8.4590     0.0804     0.1088    96.1165     2.5075
  431.0000     9.9597    10.9673   -40.3194     8.4596     0.0768     0.1058    96.7185     2.5113
  431.5000     9.4910    10.8180   -40.3149     8.4751     0.0807     0.1089    98.3637     2.5128
  432.0000     9.1067    10.7448   -40.4656     8.5055     0.0822     0.1149    98.6696     2.4978
  432.5000     8.7987    10.5253   -40.6046     8.5209     0.0800     0.1225    95.9861     2.4941
  433.0000     8.5603    10.2392   -40.6000     8.5662     0.0791     0.1165    96.3666     2.4828
  433.5000     8.4441     9.9608   -40.5955     8.5816     0.0788     0.1045   101.8766     2.4768
  434.0000     8.5650     9.7573   -40.4199     8.6120     0.0806     0.0985   105.8452     2.4881
  434.5000     8.7475     9.6913   -40.1388     8.6275     0.0779     0.1001   105.7021     2.5062
  435.0000     8.9339     9.7600   -39.9842     8.6280     0.0751     0.1002   102.2803     2.5122
  435.5000     9.1877     9.9710   -39.6812     8.6286     0.0769     0.1017    95.4307     2.5168
  436.0000     9.5807    10.5404   -39.3783     8.5995     0.0781     0.0987    93.4992     2.5033
  436.5000     9.8530    10.9158   -39.6723     8.5701     0.0778     0.0973    96.1153     2.5123
