~VERSION INFORMATION
 VERS.                2.0:   CWLS LOG ASCII STANDARD - VERSION 2.0
 WRAP.                 NO:   ONE LINE PER DEPTH STEP
~WELL INFORMATION
#MNEM.UNIT      DATA TYPE    INFORMATION
#----------   ------------   ------------------------------
 STRT.F           24.0000:   START DEPTH
 STOP.F          570.0000:   STOP DEPTH
 STEP.F            0.5000:   STEP LENGTH
 NULL.          -999.2500:   NO VALUE
 COMP. FENIX & SCISSON INC:   COMPANY
 WELL.   NPR-3 #32SX10-10:   WELL
 FLD .  TEAPOT COME NPR-3:   FIELD
 LOC .      S10 T38N R78W:   LOCATION
 CNTY.            NATRONA:   COUNTY
 STAT.            WYOMING:   STATE
 CTRY. UNITED STATES OF AMERICA:   COUNTRY
 SRVC.            Unknown:   SERVICE COMPANY
 DATE.        27-JUN-1978:   LOGDATE
 API .       490251065300:   API NUMBER
~CURVE INFORMATION
#MNEM.UNIT       API CODE    CURVE DESCRIPTION
#----------   ------------   ------------------------------
 DEPT.F                  :   
 CALD.IN     45 280 60 00:   CALIPER FROM DENSITY LOG
 GRD .GAPI   45 310 01 00:   GAMMA RAY FROM DENSITY LOG
 CORR.G/C3   45 356 01 00:   DENSITY CORRECTION
 DPHI.DEC    45 890 12 00:   DENSITY POROSITY SANDSTONE
 RHOB.G/C3   45 350 01 00:   BULK DENSITY
 SPR .MV     05 010 01 00:   SPONTANEOUS POTENTIAL FROM RES.
 SN  .OHMM   05 040 16 00:   SHORT NORMAL 16"
 ILD .OHMM   05 120 46 00:   INDUCTION LOG DEEP
~PARAMETER INFORMATION
#MNEM.UNIT          VALUE    DESCRIPTION
#----------   ------------   ------------------------------
 PD  .                 GL:   PERMANENT DATUM
 EPD .F              5239:   ELEVATION PERMANENT DATUM
 LMF .                 GL:   LOG MEASURED FROM
 DAPD.F                 4:   FEET ABOVE PERMANENT DATUM
 DMF .                 GL:   DRILLING MEASURED FROM
 EKB .F              5243:   KELLING BUSHING
 EGL .F              5239:   GROUND LEVEL
 DATE.        27-JUN-1978:   RUN DATE
 RUN .                  1:   RUN NUMBER
 DD  .F               565:   DEPTH DRILLER
 DL  .F               574:   DEPTH LOGGER
 BLI .F               572:   BOTTOM LOG INTERVAL
 TLI .F                30:   TOP LOG INTERVAL
 CS  .IN            8.625:   CASING SIZE
 CBD .F                40:   CASING BOTTOM DRILLER
 CBL .F                40:   CASING BOTTOM LOGGER
 BS  .IN            7.875:   BIT SIZE
 BSD .F               565:   BIT SIZE AT DEPTH
 DFT .                KCL:   DRILLING FLUID TYPE
 DFD .                8.7:   DRILLING FLUID DENSITY
 DFV .                 35:   DRILLING FLUID VISCOSITY
 DFPH.                 10:   DRILLING FLUID PH
 DFL .                 14:   DRILLING FLUID LOSS
 MSS .           FLOWLINE:   MUD SAMPLE SOURCE
 RMS .OHMM            .36:   RESISTIVITY MUD SAMPLE
 MST .F                78:   MUD SAMPLE TEMPERATURE
 RMF .OHMM             .3:   RESISTIVITY MUD FILTRATE SAMPLE
 MFST.F                86:   MUD FILTRATE SAMPLE TEMPERATURE
 RMC .OHMM            .36:   RESISTIVITY MUD CAKE
 MCST.F                87:   MUD CAKE SAMPLE TEMPERATURE
 MFSS.               MEAS:   MUD FILTRATE SAMPLE SOURCE
 MCSS.               MEAS:   MUD CAKE SAMPLE SOURCE
 RMB .OHMM            3.9:   RESISTIVITY MUD AT BHT
 BHT .F                72:   BOTTOM HOLE TEMPERATURE
 TCS .HRS            0300:   TIME CURCULATED STOPPED
 MRT .F                72:   MAXIMUM RECORDED TEMPERATURE
 LUN .               2938:   LOGGING UNIT NUMBER
 LUL .               CASP:   LOGGING UNIT LOCATION
 ENGI.            POINTER:   RECORDING ENGINEER
 WITN.         ZARGARNIAN:   WITNESSED BY
 CLNT.            A2DTECH:   CLIENT CODE
 ORIG.     2.5", 5" PRINT:   ORIGIN OF DATA
 UWI .       490251065300:   UNIQUE WELL ID
 DICO. A2D Technologies, Inc.:   DIGITIZING COMPANY
~OTHER INFORMATION
~A   DEPT     CALD         GRD      CORR       DPHI       RHOB        SPR         SN        ILD   
# ...
  429.0000     7.5679   100.3695     0.0140     0.1403     2.4642   -19.5284    11.2468    12.4237
  429.5000     7.5851   103.0674     0.0142     0.1396     2.4666   -19.5254    11.2468    12.5941
  430.0000     7.6024   105.1709     0.0144     0.1393     2.4659   -19.5224    11.2468    12.5932
  430.5000     7.6196   105.4913     0.0145     0.1392     2.4668   -19.5194    11.0937    12.5923
  431.0000     7.6368   105.2175     0.0147     0.1398     2.4662   -19.4030    11.0937    12.5914
  431.5000     7.6543   105.6923     0.0149     0.1403     2.4655   -19.2149    11.0937    12.5906
  432.0000     7.6713   105.7156     0.0151     0.1418     2.4596   -19.2120    11.0937    12.5897
  432.5000     7.6300   105.4417     0.0152     0.1475     2.4493   -19.2090    11.0937    12.5888
  433.0000     7.6320   104.4249     0.0154     0.1559     2.4344   -19.2060    11.0937    12.5880
  433.5000     7.6340   102.5107     0.0155     0.1610     2.4300   -19.2030    11.0937    12.5871
  434.0000     7.6361   102.6884     0.0142     0.1689     2.4230   -19.2000    11.0937    12.4152
  434.5000     7.6826   102.5631     0.0144     0.1838     2.3846   -19.1970    11.0937    12.2456
  435.0000     7.6697   101.2491     0.0145     0.1937     2.3742   -19.1940    11.0836    12.2447
  435.5000     7.6412    93.5458     0.0147     0.1985     2.3668   -19.1911    10.9427    12.2439
  436.0000     7.5992    90.0030     0.0134     0.2020     2.3632   -19.1881    10.9427    12.0766
  436.5000     7.5571    92.5030     0.0135     0.2056     2.3528   -19.1851    10.7938    11.9117
  437.0000     7.5437    96.7864     0.0137     0.2163     2.3402   -19.1821    10.7938    11.8149
  437.5000     7.5609    97.3595     0.0139     0.2193     2.3343   -19.1791    10.7938    11.7483
  438.0000     7.5777    97.2284     0.0140     0.2108     2.3441   -19.1761    10.6468    11.6560
  438.5000     7.5648    89.6795     0.0142     0.2060     2.3525   -19.1732    10.5019    11.5871
  439.0000     7.5514    89.1026     0.0143     0.2050     2.3556   -19.1702    10.5019    11.5863
  439.5000     7.5388    91.9549     0.0145     0.2050     2.3557   -19.1672    10.5019    11.5855
  440.0000     7.5260    94.2070     0.0147     0.2064     2.3543   -19.1642    10.7938    11.9181
  440.5000     7.5280    94.3789     0.0148     0.2091     2.3521   -19.1044    10.9427    12.4133
  441.0000     7.5150    92.4705     0.0150     0.2049     2.3583   -18.8060    11.0937    12.8377
  441.5000     7.5174    91.4537     0.0152     0.2003     2.3629   -18.5075    11.4020    13.3731
  442.0000     7.5342    94.1516     0.0154     0.1988     2.3645   -17.8628    11.5594    13.7414
  442.5000     7.5361    95.0793     0.0155     0.1984     2.3654   -16.6716    11.7189    13.9278
  443.0000     7.5529    95.0907     0.0157     0.1981     2.3662   -15.5642    11.7189    14.3114
  443.5000     7.5697    90.2154     0.0158     0.1995     2.3633   -14.9253    11.8806    14.5056
  444.0000     7.5716    90.0842     0.0160     0.2016     2.3605   -14.3283    12.0446    14.9050
  444.5000     7.5736    91.8964     0.0162     0.2003     2.3643   -13.7314    12.2108    15.0156
  445.0000     7.5458    95.0401     0.0163     0.1973     2.3712   -13.1343    12.2108    15.0146
  445.5000     7.4836    96.2521     0.0167     0.1892     2.3818   -12.8358    12.2108    15.0135
  446.0000     7.3272    96.2753     0.0182     0.1888     2.3864   -12.2388    12.3793    15.0125
  446.5000     7.2103    95.7043     0.0168     0.1894     2.3831   -11.9612    12.7233    15.0949
  447.0000     7.1969    91.7157     0.0170     0.2052     2.3567   -11.9582    12.7233    15.2175
  447.5000     7.2290    88.6186     0.0172     0.2067     2.3530   -11.9552    12.7233    15.2163
  448.0000     7.2012    89.2363     0.0173     0.2060     2.3523   -11.9403    12.7233    15.0084
  448.5000     7.1289    93.0243     0.0190     0.2060     2.3547   -11.6508    12.7233    15.0825
  449.0000     7.1010    94.2119     0.0191     0.2071     2.3541   -11.6478    12.7233    15.2133
  449.5000     7.0882    94.3640     0.0193     0.2074     2.3527   -11.3463    12.7233    15.2121
  450.0000     7.1215    88.8859     0.0180     0.2073     2.3520   -11.3433    12.7233    15.4208
  450.5000     7.1965    87.8534     0.0178     0.2071     2.3527   -11.3403    12.5502    15.4196
  451.0000     7.2133    87.5642     0.0176     0.2069     2.3533   -11.3373    12.5502    15.4185
  451.5000     7.2004    86.2726     0.0174     0.2031     2.3583   -11.6328    12.5502    15.4175
  452.0000     7.1577    85.1028     0.0172     0.1964     2.3696   -11.6298    12.5502    15.4165
  452.5000     7.1443    84.8199     0.0171     0.1946     2.3697   -11.6268    12.5502    15.3560
  453.0000     7.1467    85.1407     0.0172     0.1961     2.3691   -11.6238    12.5502    15.2048
  453.5000     7.1784    88.4286     0.0173     0.1978     2.3692   -11.6208    12.5502    15.1493
  454.0000     7.2100    94.6883     0.0174     0.1951     2.3708   -11.6178    12.5502    14.9444
  454.5000     7.1813    96.4903     0.0191     0.1939     2.3709   -11.6148    12.4568    14.5902
  455.0000     7.0629    96.6579     0.0192     0.1942     2.3709   -11.6118    12.3793    14.3909
  455.5000     7.0078    96.6768     0.0208     0.1941     2.3710   -11.6088    12.3793    14.3462
  456.0000     7.0251    97.1415     0.0224     0.1944     2.3719   -11.3073    12.3793    14.1934
  456.5000     7.0270    97.9034     0.0255     0.1926     2.3735   -11.3043    12.3793    14.1924
  457.0000     6.9992    97.4660     0.0331     0.1919     2.3750   -11.3013    12.3793    14.1914
  457.5000     6.7634    97.0498     0.0422     0.1913     2.3751   -10.9998    12.2108    14.1904
  458.0000     6.5424    92.3187     0.0483     0.1850     2.3786   -10.9968    12.2872    14.1895
  458.5000     6.5592    88.1771     0.0544     0.1801     2.4000   -10.9938    12.3052    14.2204
  459.0000     6.6803    84.7786     0.0620     0.1747     2.4069   -10.9908    12.2108    14.3831
  459.5000     6.9135    84.1984     0.0667     0.1714     2.4100   -11.2866    12.2108    14.6090
  460.0000     7.3233    89.4227     0.0683     0.1678     2.4153   -11.5821    12.2108    15.0113
  460.5000     7.5481    93.0078     0.0684     0.1595     2.4423   -11.8776    12.2108    15.4247
  461.0000     7.6095    95.2556     0.0670     0.1473     2.4537   -11.8743    12.3793    15.8248
  461.5000     7.6263    96.7604     0.0641     0.1359     2.4620   -11.8713    12.3793    15.8236
  462.0000     7.6282    99.3054     0.0610     0.1287     2.4778   -11.5698    12.5502    15.8226
  462.5000     7.6301    99.4849     0.0554     0.1239     2.4899   -11.5668    12.5502    15.6065
  463.0000     7.6172    96.8173     0.0436     0.1137     2.5102   -11.5638    12.7233    15.6054
  463.5000     7.6191    96.6876     0.0137     0.1073     2.5186   -11.5608    12.7233    15.6043
  464.0000     7.6052    97.5988     0.0019     0.1058     2.5194   -11.5578    12.7233    15.6032
  464.5000     7.5784    96.7303     0.0005     0.1096     2.5090   -11.5548    12.7233    15.6022
  465.0000     7.5655    90.9543     0.0021     0.1222     2.4814   -11.5518    12.8989    15.6011
  465.5000     7.5526    89.1902     0.0067     0.1327     2.4717   -11.5488    12.8989    15.3880
  466.0000     7.5396    92.6267     0.0098     0.1419     2.4523   -11.5458    12.8989    15.3869
  466.5000     7.5420    96.6229     0.0099     0.1518     2.4314   -11.5428    12.8989    15.3859
  467.0000     7.5286    99.6482     0.0116     0.1634     2.4165   -11.8383    12.8989    15.3848
  467.5000     7.5310   100.1129     0.0117     0.1694     2.4144   -11.8353    12.8989    15.3838
  468.0000     7.5330    99.2404     0.0133     0.1700     2.4130   -12.1308    12.8989    15.3827
  468.5000     7.5201    96.5847     0.0149     0.1700     2.4123   -12.4263    12.8989    15.1726
  469.0000     7.5221    95.5636     0.0150     0.1693     2.4124   -13.0203    12.8989    15.1715
