~VERSION INFORMATION
 VERS.                2.0:   CWLS LOG ASCII STANDARD - VERSION 2.0
 WRAP.                 NO:   ONE LINE PER DEPTH STEP
~WELL INFORMATION
#MNEM.UNIT      DATA TYPE    INFORMATION
#----------   ------------   ------------------------------
 STRT.F           32.0000:   START DEPTH
 STOP.F          812.0000:   STOP DEPTH
 STEP.F            0.5000:   STEP LENGTH
 NULL.          -999.2500:   NO VALUE
 COMP. FENIX & SCISSON INC:   COMPANY
 WELL.       75 SX #15-15:   WELL
 FLD .             TEAPOT:   FIELD
 LOC .      S15 T38N R78W:   LOCATION
 CNTY.            NATRONA:   COUNTY
 STAT.            WYOMING:   STATE
 CTRY. UNITED STATES OF AMERICA:   COUNTRY
 SRVC.              Welex:   SERVICE COMPANY
 DATE.        28-FEB-1977:   LOGDATE
 API .       490251030100:   API NUMBER
~CURVE INFORMATION
#MNEM.UNIT       API CODE    CURVE DESCRIPTION
#----------   ------------   ------------------------------
 DEPT.F                  :   
 SPR .MV     07 010 01 00:   SPONTANEOUS POTENTIAL
 ILD .OHMM   07 120 46 00:   INDUCTION LOG DEEP
 SGRD.OHMM   07 220 05 00:   SHALLOW RESISTIVITY
 ILM .OHMM   07 120 44 00:   INDUCTION LOG MEDIUM
 GRD .GAPI   45 310 01 00:   GAMMA RAY FROM DENSITY LOG
 CALD.IN     45 280 60 00:   CALIPER FROM DENSITY LOG
 RHOB.G/C3   45 350 01 00:   BULK DENSITY
 DPHI.DEC    45 890 12 00:   DENSITY POROSITY SANDSTONE
 CORR.G/C3   45 356 01 00:   DENSITY CORRECTION
~PARAMETER INFORMATION
#MNEM.UNIT          VALUE    DESCRIPTION
#----------   ------------   ------------------------------
 PD  .                 GL:   PERMANENT DATUM
 EPD .F              5264:   ELEVATION PERMANENT DATUM
 LMF .                 GL:   LOG MEASURED FROM
 DMF .                 GL:   DRILLING MEASURED FROM
 EGL .F              5264:   GROUND LEVEL
 DATE.          2-28-1977:   RUN DATE
 RUN .                  1:   RUN NUMBER
 DD  .F               830:   DEPTH DRILLER
 DL  .F               814:   DEPTH LOGGER
 BLI .F               812:   BOTTOM LOG INTERVAL
 TLI .F                42:   TOP LOG INTERVAL
 CS  .IN            8.625:   CASING SIZE
 CBD .F                40:   CASING BOTTOM DRILLER
 CBL .F                42:   CASING BOTTOM LOGGER
 BS  .IN            7.875:   BIT SIZE
 BSD .F               830:   BIT SIZE AT DEPTH
 DFT .           CHEM-GEL:   DRILLING FLUID TYPE
 DFD .                9.3:   DRILLING FLUID DENSITY
 DFV .                 38:   DRILLING FLUID VISCOSITY
 DFPH.               10.5:   DRILLING FLUID PH
 DFL .               16.2:   DRILLING FLUID LOSS
 MSS .          FLOW LINE:   MUD SAMPLE SOURCE
 RMS .OHMM           0.44:   RESISTIVITY MUD SAMPLE
 MST .F                62:   MUD SAMPLE TEMPERATURE
 RMF .OHMM            .38:   RESISTIVITY MUD FILTRATE SAMPLE
 MFST.F                62:   MUD FILTRATE SAMPLE TEMPERATURE
 RMC .OHMM           0.79:   RESISTIVITY MUD CAKE
 MCST.F                62:   MUD CAKE SAMPLE TEMPERATURE
 MFSS.           MEASURED:   MUD FILTRATE SAMPLE SOURCE
 MCSS.           MEASURED:   MUD CAKE SAMPLE SOURCE
 RMB .OHMM           .368:   RESISTIVITY MUD AT BHT
 BHT .F                74:   BOTTOM HOLE TEMPERATURE
 TCS .HRS               3:   TIME CURCULATED STOPPED
 MRT .F                74:   MAXIMUM RECORDED TEMPERATURE
 LUN .               8611:   LOGGING UNIT NUMBER
 LUL .           GILLETTE:   LOGGING UNIT LOCATION
 ENGI.               DOAK:   RECORDING ENGINEER
 WITN.               JAPP:   WITNESSED BY
 CLNT.            A2DTECH:   CLIENT CODE
 ORIG.       2", 5" PRINT:   ORIGIN OF DATA
 UWI .       490251030100:   UNIQUE WELL ID
 DICO. A2D Technologies, Inc.:   DIGITIZING COMPANY
~OTHER INFORMATION
~A   DEPT      SPR        ILD       SGRD        ILM         GRD        CALD       RHOB       DPHI      CORR  
# ...
  616.0000   -28.2440    15.7188    16.2666    16.5610    84.1577     7.4464     2.3838     0.1582     0.0380
  616.5000   -28.0942    15.6159    14.9634    16.0342    86.3777     7.4705     2.4063     0.1458     0.0412
  617.0000   -27.4382    15.5140    16.8027    15.6606    84.3720     7.5048     2.4191     0.1341     0.0445
  617.5000   -26.8076    15.4116    17.8250    15.2957    84.2929     7.5392     2.4066     0.1433     0.0399
  618.0000   -26.1758    15.1540    14.5802    14.9392    83.7413     7.5740     2.3911     0.1521     0.0344
  618.5000   -25.5424    14.8363    13.0326    14.5911    80.3071     7.5971     2.3756     0.1608     0.0320
  619.0000   -24.9143    14.5260    13.5578    14.2511    78.3150     7.5333     2.3602     0.1696     0.0294
  619.5000   -24.8461    14.2223    16.3422    13.9190    78.5031     7.4968     2.3432     0.1783     0.0270
  620.0000   -24.9296    13.9241    18.9247    13.5947    78.7402     7.4616     2.3535     0.1811     0.0278
  620.5000   -25.4418    13.6347    15.2729    13.2779    78.5417     7.4257     2.3697     0.1644     0.0286
  621.0000   -25.9476    13.3990    12.1094    12.9676    77.4343     7.3903     2.3862     0.1529     0.0295
  621.5000   -26.4529    13.8092    10.5446    12.6663    80.2689     7.3844     2.4022     0.1432     0.0303
  622.0000   -26.9583    14.1699    14.9888    12.3319    83.3556     7.5261     2.3986     0.1499     0.0284
  622.5000   -27.4633    14.5401    19.2561    13.1774    85.8431     7.6651     2.3951     0.1540     0.0219
  623.0000   -27.9682    14.9200    20.2196    14.2269    86.2795     7.7429     2.4138     0.1368     0.0218
  623.5000   -28.2435    15.3098    23.5467    15.3600    86.5986     7.7562     2.4383     0.1247     0.0228
  624.0000   -28.4576    15.7097    30.1321    16.5833    84.8183     7.7694     2.4611     0.1125     0.0238
  624.5000   -28.4385    16.1201    28.5121    17.9040    81.2665     7.7823     2.4665     0.1073     0.0249
  625.0000   -28.1949    16.2566    23.7154    19.1880    80.3164     7.7954     2.4726     0.1045     0.0282
  625.5000   -27.9337    15.9599    19.7256    19.1880    79.2735     7.8085     2.4699     0.1068     0.0316
  626.0000   -27.6728    15.3853    18.8552    19.0121    77.4386     7.8215     2.4611     0.1151     0.0351
  626.5000   -27.4158    14.7981    17.9734    18.1304    75.3833     7.8347     2.4450     0.1233     0.0385
  627.0000   -27.2782    14.2333    17.1329    17.5089    74.8436     7.8477     2.4292     0.1316     0.0399
  627.5000   -27.3920    13.6901    16.3316    16.9091    75.9144     7.8594     2.4135     0.1398     0.0366
  628.0000   -27.7581    13.1676    15.5679    16.3303    76.6380     7.8603     2.4017     0.1481     0.0333
  628.5000   -28.4881    12.6650    14.5544    15.7713    77.2830     7.8399     2.4085     0.1427     0.0385
  629.0000   -28.9594    12.5381    13.3988    15.2416    78.8182     7.8243     2.4054     0.1388     0.0412
  629.5000   -29.2090    12.4966    12.7947    15.5182    80.4834     7.8010     2.3976     0.1465     0.0418
  630.0000   -29.4497    12.4460    15.1662    15.7944    80.9201     7.7776     2.4012     0.1467     0.0424
  630.5000   -29.6907    12.5564    17.1786    16.0756    81.1024     7.7542     2.4007     0.1461     0.0422
  631.0000   -29.9321    12.7133    17.0228    16.2566    82.6439     7.7308     2.3991     0.1476     0.0384
  631.5000   -30.1735    12.8722    17.0205    16.1808    82.9527     7.7074     2.3977     0.1471     0.0346
  632.0000   -30.4150    13.0330    17.7007    16.1095    84.0661     7.6835     2.4057     0.1429     0.0308
  632.5000   -30.6564    13.1959    18.3003    16.3139    85.5129     7.6962     2.4159     0.1371     0.0299
  633.0000   -30.8978    13.3607    18.0516    16.6321    86.9774     7.7216     2.4262     0.1312     0.0320
  633.5000   -31.1392    13.5277    17.8063    17.0253    89.4463     7.7473     2.4368     0.1253     0.0340
  634.0000   -31.3875    13.6967    17.6739    17.0219    91.9113     7.7739     2.4538     0.1170     0.0361
  634.5000   -31.4375    13.8678    22.6331    17.0232    92.0584     7.7708     2.4713     0.1085     0.0381
  635.0000   -31.4377    14.0425    21.2563    17.0231    89.1153     7.7594     2.4830     0.1000     0.0402
  635.5000   -31.4372    14.1654    19.2943    17.0240    87.5256     7.7481     2.4859     0.0962     0.0424
  636.0000   -31.4371    14.1854    17.8250    17.0242    87.2876     7.7507     2.4710     0.1037     0.0383
  636.5000   -31.4371    14.2054    18.0281    16.7967    88.6107     7.8031     2.4475     0.1178     0.0320
  637.0000   -31.4371    14.2254    18.3244    16.5674    92.1059     7.8377     2.4256     0.1320     0.0257
  637.5000   -31.4371    14.2456    17.6468    16.3404    95.5173     7.8307     2.4212     0.1319     0.0214
  638.0000   -31.4371    14.2654    16.7121    16.1088    93.3119     7.8247     2.4300     0.1288     0.0247
  638.5000   -31.4371    14.2899    16.8845    16.3328    91.3059     7.8184     2.4390     0.1257     0.0278
  639.0000   -31.4370    14.2301    17.1171    16.5753    91.1513     7.8122     2.4479     0.1226     0.0307
  639.5000   -31.4369    14.1546    17.3392    16.7121    94.1365     7.8060     2.4505     0.1234     0.0270
  640.0000   -31.4385    14.0794    17.1377    15.8292    97.1543     7.7998     2.4372     0.1272     0.0228
  640.5000   -31.5089    14.0047    16.8667    15.1018    99.5287     7.8013     2.4278     0.1309     0.0187
  641.0000   -31.6575    13.9304    17.0935    15.4150   101.4256     7.8183     2.4259     0.1325     0.0152
  641.5000   -31.8057    13.8565    17.5077    15.8427   101.6640     7.8355     2.4281     0.1302     0.0190
  642.0000   -31.9544    13.7829    17.8250    16.2566    96.5915     7.8526     2.4370     0.1265     0.0229
  642.5000   -32.1029    13.7098    17.0228    15.4972    93.0247     7.8697     2.4480     0.1228     0.0267
  643.0000   -32.2517    13.6370    17.1774    14.8118    89.4562     7.8867     2.4522     0.1211     0.0306
  643.5000   -32.4005    13.5646    17.4792    14.1567    85.7501     7.8975     2.4459     0.1240     0.0344
  644.0000   -32.5473    13.4926    17.6616    13.5307    83.8019     7.8851     2.4397     0.1269     0.0382
  644.5000   -32.5970    13.3977    17.1219    12.9323    85.7773     7.8727     2.4335     0.1298     0.0406
  645.0000   -32.5042    13.4256    16.7381    12.3603    85.3362     7.8604     2.4272     0.1327     0.0398
  645.5000   -32.4128    13.4671    16.9397    11.8858    86.8932     7.8482     2.4208     0.1357     0.0389
  646.0000   -32.3209    13.5088    17.1951    12.4768    91.8029     7.8396     2.4237     0.1330     0.0424
  646.5000   -32.2290    13.5505    17.4997    13.0218    97.4557     7.8110     2.4285     0.1304     0.0468
  647.0000   -32.1370    13.5923    17.4014    13.5908   102.5915     7.7784     2.4322     0.1300     0.0507
  647.5000   -32.0433    13.6345    17.2478    14.1846   102.8597     7.7457     2.4215     0.1356     0.0504
  648.0000   -32.1696    13.7628    17.0955    14.8043    93.9704     7.7132     2.4120     0.1405     0.0499
  648.5000   -32.3595    13.9486    16.9445    15.1066    89.9783     7.6807     2.4188     0.1377     0.0496
  649.0000   -32.5504    14.2320    16.7949    15.2997    90.0029     7.6481     2.4254     0.1332     0.0491
  649.5000   -32.7408    14.5212    16.7121    15.4953    89.3846     7.6156     2.4186     0.1346     0.0487
  650.0000   -32.9313    14.8161    17.3772    15.6934    89.6133     7.5830     2.4113     0.1362     0.0483
  650.5000   -33.1219    15.1170    18.6641    15.8940    90.7430     7.5505     2.4251     0.1299     0.0479
  651.0000   -33.3109    15.4240    20.0462    16.0982    92.5445     7.5178     2.4457     0.1235     0.0475
  651.5000   -33.4700    15.6686    22.0308    16.3876    94.8655     7.4854     2.4505     0.1213     0.0471
  652.0000   -33.5690    15.1579    21.6287    16.1896    96.1603     7.4520     2.4548     0.1201     0.0459
