~VERSION INFORMATION
 VERS.                2.0:   CWLS LOG ASCII STANDARD - VERSION 2.0
 WRAP.                 NO:   ONE LINE PER DEPTH STEP
~WELL INFORMATION
#MNEM.UNIT      DATA TYPE    INFORMATION
#----------   ------------   ------------------------------
 STRT.F            1.0000:   START DEPTH
 STOP.F          478.0000:   STOP DEPTH
 STEP.F            0.1000:   STEP LENGTH
 NULL.          -999.2500:   NO VALUE
 COMP. LAWRENCE/ALLISON INC:   COMPANY
 WELL.     58-61 SX #58-3:   WELL
 FLD .             TEAPOT:   FIELD
 LOC .       S3 T38N R78W:   LOCATION
 CNTY.            NATRONA:   COUNTY
 STAT.            WYOMING:   STATE
 CTRY. UNITED STATES OF AMERICA:   COUNTRY
 SRVC.           Gearhart:   SERVICE COMPANY
 DATE.        08-JUL-1988:   LOGDATE
 API .       490251123400:   API NUMBER
~CURVE INFORMATION
#MNEM.UNIT       API CODE    CURVE DESCRIPTION
#----------   ------------   ------------------------------
 DEPT.F                  :   
 GRR .GAPI   07 310 01 00:   GAMMA RAY
 RILD.OHMM   07 120 46 00:   INDUCTION LOG DEEP RESISTIVITY
 RILM.OHMM   07 120 44 00:   INDUCTION LOG MEDIUM RESISTIVITY
~PARAMETER INFORMATION
#MNEM.UNIT          VALUE    DESCRIPTION
#----------   ------------   ------------------------------
 PD  .                 GL:   PERMANENT DATUM
 EPD .F              5184:   ELEVATION PERMANENT DATUM
 LMF .                 KB:   LOG MEASURED FROM
 DAPD.F                 5:   FEET ABOVE PERMANENT DATUM
 DMF .                 KB:   DRILLING MEASURED FROM
 EKB .F              5189:   KELLING BUSHING
 EGL .F              5184:   GROUND LEVEL
 DATE.        08-JUL-1988:   RUN DATE
 RUN .                  1:   RUN NUMBER
 DD  .F               485:   DEPTH DRILLER
 DL  .F               486:   DEPTH LOGGER
 BLI .F               478:   BOTTOM LOG INTERVAL
 CS  .IN            9.625:   CASING SIZE
 CBD .F                45:   CASING BOTTOM DRILLER
 CBL .F                44:   CASING BOTTOM LOGGER
 BS  .IN             8.75:   BIT SIZE
 BSD .F               485:   BIT SIZE AT DEPTH
 DFT .                AIR:   DRILLING FLUID TYPE
 TCS .HRS            2200:   TIME CURCULATED STOPPED
 TLAB.HRS            2315:   TIME LOGGER AT BOTTOM
 LUN .               7597:   LOGGING UNIT NUMBER
 LUL .           GILLETTE:   LOGGING UNIT LOCATION
 ENGI.           JOHNSTON:   RECORDING ENGINEER
 WITN.              FIVAS:   WITNESSED BY
 CLNT.            A2DTECH:   CLIENT CODE
 ORIG.           5" PRINT:   ORIGIN OF DATA
 UWI .       490251123400:   UNIQUE WELL ID
 DICO. A2D Technologies, Inc.:   DIGITIZING COMPANY
~OTHER INFORMATION
~A    DEPT     GRR       RILD       RILM   
# ...
  292.2000    93.6364    28.2124    31.3549
  292.3000    93.6382    28.2120    30.9307
  292.4000    93.6404    28.0936    30.5801
  292.5000    93.6419    27.8522    30.2054
  292.6000    93.6437    27.5797    29.6608
  292.7000    93.8235    27.4316    29.3458
  292.8000    94.4161    27.4312    28.8966
  292.9000    95.7738    27.3002    28.4847
  293.0000    96.6658    27.1442    28.1616
  293.1000    97.4889    26.9891    27.8477
  293.2000    98.1219    26.8349    27.6597
  293.3000    98.7227    26.6721    27.4060
  293.4000    99.7281    26.5291    27.1855
  293.5000   100.4582    26.2706    27.0312
  293.6000   100.8283    26.0440    26.8776
  293.7000   101.2065    25.8563    26.7111
  293.8000   101.7020    25.5676    26.5734
  293.9000   102.1651    25.3947    26.4226
  294.0000   102.1672    25.2763    26.3412
  294.1000   102.3751    25.1319    26.3068
  294.2000   102.4741    24.9883    26.1574
  294.3000   102.4759    24.8455    26.0090
  294.4000   102.4413    24.6919    25.8614
  294.5000   102.1762    24.5625    25.7146
  294.6000   102.1778    24.4222    25.5686
  294.7000   101.8397    24.3477    25.4234
  294.8000   101.3479    24.3134    25.2616
  294.9000   100.8560    24.1744    25.1356
  295.0000   100.3642    24.0364    24.9930
  295.1000    99.8723    24.0080    24.9118
  295.2000    99.5707    23.9295    24.8834
  295.3000    99.0587    23.8399    24.7388
  295.4000    98.3968    23.8395    24.7392
  295.5000    97.9048    23.8391    24.7395
  295.6000    97.3405    23.8389    24.6658
  295.7000    97.3420    23.8385    24.5258
  295.8000    97.3439    23.8382    24.3969
  295.9000    97.6370    23.8686    24.3973
  296.0000    98.4198    24.0049    24.2797
  296.1000    99.4739    24.0046    24.2279
  296.2000   100.1674    24.0043    24.2283
  296.3000   101.2579    24.0039    24.2286
  296.4000   102.3766    24.0036    24.2290
  296.5000   103.3051    24.0033    24.2293
  296.6000   104.0433    24.0029    24.2296
  296.7000   104.5389    24.1234    24.1615
  296.8000   105.2286    24.1708    24.0614
  296.9000   105.8332    24.1705    24.0681
  297.0000   106.3287    24.1701    24.2310
  297.1000   106.7757    24.1698    24.2313
  297.2000   106.7778    24.1695    24.2317
  297.3000   106.9939    24.0652    24.2320
  297.4000   107.0847    24.0733    24.2323
  297.5000   107.0865    24.1685    24.2327
  297.6000   107.0883    24.1681    24.2330
  297.7000   107.0902    24.1677    24.2333
  297.8000   107.0920    24.1674    24.2337
  297.9000   107.0938    24.1671    24.2676
  298.0000   107.0956    24.1668    24.4044
  298.1000   107.0974    24.1919    24.4048
  298.2000   107.0992    24.3358    24.4051
  298.3000   107.1014    24.3355    24.4845
  298.4000   106.9046    24.3351    24.5771
  298.5000   106.8012    24.3348    24.5774
  298.6000   106.7180    24.3743    24.5778
  298.7000   106.4731    24.5050    24.7032
  298.8000   106.1999    24.5046    24.7509
  298.9000   105.9830    24.6219    24.7513
  299.0000   105.5761    24.7627    24.7817
  299.1000   105.0843    24.9043    24.9257
  299.2000   104.6410    25.0467    24.9260
  299.3000   104.3879    25.1986    24.9264
  299.4000   103.6733    25.3339    25.0803
  299.5000   103.2989    25.5835    25.3231
  299.6000   102.8032    25.8045    25.4684
  299.7000   101.9957    26.0317    25.6350
  299.8000   101.0221    26.4682    25.7615
  299.9000   100.1503    26.6474    26.0037
  300.0000    98.3308    26.7723    25.7767
  300.1000    97.5938    27.0774    25.5450
  300.2000    96.6664    27.4013    25.8375
  300.3000    95.6824    27.8497    26.1130
  300.4000    95.0094    28.0957    26.2760
  300.5000    95.0349    28.4148    26.5493
  300.6000    95.3220    28.8154    26.7494
  300.7000    95.7492    28.9841    27.0419
  300.8000    96.0922    29.3801    27.4370
  300.9000    96.4425    29.6497    27.5944
  301.0000    96.9409    29.8896    28.0684
  301.1000    97.4673    30.1782    28.4275
  301.2000    97.9375    30.6553    28.8425
  301.3000    98.4359    30.8490    29.3393
  301.4000    98.8139    31.1609    29.8157
  301.5000    99.1289    31.3985    30.0107
  301.6000    99.6200    31.6536    30.4537
  301.7000    99.9213    31.9783    31.0911
  301.8000    99.9247    32.1653    31.9557
  301.9000    99.7875    32.3418    33.0643
  302.0000    99.3748    32.5250    34.2777
  302.1000    98.6664    32.6147    35.7928
  302.2000    98.1213    32.6133    37.1558
  302.3000    97.4678    32.6119    38.2309
  302.4000    96.5682    32.6103    38.9941
  302.5000    95.6905    32.6092    39.4333
  302.6000    94.8044    32.4987    39.7029
  302.7000    93.2863    32.3790    39.8850
  302.8000    91.8483    32.3777    40.2451
  302.9000    90.5542    32.3762    40.5446
  303.0000    89.5780    32.2094    40.5443
  303.1000    89.1254    32.1478    40.5440
  303.2000    89.3766    32.0658    40.3386
  303.3000    89.6705    31.8823    39.8093
  303.4000    89.8792    31.6970    39.1339
  303.5000    90.2792    31.6956    38.4694
  303.6000    90.7775    31.5588    37.8021
  303.7000    91.3474    31.3783    37.3832
  303.8000    92.4228    31.1988    36.8027
  303.9000    93.1060    31.0204    36.2855
  304.0000    93.6814    30.8139    35.8144
  304.1000    94.2932    30.6667    35.2059
  304.2000    95.0955    30.4914    34.5131
  304.3000    96.0867    30.2525    33.8621
  304.4000    96.5851    29.9334    33.0991
  304.5000    97.2747    29.7482    32.4219
  304.6000    98.1549    29.5921    31.8713
  304.7000    98.9906    29.3084    31.2907
  304.8000    99.4890    29.0507    30.9623
  304.9000   100.0570    28.8845    30.6113
  305.0000   100.4856    28.7192    30.1839
  305.1000   100.9838    28.5551    29.7121
  305.2000   101.2832    28.2681    29.3771
  305.3000   101.3736    28.1190    29.2100
  305.4000   101.8989    28.0188    29.0439
  305.5000   102.1366    27.7002    28.6968
  305.6000   102.2106    27.3391    28.3152
  305.7000   102.3357    27.2059    28.1376
  305.8000   102.5226    26.9551    27.7786
  305.9000   102.5269    26.6488    27.5034
  306.0000   102.5319    26.3458    27.1916
  306.1000   102.5354    26.0266    26.9469
  306.2000   102.5396    25.8876    26.7935
  306.3000   102.5439    25.6371    26.6354
  306.4000   102.5481    25.4140    26.3449
  306.5000   102.5528    25.2686    26.1551
  306.6000   102.5566    25.1217    26.0063
  306.7000   102.3976    24.8366    25.8583
  306.8000   102.2616    24.5547    25.7111
  306.9000   102.2659    24.4297    25.5389
  307.0000   102.2702    24.3381    25.4195
  307.1000   102.0334    24.0746    25.2748
  307.2000   101.9751    23.9189    25.1310
  307.3000   101.9794    23.8002    24.9879
  307.4000   102.0553    23.7503    24.8330
  307.5000   102.3066    23.7493    24.8329
  307.6000   102.5998    23.7240    24.7364
  307.7000   102.8091    23.5816    24.6593
  307.8000   103.2096    23.5807    24.6274
  307.9000   103.6151    23.5797    24.4870
  308.0000   103.9393    23.5129    24.4868
  308.1000   104.7451    23.4132    24.3795
  308.2000   105.2030    23.4079    24.3157
  308.3000   105.7014    23.2478    24.3155
  308.4000   106.1998    23.2470    24.3034
  308.5000   106.6981    23.1704    24.1456
  308.6000   107.1952    23.0830    24.0277
  308.7000   107.4464    23.0820    23.9769
  308.8000   107.5059    23.0809    23.9767
  308.9000   107.5102    23.0800    23.9766
  309.0000   107.5144    22.9932    23.9764
  309.1000   107.5187    22.9172    23.9762
  309.2000   107.5235    22.9162    23.8782
  309.3000   107.5272    22.9152    23.8087
  309.4000   107.5314    22.9143    23.8085
  309.5000   107.4355    22.8174    23.7990
  309.6000   107.1928    22.7525    23.4772
  309.7000   106.9374    22.7156    23.3695
  309.8000   106.7071    22.5920    23.2365
  309.9000   106.4643    22.5908    23.1043
  310.0000   106.2215    22.5901    22.9728
  310.1000   105.9787    22.5891    22.8283
  310.2000   105.7275    22.5420    22.7121
  310.3000   105.1425    22.4297    22.5829
