~VERSION INFORMATION
 VERS.                2.0:   CWLS LOG ASCII STANDARD - VERSION 2.0
 WRAP.                 NO:   ONE LINE PER DEPTH STEP
~WELL INFORMATION
#MNEM.UNIT      DATA TYPE    INFORMATION
#----------   ------------   ------------------------------
 STRT.F           20.5000:   START DEPTH
 STOP.F          725.0000:   STOP DEPTH
 STEP.F            0.5000:   STEP LENGTH
 NULL.          -999.2500:   NO VALUE
 COMP. FENIX & SCISSON INC:   COMPANY
 WELL.       NPR 3 #67-27:   WELL
 FLD .             TEAPOT:   FIELD
 LOC .      S27 T39N R78W:   LOCATION
 CNTY.            NATRONA:   COUNTY
 STAT.            WYOMING:   STATE
 CTRY. UNITED STATES OF AMERICA:   COUNTRY
 SRVC.           BIRDWELL:   SERVICE COMPANY
 DATE.        15-SEP-1978:   LOGDATE
 API .       490251069400:   API NUMBER
~CURVE INFORMATION
#MNEM.UNIT       API CODE    CURVE DESCRIPTION
#----------   ------------   ------------------------------
 DEPT.F                  :   
 CALD.IN     45 280 60 00:   CALIPER
 GRD .GAPI   45 310 01 00:   GAMMA RAY FROM DENSITY LOG
 RHOB.G/C3   45 350 01 00:   BULK DENSITY
 DPHI.DEC    45 890 12 00:   DENSITY POROSITY SANDSTONE
 CORR.G/C3   45 356 01 00:   DENSITY CORRECTION
 SPR .MV     05 010 01 00:   SPONTANEOUS POTENTIAL FROM RES.
 ILD .OHMM   05 120 46 00:   INDUCTION LOG DEEP
 SN  .OHMM   05 040 16 00:   SHORT NORMAL 16"
~PARAMETER INFORMATION
#MNEM.UNIT          VALUE    DESCRIPTION
#----------   ------------   ------------------------------
 PD  .                 GL:   PERMANENT DATUM
 EPD .F              5027:   ELEVATION PERMANENT DATUM
 LMF .                 KB:   LOG MEASURED FROM
 DAPD.F                 4:   FEET ABOVE PERMANENT DATUM
 DMF .                 KB:   DRILLING MEASURED FROM
 EKB .F              5031:   KELLING BUSHING
 EGL .F              5027:   GROUND LEVEL
 DATE.            9-15-78:   RUN DATE
 RUN .                  1:   RUN NUMBER
 DD  .F               728:   DEPTH DRILLER
 DL  .F               719:   DEPTH LOGGER
 BLI .F               713:   BOTTOM LOG INTERVAL
 TLI .F                30:   TOP LOG INTERVAL
 CS  .IN            8.625:   CASING SIZE
 CBD .F                34:   CASING BOTTOM DRILLER
 CBL .F                34:   CASING BOTTOM LOGGER
 BS  .IN            7.875:   BIT SIZE
 BSD .F               728:   BIT SIZE AT DEPTH
 DFT .            KCL MUD:   DRILLING FLUID TYPE
 DFD .                  9:   DRILLING FLUID DENSITY
 DFV .                 46:   DRILLING FLUID VISCOSITY
 DFPH.                  9:   DRILLING FLUID PH
 DFL .                7.6:   DRILLING FLUID LOSS
 MSS .          FLOW LINE:   MUD SAMPLE SOURCE
 RMS .OHMM            .34:   RESISTIVITY MUD SAMPLE
 MST .F                68:   MUD SAMPLE TEMPERATURE
 RMF .OHMM             .3:   RESISTIVITY MUD FILTRATE SAMPLE
 MFST.F                68:   MUD FILTRATE SAMPLE TEMPERATURE
 RMC .OHMM            .38:   RESISTIVITY MUD CAKE
 MCST.F                70:   MUD CAKE SAMPLE TEMPERATURE
 MFSS.               MEAS:   MUD FILTRATE SAMPLE SOURCE
 MCSS.               MEAS:   MUD CAKE SAMPLE SOURCE
 RMB .OHMM            .32:   RESISTIVITY MUD AT BHT
 BHT .F                72:   BOTTOM HOLE TEMPERATURE
 TCS .HRS               2:   TIME CURCULATED STOPPED
 MRT .F                72:   MAXIMUM RECORDED TEMPERATURE
 LUN .               2958:   LOGGING UNIT NUMBER
 LUL .               CASP:   LOGGING UNIT LOCATION
 ENGI.           REYNOLDS:   RECORDING ENGINEER
 WITN.           DINSMORE:   WITNESSED BY
 CLNT.            A2DTECH:   CLIENT CODE
 ORIG.           5" PRINT:   ORIGIN OF DATA
 UWI .       490251069400:   UNIQUE WELL ID
 DICO. A2D Technologies, Inc.:   DIGITIZING COMPANY
~OTHER INFORMATION
~A   DEPT     CALD        GRD       RHOB       DPHI       CORR        SPR        ILD         SN   
# ...
  587.5000     7.9402    88.7469     2.3922     0.1804     0.0613   -19.3239    14.0970    12.3165
  588.0000     7.9359    88.5204     2.3969     0.1756     0.0642   -19.8923    13.9997    12.3822
  588.5000     7.9314    88.2937     2.4016     0.1687     0.0668   -20.3079    13.9031    12.3831
  589.0000     7.9376    88.0686     2.4024     0.1781     0.0694   -20.2989    13.8315    12.3829
  589.5000     7.9491    87.8942     2.3873     0.1915     0.0720   -20.3002    13.9215    12.3661
  590.0000     7.9266    88.0253     2.3755     0.1915     0.0740   -20.2995    13.9592    12.3503
  590.5000     7.8988    88.2113     2.3834     0.1821     0.0752   -20.3001    13.9046    12.3344
  591.0000     7.8916    88.3994     2.3913     0.1756     0.0765   -20.3064    13.8667    12.3186
  591.5000     7.9234    88.5875     2.3975     0.1739     0.0805   -20.6189    13.8290    12.3028
  592.0000     7.9554    88.7746     2.3884     0.1817     0.0931   -21.2480    13.7915    12.2863
  592.5000     7.9868    88.9588     2.3784     0.1879     0.1046   -21.7084    13.7541    12.2692
  593.0000     8.0053    89.1545     2.3769     0.1875     0.1163   -21.7015    13.7168    12.4556
  593.5000     7.9817    89.1895     2.3835     0.1790     0.1393   -21.8365    13.6796    12.6133
  594.0000     7.9595    89.0458     2.3973     0.1732     0.1504   -22.1068    13.6228    12.6133
  594.5000     7.9366    88.8531     2.4191     0.1674     0.1480   -22.3377    13.5799    12.6133
  595.0000     7.9455    88.7784     2.4404     0.1477     0.1475   -22.4718    13.5597    12.6133
  595.5000     7.9671    89.0818     2.4472     0.1404     0.1909   -22.6001    14.6182    12.6133
  596.0000     7.9784    89.2531     2.4323     0.1614     0.2346   -22.7358    14.5052    12.6133
  596.5000     7.9880    89.0295     2.4025     0.1659     0.2411   -23.3819    14.4383    12.6895
  597.0000     7.9975    88.8184     2.3903     0.1356     0.2244   -24.0181    14.3718    12.8017
  597.5000     8.0072    88.6091     2.5277     0.1151     0.1784   -24.6658    14.3055    12.9149
  598.0000     8.0074    88.5953     2.5696     0.0657     0.1341   -24.6900    14.2194    13.0277
  598.5000     8.0037    88.7913     2.5736     0.0632     0.0909   -24.6243    14.6817    13.1671
  599.0000     8.0000    88.9855     2.5651     0.0862     0.0622   -24.5619    15.4496    13.3266
  599.5000     7.9963    89.1807     2.5462     0.1011     0.0426   -24.5056    15.2116    13.4897
  600.0000     7.9927    89.3759     2.5062     0.1108     0.0288   -24.6951    15.0282    13.7058
  600.5000     7.9960    89.5712     2.5000     0.1119     0.0378   -25.4999    15.8829    13.6223
  601.0000     8.0170    89.7628     2.4831     0.1176     0.0496   -26.3056    15.8829    13.5045
  601.5000     8.0378    89.8524     2.4550     0.1422     0.0587   -26.5686    15.8872    13.3895
  602.0000     8.0586    89.6790     2.4454     0.1479     0.0565   -26.7190    15.8897    13.3307
  602.5000     8.0793    89.5079     2.4447     0.1461     0.0527   -26.8495    15.3828    13.2160
  603.0000     8.1002    89.6390     2.4511     0.1400     0.0488   -27.7009    14.8799    12.9895
  603.5000     8.1017    89.9065     2.4589     0.1338     0.0380   -28.8323    14.2037    12.7669
  604.0000     8.0864    90.1765     2.4633     0.1328     0.0249   -29.1010    13.5944    12.5481
  604.5000     8.0710    90.1541     2.4637     0.1343     0.0248   -29.3092    12.9671    12.3330
  605.0000     8.0555    89.8896     2.4642     0.1343     0.0264   -29.5057    12.9372    12.2692
  605.5000     8.0403    89.6224     2.4646     0.1335     0.0280   -29.5009    12.9041    12.2692
  606.0000     8.0336    89.6076     2.4651     0.1326     0.0299   -29.5000    12.8711    12.2692
  606.5000     8.0450    89.9233     2.4655     0.1320     0.0337   -29.4999    12.8482    12.2692
  607.0000     8.0562    90.2364     2.4660     0.1342     0.0375   -29.5004    12.9391    12.2692
  607.5000     8.0673    90.5069     2.4652     0.1360     0.0365   -29.4790    13.0097    12.2693
  608.0000     8.0785    90.4990     2.4640     0.1348     0.0305   -29.4500    13.0878    12.2692
  608.5000     8.0896    90.5142     2.4671     0.1270     0.0245   -29.4206    13.0568    12.2691
  609.0000     8.1005    90.3676     2.4731     0.1230     0.0185   -29.3912    13.0226    12.2624
  609.5000     8.1114    90.6065     2.4794     0.1242     0.0158   -29.3617    12.9885    12.2485
  610.0000     8.1587    90.9492     2.4759     0.1264     0.0163   -29.3311    12.9547    12.2348
  610.5000     8.2091    91.3783     2.4688     0.1285     0.0168   -29.3018    12.9209    12.2211
  611.0000     8.2594    91.8099     2.4677     0.1306     0.0174   -29.3116    12.8872    12.2073
  611.5000     8.3098    92.2491     2.4674     0.1305     0.0179   -29.8921    12.8537    12.1936
  612.0000     8.3614    92.8676     2.4671     0.1301     0.0184   -31.0611    12.8202    12.1799
  612.5000     8.3500    92.8721     2.4676     0.1297     0.0190   -31.9154    12.7869    12.1661
  613.0000     8.3249    92.8230     2.4685     0.1294     0.0199   -31.8984    12.7534    12.1571
  613.5000     8.2898    92.7800     2.4703     0.1275     0.0239   -31.8961    12.7254    12.1754
  614.0000     8.2393    92.7340     2.4748     0.1242     0.0275   -32.1380    12.7056    12.1897
  614.5000     8.1894    92.5361     2.4824     0.1174     0.0275   -32.4620    12.6867    12.2042
  615.0000     8.1177    91.6670     2.4931     0.1091     0.0275   -32.7090    12.6678    12.2186
  615.5000     8.0348    90.8123     2.5038     0.1039     0.0275   -32.7234    12.6488    12.2330
  616.0000     7.9819    90.7394     2.5076     0.1112     0.0274   -32.7427    12.6293    12.2475
  616.5000     8.0520    91.9047     2.4905     0.1185     0.0315   -32.7611    12.6116    12.2620
  617.0000     8.1201    92.2551     2.4771     0.1228     0.0372   -32.7796    12.7851    12.2693
  617.5000     8.1127    92.1042     2.4771     0.1268     0.0429   -32.7981    12.9432    12.2700
  618.0000     8.0861    91.9663     2.4754     0.1299     0.0486   -32.8167    13.0872    12.2355
  618.5000     8.0590    91.8276     2.4732     0.1263     0.0484   -32.8352    12.9855    12.1981
  619.0000     8.0320    91.7112     2.4750     0.1217     0.0423   -32.8537    12.8937    12.1557
  619.5000     8.0051    91.9200     2.4810     0.1218     0.0362   -32.8722    12.8026    12.1566
  620.0000     7.9781    92.1342     2.4828     0.1247     0.0301   -32.8903    12.7115    12.1567
  620.5000     7.9512    92.3466     2.4805     0.1232     0.0241   -32.8766    12.6122    12.1566
  621.0000     7.9242    92.4893     2.4782     0.1208     0.0235   -32.8301    12.6139    12.1563
  621.5000     7.9052    92.1935     2.4751     0.1277     0.0235   -32.7838    12.6132    12.1692
  622.0000     7.8953    92.1608     2.4665     0.1371     0.0235   -32.7372    12.6133    12.1833
  622.5000     7.8960    92.4205     2.4580     0.1391     0.0235   -32.6907    12.6133    12.1973
  623.0000     7.9221    92.6713     2.4621     0.1363     0.0235   -32.6442    12.6133    12.2114
  623.5000     7.9472    92.6966     2.4678     0.1336     0.0235   -32.5976    12.6133    12.2255
  624.0000     7.9723    92.6150     2.4734     0.1308     0.0240   -32.5504    12.6133    12.2396
  624.5000     7.9974    92.5346     2.4749     0.1280     0.0247   -32.5005    12.6133    12.2536
  625.0000     8.0227    92.4553     2.4759     0.1252     0.0253   -32.5686    12.6133    12.2690
  625.5000     8.0488    92.3760     2.4787     0.1244     0.0301   -32.6458    12.6133    12.2590
  626.0000     8.0455    92.2964     2.4817     0.1244     0.0394   -32.7231    12.6133    12.2474
  626.5000     8.0388    92.2178     2.4847     0.1204     0.0488   -32.8000    12.6133    12.2358
  627.0000     8.0322    92.1373     2.4878     0.1160     0.0480   -32.8769    12.6133    12.2243
  627.5000     8.0256    92.3328     2.4934     0.1116     0.0412   -32.9539    12.6133    12.2128
