~VERSION INFORMATION
 VERS.                2.0:   CWLS LOG ASCII STANDARD - VERSION 2.0
 WRAP.                 NO:   ONE LINE PER DEPTH STEP
~WELL INFORMATION
#MNEM.UNIT      DATA TYPE    INFORMATION
#----------   ------------   ------------------------------
 STRT.F            0.0000:   START DEPTH
 STOP.F          984.0000:   STOP DEPTH
 STEP.F            0.5000:   STEP LENGTH
 NULL.          -999.2500:   NO VALUE
 COMP. LAWRENCE/ALLISON INC:   COMPANY
 WELL.     NPR 3 #51-X-11:   WELL
 FLD .             TEAPOT:   FIELD
 LOC .      S11 T38N R78W:   LOCATION
 CNTY.            NATRONA:   COUNTY
 STAT.            WYOMING:   STATE
 CTRY. UNITED STATES OF AMERICA:   COUNTRY
 SRVC.           Gearhart:   SERVICE COMPANY
 DATE.        22-AUG-1988:   LOGDATE
 API .       490251125400:   API NUMBER
~CURVE INFORMATION
#MNEM.UNIT       API CODE    CURVE DESCRIPTION
#----------   ------------   ------------------------------
 DEPT.F                  :   
 GRR .GAPI   07 310 01 00:   GAMMA RAY FROM RES. LOG.
 ILM .OHMM   07 120 44 00:   INDUCTION LOG MEDIUM
 ILD .OHMM   07 120 46 00:   INDUCTION LOG DEEP
~PARAMETER INFORMATION
#MNEM.UNIT          VALUE    DESCRIPTION
#----------   ------------   ------------------------------
 PD  .                 GL:   PERMANENT DATUM
 EPD .F              5187:   ELEVATION PERMANENT DATUM
 LMF .                 KB:   LOG MEASURED FROM
 DAPD.F                10:   FEET ABOVE PERMANENT DATUM
 DMF .                 KB:   DRILLING MEASURED FROM
 EKB .F              5197:   KELLING BUSHING
 EGL .F              5187:   GROUND LEVEL
 DATE.            8-22-88:   RUN DATE
 RUN .                  1:   RUN NUMBER
 DD  .F              1000:   DEPTH DRILLER
 DL  .F               992:   DEPTH LOGGER
 BLI .F             983.5:   BOTTOM LOG INTERVAL
 CS  .IN            9.625:   CASING SIZE
 CBD .F                49:   CASING BOTTOM DRILLER
 CBL .F                49:   CASING BOTTOM LOGGER
 BS  .IN             8.75:   BIT SIZE
 BSD .F              1000:   BIT SIZE AT DEPTH
 DFT .                AIR:   DRILLING FLUID TYPE
 BHT .F                70:   BOTTOM HOLE TEMPERATURE
 TLAB.HRS            0300:   TIME LOGGER AT BOTTOM
 MRT .F                70:   MAXIMUM RECORDED TEMPERATURE
 LUN .               7609:   LOGGING UNIT NUMBER
 LUL .           GILLETTE:   LOGGING UNIT LOCATION
 ENGI.          HUCKFELDT:   RECORDING ENGINEER
 WITN.             STRONG:   WITNESSED BY
 CLNT.            A2DTECH:   CLIENT CODE
 ORIG.      1" 2.5" PRINT:   ORIGIN OF DATA
 UWI .       490251125400:   UNIQUE WELL ID
 DICO. A2D Technologies, Inc.:   DIGITIZING COMPANY
~OTHER INFORMATION
~A    DEPT      GRR       ILM        ILD   
# ...
  182.0000    97.1257     6.8592     7.1578
  182.5000    97.1685     6.8761     7.0793
  183.0000    97.1455     6.8945     6.9294
  183.5000    97.1751     6.7340     6.7827
  184.0000    97.2181     6.5644     6.6391
  184.5000    97.8874     6.3991     6.4985
  185.0000    98.6115     6.2380     6.3609
  185.5000    99.2353     6.0809     6.2262
  186.0000    99.3842     5.9278     6.0944
  186.5000    95.5086     5.7786     5.9438
  187.0000    91.9772     5.6331     5.9538
  187.5000    88.2196     5.4913     5.9738
  188.0000    84.8716     5.4085     5.9940
  188.5000    84.7822     5.5056     6.0142
  189.0000    87.1827     5.6037     6.0344
  189.5000    89.5996     5.7035     6.0602
  190.0000    90.6666     5.8051     6.1042
  190.5000    91.3441     5.9085     6.1485
  191.0000    93.6671     6.0142     6.1928
  191.5000    95.9025     6.0507     6.2373
  192.0000    98.1817     6.0506     6.2792
  192.5000    98.9774     6.0505     6.2618
  193.0000    99.1479     6.0504     6.2458
  193.5000    99.3527     6.0503     6.2299
  194.0000    99.5396     6.0501     6.2140
  194.5000   100.1342     6.0501     6.1980
  195.0000   100.8179     6.0499     6.1821
  195.5000   101.0962     6.0500     6.1649
  196.0000    98.4845     6.0501     6.1816
  196.5000    95.7485     6.0493     6.1994
  197.0000    96.3201     6.0584     6.2175
  197.5000    96.9750     6.0763     6.2359
  198.0000    97.7925     6.0931     6.2546
  198.5000    97.0405     6.1099     6.2792
  199.0000    95.8006     6.1268     6.2644
  199.5000    95.4980     6.1435     6.2331
  200.0000    95.5632     6.1607     6.2021
  200.5000    95.1600     6.1215     6.1718
  201.0000    93.8326     6.0686     6.1420
  201.5000    93.0101     6.0158     6.1121
  202.0000    93.0964     5.9635     6.0823
  202.5000    93.1358     5.9114     6.0528
  203.0000    92.6361     5.8601     6.0234
  203.5000    92.3584     5.8093     5.9941
  204.0000    92.6537     5.7588     5.9650
  204.5000    92.9386     5.7088     5.9381
  205.0000    93.0915     5.6593     5.9595
  205.5000    93.0834     5.5105     5.9796
  206.0000    93.0481     5.5579     5.9997
  206.5000    91.6092     5.6271     6.0198
  207.0000    90.5836     5.6973     6.0400
  207.5000    90.8341     5.7683     6.0726
  208.0000    93.1547     5.8402     6.1171
  208.5000    95.0727     5.9130     6.1618
  209.0000    97.0966     5.9868     6.2070
  209.5000    97.4838     6.0501     6.2804
  210.0000    97.9142     6.0034     6.2601
  210.5000    97.5296     5.9627     6.2037
  211.0000    96.6126     5.9230     6.1478
  211.5000    95.7584     5.8835     6.0924
  212.0000    95.1558     5.8443     6.0375
  212.5000    92.8586     5.8053     5.9831
  213.0000    89.6585     5.7665     5.9291
  213.5000    86.6908     5.7208     5.8757
  214.0000    84.0879     5.6631     5.8227
  214.5000    84.7534     5.5929     5.7701
  215.0000    86.9035     5.5241     5.7199
  215.5000    88.9716     5.4561     5.6886
  216.0000    91.0364     5.3889     5.6587
  216.5000    93.0331     5.3225     5.6150
  217.0000    94.6070     5.2245     5.6383
  217.5000    93.2571     5.2412     5.6921
  218.0000    91.5100     5.3536     5.7696
  218.5000    89.6351     5.4693     5.8730
  219.0000    88.6833     5.5874     5.9782
  219.5000    87.5437     5.7190     6.0517
  220.0000    86.3372     5.7361     6.0487
  220.5000    85.6883     5.7551     6.0490
  221.0000    86.1127     5.7741     6.0508
  221.5000    87.7448     5.7932     6.0504
  222.0000    90.4000     5.8123     6.0504
  222.5000    91.5617     5.8312     6.0502
  223.0000    91.6923     5.8502     6.0501
  223.5000    92.0156     5.8692     6.0501
  224.0000    93.0630     5.8883     6.0502
  224.5000    95.0890     5.9074     6.0503
  225.0000    97.0583     5.9381     6.0501
  225.5000    97.1336     5.9193     6.0497
  226.0000    97.1849     5.8730     6.0497
  226.5000    97.1293     5.8271     6.0188
  227.0000    96.8590     5.7815     5.9813
  227.5000    96.5893     5.7364     5.9443
  228.0000    95.4110     5.6915     5.9076
  228.5000    93.8247     5.6470     5.8712
  229.0000    94.5430     5.6029     5.8298
  229.5000    97.1572     5.5591     5.8566
  230.0000   102.2201     5.5105     5.8891
  230.5000   103.5957     5.6260     5.9218
  231.0000   101.2996     5.7600     5.9547
  231.5000   101.0011     5.8972     5.9879
  232.0000   100.6797     5.9504     6.0216
  232.5000   100.6903     5.9680     6.0515
  233.0000    98.2723     5.9856     6.1465
  233.5000    93.9332     6.0032     6.2339
  234.0000    93.0227     6.0209     6.3225
  234.5000    93.0766     6.0386     6.3988
  235.0000    93.1174     6.1368     6.6944
  235.5000    92.7654     6.3862     6.9622
  236.0000    92.0750     6.6457     7.1108
  236.5000    91.5846     6.9158     7.2364
  237.0000    92.3656     7.1968     7.3739
  237.5000    94.2514     7.4302     7.5141
  238.0000    96.5587     7.4302     7.7132
  238.5000    98.7992     7.4303     7.5377
  239.0000   101.1437     7.2961     7.2591
  239.5000   102.3177     7.1352     7.1578
  240.0000   103.6967     6.9778     7.0847
  240.5000   102.8251     6.8237     6.9198
  241.0000   101.0130     6.6730     6.7677
  241.5000   100.7183     6.5263     6.7677
  242.0000   101.5341     6.3824     6.7926
  242.5000   101.7501     6.3010     6.8461
  243.0000   100.4886     6.3756     6.9001
  243.5000    99.5605     6.4510     6.9544
  244.0000   100.2102     6.5274     7.0092
  244.5000   101.6752     6.6047     7.1431
  245.0000   103.1279     6.7509     7.3133
  245.5000   104.6110     6.9661     7.4875
  246.0000   105.3005     7.1882     7.6658
  246.5000   104.5086     7.4174     7.8484
  247.0000   103.8499     7.6539     8.0354
  247.5000   103.5184     7.8980     8.1731
  248.0000   103.2827     8.3117     8.2160
  248.5000   103.1026     8.2753     8.2611
  249.0000   102.8991     8.1827     8.3036
  249.5000   101.0567     8.0857     8.2094
  250.0000   101.9744     7.9574     8.0797
  250.5000   103.8324     7.7037     7.9038
  251.0000   103.6590     7.4582     7.6674
  251.5000   103.5654     7.2206     7.4384
  252.0000   104.4055     6.9908     7.2661
  252.5000   106.3602     6.7687     7.1994
  253.0000   108.2528     6.6424     7.1301
  253.5000   104.5668     6.6588     7.0614
  254.0000   100.8597     6.6749     6.9934
  254.5000    97.2868     6.6911     6.9261
  255.0000    97.1882     6.7073     6.8953
  255.5000    98.4203     6.7235     6.8953
  256.0000   100.2447     6.7398     6.8953
  256.5000   101.9504     6.7644     6.8953
  257.0000   101.9974     6.7288     6.8535
  257.5000   102.0574     6.5959     6.7128
  258.0000   102.0235     6.4656     6.5751
  258.5000   102.0332     6.3379     6.4401
  259.0000   101.6972     6.2127     6.3080
  259.5000   101.2154     6.0901     6.1642
  260.0000   100.7379     5.9431     6.1741
  260.5000   100.4098     5.9539     6.1950
  261.0000   100.3979     5.9764     6.2147
  261.5000   100.4106     5.9987     6.2345
  262.0000   100.4216     6.0211     6.2545
  262.5000   100.3181     6.0436     6.2747
  263.0000   101.2653     6.0112     6.2309
  263.5000   102.7881     5.9569     6.1616
  264.0000   104.3296     5.9031     6.0932
  264.5000   103.3973     5.8498     6.0255
  265.0000   102.2995     5.7970     5.9381
  265.5000   100.9904     5.7203     5.9562
  266.0000   100.3623     5.7281     5.9824
  266.5000   100.4767     5.7427     6.0088
  267.0000   102.2024     5.7573     6.0353
  267.5000   104.2791     5.7720     6.0619
  268.0000   106.4652     5.7867     6.0886
  268.5000   108.4303     5.8015     6.1155
  269.0000   110.8217     5.8163     6.1424
  269.5000   111.4507     5.8282     6.1642
  270.0000   111.0278     5.6436     5.9021
  270.5000   108.2401     5.4939     5.6918
  271.0000   105.4837     5.3482     5.4889
  271.5000   105.3467     5.2064     5.2933
  272.0000   106.0574     5.0683     5.2007
  272.5000   107.1618     4.9339     5.1839
