~VERSION INFORMATION
 VERS.                2.0:   CWLS LOG ASCII STANDARD - VERSION 2.0
 WRAP.                 NO:   ONE LINE PER DEPTH STEP
~WELL INFORMATION
#MNEM.UNIT      DATA TYPE    INFORMATION
#----------   ------------   ------------------------------
 STRT.F           30.0000:   START DEPTH
 STOP.F          500.0000:   STOP DEPTH
 STEP.F            0.5000:   STEP LENGTH
 NULL.          -999.2500:   NO VALUE
 COMP. FENIX & SCISSON INC:   COMPANY
 WELL.     3-FI #55-45 SX:   WELL
 FLD .             TEAPOT:   FIELD
 LOC .       S3 T38N R78W:   LOCATION
 CNTY.            NATRONA:   COUNTY
 STAT.            WYOMING:   STATE
 CTRY. UNITED STATES OF AMERICA:   COUNTRY
 SRVC.              Welex:   SERVICE COMPANY
 DATE.        16-MAY-1980:   LOGDATE
 API .       490251082700:   API NUMBER
~CURVE INFORMATION
#MNEM.UNIT       API CODE    CURVE DESCRIPTION
#----------   ------------   ------------------------------
 DEPT.F                  :   
 SPR .MV     07 010 01 00:   SPONTANEOUS POTENTIAL
 GURD.OHMM   07 220 05 00:   GUARD RESISTIVITY
 CALD.IN     45 280 60 00:   CALIPER
 GRD .GAPI   45 310 01 00:   GAMMA RAY FROM DENSITY LOG
 RHOB.G/C3   45 350 01 00:   BULK DENSITY
 CORR.G/C3   45 356 01 00:   DENSITY CORRECTION
 NPHI.DEC    42 890 03 00:   NEUTRON POROSITY SANDSTONE
 DPHI.DEC    45 890 12 00:   DENSITY POROSITY SANDSTONE
 ILD .OHMM   07 120 46 00:   INDUCTION LOG DEEP
 ILM .OHMM   07 120 44 00:   INDUCTION LOG MEDIUM
~PARAMETER INFORMATION
#MNEM.UNIT          VALUE    DESCRIPTION
#----------   ------------   ------------------------------
 PD  .                 GL:   PERMANENT DATUM
 EPD .F              5167:   ELEVATION PERMANENT DATUM
 LMF .                 KB:   LOG MEASURED FROM
 DAPD.F                 5:   FEET ABOVE PERMANENT DATUM
 DMF .                 KB:   DRILLING MEASURED FROM
 EKB .F              5172:   KELLING BUSHING
 EGL .F              5167:   GROUND LEVEL
 DATE.            5-16-80:   RUN DATE
 RUN .                  1:   RUN NUMBER
 DD  .F               483:   DEPTH DRILLER
 DL  .F               496:   DEPTH LOGGER
 BLI .F               494:   BOTTOM LOG INTERVAL
 TLI .F                35:   TOP LOG INTERVAL
 BS  .IN             9.75:   BIT SIZE
 BSD .F               483:   BIT SIZE AT DEPTH
 DFT .            KCL MUD:   DRILLING FLUID TYPE
 DFD .                9.5:   DRILLING FLUID DENSITY
 DFV .                 45:   DRILLING FLUID VISCOSITY
 DFL .                7.5:   DRILLING FLUID LOSS
 MSS .            MUD PIT:   MUD SAMPLE SOURCE
 RMS .OHMM            .29:   RESISTIVITY MUD SAMPLE
 MST .F                75:   MUD SAMPLE TEMPERATURE
 RMF .OHMM            .23:   RESISTIVITY MUD FILTRATE SAMPLE
 MFST.F                75:   MUD FILTRATE SAMPLE TEMPERATURE
 RMC .OHMM            .35:   RESISTIVITY MUD CAKE
 MCST.F                75:   MUD CAKE SAMPLE TEMPERATURE
 MFSS.           MEASURED:   MUD FILTRATE SAMPLE SOURCE
 MCSS.           MEASURED:   MUD CAKE SAMPLE SOURCE
 TCS .HRS               2:   TIME CURCULATED STOPPED
 LUN .               9685:   LOGGING UNIT NUMBER
 LUL .             CASPER:   LOGGING UNIT LOCATION
 ENGI.            TOTHILL:   RECORDING ENGINEER
 WITN.              AMEND:   WITNESSED BY
 CLNT.            A2DTECH:   CLIENT CODE
 ORIG.           5" PRINT:   ORIGIN OF DATA
 UWI .       490251082700:   UNIQUE WELL ID
 DICO. A2D Technologies, Inc.:   DIGITIZING COMPANY
~OTHER INFORMATION
~A   DEPT      SPR         GURD     CALD        GRD       RHOB       CORR         NPHI       DPHI        ILD        ILM 
# ...
  331.5000   -44.3568    10.4305    10.1239    86.5197     2.3981     0.0132     0.2515     0.1646     7.8939     8.0969
  332.0000   -44.3933    10.3176    10.1192    86.0688     2.3945     0.0097     0.2506     0.1642     7.8063     8.1185
  332.5000   -44.4289    10.4467    10.1170    85.6178     2.4045     0.0088     0.2506     0.1702     7.7195     8.1566
  333.0000   -44.4652    10.6103    10.1399    85.1669     2.3904     0.0044     0.2568     0.1645     7.6336     8.1956
  333.5000   -44.4981    10.7764    10.1448    84.7158     2.4023     0.0027     0.2623     0.1512     7.5487     8.2346
  334.0000   -44.5393    10.9112    10.1496    84.2636     2.4234     0.0151     0.2660     0.1391     7.5150     8.2500
  334.5000   -44.5700    10.8375    10.1540    83.8129     2.4448     0.0457     0.2691     0.1451     7.5003     8.2496
  335.0000   -44.5802    10.6553    10.1586    83.4053     2.4357     0.0330     0.2652     0.1479     7.4819     8.2493
  335.5000   -44.3549    10.4762    10.1631    83.4152     2.4286     0.0258     0.2652     0.1355     7.4636     8.2493
  336.0000   -44.1623    10.3002    10.1676    83.4162     2.4449     0.0410     0.2598     0.1405     7.4450     8.2492
  336.5000   -43.9570    10.1271    10.1721    83.3767     2.4465     0.0457     0.2518     0.1459     7.4269     8.2493
  337.0000   -43.8107    10.1271    10.1766    83.3334     2.4331     0.0417     0.2487     0.1530     7.4087     8.2491
  337.5000   -43.9020    10.2325    10.1811    83.2902     2.4208     0.0340     0.2463     0.1530     7.3906     8.2494
  338.0000   -43.9749    10.3659    10.1856    83.2469     2.4172     0.0372     0.2460     0.1622     7.3760     8.2488
  338.5000   -44.0603    10.5009    10.1901    83.2037     2.4229     0.0342     0.2474     0.1694     7.4451     8.2491
  339.0000   -44.1403    10.6378    10.1948    83.1599     2.3940     0.0195     0.2492     0.1671     7.5325     8.2504
  339.5000   -44.2211    10.7764    10.1992    83.1157     2.3881     0.0110     0.2509     0.1614     7.6208     8.2449
  340.0000   -44.3027    10.9184    10.2196    83.1349     2.4052     0.0274     0.2500     0.1629     7.7101     8.2978
  340.5000   -44.3836    11.1173    10.2118    82.7935     2.3946     0.0360     0.2541     0.1511     7.8005     8.3815
  341.0000   -44.4649    11.0135    10.2042    82.4279     2.4153     0.0227     0.2588     0.1453     7.8919     8.4663
  341.5000   -44.5462    10.8686    10.1970    82.1420     2.4274     0.0494     0.2623     0.1383     7.9844     8.5521
  342.0000   -44.6268    10.8157    10.1898    81.9299     2.4425     0.0597     0.2616     0.1415     8.0969     8.6388
  342.5000   -44.7090    10.7633    10.1826    82.1740     2.4478     0.0618     0.2605     0.1446     8.0336     8.7261
  343.0000   -44.7890    10.7022    10.1754    82.4399     2.4350     0.0518     0.2594     0.1424     7.8774     8.6051
  343.5000   -44.8694    10.5045    10.1682    82.7038     2.4408     0.0551     0.2599     0.1462     7.7243     8.4066
  344.0000   -44.9587    10.4257    10.1610    82.9667     2.4366     0.0513     0.2635     0.1547     7.5752     8.2507
  344.5000   -44.9756    10.3403    10.1538    83.2297     2.4181     0.0357     0.2632     0.1599     7.4286     8.2222
  345.0000   -44.8914    10.2556    10.1466    83.4926     2.4085     0.0218     0.2611     0.1705     7.2847     8.1870
  345.5000   -44.8137    10.1716    10.1394    83.7550     2.4008     0.0124     0.2575     0.1865     7.1434     8.1523
  346.0000   -44.7436    10.0883    10.1322    84.0326     2.3706    -0.0107     0.2547     0.1881     6.9763     8.0950
  346.5000   -44.6579    10.0056    10.1250    84.3309     2.3638    -0.0224     0.2605     0.1776     6.9488     8.0978
  347.0000   -44.5761     9.9400    10.1183    83.6594     2.3734    -0.0065     0.2648     0.1738     6.8819     8.1458
  347.5000   -44.2598     9.9895    10.1182    83.1982     2.3838     0.0060     0.2690     0.1725     6.8206     8.1918
  348.0000   -43.9952    10.0518    10.1182    82.1313     2.3920     0.0143     0.2727     0.1736     6.7196     8.2493
  348.5000   -43.7107    10.1145    10.1182    81.1215     2.3891     0.0215     0.2737     0.1814     6.8461     8.4045
  349.0000   -43.4362    10.1775    10.1182    81.3418     2.3762     0.0166     0.2730     0.1915     6.8461     8.2493
  349.5000   -43.1577    10.2410    10.1182    81.7094     2.3640     0.0112     0.2707     0.2025     7.0167     8.4045
  350.0000   -42.8813    10.3176    10.1184    81.3029     2.3442     0.0069     0.2702     0.2148     7.4621     8.7424
  350.5000   -42.6042    10.7329    10.1191    80.0678     2.3219     0.0025     0.2658     0.2220     7.9358     9.0503
  351.0000   -42.3498    11.8673    10.0895    78.8415     2.3049     0.0027     0.2631     0.2189     8.4396     9.3691
  351.5000   -42.0590    13.1217    10.0573    77.6087     2.3110     0.0244     0.2618     0.2290     8.9753     9.7564
  352.0000   -41.7105    14.5086    10.0250    76.3715     2.2985     0.0438     0.2575     0.2392     9.5451    10.5236
  352.5000   -41.3456    16.1403     9.9928    75.1677     2.2811     0.0331     0.2615     0.2411    10.1510    11.3836
  353.0000   -40.9943    16.6468     9.9606    74.6710     2.2772     0.0337     0.2618     0.2368    10.7096    12.3140
  353.5000   -40.6201    17.2035     9.9281    74.6823     2.2849     0.0390     0.2615     0.2375    10.9511    13.3204
  354.0000   -40.4635    17.7788     9.9180    75.1340     2.2789     0.0389     0.2633     0.2359    11.1694    14.4090
  354.5000   -40.3063    18.3733     9.9195    75.4482     2.2860     0.0315     0.2669     0.2304    11.2818    15.5866
  355.0000   -40.1586    18.9877     9.9211    75.7566     2.2861     0.0354     0.2691     0.2231    11.1343    16.7535
  355.5000   -40.0011    19.4484     9.9227    76.0625     2.3067     0.0437     0.2669     0.2165    10.9888    17.0339
  356.0000   -39.8674    19.3360     9.9243    76.3687     2.3160     0.0531     0.2651     0.2125    10.7096    17.2974
  356.5000   -39.6273    19.0947     9.9259    76.6749     2.3233     0.0610     0.2664     0.2125    10.7503    17.3901
  357.0000   -39.3172    18.8563     9.9275    76.9812     2.3232     0.0589     0.2708     0.2125    10.9166    17.3124
  357.5000   -39.0285    18.6210     9.9290    77.2889     2.3232     0.0569     0.2720     0.2141    11.0855    17.1362
  358.0000   -38.7405    18.3886     9.9306    77.6043     2.3234     0.0525     0.2711     0.2225    11.3257    16.9617
  358.5000   -38.4454    18.1591     9.9322    77.6462     2.3098     0.0393     0.2729     0.2264    11.2293    16.7890
  359.0000   -38.1606    17.9324     9.9338    76.7680     2.3005     0.0277     0.2735     0.2217    11.0713    16.6180
  359.5000   -37.8697    17.7086     9.9352    75.9798     2.3082     0.0267     0.2704     0.2216    10.9156    16.4483
  360.0000   -37.7956    17.4876     9.9362    75.2000     2.3063     0.0258     0.2686     0.2195    10.7620    16.2805
  360.5000   -37.7992    17.3901     9.9479    74.4174     2.3136     0.0258     0.2684     0.2123    10.6106    16.1394
  361.0000   -37.8006    17.3288     9.9767    73.6500     2.3207     0.0341     0.2659     0.2028    10.5118    16.0258
  361.5000   -37.7991    17.2757     9.9782    73.1783     2.3395     0.0463     0.2604     0.1934    10.3891    15.9275
  362.0000   -37.7999    17.2227     9.9780    73.3235     2.3529     0.0571     0.2570     0.1840    10.2594    15.8296
  362.5000   -37.8000    17.1699     9.9780    73.6420     2.3730     0.0610     0.2541     0.1745    10.1313    15.7322
  363.0000   -37.7999    17.1173     9.9780    73.9581     2.3853     0.0637     0.2508     0.1670     9.9999    15.6379
  363.5000   -37.7997    17.0688     9.9780    74.2749     2.4010     0.0591     0.2493     0.1716     9.9353    15.5496
  364.0000   -37.8018    18.1605     9.9780    74.5915     2.3908     0.0411     0.2478     0.1824     9.6924    15.2179
  364.5000   -37.7801    19.2365     9.9780    74.9082     2.3745     0.0178     0.2495     0.1993     9.5729    14.9162
