~VERSION INFORMATION
 VERS.                2.0:   CWLS LOG ASCII STANDARD - VERSION 2.0
 WRAP.                 NO:   ONE LINE PER DEPTH STEP
~WELL INFORMATION
#MNEM.UNIT      DATA TYPE    INFORMATION
#----------   ------------   ------------------------------
 STRT.F          779.5000:   START DEPTH
 STOP.F         2194.0000:   STOP DEPTH
 STEP.F            0.5000:   STEP LENGTH
 NULL.          -999.2500:   NO VALUE
 COMP. LAWRENCE/ALLISON INC:   COMPANY
 WELL.        27 X #10-10:   WELL
 FLD .             TEAPOT:   FIELD
 LOC .      S10 T38N R78W:   LOCATION
 CNTY.            NATRONA:   COUNTY
 STAT.            WYOMING:   STATE
 CTRY. UNITED STATES OF AMERICA:   COUNTRY
 SRVC.            Unknown:   SERVICE COMPANY
 DATE.        21-AUG-1987:   LOGDATE
 API .       490251118900:   API NUMBER
~CURVE INFORMATION
#MNEM.UNIT       API CODE    CURVE DESCRIPTION
#----------   ------------   ------------------------------
 DEPT.F                  :   
 ROP .MIN/FT 91 810 01 00:   RATE OF DRILLING PENETRATION
 TGAS.UNITS  91 830 01 00:   TOTAL GAS FROM HOTWIRE
~PARAMETER INFORMATION
#MNEM.UNIT          VALUE    DESCRIPTION
#----------   ------------   ------------------------------
 EKB .F              5237:   KELLING BUSHING
 EGL .F              5236:   GROUND LEVEL
 DATE.        21-AUG-1987:   RUN DATE
 BLI .F              2180:   BOTTOM LOG INTERVAL
 TLI .F               780:   TOP LOG INTERVAL
 LUN .              T-148:   LOGGING UNIT NUMBER
 ENGI.            R. HUSK:   RECORDING ENGINEER
 WITN.           C. TOWER:   WITNESSED BY
 CLNT.            A2DTECH:   CLIENT CODE
 ORIG.           5" PRINT:   ORIGIN OF DATA
 UWI .       490251118900:   UNIQUE WELL ID
 DICO. A2D Technologies, Inc.:   DIGITIZING COMPANY
~OTHER INFORMATION
~A   DEPT      ROP         TGAS 
# ...
 1387.0000     1.4217    81.3521
 1387.5000     1.3510    81.4068
 1388.0000     1.1696    81.4614
 1388.5000     0.9696    81.5161
 1389.0000     0.8442    81.5708
 1389.5000     0.6911    81.6255
 1390.0000     0.5871    81.6802
 1390.5000     0.5478    81.7348
 1391.0000     0.5324    81.7895
 1391.5000     0.5287    81.8442
 1392.0000     0.5366    81.8989
 1392.5000     0.5384    81.9536
 1393.0000     0.5378    82.0082
 1393.5000     0.5373    82.0629
 1394.0000     0.5368    82.1176
 1394.5000     0.5471    82.1723
 1395.0000     0.5693    82.2269
 1395.5000     0.6276    82.2816
 1396.0000     0.7229    82.3363
 1396.5000     0.7644    82.3910
 1397.0000     0.7826    82.4457
 1397.5000     0.7819    82.5003
 1398.0000     0.7814    82.5550
 1398.5000     0.7808    82.6097
 1399.0000     0.7803    82.6644
 1399.5000     0.7798    82.7190
 1400.0000     0.7793    82.7781
 1400.5000     0.7792    82.7578
 1401.0000     0.7792    82.7357
 1401.5000     0.7792    82.7136
 1402.0000     0.7792    82.6915
 1402.5000     0.7792    82.6694
 1403.0000     0.7792    82.6473
 1403.5000     0.7792    82.6252
 1404.0000     0.7792    82.6031
 1404.5000     0.7792    82.5810
 1405.0000     0.7792    82.5589
 1405.5000     0.7792    82.5368
 1406.0000     0.7792    82.5147
 1406.5000     0.7576    82.4927
 1407.0000     0.7035    82.4706
 1407.5000     0.6494    82.4485
 1408.0000     0.6061    82.4264
 1408.5000     0.5628    82.4043
 1409.0000     0.5628    82.3822
 1409.5000     0.5519    82.3601
 1410.0000     0.5519    82.3380
 1410.5000     0.5519    82.3159
 1411.0000     0.5519    82.2938
 1411.5000     0.5519    82.2717
 1412.0000     0.5519    82.2496
 1412.5000     0.5514    82.2275
 1413.0000     0.5411    82.2054
 1413.5000     0.5402    82.1833
 1414.0000     0.5303    82.1612
 1414.5000     0.5303    82.1391
 1415.0000     0.5303    82.1170
 1415.5000     0.5303    82.0949
 1416.0000     0.5303    82.0728
 1416.5000     0.5303    82.0507
 1417.0000     0.5303    82.0286
 1417.5000     0.5303    82.0065
 1418.0000     0.5303    81.9844
 1418.5000     0.5303    81.9623
 1419.0000     0.5335    81.9402
 1419.5000     0.5411    81.9181
 1420.0000     0.5737    81.8924
 1420.5000     0.5620    81.9017
 1421.0000     0.5613    81.9128
 1421.5000     0.5713    81.9239
 1422.0000     0.5703    81.9351
 1422.5000     0.5695    81.9462
 1423.0000     0.5687    81.9573
 1423.5000     0.5709    81.9685
 1424.0000     0.5779    81.9796
 1424.5000     0.5736    81.9907
 1425.0000     0.5655    82.0019
 1425.5000     0.5647    82.0130
 1426.0000     0.5639    82.0241
 1426.5000     0.5630    82.0352
 1427.0000     0.5622    82.0464
 1427.5000     0.5614    82.0575
 1428.0000     0.5606    82.0686
 1428.5000     0.5598    82.0798
 1429.0000     0.5590    82.0909
 1429.5000     0.5582    82.1020
 1430.0000     0.5574    82.1132
 1430.5000     0.5636    82.1243
 1431.0000     0.5592    82.1354
 1431.5000     0.5549    82.1465
 1432.0000     0.5541    82.1577
 1432.5000     0.5533    82.1688
 1433.0000     0.5525    82.1799
 1433.5000     0.5515    82.1911
 1434.0000     0.5399    82.2022
 1434.5000     0.5391    82.2133
 1435.0000     0.5383    82.2245
 1435.5000     0.5375    82.2356
 1436.0000     0.5368    82.2467
 1436.5000     0.5468    82.2579
 1437.0000     0.5460    82.2690
 1437.5000     0.5452    82.2801
 1438.0000     0.5444    82.2912
 1438.5000     0.5436    82.3024
 1439.0000     0.5415    82.3135
 1439.5000     0.5311    82.3246
 1440.0000     0.5411    82.3358
 1440.5000     0.5403    82.3139
 1441.0000     0.5395    82.2920
 1441.5000     0.5387    82.2701
 1442.0000     0.5379    82.2482
 1442.5000     0.5371    82.2263
 1443.0000     0.5363    82.2044
 1443.5000     0.5323    82.1825
 1444.0000     0.5238    82.1606
 1444.5000     0.5189    82.1387
 1445.0000     0.5114    82.1168
 1445.5000     0.5106    82.0949
 1446.0000     0.5097    82.0730
 1446.5000     0.5148    82.0511
 1447.0000     0.5189    82.0292
 1447.5000     0.5181    82.0073
 1448.0000     0.5173    81.9854
 1448.5000     0.5165    81.9635
 1449.0000     0.5157    81.9416
 1449.5000     0.5149    81.9197
 1450.0000     0.5464    81.8978
 1450.5000     0.6106    81.8759
 1451.0000     0.6855    81.8540
 1451.5000     0.7389    81.8321
 1452.0000     0.7597    81.8102
 1452.5000     0.7468    81.7883
 1453.0000     0.7094    81.7664
 1453.5000     0.6410    81.7445
 1454.0000     0.5761    81.7226
 1454.5000     0.5392    81.7007
 1455.0000     0.5384    81.6788
 1455.5000     0.5376    81.6569
 1456.0000     0.5368    81.6350
 1456.5000     0.5360    81.6131
 1457.0000     0.5352    81.5912
 1457.5000     0.5294    81.5693
 1458.0000     0.5227    81.5474
 1458.5000     0.5219    81.5256
 1459.0000     0.5274    81.5036
 1459.5000     0.5311    81.4818
 1460.0000     0.5411    81.4599
 1460.5000     0.5406    81.2147
 1461.0000     0.5400    81.4367
 1461.5000     0.5395    81.4260
 1462.0000     0.5390    81.8560
 1462.5000     0.5384    81.8426
 1463.0000     0.5379    81.3940
 1463.5000     0.5373    81.3832
 1464.0000     0.5368    81.3723
 1464.5000     0.5391    81.3593
 1465.0000     0.5465    80.9106
 1465.5000     0.5460    80.8999
 1466.0000     0.5455    80.8893
 1466.5000     0.5449    80.8786
 1467.0000     0.5444    81.3085
 1467.5000     0.5438    82.1711
 1468.0000     0.5433    83.0363
 1468.5000     0.5427    83.0255
 1469.0000     0.5422    82.5766
 1469.5000     0.5417    81.2498
 1470.0000     0.5411    80.8011
 1470.5000     0.5406    80.7905
 1471.0000     0.5400    80.7798
 1471.5000     0.5395    80.3311
 1472.0000     0.5390    79.8825
 1472.5000     0.5226    79.4339
 1473.0000     0.5080    78.9852
 1473.5000     0.4878    78.9744
 1474.0000     0.4609    78.5255
 1474.5000     0.4496    77.6366
 1475.0000     0.4382    77.1880
 1475.5000     0.4377    76.7394
 1476.0000     0.4372    75.8528
 1476.5000     0.4258    75.4041
 1477.0000     0.4253    74.9555
 1477.5000     0.4140    74.0689
 1478.0000     0.4134    74.0582
 1478.5000     0.4129    74.0474
 1479.0000     0.4135    74.0365
 1479.5000     0.4227    74.0235
 1480.0000     0.4653    73.9231
 1480.5000     0.5192    72.7870
 1481.0000     0.5839    71.8029
 1481.5000     0.6716    71.7898
 1482.0000     0.7998    71.3411
 1482.5000     0.7739    70.4544
 1483.0000     0.7167    70.0057
 1483.5000     0.6480    69.9949
 1484.0000     0.5750    69.9841
 1484.5000     0.5387    69.5354
 1485.0000     0.6016    68.6487
 1485.5000     0.6906    68.2000
 1486.0000     0.7543    66.8754
 1486.5000     0.7436    65.5507
 1487.0000     0.6953    64.6641
 1487.5000     0.6194    64.6533
 1488.0000     0.5693    63.3285
 1488.5000     0.5524    63.3175
 1489.0000     0.5471    63.3044
 1489.5000     0.5468    62.8557
 1490.0000     0.5465    62.8449
 1490.5000     0.5463    62.8342
 1491.0000     0.5534    62.8234
 1491.5000     0.5488    62.8126
 1492.0000     0.5455    62.8018
 1492.5000     0.5452    62.7911
 1493.0000     0.5449    62.7803
 1493.5000     0.5446    62.7695
 1494.0000     0.5443    62.7588
 1494.5000     0.5441    62.7480
 1495.0000     0.5438    62.7372
 1495.5000     0.5436    62.7263
 1496.0000     0.5433    62.7153
 1496.5000     0.5430    62.7022
 1497.0000     0.5427    62.2535
 1497.5000     0.5425    61.8048
 1498.0000     0.5436    61.3560
 1498.5000     0.5528    61.3453
 1499.0000     0.5525    61.3345
 1499.5000     0.5522    61.3237
 1500.0000     0.5302    61.3130
 1500.5000     0.5405    61.7413
 1501.0000     0.5508    62.2118
 1501.5000     0.5503    62.2226
 1502.0000     0.5498    62.2338
 1502.5000     0.5380    62.2445
 1503.0000     0.5253    62.2566
 1503.5000     0.5035    62.2672
 1504.0000     0.4917    62.2774
 1504.5000     0.4821    62.2883
 1505.0000     0.4816    62.2993
 1505.5000     0.4842    62.3102
 1506.0000     0.4913    62.3212
 1506.5000     0.4867    62.3321
 1507.0000     0.4839    62.3431
 1507.5000     0.4897    62.3540
 1508.0000     0.4892    62.3650
