~VERSION INFORMATION
 VERS.                2.0:   CWLS LOG ASCII STANDARD - VERSION 2.0
 WRAP.                 NO:   ONE LINE PER DEPTH STEP
~WELL INFORMATION
#MNEM.UNIT      DATA TYPE    INFORMATION
#----------   ------------   ------------------------------
 STRT.F           34.5000:   START DEPTH
 STOP.F          880.5000:   STOP DEPTH
 STEP.F            0.5000:   STEP LENGTH
 NULL.          -999.2500:   NO VALUE
 COMP. FENIX & SCISSON INC:   COMPANY
 WELL. NAVAL PETROLEUM RESERVE 3 S-14 #35-14:   WELL
 FLD .             TEAPOT:   FIELD
 LOC .      S14 T38N R78W:   LOCATION
 CNTY.            NATRONA:   COUNTY
 STAT.            WYOMING:   STATE
 CTRY. UNITED STATES OF AMERICA:   COUNTRY
 SRVC.            Unknown:   SERVICE COMPANY
 DATE.        24-APR-1978:   LOGDATE
 API .       490251062000:   API NUMBER
~CURVE INFORMATION
#MNEM.UNIT       API CODE    CURVE DESCRIPTION
#----------   ------------   ------------------------------
 DEPT.F                  :   
 RHOB.G/C3   45 350 01 00:   BULK DENSITY
 DPHI.DEC    45 890 12 00:   DENSITY POROSITY SANDSTONE
 CORR.G/C3   45 356 01 00:   DENSITY CORRECTION
 GRD .GAPI   45 310 01 00:   GAMMA RAY FROM DENSITY LOG
 CALD.IN     45 280 60 00:   CALIPER FROM DENSITY LOG
 SPR .MV     05 010 01 00:   SPONTANEOUS POTENTIAL FROM RES.
 SN  .OHMM   05 040 16 00:   SHORT NORMAL 16"
 ILD .OHMM   05 120 46 00:   INDUCTION LOG DEEP
~PARAMETER INFORMATION
#MNEM.UNIT          VALUE    DESCRIPTION
#----------   ------------   ------------------------------
 PD  .                 GL:   PERMANENT DATUM
 EPD .F              5246:   ELEVATION PERMANENT DATUM
 LMF .                 KB:   LOG MEASURED FROM
 DMF .                 KB:   DRILLING MEASURED FROM
 EKB .F              5250:   KELLING BUSHING
 EGL .F              5246:   GROUND LEVEL
 DATE.          4-24-1978:   RUN DATE
 RUN .                  1:   RUN NUMBER
 DD  .F               880:   DEPTH DRILLER
 DL  .F               880:   DEPTH LOGGER
 BLI .F               884:   BOTTOM LOG INTERVAL
 TLI .F                50:   TOP LOG INTERVAL
 CS  .IN            8.625:   CASING SIZE
 CBD .F                40:   CASING BOTTOM DRILLER
 CBL .F                50:   CASING BOTTOM LOGGER
 BS  .IN            7.875:   BIT SIZE
 BSD .F               880:   BIT SIZE AT DEPTH
 DFT .                KCL:   DRILLING FLUID TYPE
 DFD .                8.6:   DRILLING FLUID DENSITY
 DFV .                 32:   DRILLING FLUID VISCOSITY
 DFPH.                 10:   DRILLING FLUID PH
 DFL .               12.8:   DRILLING FLUID LOSS
 MSS .            MUD PIT:   MUD SAMPLE SOURCE
 RMS .OHMM            .34:   RESISTIVITY MUD SAMPLE
 MST .F                62:   MUD SAMPLE TEMPERATURE
 RMF .OHMM             .3:   RESISTIVITY MUD FILTRATE SAMPLE
 MFST.F                70:   MUD FILTRATE SAMPLE TEMPERATURE
 RMC .OHMM            .58:   RESISTIVITY MUD CAKE
 MCST.F                70:   MUD CAKE SAMPLE TEMPERATURE
 MFSS.           MEASURED:   MUD FILTRATE SAMPLE SOURCE
 RMB .OHMM            .28:   RESISTIVITY MUD AT BHT
 BHT .F                74:   BOTTOM HOLE TEMPERATURE
 TCS .HRS               4:   TIME CURCULATED STOPPED
 MRT .F                74:   MAXIMUM RECORDED TEMPERATURE
 LUN .               2958:   LOGGING UNIT NUMBER
 LUL .              CASP.:   LOGGING UNIT LOCATION
 ENGI.             MILLER:   RECORDING ENGINEER
 WITN.           MCGINLEY:   WITNESSED BY
 CLNT.            A2DTECH:   CLIENT CODE
 ORIG.       2", 5" PRINT:   ORIGIN OF DATA
 UWI .       490251062000:   UNIQUE WELL ID
 DICO. A2D Technologies, Inc.:   DIGITIZING COMPANY
~OTHER INFORMATION
~A   DEPT     RHOB       DPHI       CORR         GRD      CALD        SPR         SN        ILD   
# ...
  156.0000     2.4279     0.1226     0.0754    85.2608     8.2599   -37.8498     4.5414     4.3666
  156.5000     2.4331     0.1280     0.0826    85.2166     8.2718   -38.0485     4.5419     4.3716
  157.0000     2.4251     0.1326     0.0898    85.1761     8.2875   -38.2473     4.5412     4.3764
  157.5000     2.4174     0.1371     0.0930    85.1237     8.3028   -38.4462     4.4829     4.1802
  158.0000     2.4097     0.1403     0.0837    85.5740     8.3289   -38.6450     4.1483     3.7770
  158.5000     2.4053     0.1405     0.0749    86.2023     8.4335   -38.8438     3.8386     3.4127
  159.0000     2.4037     0.1408     0.0697    86.8519     8.4561   -39.0427     3.5520     3.0830
  159.5000     2.4020     0.1410     0.0672    86.5008     8.4565   -39.2417     3.2869     2.7859
  160.0000     2.3966     0.1500     0.0648    84.8598     8.4562   -39.4404     3.0415     2.6697
  160.5000     2.3832     0.1590     0.0638    83.5624     8.4562   -39.6386     2.8145     2.6394
  161.0000     2.3705     0.1682     0.0679    83.3314     8.4562   -39.7166     2.6100     2.6688
  161.5000     2.3452     0.1835     0.0721    84.4550     8.4562   -39.6659     2.5676     2.6762
  162.0000     2.3153     0.2022     0.0694    87.1142     8.4457   -39.6151     2.5913     2.6836
  162.5000     2.2849     0.2208     0.0620    89.3908     8.4253   -39.5663     2.7977     2.7743
  163.0000     2.2548     0.2393     0.0415    88.7094     8.4048   -39.2385     3.1697     3.0402
  163.5000     2.2350     0.2428     0.0209    86.4107     8.3845   -38.7001     3.5912     3.3315
  164.0000     2.2692     0.2286     0.0048    83.2899     8.3633   -38.1549     4.0668     3.6507
  164.5000     2.3191     0.1675     0.0204    80.8761     8.3981   -37.9510     4.1111     3.9927
  165.0000     2.3695     0.1237     0.0621    80.2365     8.4558   -37.9474     4.1558     4.0308
  165.5000     2.4209     0.1265     0.0687    81.4093     8.4643   -37.9478     4.1806     4.0298
  166.0000     2.4351     0.1293     0.0678    82.9325     8.4713   -37.9482     4.1452     3.9945
  166.5000     2.4348     0.1289     0.0669    84.4671     8.4723   -37.9485     4.1211     3.9667
  167.0000     2.4318     0.1293     0.0660    84.7466     8.4610   -37.9487     4.0970     3.9392
  167.5000     2.4233     0.1334     0.0651    84.9535     8.4256   -37.9285     4.0731     3.9118
  168.0000     2.4135     0.1375     0.0662    84.8657     8.3741   -37.7732     4.0493     3.8846
  168.5000     2.4110     0.1372     0.0676    83.5450     8.3694   -37.6144     4.0257     3.8576
  169.0000     2.4123     0.1359     0.0691    82.2634     8.3883   -37.6975     4.0023     3.8309
  169.5000     2.4088     0.1458     0.0705    81.1361     8.4077   -37.9486     3.9789     3.8042
  170.0000     2.4005     0.1441     0.0779    82.2757     8.4270   -38.2004     3.9561     3.7783
  170.5000     2.4042     0.1431     0.0873    84.0675     8.4464   -38.3144     3.8383     3.6658
  171.0000     2.4011     0.1460     0.0945    85.4357     8.4657   -38.2349     3.7416     3.5734
  171.5000     2.3960     0.1457     0.0900    84.6843     8.4850   -38.1547     3.5692     3.3656
  172.0000     2.3960     0.1446     0.0793    83.9631     8.4952   -38.2945     3.3674     3.1149
  172.5000     2.3941     0.1502     0.0693    83.7237     8.4929   -38.5055     3.1770     2.8828
  173.0000     2.3807     0.1594     0.0610    83.7372     8.4908   -38.7211     2.9973     2.6672
  173.5000     2.3678     0.1686     0.0565    84.2904     8.4886   -38.9361     2.8279     2.3861
  174.0000     2.3542     0.1778     0.0552    85.5226     8.4865   -38.9440     2.6680     2.4168
  174.5000     2.3396     0.1870     0.0564    86.7328     8.4843   -38.8519     2.5171     2.4864
  175.0000     2.3253     0.1962     0.0582    87.5914     8.4822   -38.7548     2.4297     2.5565
  175.5000     2.3005     0.2038     0.0600    86.9029     8.4800   -38.6583     2.5165     2.6286
  176.0000     2.2735     0.2204     0.0582    86.9112     8.4779   -38.5639     2.5808     2.7027
  176.5000     2.2464     0.2354     0.0505    86.7947     8.4757   -38.3162     2.8282     2.7789
  177.0000     2.2198     0.2544     0.0234    86.2696     8.4736   -37.4914     3.2409     2.8572
  177.5000     2.2021     0.2638    -0.0114    85.7166     8.4714   -36.5758     3.7138     3.2766
  178.0000     2.2595     0.2362    -0.0224    83.8153     8.4693   -36.2921     4.2556     3.9361
  178.5000     2.3384     0.1425     0.0134    81.7398     8.4671   -36.1952     4.6684     4.4586
  179.0000     2.4154     0.1339     0.0421    80.6419     8.4650   -36.2852     4.6325     4.4311
  179.5000     2.4198     0.1291     0.0585    80.5700     8.4628   -36.5259     4.6055     4.4104
  180.0000     2.4227     0.1242     0.0676    84.1537     8.4607   -36.7676     4.5786     4.3898
  180.5000     2.4286     0.1198     0.0765    88.2957     8.4587   -37.0060     4.5519     4.3693
  181.0000     2.4385     0.1212     0.0796    89.4964     8.4560   -37.0568     4.5253     4.3489
  181.5000     2.4415     0.1260     0.0769    89.4986     8.4213   -36.8141     4.4998     4.2860
  182.0000     2.4200     0.1308     0.0741    88.5860     8.3828   -36.5734     4.3826     4.1859
  182.5000     2.4153     0.1355     0.0750    85.9078     8.3435   -36.3712     4.2748     3.9064
  183.0000     2.4103     0.1403     0.0784    83.8131     8.3440   -36.6841     4.0192     3.6456
  183.5000     2.4055     0.1428     0.0833    82.6038     8.3532   -36.9996     3.7640     3.4021
  184.0000     2.4007     0.1423     0.0955    82.2063     8.3626   -37.3120     3.5240     3.1927
  184.5000     2.3990     0.1435     0.1096    83.4623     8.3719   -37.6240     3.2992     3.1188
  185.0000     2.3970     0.1488     0.1091    84.3675     8.3827   -37.9367     3.0889     3.0466
  185.5000     2.3767     0.1622     0.1004    84.5523     8.3969   -38.2493     2.9474     3.0021
  186.0000     2.3544     0.1757     0.0910    86.8920     8.4501   -38.5543     2.9474     3.0406
  186.5000     2.3322     0.1892     0.0759    89.4431     8.4972   -38.4763     3.0651     3.0804
  187.0000     2.3100     0.2026     0.0568    90.3701     8.4961   -37.7931     3.1821     3.1207
  187.5000     2.2878     0.2154     0.0378    90.6048     8.4960   -37.1173     3.4331     3.2763
  188.0000     2.2799     0.2154     0.0187    89.8159     8.4960   -36.4432     3.7157     3.5979
  188.5000     2.2998     0.1981     0.0083    88.2755     8.4960   -35.9529     3.8817     3.7679
  189.0000     2.3647     0.1671     0.0345    88.0068     8.4960   -35.9925     4.0550     3.8934
  189.5000     2.3954     0.1466     0.0572    87.7820     8.4960   -36.0219     4.1487     3.9659
  190.0000     2.4010     0.1449     0.0510    85.4532     8.4961   -36.0512     4.1692     3.9969
  190.5000     2.4061     0.1434     0.0567    84.5070     8.4990   -36.0801     4.1898     4.0283
  191.0000     2.4112     0.1351     0.0602    85.6824     8.5021   -36.1089     4.2191     4.0668
  191.5000     2.4164     0.1348     0.0583    87.1026     8.5052   -36.1389     4.2136     4.0527
  192.0000     2.4214     0.1324     0.0565    87.6525     8.5083   -36.2359     4.2037     4.0346
  192.5000     2.4252     0.1262     0.0546    86.9371     8.5114   -36.4433     4.1938     4.0167
  193.0000     2.4258     0.1199     0.0540    83.5221     8.5146   -36.7761     4.1839     3.9988
  193.5000     2.4319     0.1145     0.0623    81.1749     8.5139   -37.2849     4.0818     3.9063
  194.0000     2.4470     0.1136     0.0705    79.7918     8.5104   -37.7962     3.9354     3.7615
  194.5000     2.4504     0.1128     0.0772    79.3846     8.5068   -37.8914     3.7941     3.5818
  195.0000     2.4512     0.1173     0.0772    81.0127     8.5031   -37.7773     3.6580     3.4107
  195.5000     2.4409     0.1254     0.0712    84.3131     8.4995   -37.7056     3.5268     3.2478
  196.0000     2.4256     0.1339     0.0643    87.5838     8.4959   -37.6448     3.4002     3.0861
