~VERSION INFORMATION
 VERS.                2.0:   CWLS LOG ASCII STANDARD - VERSION 2.0
 WRAP.                 NO:   ONE LINE PER DEPTH STEP
~WELL INFORMATION
#MNEM.UNIT      DATA TYPE    INFORMATION
#----------   ------------   ------------------------------
 STRT.F            0.0000:   START DEPTH
 STOP.F          537.0000:   STOP DEPTH
 STEP.F            0.5000:   STEP LENGTH
 NULL.          -999.2500:   NO VALUE
 COMP.   FLUOR DANIEL INC:   COMPANY
 WELL. NAVAL PETROLEUM RESERVE 73 X-10 #8-10:   WELL
 FLD .             TEAPOT:   FIELD
 LOC .      S10 T37N R78W:   LOCATION
 CNTY.            NATRONA:   COUNTY
 STAT.            WYOMING:   STATE
 CTRY. UNITED STATES OF AMERICA:   COUNTRY
 SRVC.      Western Atlas:   SERVICE COMPANY
 DATE.        01-MAY-1996:   LOGDATE
 API .       490252278200:   API NUMBER
~CURVE INFORMATION
#MNEM.UNIT       API CODE    CURVE DESCRIPTION
#----------   ------------   ------------------------------
 DEPT.F                  :   
 GRR .GAPI   07 310 01 00:   GAMMA RAY FROM RES. LOG.
 ILM .OHMM   07 120 44 00:   INDUCTION LOG MEDIUM
 ILD .OHMM   07 120 46 00:   INDUCTION LOG DEEP
~PARAMETER INFORMATION
#MNEM.UNIT          VALUE    DESCRIPTION
#----------   ------------   ------------------------------
 PD  .                 GL:   PERMANENT DATUM
 EPD .F              5161:   ELEVATION PERMANENT DATUM
 LMF .                 KB:   LOG MEASURED FROM
 DAPD.F                10:   FEET ABOVE PERMANENT DATUM
 DMF .                 KB:   DRILLING MEASURED FROM
 EKB .F              5171:   KELLING BUSHING
 EDF .F              5170:   DRILLING FLOOR
 EGL .F              5161:   GROUND LEVEL
 DATE.         MAY-1-1996:   RUN DATE
 RUN .                  1:   RUN NUMBER
 DD  .F               545:   DEPTH DRILLER
 DL  .F               542:   DEPTH LOGGER
 BLI .F               542:   BOTTOM LOG INTERVAL
 CS  .IN            9.625:   CASING SIZE
 CBD .F                95:   CASING BOTTOM DRILLER
 BS  .IN             8.75:   BIT SIZE
 BSD .F               545:   BIT SIZE AT DEPTH
 DFT .                AIR:   DRILLING FLUID TYPE
 BHT .F                80:   BOTTOM HOLE TEMPERATURE
 MRT .F                80:   MAXIMUM RECORDED TEMPERATURE
 LUN .            HL-6530:   LOGGING UNIT NUMBER
 LUL .             CASPER:   LOGGING UNIT LOCATION
 ENGI.           BROWNLOW:   RECORDING ENGINEER
 WITN.             LEBEAU:   WITNESSED BY
 CLNT.            A2DTECH:   CLIENT CODE
 ORIG.       2"  5" PRINT:   ORIGIN OF DATA
 UWI .       490252278200:   UNIQUE WELL ID
 DICO. A2D Technologies, Inc.:   DIGITIZING COMPANY
~OTHER INFORMATION
~A    DEPT       GRR      ILM        ILD   
# ...
  273.0000   138.7145     8.6903     8.1596
  273.5000   139.8350     8.7227     8.1805
  274.0000   139.1928     8.7809     8.2019
  274.5000   139.0231     8.8518     8.2230
  275.0000   141.3618     8.7706     8.1758
  275.5000   143.5626     8.6692     8.1284
  276.0000   142.1175     8.5690     8.0811
  276.5000   138.5111     8.4534     8.0347
  277.0000   134.7804     8.6112     7.9995
  277.5000   132.7955     8.8046     8.1539
  278.0000   132.3712     9.0032     8.2813
  278.5000   132.0352     9.2056     8.4107
  279.0000   130.7199     9.3551     8.4976
  279.5000   127.9466     9.2640     8.5316
  280.0000   124.5167     9.1868     8.1318
  280.5000   123.3237     8.3875     7.5931
  281.0000   125.1620     7.5828     7.0901
  281.5000   129.8757     6.8559     6.6204
  282.0000   136.3360     6.3875     6.4125
  282.5000   143.1490     6.2955     6.4125
  283.0000   145.8328     6.6532     6.4908
  283.5000   143.2633     7.1942     6.6345
  284.0000   136.9634     7.8042     6.7817
  284.5000   130.5277     8.4929     7.0350
  285.0000   124.7103     9.2632     7.8072
  285.5000   121.5409    10.0939     8.6622
  286.0000   122.1332    11.0031     9.8738
  286.5000   123.5603    12.4114    11.4487
  287.0000   122.5226    14.1155    12.8758
  287.5000   113.4435    15.9599    13.9127
  288.0000   101.6651    17.4135    15.0356
  288.5000    87.9991    18.9216    16.2441
  289.0000    76.9441    20.2368    17.2346
  289.5000    71.1543    20.7665    18.2360
  290.0000    69.7297    21.0410    19.1880
  290.5000    74.0617    21.0395    19.8532
  291.0000    81.8484    21.0369    20.4784
  291.5000    88.2840    21.0392    20.6889
  292.0000    90.2797    21.6999    20.7531
  292.5000    88.9281    22.4330    20.8176
  293.0000    84.3251    23.1627    21.0829
  293.5000    78.4620    23.7629    21.5163
  294.0000    74.4229    24.3787    21.9586
  294.5000    74.8531    25.0104    22.4539
  295.0000    74.0589    25.5288    23.0297
  295.5000    72.6654    25.4341    23.5020
  296.0000    72.9492    25.3554    23.5013
  296.5000    74.1106    25.2160    23.4980
  297.0000    73.7113    24.8734    23.4980
  297.5000    71.8513    24.5355    23.4980
  298.0000    71.7776    24.1597    23.4980
  298.5000    73.7015    24.5506    23.4976
  299.0000    74.8529    24.7057    23.4958
  299.5000    74.1980    24.8621    23.4980
  300.0000    74.0548    25.0168    23.7021
  300.5000    80.7999    25.6383    24.4026
  301.0000    83.9132    26.4790    25.1239
  301.5000    80.8401    27.4000    25.8684
  302.0000    77.3253    28.7071    26.6265
  302.5000    75.0030    29.4056    27.0290
  303.0000    73.5758    29.5774    27.1693
  303.5000    73.3013    29.7502    27.3104
  304.0000    74.6787    29.8531    27.4796
  304.5000    76.9835    28.3758    27.1680
  305.0000    80.2436    27.3536    26.7801
  305.5000    85.0640    26.3693    26.2930
  306.0000    86.7763    25.4212    25.4639
  306.5000    85.8421    24.5072    24.6610
  307.0000    82.1970    24.3511    23.9319
  307.5000    80.3908    24.3178    23.5797
  308.0000    79.8141    24.2845    23.2815
  308.5000    82.3055    24.2512    23.2825
  309.0000    84.5967    24.2179    23.2825
  309.5000    85.2411    24.1849    23.2825
  310.0000    85.1236    24.1340    22.9141
  310.5000    84.9718    23.9739    22.5241
  311.0000    85.4330    23.6266    22.1406
  311.5000    86.2488    23.2244    21.8288
  312.0000    89.0218    22.8290    21.5002
  312.5000    93.9214    22.4404    21.1688
  313.0000    96.5051    22.3706    20.8425
  313.5000    94.3263    22.2836    20.5212
  314.0000    89.5821    22.1972    20.4244
  314.5000    88.7381    22.1103    20.3744
  315.0000    93.1681    22.0315    20.3245
  315.5000    94.9933    22.1976    20.2782
  316.0000    93.2223    22.3535    20.6356
  316.5000    90.7011    22.7134    20.9750
  317.0000    88.2141    23.2808    21.3199
  317.5000    87.4040    23.8623    21.7428
  318.0000    88.4940    24.5284    22.7296
  318.5000    88.2462    25.7380    23.7612
  319.0000    87.0678    27.2575    24.8396
  319.5000    85.7944    28.8591    26.0034
  320.0000    86.1632    30.1233    26.6827
  320.5000    86.5957    29.7726    26.9793
  321.0000    87.0257    29.0684    26.8632
  321.5000    87.4845    27.8943    26.7799
  322.0000    89.0193    26.7677    26.2748
  322.5000    91.3113    25.6866    25.2275
  323.0000    92.4537    24.6492    24.2145
  323.5000    93.0734    23.7154    23.3117
  324.0000    94.1856    23.1872    22.5952
  324.5000    95.8747    22.7012    21.9040
  325.0000    97.4206    22.4662    21.2339
  325.5000    97.1514    22.2060    20.8985
  326.0000    94.3552    21.9488    20.6057
  326.5000    91.4389    21.6945    20.3602
  327.0000    89.8592    21.4637    20.1678
  327.5000    91.1944    21.2426    19.9751
  328.0000    94.4909    21.0237    19.7843
  328.5000    97.7056    20.8463    19.5954
  329.0000    99.9235    20.8463    19.4083
  329.5000   100.1267    20.8463    19.1889
  330.0000    98.9162    20.8463    19.3270
  330.5000    95.4271    20.8960    19.4985
  331.0000    93.0358    20.9445    19.6729
  331.5000    91.2134    20.9937    19.8482
  332.0000    89.7120    21.0392    19.9081
  332.5000    90.5417    20.8747    19.9081
  333.0000    91.7949    20.7216    19.9081
  333.5000    93.0426    20.5697    19.7126
  334.0000    94.3617    20.4346    19.4350
  334.5000    99.0738    20.1644    19.1613
  335.0000   101.3618    19.8976    18.8914
  335.5000   101.0778    19.6617    18.6406
  336.0000   100.6099    19.4793    18.4784
  336.5000    99.7905    19.2986    18.3177
  337.0000    97.1920    19.1643    18.1583
  337.5000    94.2247    19.0371    18.0003
  338.0000    93.4378    18.7422    17.8437
  338.5000    93.7728    18.4112    17.6885
  339.0000    94.9165    18.0860    17.4900
  339.5000    96.1451    17.7666    17.2204
  340.0000    96.7829    17.4528    16.9550
  340.5000    96.0817    17.1446    16.7027
  341.0000    95.9330    16.8667    16.4586
  341.5000    96.1668    16.7724    16.2182
  342.0000    95.6346    16.6857    15.9599
  342.5000    94.0558    16.5593    15.9297
  343.0000    94.0566    16.5834    15.8871
  343.5000    96.0269    16.6326    15.8451
  344.0000    98.3537    16.6814    15.8029
  344.5000   100.0244    16.7126    15.7610
  345.0000    97.4584    16.6367    15.7190
  345.5000    93.2888    16.5738    15.6785
  346.0000    92.1415    16.3247    15.4883
  346.5000    93.1226    16.0347    15.2644
  347.0000    94.5859    15.7498    15.0437
  347.5000    95.7229    15.4700    14.8283
  348.0000    94.7890    15.1952    14.6172
  348.5000    94.1567    15.0799    14.4221
  349.0000    94.3176    15.0465    14.1868
  349.5000    97.1675    15.0131    13.9674
  350.0000   100.0876    14.9798    13.7510
  350.5000    98.3574    14.8288    13.5217
  351.0000    95.9235    14.5659    13.4338
  351.5000    96.3779    14.2899    13.3380
  352.0000   100.8715    14.1913    13.2371
  352.5000   105.4053    14.0596    13.1257
  353.0000   107.3466    13.9338    13.0326
  353.5000   108.0603    13.7700    13.1169
  354.0000   107.5950    14.1698    13.2283
  354.5000   105.6780    14.3540    13.3444
  355.0000   103.0436    14.5407    13.4643
  355.5000   100.6907    14.7080    13.5853
  356.0000    98.3245    14.7938    13.7073
  356.5000    97.0967    14.8801    13.8305
  357.0000    98.1054    14.9634    13.9181
  357.5000    99.6808    14.9216    13.9586
  358.0000   100.4114    14.8721    13.9993
  358.5000    98.9045    14.8262    14.0291
  359.0000    97.0310    14.4921    13.6536
  359.5000    95.9086    14.1864    13.3116
  360.0000    97.7746    13.8872    12.9781
  360.5000   102.1857    13.5942    12.6530
  361.0000   106.2366    13.3148    12.3957
  361.5000   106.8327    13.0559    12.1672
  362.0000   105.8768    12.8025    11.9429
  362.5000   105.0376    12.5562    11.7228
  363.0000   103.4525    12.4460    11.6353
  363.5000   102.3420    12.4460    11.5895
