~VERSION INFORMATION
 VERS.                2.0:   CWLS LOG ASCII STANDARD - VERSION 2.0
 WRAP.                 NO:   ONE LINE PER DEPTH STEP
~WELL INFORMATION
#MNEM.UNIT      DATA TYPE    INFORMATION
#----------   ------------   ------------------------------
 STRT.F            0.0000:   START DEPTH
 STOP.F         3315.0000:   STOP DEPTH
 STEP.F            0.5000:   STEP LENGTH
 NULL.          -999.2500:   NO VALUE
 COMP. LAWRENCE/ALLISON INC     84-AX-:   COMPANY
 WELL.          SHX3 #1-3:   WELL
 FLD .            WILDCAT:   FIELD
 LOC .       S3 T38N R78W:   LOCATION
 CNTY.            NATRONA:   COUNTY
 STAT.            WYOMING:   STATE
 CTRY. UNITED STATES OF AMERICA:   COUNTRY
 SRVC.      Dresser Atlas:   SERVICE COMPANY
 DATE.        20-JAN-1986:   LOGDATE
 API .       490251104200:   API NUMBER
~CURVE INFORMATION
#MNEM.UNIT       API CODE    CURVE DESCRIPTION
#----------   ------------   ------------------------------
 DEPT.F                  :   
 SPR .MV     07 010 01 00:   SPONTANEOUS POTENTIAL
 RILD.OHMM   07 120 46 00:   INDUCTION LOG DEEP RESISTIVITY
 RILM.OHMM   07 120 44 00:   INDUCTION LOG MEDIUM RESISTIVITY
 RFOC.OHMM   07 220 04 00:   RESISTIVITY FOCUSED LOG
 AC  .US/F   60 520 00 00:   ACCOUSTIC
 CALD.IN     45 280 60 00:   CALIPER FROM DENSITY
 CORR.G/C3   45 356 01 00:   DENSITY CORRECTION
 DEN .G/C3   45 350 01 00:   COMPENSATED BULK DENSTIY
 PORD.DEC    45 890 12 00:   POROSITY DENSITY SANDSTONE
 CNC .DEC    42 890 03 00:   NEUTRON POROSITY SANDSTONE
 GRR .GAPI   07 310 01 00:   GAMMA RAY
~PARAMETER INFORMATION
#MNEM.UNIT          VALUE    DESCRIPTION
#----------   ------------   ------------------------------
 PD  .                 GL:   PERMANENT DATUM
 EPD .F              5136:   ELEVATION PERMANENT DATUM
 LMF .                 KB:   LOG MEASURED FROM
 DAPD.F                11:   FEET ABOVE PERMANENT DATUM
 DMF .                 KB:   DRILLING MEASURED FROM
 EKB .F              5147:   KELLING BUSHING
 EGL .F              5136:   GROUND LEVEL
 DATE.        26-JAN-1986:   RUN DATE
 RUN .                  1:   RUN NUMBER
 DD  .F              3320:   DEPTH DRILLER
 DL  .F              3317:   DEPTH LOGGER
 BLI .F              3315:   BOTTOM LOG INTERVAL
 CS  .IN            8.625:   CASING SIZE
 CBD .F               550:   CASING BOTTOM DRILLER
 CBL .F               592:   CASING BOTTOM LOGGER
 BS  .IN            7.875:   BIT SIZE
 BSD .F              3320:   BIT SIZE AT DEPTH
 DFT .        POLYMER KCL:   DRILLING FLUID TYPE
 DFD .                9.1:   DRILLING FLUID DENSITY
 DFV .                 38:   DRILLING FLUID VISCOSITY
 DFPH.                 10:   DRILLING FLUID PH
 DFL .                8.5:   DRILLING FLUID LOSS
 MSS .           FLOWLINE:   MUD SAMPLE SOURCE
 RMS .OHMM           .435:   RESISTIVITY MUD SAMPLE
 MST .F                72:   MUD SAMPLE TEMPERATURE
 RMF .OHMM           .352:   RESISTIVITY MUD FILTRATE SAMPLE
 MFST.F                72:   MUD FILTRATE SAMPLE TEMPERATURE
 RMC .OHMM            .54:   RESISTIVITY MUD CAKE
 MCST.F                72:   MUD CAKE SAMPLE TEMPERATURE
 MFSS.               MEAS:   MUD FILTRATE SAMPLE SOURCE
 MCSS.               MEAS:   MUD CAKE SAMPLE SOURCE
 RMB .OHMM            .29:   RESISTIVITY MUD AT BHT
 BHT .F               108:   BOTTOM HOLE TEMPERATURE
 TCS .HRS               3:   TIME CURCULATED STOPPED
 MRT .F               108:   MAXIMUM RECORDED TEMPERATURE
 LUN .               6274:   LOGGING UNIT NUMBER
 LUL .               GLTE:   LOGGING UNIT LOCATION
 ENGI.             RAUTIO:   RECORDING ENGINEER
 WITN.             STRONG:   WITNESSED BY
 CLNT.            A2DTECH:   CLIENT CODE
 ORIG.       2", 5" PRINT:   ORIGIN OF DATA
 UWI .       490251104200:   UNIQUE WELL ID
 DICO. A2D Technologies, Inc.:   DIGITIZING COMPANY
~OTHER INFORMATION
~A    DEPT     SPR       RILD       RILM       RFOC         AC       CALD       CORR        DEN       PORD        CNC        GRR   
# ...
 2501.0000   -49.9016     6.1165     6.8880     7.2195    84.6663     8.9020     0.0983     2.5768     0.0457     0.2500    61.1049
 2501.5000   -49.8911     6.0888     6.8975     7.4763    83.4656     8.9006     0.1013     2.5835     0.0392     0.2534    61.7571
 2502.0000   -50.0345     5.8425     6.6958     8.0712    82.4904     8.9144     0.0981     2.5858     0.0386     0.2591    60.4034
 2502.5000   -50.0214     5.5288     6.1108     8.4165    82.1913     8.9282     0.0845     2.5729     0.0428     0.2744    60.8704
 2503.0000   -50.0109     5.3051     5.7172     8.3606    82.3445     8.9420     0.0724     2.5631     0.0497     0.2756    62.8476
 2503.5000   -50.0004     5.2338     5.5684     7.6951    83.4746     8.9554     0.0690     2.5593     0.0537     0.2675    67.0941
 2504.0000   -49.9899     5.1994     5.6481     6.6079    85.7325     8.9692     0.0903     2.5661     0.0540     0.2496    75.2741
 2504.5000   -49.8281     5.2383     5.7686     5.7079    87.5393     8.9830     0.1097     2.5751     0.0491     0.2177    77.8565
 2505.0000   -49.8176     5.4268     6.0155     5.0052    87.6913     8.9968     0.1156     2.5819     0.0428     0.2101    76.9592
 2505.5000   -49.5045     5.7049     6.2297     4.8368    85.8144     8.9954     0.1050     2.5863     0.0392     0.2081    70.0106
 2506.0000   -49.3427     5.9941     6.4964     5.2805    82.1325     9.0096     0.1080     2.5818     0.0386     0.2223    60.4397
 2506.5000   -48.8784     6.2548     6.7276     7.2376    79.4280     9.0079     0.1170     2.5780     0.0413     0.2290    54.7260
 2507.0000   -48.5653     6.5974     7.0156     8.7356    78.7535     9.0065     0.1228     2.5810     0.0407     0.2293    53.8545
 2507.5000   -48.4035     6.8327     7.2654     8.9211    79.0565     9.0052     0.1006     2.5840     0.0394     0.2278    54.3192
 2508.0000   -48.0904     7.0764     7.5240     8.4425    80.1114     9.0038     0.0685     2.5778     0.0389     0.2275    54.9572
 2508.5000   -47.9286     7.3288     7.5780     7.9891    81.2415     9.0025     0.0609     2.5687     0.0422     0.2366    55.5775
 2509.0000   -47.9181     7.5377     7.3730     7.8262    81.5445     9.0011     0.0608     2.5605     0.0512     0.2360    56.0172
 2509.5000   -47.9076     7.5403     7.1731     7.9934    81.1708     8.9847     0.0667     2.5508     0.0540     0.2333    55.8738
 2510.0000   -47.8971     7.3868     7.0268     8.2778    81.0221     8.9531     0.0726     2.5425     0.0567     0.2306    55.7330
 2510.5000   -47.7353     7.1877     6.8844     8.5722    80.7992     8.9366     0.0680     2.5379     0.0648     0.2339    56.0487
 2511.0000   -47.7145     6.9933     6.8386     8.4564    80.8768     8.9201     0.0499     2.5372     0.0672     0.2417    56.6644
 2511.5000   -47.5628     6.8986     6.8405     7.7833    81.4054     8.8885     0.0333     2.5432     0.0654     0.2511    57.5826
 2512.0000   -47.4009     6.7594     6.7951     7.0162    81.7084     8.8569     0.0317     2.5454     0.0633     0.2572    58.8034
 2512.5000   -47.3903     6.6218     6.7032     6.6389    81.5602     8.8391     0.0331     2.5371     0.0630     0.2584    57.7549
 2513.0000   -47.5289     6.4881     6.5669     7.0200    81.4872     8.8239     0.0345     2.5310     0.0672     0.2569    56.8551
 2513.5000   -47.6697     6.4009     6.5228     7.5263    81.4143     8.8074     0.0374     2.5288     0.0721     0.2560    57.6247
 2514.0000   -47.8105     6.4477     6.6163     7.9578    81.8678     8.8058     0.0358     2.5280     0.0733     0.2560    60.6609
 2514.5000   -47.9539     6.6315     6.7106     7.3753    82.9226     8.8044     0.0297     2.5332     0.0709     0.2542    62.3356
 2515.0000   -48.0947     6.7733     6.8537     6.7413    83.7520     8.8031     0.0341     2.5392     0.0672     0.2454    61.7409
 2515.5000   -48.3867     6.8704     7.0486     6.5543    84.1301     8.7866     0.0401     2.5467     0.0621     0.2282    58.8770
 2516.0000   -48.5275     6.8727     7.2490     6.8868    83.7565     8.8007     0.0445     2.5550     0.0566     0.2307    55.1054
 2516.5000   -48.3631     6.9230     7.4036     7.5387    82.3301     8.7991     0.0309     2.5625     0.0524     0.2558    54.5081
 2517.0000   -48.3526     6.9748     7.5615     8.1982    80.9790     8.7977     0.0217     2.5685     0.0488     0.2528    54.6725
 2517.5000   -48.0395     7.0735     7.6693     8.6733    80.3798     8.7964     0.0217     2.5677     0.0485     0.2344    55.4395
 2518.0000   -47.8777     7.1749     7.7248     8.9733    80.4572     8.8105     0.0366     2.5594     0.0534     0.2304    56.2064
 2518.5000   -47.8672     7.2274     7.6204     8.4656    81.0610     8.8088     0.0442     2.5510     0.0615     0.2362    56.3656
 2519.0000   -47.7055     7.2206     7.4655     8.0353    81.3640     8.8074     0.0109     2.5433     0.0633     0.2444    54.7146
 2519.5000   -47.6950     7.1325     7.4159     8.1503    81.4414     8.8216     0.0107     2.5249     0.0672     0.2486    53.5148
 2520.0000   -47.6845     7.0856     7.3666     8.2664    81.2933     8.8199     0.0468     2.5029     0.0784     0.2498    53.8279
 2520.5000   -47.6739     7.0391     7.3640     8.1548    81.3707     8.8185     0.0890     2.4923     0.0926     0.2519    57.6205
 2521.0000   -47.6634     7.0421     7.3197     7.7705    82.2752     8.8172     0.1130     2.4975     0.0941     0.2544    60.6568
 2521.5000   -47.6529     7.0445     7.3218     7.4553    82.9542     8.8158     0.0928     2.5141     0.0835     0.2550    61.4237
 2522.0000   -47.7937     7.0960     7.3238     7.8833    83.0347     8.7994     0.0385     2.5254     0.0766     0.2496    60.6778
 2522.5000   -47.7832     7.1479     7.3773     8.8109    82.2820     8.8132     0.0343     2.5329     0.0727     0.2411    57.2007
 2523.0000   -47.9244     7.1503     7.4307     9.1878    81.9835     8.8118     0.0357     2.5336     0.0709     0.2339    57.0680
 2523.5000   -48.2161     7.2026     7.4845     8.9389    82.0609     8.8104     0.0311     2.5343     0.0700     0.2324    58.7660
 2524.0000   -48.3570     7.2051     7.4348     7.7833    82.5143     8.8091     0.0129     2.5381     0.0700     0.2330    59.2070
 2524.5000   -48.4977     7.1076     7.1832     7.4681    82.5165     8.8077     0.0008     2.5426     0.0669     0.2342    57.1482
 2525.0000   -48.6384     7.0609     6.9884     7.6272    81.6165     8.8064    -0.0038     2.5471     0.0627     0.2345    54.7906
 2525.5000   -48.7792     6.9665     6.8463     7.9535    80.5650     8.8047     0.0262     2.5523     0.0596     0.2333    53.4923
 2526.0000   -48.7685     6.8722     6.8482     8.3514    80.1173     8.7883     0.0517     2.5538     0.0576     0.2331    53.3489
 2526.5000   -48.7579     6.7335     6.7557     8.5887    80.0443     8.7869     0.0591     2.5470     0.0596     0.2507    55.4800
 2527.0000   -48.5961     6.5514     6.6644     8.4142    80.8061     8.7856     0.0605     2.5440     0.0636     0.2572    57.3060
 2527.5000   -48.5855     6.4632     6.4388     7.8525    81.8634     8.7842     0.0634     2.5485     0.0618     0.2488    58.9806
 2528.0000   -48.5728     6.3763     6.1352     7.0297    83.0648     8.7829     0.0709     2.5462     0.0597     0.2422    60.6553
 2528.5000   -48.5623     6.3786     6.2227     6.6061    83.5156     8.7815     0.0783     2.5386     0.0642     0.2349    61.7248
 2529.0000   -48.5518     6.3808     6.8121     6.7938    83.7399     8.7802     0.0812     2.5378     0.0657     0.2310    61.5814
 2529.5000   -48.5413     6.4287     7.0546     7.0872    83.5785     8.7788     0.0706     2.5377     0.0657     0.2286    61.4432
 2530.0000   -48.6838     6.5195     7.1552     7.4976    82.3760     8.7775     0.0344     2.5306     0.0682     0.2289    58.8819
 2530.5000   -48.6732     6.6179     7.2070     8.0489    81.6358     8.7761     0.0028     2.5193     0.0754     0.2383    56.1693
 2531.0000   -48.6626     6.7146     7.2090     8.5682    81.3368     8.7748    -0.0048     2.5099     0.0835     0.2543    56.4823
