~VERSION INFORMATION
 VERS.                2.0:   CWLS LOG ASCII STANDARD - VERSION 2.0
 WRAP.                 NO:   ONE LINE PER DEPTH STEP
~WELL INFORMATION
#MNEM.UNIT      DATA TYPE    INFORMATION
#----------   ------------   ------------------------------
 STRT.F            8.5000:   START DEPTH
 STOP.F          642.0000:   STOP DEPTH
 STEP.F            0.5000:   STEP LENGTH
 NULL.          -999.2500:   NO VALUE
 COMP. FENIX & SCISSON INC:   COMPANY
 WELL. 26-36 S11 W1 #26-36 SX11:   WELL
 FLD .             TEAPOT:   FIELD
 LOC .      S11 T38N R78W:   LOCATION
 CNTY.            NATRONA:   COUNTY
 STAT.            WYOMING:   STATE
 CTRY. UNITED STATES OF AMERICA:   COUNTRY
 SRVC.      Dresser Atlas:   SERVICE COMPANY
 DATE.        16-JUL-1980:   LOGDATE
 API .       490251083500:   API NUMBER
~CURVE INFORMATION
#MNEM.UNIT       API CODE    CURVE DESCRIPTION
#----------   ------------   ------------------------------
 DEPT.F                  :   
 NPHI.DEC    42 890 03 00:   NEUTRON POROSITY SANDSTONE
 RHOB.G/C3   45 350 01 00:   BULK DENSITY
 CORR.G/C3   45 356 01 00:   DENSITY CORRECTION
 GRD .GAPI   45 310 01 00:   GAMMA RAY FROM DENSITY LOG
 CALD.IN     45 280 60 00:   CALIPER
 SPR .MV     07 010 01 00:   SPONTANEOUS POTENTIAL
 SFL .OHMM   07 220 01 00:   SHALLOW FOCUSED LOG RESISTIVITY
 ILD .OHMM   07 120 46 00:   INDUCTION LOG DEEP
 ILM .OHMM   07 120 44 00:   INDUCTION LOG MEDIUM
 DPHI.DEC    45 890 12 00:   DENSITY POROSITY SANDSTONE
~PARAMETER INFORMATION
#MNEM.UNIT          VALUE    DESCRIPTION
#----------   ------------   ------------------------------
 PD  .                 GL:   PERMANENT DATUM
 EPD .F              5184:   ELEVATION PERMANENT DATUM
 LMF .                 KB:   LOG MEASURED FROM
 DAPD.F                 5:   FEET ABOVE PERMANENT DATUM
 DMF .                 KB:   DRILLING MEASURED FROM
 EKB .F              5189:   KELLING BUSHING
 EGL .F              5184:   GROUND LEVEL
 DATE.            7-16-80:   RUN DATE
 RUN .                  1:   RUN NUMBER
 DD  .F               630:   DEPTH DRILLER
 DL  .F               637:   DEPTH LOGGER
 BLI .F               635:   BOTTOM LOG INTERVAL
 TLI .F                 8:   TOP LOG INTERVAL
 BS  .IN            7.875:   BIT SIZE
 BSD .F               630:   BIT SIZE AT DEPTH
 DFT .           CHEM GEL:   DRILLING FLUID TYPE
 DFD .                9.2:   DRILLING FLUID DENSITY
 DFV .                 65:   DRILLING FLUID VISCOSITY
 DFPH.                 10:   DRILLING FLUID PH
 DFL .                  8:   DRILLING FLUID LOSS
 MSS .           FLOWLINE:   MUD SAMPLE SOURCE
 RMS .OHMM            .61:   RESISTIVITY MUD SAMPLE
 MST .F                60:   MUD SAMPLE TEMPERATURE
 RMC .OHMM            .62:   RESISTIVITY MUD CAKE
 MCST.F                58:   MUD CAKE SAMPLE TEMPERATURE
 MFSS.               MEAS:   MUD FILTRATE SAMPLE SOURCE
 MCSS.               MEAS:   MUD CAKE SAMPLE SOURCE
 RMB .OHMM            .41:   RESISTIVITY MUD AT BHT
 BHT .F                90:   BOTTOM HOLE TEMPERATURE
 TCS .HRS               5:   TIME CURCULATED STOPPED
 MRT .F                90:   MAXIMUM RECORDED TEMPERATURE
 LUN .               6109:   LOGGING UNIT NUMBER
 LUL .              GLTTE:   LOGGING UNIT LOCATION
 ENGI.            GARONER:   RECORDING ENGINEER
 WITN.              AMEND:   WITNESSED BY
 CLNT.            A2DTECH:   CLIENT CODE
 ORIG.           5" PRINT:   ORIGIN OF DATA
 UWI .       490251083500:   UNIQUE WELL ID
 DICO. A2D Technologies, Inc.:   DIGITIZING COMPANY
~OTHER INFORMATION
~A    DEPT    NPHI       RHOB       CORR        GRD       CALD        SPR        SFL          ILD      ILM       DPHI   
# ...
  444.0000     0.2776     2.5278     0.0057    79.2970     7.8076   -35.9476    12.3724     9.5585     9.9179     0.0913
  444.5000     0.2886     2.5337     0.0159    79.0978     7.8011   -35.9417    12.2901     9.6603     9.9179     0.0916
  445.0000     0.2974     2.5299     0.0197    78.5602     7.7947   -35.9324    12.2084    10.0548    10.2993     0.0896
  445.5000     0.2999     2.5293     0.0174    78.0333     7.7882   -35.7047    12.1506    10.4655    11.1522     0.0847
  446.0000     0.2993     2.5297     0.0158    77.4529     7.7817   -35.4744    12.1506    11.1245    12.0757     0.0733
  446.5000     0.2858     2.5395     0.0208    75.6700     7.7753   -35.2304    11.9487    12.0785    13.0757     0.0826
  447.0000     0.2705     2.5495     0.0284    73.8034     7.7688   -35.0005    13.0157    13.1143    14.1585     0.0976
  447.5000     0.2578     2.5579     0.0360    70.3776     7.7624   -34.7556    15.4470    14.2389    15.3310     0.1037
  448.0000     0.2483     2.5366     0.0409    66.9608     7.7559   -34.7503    18.3331    15.4600    16.6005     0.1183
  448.5000     0.2576     2.5146     0.0362    63.5602     7.7494   -34.8917    21.7542    16.7858    17.9752     0.1347
  449.0000     0.2664     2.5038     0.0350    60.6801     7.7430   -35.0293    26.9621    18.2253    19.4637     0.1498
  449.5000     0.2752     2.4669     0.0399    59.2922     7.7365   -35.1684    26.7817    19.7882    21.0755     0.1636
  450.0000     0.2831     2.4246     0.0339    59.8882     7.7301   -35.3066    24.3698    21.2583    22.8207     0.1695
  450.5000     0.2767     2.4100     0.0272    60.4929     7.7236   -35.4474    23.1824    21.8533    23.1824     0.1870
  451.0000     0.2727     2.3954     0.0206    60.5049     7.7171   -35.5432    25.3230    22.4649    22.3694     0.2017
  451.5000     0.2748     2.3876     0.0197    60.4868     7.7107   -35.5414    28.4011    22.7651    21.6187     0.2173
  452.0000     0.2722     2.3583     0.0140    61.2669     7.7100   -35.5430    25.7947    22.4206    20.8932     0.2044
  452.5000     0.2673     2.3205     0.0022    62.3361     7.7100   -35.5426    24.9587    21.9724    20.1920     0.1957
  453.0000     0.2635     2.3353     0.0037    63.0514     7.7100   -35.5415    25.3838    21.5328    19.5144     0.1873
  453.5000     0.2610     2.3536     0.0181    61.7702     7.7100   -35.5424    26.3797    21.1021    18.8595     0.1721
  454.0000     0.2640     2.3665     0.0205    60.5256     7.7100   -35.5417    25.5633    20.7521    18.5766     0.1550
  454.5000     0.2667     2.3924     0.0317    59.2734     7.7100   -35.5388    24.1823    20.7521    18.5766     0.1779
  455.0000     0.2636     2.4184     0.0425    58.9295     7.7119   -35.5858    23.1475    20.7521    19.0453     0.1856
  455.5000     0.2606     2.3957     0.0440    59.4351     7.7159   -35.7224    23.6498    20.7521    19.5114     0.2044
  456.0000     0.2592     2.3686     0.0340    59.9414     7.7199   -35.8536    24.9956    20.7521    19.9889     0.2241
  456.5000     0.2543     2.3361     0.0256    59.9298     7.7239   -35.9851    24.9261    20.7521    20.3726     0.2286
  457.0000     0.2555     2.3102     0.0198    59.1918     7.7279   -36.1236    27.0714    20.5945    20.3726     0.2324
  457.5000     0.2489     2.3022     0.0082    58.4751     7.7319   -36.2470    27.8915    20.2489    19.5699     0.2056
  458.0000     0.2452     2.2959     0.0119    58.1275     7.7359   -36.3322    25.0472    19.9112    18.8475     0.1852
  458.5000     0.2591     2.3362     0.0206    58.7686     7.7399   -35.9081    22.3422    19.5774    18.1518     0.1772
  459.0000     0.2552     2.3715     0.0240    59.4044     7.7439   -35.4302    21.9336    19.2502    17.9033     0.1724
  459.5000     0.2545     2.3872     0.0177    60.0308     7.7478   -34.9523    22.3617    18.9292    17.9033     0.1657
  460.0000     0.2583     2.3948     0.0106    60.5239     7.7462   -34.4658    23.2642    18.6136    17.9899     0.1571
  460.5000     0.2619     2.4028     0.0042    59.5998     7.7378   -34.6162    24.2032    18.2251    18.2442     0.1507
  461.0000     0.2635     2.4196     0.0092    58.2812     7.7295   -35.0200    25.6831    18.2456    18.5022     0.1646
  461.5000     0.2639     2.4315     0.0182    58.2154     7.7212   -35.4281    25.5814    18.8253    18.7638     0.1715
  462.0000     0.2607     2.4146     0.0125    59.7703     7.7129   -35.5467    24.5215    19.3860    19.0291     0.1843
  462.5000     0.2607     2.3980     0.0079    61.2750     7.7045   -35.5424    23.5055    19.9716    19.2981     0.1997
  463.0000     0.2639     2.3781     0.0069    62.7828     7.6963   -35.5411    22.7584    20.5749    19.5710     0.1927
  463.5000     0.2675     2.3567     0.0017    63.0341     7.6911   -35.5436    23.6588    21.1387    19.8477     0.1802
  464.0000     0.2718     2.3490     0.0030    62.4590     7.6970   -35.5431    24.6980    21.1387    20.1283     0.2047
  464.5000     0.2767     2.3781     0.0225    61.9251     7.7027   -35.5429    25.7828    21.1387    20.4129     0.2425
  465.0000     0.2688     2.3526     0.0258    61.6982     7.7083   -35.5428    27.3717    21.1387    20.7015     0.2476
  465.5000     0.2594     2.3118     0.0118    61.8451     7.7140   -35.5425    26.9592    20.7960    20.9942     0.2134
  466.0000     0.2547     2.2731    -0.0021    61.8780     7.7196   -35.5424    25.5096    20.4711    21.1387     0.1806
  466.5000     0.2603     2.3168    -0.0098    63.3761     7.7253   -35.5425    24.1380    20.1513    21.1387     0.1534
  467.0000     0.2623     2.3714     0.0030    65.6752     7.7309   -35.5431    23.4272    19.8365    20.8058     0.1490
  467.5000     0.2552     2.4108     0.0163    66.2544     7.7366   -35.5420    23.1202    19.5266    20.4731     0.1518
  468.0000     0.2505     2.4313     0.0295    65.9121     7.7422   -35.5404    22.8173    19.2216    20.1457     0.1661
  468.5000     0.2461     2.4347     0.0429    65.6975     7.7479   -35.4646    22.5184    18.9214    19.8236     0.1785
  469.0000     0.2436     2.4161     0.0478    65.6790     7.7500   -35.3680    22.3422    18.6258    19.5066     0.1794
  469.5000     0.2455     2.3878     0.0403    66.5289     7.7500   -35.2643    23.4752    18.3348    19.1947     0.1814
  470.0000     0.2468     2.3830     0.0312    66.7930     7.7500   -35.1848    24.0542    18.0484    18.8878     0.1803
  470.5000     0.2472     2.3792     0.0258    66.2943     7.7500   -35.1330    22.9682    17.7665    18.5857     0.1702
  471.0000     0.2494     2.3792     0.0258    65.8815     7.7477   -35.0695    22.0356    17.4889    18.2885     0.1602
  471.5000     0.2512     2.3906     0.0320    66.6441     7.7357   -34.6959    21.5325    17.2157    17.9961     0.1576
  472.0000     0.2512     2.4034     0.0398    67.8334     7.7240   -34.7512    21.4441    16.9468    17.7083     0.1493
  472.5000     0.2529     2.4159     0.0348    69.0342     7.7122   -34.6815    21.1498    16.6820    17.4252     0.1419
  473.0000     0.2550     2.4253     0.0298    70.2568     7.7005   -34.6114    20.8596    16.4214    17.2545     0.1563
  473.5000     0.2571     2.4454     0.0290    70.8483     7.6887   -34.5516    20.7521    16.3250    16.9389     0.1632
  474.0000     0.2571     2.4302     0.0340    69.0475     7.6771   -34.4813    20.7521    16.3250    16.9389     0.1605
  474.5000     0.2587     2.4088     0.0297    67.1838     7.6699   -34.4150    20.7521    16.3250    16.9446     0.1615
  475.0000     0.2599     2.4115     0.0245    65.6588     7.6700   -34.3421    20.7521    16.3250    16.9314     0.1673
  475.5000     0.2582     2.4138     0.0194    65.7116     7.6700   -34.1789    20.7807    16.3250    16.9424     0.1686
  476.0000     0.2593     2.4069     0.0142    66.2591     7.6700   -33.9887    20.8478    16.3250    16.9413     0.1716
  476.5000     0.2616     2.4002     0.0091    66.8268     7.6700   -33.8064    20.9151    16.3250    16.9410     0.1709
  477.0000     0.2638     2.4000     0.0058    67.3930     7.6700   -33.5651    20.9827    16.7802    17.3103     0.1602
