~VERSION INFORMATION
 VERS.                2.0:   CWLS LOG ASCII STANDARD - VERSION 2.0
 WRAP.                 NO:   ONE LINE PER DEPTH STEP
~WELL INFORMATION
#MNEM.UNIT      DATA TYPE    INFORMATION
#----------   ------------   ------------------------------
 STRT.F           24.0000:   START DEPTH
 STOP.F          609.0000:   STOP DEPTH
 STEP.F            0.5000:   STEP LENGTH
 NULL.          -999.2500:   NO VALUE
 COMP. FENIX & SCISSON INC:   COMPANY
 WELL.        S 34 #48-34:   WELL
 FLD .            NPR - 3:   FIELD
 LOC .      S34 T39N R78W:   LOCATION
 CNTY.            NATRONA:   COUNTY
 STAT.            WYOMING:   STATE
 CTRY. UNITED STATES OF AMERICA:   COUNTRY
 SRVC.              Welex:   SERVICE COMPANY
 DATE.        03-MAY-1977:   LOGDATE
 API .       490251035700:   API NUMBER
~CURVE INFORMATION
#MNEM.UNIT       API CODE    CURVE DESCRIPTION
#----------   ------------   ------------------------------
 DEPT.F                  :   
 CALD.IN     45 280 60 00:   CALIPER FROM DENSITY LOG
 CORR.G/C3   45 356 01 00:   DENSITY CORRECTION
 DPHI.DEC    45 890 12 00:   DENSITY POROSITY SANDSTONE
 GRD .GAPI   45 310 01 00:   GAMMA RAY FROM DENSITY LOG
 RHOB.G/C3   45 350 01 00:   BULK DENSITY
 GURD.OHMM   07 220 05 00:   SHALLOW GUARD RESISTIVITY
 ILD .OHMM   07 120 46 00:   INDUCTION LOG DEEP
 ILM .OHMM   07 120 44 00:   INDUCTION LOG MEDIUM
 SPR .MV     07 010 01 00:   SPONTANEOUS POTENTIAL FROM RES.
~PARAMETER INFORMATION
#MNEM.UNIT          VALUE    DESCRIPTION
#----------   ------------   ------------------------------
 PD  .                 GL:   PERMANENT DATUM
 EPD .F              5160:   ELEVATION PERMANENT DATUM
 LMF .                 GL:   LOG MEASURED FROM
 DMF .                 GL:   DRILLING MEASURED FROM
 EGL .F              5160:   GROUND LEVEL
 DATE.        03-MAY-1977:   RUN DATE
 RUN .                  1:   RUN NUMBER
 DD  .F               610:   DEPTH DRILLER
 DL  .F               611:   DEPTH LOGGER
 BLI .F               609:   BOTTOM LOG INTERVAL
 TLI .F                30:   TOP LOG INTERVAL
 CS  .IN            8.625:   CASING SIZE
 CBD .F                40:   CASING BOTTOM DRILLER
 CBL .F                32:   CASING BOTTOM LOGGER
 BS  .IN            7.875:   BIT SIZE
 BSD .F               610:   BIT SIZE AT DEPTH
 DFT .            KCL GEL:   DRILLING FLUID TYPE
 DFD .                8.9:   DRILLING FLUID DENSITY
 DFV .                 33:   DRILLING FLUID VISCOSITY
 DFPH.                8.0:   DRILLING FLUID PH
 DFL .                7.2:   DRILLING FLUID LOSS
 MSS .            MUD PIT:   MUD SAMPLE SOURCE
 RMS .OHMM           0.19:   RESISTIVITY MUD SAMPLE
 MST .F                65:   MUD SAMPLE TEMPERATURE
 RMF .OHMM           0.16:   RESISTIVITY MUD FILTRATE SAMPLE
 MFST.F                65:   MUD FILTRATE SAMPLE TEMPERATURE
 RMC .OHMM           0.24:   RESISTIVITY MUD CAKE
 MCST.F                65:   MUD CAKE SAMPLE TEMPERATURE
 MFSS.               MEAS:   MUD FILTRATE SAMPLE SOURCE
 MCSS.               MEAS:   MUD CAKE SAMPLE SOURCE
 RMB .OHMM           0.17:   RESISTIVITY MUD AT BHT
 BHT .F                72:   BOTTOM HOLE TEMPERATURE
 TCS .HRS               2:   TIME CURCULATED STOPPED
 MRT .F                72:   MAXIMUM RECORDED TEMPERATURE
 LUN .               8766:   LOGGING UNIT NUMBER
 LUL .             CASPER:   LOGGING UNIT LOCATION
 ENGI.          T. JOYNER:   RECORDING ENGINEER
 WITN.           ROB LYON:   WITNESSED BY
 CLNT.            A2DTECH:   CLIENT CODE
 ORIG.           5" PRINT:   ORIGIN OF DATA
 UWI .       490251035700:   UNIQUE WELL ID
 DICO. A2D Technologies, Inc.:   DIGITIZING COMPANY
~OTHER INFORMATION
~A   DEPT       CALD      CORR        DPHI      GRD         RHOB     GURD        ILD        ILM        SPR   
# ...
  170.0000     7.7801     0.0049     0.1234   124.8959     2.4741    13.3111     7.5762    10.3028   -30.2976
  170.5000     7.7812     0.0083     0.1216   123.4337     2.4802    13.0490     7.4787    10.3084   -30.2813
  171.0000     7.7822     0.0157     0.1204   123.7476     2.4825    12.4425     7.4320    10.3140   -30.1129
  171.5000     7.7832     0.0173     0.1194   126.1387     2.4833    12.3674     7.4403    10.1763   -30.0966
  172.0000     7.7842     0.0235     0.1176   128.5297     2.4886    12.5512     7.4469    10.1130   -30.0804
  172.5000     7.7853     0.0236     0.1157   125.7279     2.4932    12.9153     7.5052    10.0473   -30.0642
  173.0000     7.7865     0.0237     0.1140   123.2229     2.4955    12.9270     7.5640    10.1240   -30.1968
  173.5000     7.7875     0.0238     0.1146   120.2314     2.4903    12.8489     7.5708    10.3422   -30.1806
  174.0000     7.7885     0.0240     0.1187   117.9160     2.4827    12.8631     7.5775    10.3479   -30.1643
  174.5000     7.7895     0.0181     0.1232   120.3114     2.4752    12.8745     7.5842    10.2097   -30.1481
  175.0000     7.7905     0.0138     0.1265   123.8894     2.4688    12.7942     7.6436    10.0759   -30.1319
  175.5000     7.7915     0.0094     0.1298   127.0180     2.4591    12.8084     7.5976     9.9429   -30.1157
  176.0000     7.7777     0.0065     0.1336   122.7368     2.4517    12.9985     7.6046     9.8797   -30.2523
  176.5000     7.7641     0.0007     0.1366   123.1991     2.4488    13.3755     7.5586     9.8170   -30.2320
  177.0000     7.7651    -0.0009     0.1390   123.8098     2.4481    13.0216     7.4630     9.7545   -30.2158
  177.5000     7.7510    -0.0051     0.1398   122.7884     2.4489    12.5027     7.3653     9.7600   -30.1996
  178.0000     7.7522    -0.0049     0.1389   128.7446     2.4513    12.4247     7.3210     9.8333   -30.0346
  178.5000     7.7681    -0.0063     0.1380   134.2514     2.4521    12.6996     7.3291     9.7719   -30.1712
  179.0000     7.7691    -0.0077     0.1377   132.7849     2.4529    12.7109     7.4895     9.7084   -30.3038
  179.5000     7.7850    -0.0075     0.1370   129.3896     2.4537    12.6340     7.5482     9.7826   -30.4330
  180.0000     7.8011    -0.0074     0.1320   128.8130     2.4605    12.5581     7.3997     9.8559   -30.5649
  180.5000     7.8021    -0.0056     0.1244   128.2371     2.4705    12.3965     7.2541     9.9298   -30.6979
  181.0000     7.8031    -0.0041     0.1214   128.2585     2.4789    12.2325     7.1607     9.8653   -30.8301
  181.5000     7.8190     0.0020     0.1202   128.7208     2.4847    12.0793     7.0686     9.8026   -30.8139
  182.0000     7.8497     0.0081     0.1207   127.6994     2.4856    12.2887     6.9776     9.7403   -30.7976
  182.5000     7.8656     0.0098     0.1210   123.7107     2.4819    12.7929     6.9838     9.7469   -30.7812
  183.0000     7.8666     0.0129     0.1210   122.2442     2.4797    12.9828     6.8939     9.6181   -30.7649
  183.5000     7.8676     0.0145     0.1210   122.0940     2.4798    12.8128     6.9000     9.3605   -30.7485
  184.0000     7.8688     0.0132     0.1231   123.3650     2.4754    12.3049     6.9542     9.1095   -30.5833
  184.5000     7.8847     0.0088     0.1291   126.0093     2.4642    12.1464     7.0088     8.9892   -30.5637
  185.0000     7.8857     0.0060     0.1315   125.7297     2.4590    11.9073     7.0163     8.9942   -30.3987
  185.5000     7.8718     0.0031     0.1336   122.4828     2.4546    11.8330     7.0226     9.1247   -30.3825
  186.0000     7.8728     0.0032     0.1338   118.7908     2.4545    11.9284     7.0288     9.1983   -30.2174
  186.5000     7.8739     0.0004     0.1314   122.5172     2.4592    12.1896     7.0350     9.2620   -30.2012
  187.0000     7.8749    -0.0025     0.1289   125.5017     2.4646    12.2004     6.9912     9.0151   -30.3338
  187.5000     7.8761    -0.0024     0.1298   125.4698     2.4645    12.2961     6.9989     8.8948   -30.6192
  188.0000     7.8771    -0.0022     0.1310   123.1622     2.4624    12.3925     7.0051     9.1509   -30.7478
  188.5000     7.8781    -0.0021     0.1322   129.7119     2.4610    12.8405     7.0600     9.4784   -30.7316
  189.0000     7.8791    -0.0020     0.1325   126.7617     2.4596    13.3985     7.1647     9.8177   -30.7153
  189.5000     7.8801    -0.0018     0.1327   124.7018     2.4596    13.6908     7.3724     9.9601   -30.8520
  190.0000     7.8811    -0.0017     0.1321   116.1136     2.4605    13.5022     7.5860     9.9655   -30.8317
  190.5000     7.8822    -0.0015     0.1303   116.7243     2.4620    13.3402     7.7520     9.9710   -30.9684
  191.0000     7.8834    -0.0014     0.1282   118.5737     2.4644    13.2628     7.8127     9.9764   -30.9481
  191.5000     7.8844     0.0017     0.1260   121.2140     2.4704    13.2746     7.8740     9.8446   -30.9319
  192.0000     7.8854     0.0048     0.1223   122.7149     2.4787    13.4717     7.8266     9.7132   -30.9156
  192.5000     7.8864     0.0050     0.1188   120.3582     2.4848    13.6717     7.7795     9.5859   -31.0523
  193.0000     7.8874     0.0083     0.1158   118.0015     2.4871    13.4956     7.7245     9.4766   -31.1815
  193.5000     7.8884     0.0113     0.1133   116.0899     2.4895    13.4114     7.5806     8.9553   -31.3140
  194.0000     7.8895     0.0114     0.1115   117.4424     2.4949    13.1502     7.5350     8.9602   -31.5948
  194.5000     7.8905     0.0145     0.1103   121.8413     2.4993    13.0681     7.4396     9.0901   -31.5786
  195.0000     7.8917     0.0177     0.1073   129.0537     2.4979    13.2651     7.1930     9.2220   -31.7113
  195.5000     7.8927     0.0208     0.1030   131.4448     2.5017    13.6498     7.0515     9.2911   -31.6949
  196.0000     7.8936     0.0285     0.0988   131.1610     2.5101    13.5676     7.0577     9.1683   -31.6786
  196.5000     7.8947     0.0301     0.0994   128.6602     2.5139    13.1175     7.1115     8.7393   -31.6622
  197.0000     7.8808     0.0302     0.1024   121.4074     2.5072    12.8592     6.9731     8.5040   -31.8115
  197.5000     7.8670     0.0303     0.1065   119.6441     2.5013    12.6060     6.8818     8.7488   -31.9277
  198.0000     7.8514     0.0305     0.1101   118.1227     2.4968    12.4436     6.9854     8.9995   -31.9107
  198.5000     7.8393     0.0306     0.1107   116.2660     2.4954    12.2833     6.9916     8.8192   -31.8912
  199.0000     7.8406     0.0307     0.1106   118.2163     2.4955    12.1251     6.7132     8.4649   -32.0278
  199.5000     7.8416     0.0309     0.1130   121.2009     2.4926    11.9690     6.5811     8.1813   -32.0076
  200.0000     7.8426     0.0250     0.1187   127.3011     2.4821    11.8969     6.5415     8.1858   -31.9913
  200.5000     7.8436     0.0192     0.1220   124.3510     2.4761    12.3297     6.5502     8.3045   -31.9737
  201.0000     7.8446     0.0133     0.1240   122.8845     2.4748    12.5100     6.6502     8.5425   -31.9526
  201.5000     7.8456     0.0104     0.1228   123.3615     2.4771    12.1790     6.8373     8.7956   -31.9292
  202.0000     7.8317     0.0075     0.1207   122.4780     2.4784    12.6221     7.0367     8.9976   -31.7599
  202.5000     7.8330     0.0077     0.1198   120.7148     2.4799    13.0784     7.1411     9.1996   -31.8882
  203.0000     7.8489     0.0078     0.1203   118.9516     2.4803    13.3648     7.1971     9.3234   -31.8677
  203.5000     7.8499     0.0065     0.1209   117.1455     2.4796    13.6574     7.0554     9.3965   -31.8472
  204.0000     7.8358     0.0066     0.1218   114.1622     2.4782    13.9565     6.9631     9.3379   -31.6779
  204.5000     7.8221     0.0067     0.1223   112.5719     2.4768    13.8725     7.2663     9.3483   -31.6574
  205.0000     7.8083     0.0069     0.1229   112.4322     2.4754    13.6936     7.5288     9.7536   -31.6369
  205.5000     7.7945     0.0078     0.1211   112.4465     2.4747    13.5175     7.5355     9.6949   -31.7652
  206.0000     7.7957     0.0086     0.1175   113.6449     2.4860    13.5296     7.4885     9.3086   -31.5952
