~VERSION INFORMATION
 VERS.                2.0:   CWLS LOG ASCII STANDARD - VERSION 2.0
 WRAP.                 NO:   ONE LINE PER DEPTH STEP
~WELL INFORMATION
#MNEM.UNIT      DATA TYPE    INFORMATION
#----------   ------------   ------------------------------
 STRT.F            0.0000:   START DEPTH
 STOP.F          537.0000:   STOP DEPTH
 STEP.F            0.5000:   STEP LENGTH
 NULL.          -999.2500:   NO VALUE
 COMP.   FLUOR DANIEL INC:   COMPANY
 WELL. NAVAL PETROLEUM RESERVE 3 X 83 #6-10:   WELL
 FLD .             TEAPOT:   FIELD
 LOC .      S10 T38N R78W:   LOCATION
 CNTY.            NATRONA:   COUNTY
 STAT.            WYOMING:   STATE
 CTRY. UNITED STATES OF AMERICA:   COUNTRY
 SRVC.      Western Atlas:   SERVICE COMPANY
 DATE.        30-APR-1996:   LOGDATE
 API .       490252278500:   API NUMBER
~CURVE INFORMATION
#MNEM.UNIT       API CODE    CURVE DESCRIPTION
#----------   ------------   ------------------------------
 DEPT.F                  :   
 GRR .GAPI   07 310 01 00:   GAMMA RAY FROM RES. LOG.
 RILD.OHMM   07 120 46 00:   INDUCTION LOG DEEP RESISTIVITY
 RILM.OHMM   07 120 44 00:   INDUCTION LOG MEDIUM RESISTIVITY
~PARAMETER INFORMATION
#MNEM.UNIT          VALUE    DESCRIPTION
#----------   ------------   ------------------------------
 PD  .                 GL:   PERMANENT DATUM
 EPD .F              5178:   ELEVATION PERMANENT DATUM
 LMF .                 KB:   LOG MEASURED FROM
 DAPD.F                10:   FEET ABOVE PERMANENT DATUM
 DMF .                 KB:   DRILLING MEASURED FROM
 EKB .F              5188:   KELLING BUSHING
 EDF .F              5187:   DRILLING FLOOR
 EGL .F              5178:   GROUND LEVEL
 DATE.            4-30-96:   RUN DATE
 RUN .                  1:   RUN NUMBER
 DD  .F               545:   DEPTH DRILLER
 DL  .F               545:   DEPTH LOGGER
 BLI .F               537:   BOTTOM LOG INTERVAL
 CS  .IN            9.625:   CASING SIZE
 CBD .F                96:   CASING BOTTOM DRILLER
 CBL .F                96:   CASING BOTTOM LOGGER
 BS  .IN             8.75:   BIT SIZE
 BSD .F               545:   BIT SIZE AT DEPTH
 DFT .                AIR:   DRILLING FLUID TYPE
 BHT .F                82:   BOTTOM HOLE TEMPERATURE
 MRT .F                82:   MAXIMUM RECORDED TEMPERATURE
 LUN .            ML 4116:   LOGGING UNIT NUMBER
 LUL .             CASPER:   LOGGING UNIT LOCATION
 ENGI.        VERN RAUTIO:   RECORDING ENGINEER
 WITN.         JAY LEBERU:   WITNESSED BY
 CLNT.            A2DTECH:   CLIENT CODE
 ORIG.        2" 5" PRINT:   ORIGIN OF DATA
 UWI .       490252278500:   UNIQUE WELL ID
 DICO. A2D Technologies, Inc.:   DIGITIZING COMPANY
~OTHER INFORMATION
~A    DEPT       GRR     RILD       RILM   
# ...
  455.0000    82.4148    22.8838    23.3698
  455.5000    85.7423    22.6692    23.0048
  456.0000    85.3041    22.2045    22.6455
  456.5000    82.3269    21.7541    22.2917
  457.0000    79.8603    21.3128    21.9435
  457.5000    82.4116    20.8795    21.5999
  458.0000    85.1884    20.5223    21.3048
  458.5000    84.7392    20.3470    21.1225
  459.0000    83.4289    20.1734    20.9432
  459.5000    83.6832    20.0027    20.7622
  460.0000    84.4384    19.7450    20.4986
  460.5000    85.2065    19.4298    20.1703
  461.0000    85.9896    19.1186    19.8472
  461.5000    87.3626    18.8124    19.5294
  462.0000    89.5717    18.5111    19.2176
  462.5000    91.8853    18.3858    19.0840
  463.0000    93.4343    18.3858    19.0850
  463.5000    93.0348    18.3858    19.0865
  464.0000    90.4712    18.3862    19.0863
  464.5000    85.8231    18.3862    19.0872
  465.0000    81.9627    18.3888    19.0888
  465.5000    79.5078    18.1967    18.8903
  466.0000    80.6459    18.0371    18.7248
  466.5000    82.7606    17.8790    18.5597
  467.0000    84.3562    17.7132    18.3858
  467.5000    85.1969    17.4453    18.1107
  468.0000    85.7907    17.0912    17.7423
  468.5000    83.6332    16.7434    17.3815
  469.0000    81.4879    16.4028    17.0280
  469.5000    81.8680    16.0692    16.6816
  470.0000    83.7866    15.7424    16.3423
  470.5000    84.6182    15.5024    16.0932
  471.0000    81.7675    15.2967    15.8796
  471.5000    78.9888    15.0936    15.6689
  472.0000    79.0826    14.8933    15.4609
  472.5000    85.9502    14.6956    15.2557
  473.0000    89.5935    14.5006    15.0550
  473.5000    88.6755    14.3425    14.8875
  474.0000    85.2032    14.1454    14.6848
  474.5000    84.7870    13.9509    14.4826
  475.0000    86.9401    13.7592    14.2836
  475.5000    89.2755    13.5701    14.0873
  476.0000    89.9098    13.3844    13.8937
  476.5000    87.1438    13.1952    13.7027
  477.0000    84.4660    12.9910    13.4822
  477.5000    83.0617    12.9376    13.4307
  478.0000    84.3499    12.8883    13.3795
  478.5000    85.7476    12.8391    13.3284
  479.0000    85.4129    12.7901    13.2775
  479.5000    84.5715    12.7412    13.2268
  480.0000    85.5598    12.6926    13.1763
  480.5000    89.3563    12.6486    13.1307
  481.0000    91.6617    12.6397    13.1214
  481.5000    90.8179    12.6222    13.1033
  482.0000    90.0539    12.6048    13.0851
  482.5000    90.1565    12.5873    13.0670
  483.0000    90.4650    12.5700    13.0491
  483.5000    91.7815    12.5525    13.0309
  484.0000    95.6441    12.5352    13.0129
  484.5000    99.3285    12.4579    12.9326
  485.0000    96.3970    12.3292    12.7991
  485.5000    93.4613    12.2019    12.6478
  486.0000    92.9766    12.1550    12.6493
  486.5000    93.7235    12.0516    12.5738
  487.0000    94.4672    11.9490    12.5162
  487.5000    95.1980    11.8473    12.4586
  488.0000    95.4229    11.7464    12.4013
  488.5000    94.0188    11.6465    12.3442
  489.0000    92.8574    11.5473    12.2874
  489.5000    93.3720    11.5196    12.2309
  490.0000    95.9262    11.6278    12.1843
  490.5000    98.5784    11.5153    12.2377
  491.0000    99.6951    11.4829    12.2834
  491.5000   100.6452    11.4643    12.2980
  492.0000    99.3880    11.4458    12.2770
  492.5000    97.1111    11.4276    12.2600
  493.0000    94.9708    11.4123    12.2431
  493.5000    95.4120    11.4123    12.2262
  494.0000    97.8255    11.2841    12.2093
  494.5000    98.2312    11.2500    12.1925
  495.0000    95.8165    11.2160    12.1835
  495.5000    93.4052    11.1821    12.1851
  496.0000    93.6233    11.1483    12.0553
  496.5000    98.0371    11.1136    11.9615
  497.0000   100.2066    11.0322    11.8684
  497.5000    99.3229    10.7902    11.7760
  498.0000    98.0144    10.5898    11.6844
  498.5000    98.7438    10.5130    11.5469
  499.0000   100.6778    10.4334    11.3357
  499.5000   102.7545    10.3545    11.1284
  500.0000   102.8490    10.2761    10.9249
  500.5000   100.7394    10.1983    10.7251
  501.0000    98.2055    10.1201    10.5290
  501.5000    98.0628     9.9993    10.3790
  502.0000    99.9144     9.8241    10.1990
  502.5000    99.9577     9.6445    10.0120
  503.0000    99.4039     9.4789     9.8401
  503.5000    98.8507     9.3063     9.6609
  504.0000    98.2540     9.1369     9.4851
  504.5000    98.7682     8.7295     9.0622
  505.0000   100.2120     8.3121     8.6289
  505.5000   101.7281     7.5847     8.0873
  506.0000   104.7694     6.8431     7.1660
  506.5000   108.2357     6.0682     6.4545
  507.0000   109.9003     5.4931     5.8721
  507.5000   111.5102     5.1841     5.3511
  508.0000   115.3127     4.9654     5.1330
  508.5000   125.6458     4.8734     5.1067
  509.0000   135.5650     5.1834     5.8415
  509.5000   128.9322     5.4794     6.3923
  510.0000   118.6253     5.8701     6.9951
  510.5000   108.0203     6.5481     7.6553
  511.0000   101.8841     7.3044     8.3742
  511.5000   100.7013     7.9272     8.9778
  512.0000   100.1891     8.5334     9.4678
  512.5000    99.7011     9.1179     9.7564
  513.0000    99.7944     9.2654     9.8006
  513.5000   103.1214     9.3777     9.8581
  514.0000   109.3697     9.5816    10.0286
  514.5000   112.9275     9.9188    10.2021
  515.0000   113.7506    10.0845    10.3785
  515.5000   112.8484    10.1879    10.5581
  516.0000   110.1297    10.2925    10.7407
  516.5000   107.8377    10.3981    10.9265
  517.0000   109.1941    10.4912    11.1155
  517.5000   110.7667    10.5898    11.3318
  518.0000   111.2630    10.7519    11.5723
  518.5000   109.8722    10.9066    11.8179
  519.0000   108.3502    11.0636    11.9914
  519.5000   106.7366    11.2228    12.2031
  520.0000   105.4573    11.4137    12.4143
  520.5000  -999.2500    11.4109    12.4363
  521.0000  -999.2500    11.5222    12.4628
  521.5000  -999.2500    11.6475    12.4894
  522.0000  -999.2500    11.7752    12.5160
  522.5000  -999.2500    11.9040    12.5910
  523.0000  -999.2500    12.0709    12.7288
  523.5000  -999.2500    12.0614    12.8682
  524.0000  -999.2500    12.0435    13.0085
  524.5000  -999.2500    12.0257    12.9716
  525.0000  -999.2500    12.0078    12.9262
  525.5000  -999.2500    11.9900    12.8875
  526.0000  -999.2500    11.9722    12.8209
  526.5000  -999.2500    11.9544    12.7513
  527.0000  -999.2500    11.9367    12.6821
  527.5000  -999.2500    11.9190    12.6132
  528.0000  -999.2500    11.8940    12.5448
  528.5000  -999.2500    11.8673    12.5065
  529.0000  -999.2500    11.8198    12.4759
  529.5000  -999.2500    12.0803    12.4456
  530.0000  -999.2500     0.2363    12.4143
  530.5000  -999.2500  -999.2500    12.3095
  531.0000  -999.2500  -999.2500    12.2035
  531.5000  -999.2500  -999.2500    12.0984
  532.0000  -999.2500  -999.2500    11.8668
  532.5000  -999.2500  -999.2500    11.5939
  533.0000  -999.2500  -999.2500    11.3295
  533.5000  -999.2500  -999.2500    11.0816
  534.0000  -999.2500  -999.2500    10.9467
  534.5000  -999.2500  -999.2500    10.8134
  535.0000  -999.2500  -999.2500    10.6893
  535.5000  -999.2500  -999.2500    10.6011
  536.0000  -999.2500  -999.2500    10.5183
  536.5000  -999.2500  -999.2500    10.4361
  537.0000  -999.2500  -999.2500    10.3546
