~VERSION INFORMATION
 VERS.                2.0:   CWLS LOG ASCII STANDARD - VERSION 2.0
 WRAP.                 NO:   ONE LINE PER DEPTH STEP
~WELL INFORMATION
#MNEM.UNIT      DATA TYPE    INFORMATION
#----------   ------------   ------------------------------
 STRT.F           83.0000:   START DEPTH
 STOP.F         3044.0000:   STOP DEPTH
 STEP.F            0.5000:   STEP LENGTH
 NULL.          -999.2500:   NO VALUE
 COMP.   TESORO PETROLEUM:   COMPANY
 WELL.  NPR # 3  AX #81-4:   WELL
 FLD .        TEAPOT DOME:   FIELD
 LOC .       S4 T38N R78W:   LOCATION
 CNTY.            NATRONA:   COUNTY
 STAT.            WYOMING:   STATE
 CTRY. UNITED STATES OF AMERICA:   COUNTRY
 SRVC.       Schlumberger:   SERVICE COMPANY
 DATE.        31-JUL-1969:   LOGDATE
 API .       490251002700:   API NUMBER
~CURVE INFORMATION
#MNEM.UNIT       API CODE    CURVE DESCRIPTION
#----------   ------------   ------------------------------
 DEPT.F                  :   
 CILD.MMHO   05 110 46 00:   CONDUCTIVITY INDUCTION LOG DEEP
 ILD .OHMM   05 120 46 00:   INDUCTION LOG DEEP
 SN  .OHMM   05 040 16 00:   SHORT NORMAL 16"
 SPR .MV     05 010 01 00:   SPONTANEOUS POTENTIAL FROM RES.
 CALD.IN     45 280 60 00:   CALIPER FROM DENSITY
 DPHI.DEC    45 890 12 00:   DENSITY POROSITY SANDSTONE
 GRD .GAPI   45 310 01 00:   GAMMA RAY FROM DENSITY LOG
 RHOB.G/C3   45 350 01 00:   BULK DENSITY
 DRHO.G/C3   45 356 01 00:   DENSITY CORRECTION
~PARAMETER INFORMATION
#MNEM.UNIT          VALUE    DESCRIPTION
#----------   ------------   ------------------------------
 PD  .                 GL:   PERMANENT DATUM
 EPD .F              5170:   ELEVATION PERMANENT DATUM
 LMF .                 KB:   LOG MEASURED FROM
 DAPD.F                13:   FEET ABOVE PERMANENT DATUM
 DMF .                 KB:   DRILLING MEASURED FROM
 EKB .F              5183:   KELLING BUSHING
 EGL .F              5170:   GROUND LEVEL
 DATE.            7-31-69:   RUN DATE
 RUN .                  2:   RUN NUMBER
 DD  .F              3047:   DEPTH DRILLER
 DL  .F              3044:   DEPTH LOGGER
 BLI .F              3043:   BOTTOM LOG INTERVAL
 TLI .F               626:   TOP LOG INTERVAL
 CS  .IN            10.75:   CASING SIZE
 CBD .F               625:   CASING BOTTOM DRILLER
 CBL .F               626:   CASING BOTTOM LOGGER
 BS  .IN             6.25:   BIT SIZE
 BSD .F              3047:   BIT SIZE AT DEPTH
 DFT .      FRESH GEL MUD:   DRILLING FLUID TYPE
 DFD .                9.7:   DRILLING FLUID DENSITY
 DFV .                 50:   DRILLING FLUID VISCOSITY
 DFPH.                9.5:   DRILLING FLUID PH
 DFL .                  8:   DRILLING FLUID LOSS
 MSS .          FLOW LINE:   MUD SAMPLE SOURCE
 RMS .OHMM           1.35:   RESISTIVITY MUD SAMPLE
 MST .F                74:   MUD SAMPLE TEMPERATURE
 RMF .OHMM            .81:   RESISTIVITY MUD FILTRATE SAMPLE
 MFST.F                74:   MUD FILTRATE SAMPLE TEMPERATURE
 MFSS.                  M:   MUD FILTRATE SAMPLE SOURCE
 RMB .OHMM            .83:   RESISTIVITY MUD AT BHT
 BHT .F               121:   BOTTOM HOLE TEMPERATURE
 TCS .HRS               4:   TIME CURCULATED STOPPED
 MRT .F               121:   MAXIMUM RECORDED TEMPERATURE
 LUN .               4507:   LOGGING UNIT NUMBER
 LUL .               CSPR:   LOGGING UNIT LOCATION
 ENGI.               MIXA:   RECORDING ENGINEER
 WITN.                MAY:   WITNESSED BY
 CLNT.            A2DTECH:   CLIENT CODE
 ORIG.     1", 2.5" PRINT:   ORIGIN OF DATA
 UWI .       490251002700:   UNIQUE WELL ID
 DICO. A2D Technologies, Inc.:   DIGITIZING COMPANY
~OTHER INFORMATION
~A   DEPT      CILD       ILD         SN        SPR       CALD       DPHI        GRD       RHOB       DRHO   
# ...
 2236.5000   194.2934     4.8762     7.4698   -19.0231     9.3219     0.0893   119.5469     2.5122     0.0450
 2237.0000   195.8145     4.8762     7.3061   -19.0216     9.3361     0.0975   119.0542     2.4992     0.0509
 2237.5000   195.7924     4.8762     7.1846   -19.0201     9.3358     0.1007   119.7288     2.4841     0.0493
 2238.0000   192.6839     4.8762     7.1345   -19.0185     9.3355     0.0943   122.4464     2.4818     0.0359
 2238.5000   189.5754     4.8762     7.0273   -19.0170     9.3352     0.0865   126.0501     2.4986     0.0324
 2239.0000   187.9508     4.8762     7.0265   -19.0154     9.3349     0.0777   129.6995     2.5121     0.0332
 2239.5000   186.1777     4.8762     7.0965   -18.8318     9.3047     0.0734   129.9558     2.5226     0.0395
 2240.0000   182.9213     4.9485     7.2586   -18.5083     9.3044     0.0790   126.1849     2.5166     0.0475
 2240.5000   179.1060     5.2291     7.4207   -18.3935     9.3042     0.0889   122.4936     2.4966     0.0507
 2241.0000   172.9698     5.3911     7.6750   -18.3920     9.3039     0.1011   120.3356     2.4796     0.0492
 2241.5000   168.5241     5.6110     7.9007   -18.3904     9.3036     0.1101   119.2331     2.4656     0.0389
 2242.0000   165.7666     5.9350     8.0628   -18.3886     9.3033     0.1022   120.2982     2.4552     0.0251
 2242.5000   164.6991     6.1146     8.1114   -18.3871     9.3030     0.0974   122.1874     2.4997     0.0197
 2243.0000   164.6759     5.9557     8.1106   -19.0029     9.3027     0.0974   121.4271     2.4882     0.0238
 2243.5000   164.6528     5.7183     8.1097   -19.0014     9.3024     0.1070   121.4243     2.4719     0.0282
 2244.0000   164.6296     5.5562     8.1089   -19.3086     9.3021     0.1149   124.4334     2.4594     0.0222
 2244.5000   164.6065     5.4954     8.2640   -19.3071     9.3018     0.1197   128.0450     2.4506     0.0109
 2245.0000   164.5833     5.3870     8.2632   -19.2850     9.3015     0.1214   129.2469     2.4512     0.0073
 2245.5000   164.5602     5.3406     8.1067   -18.9954     9.3012     0.1207   127.3129     2.4537     0.0073
 2246.0000   163.4517     5.3406     8.1059   -18.9938     9.3009     0.1155   123.5729     2.4517     0.0072
 2246.5000   161.8119     5.4954     8.1051   -18.9923     9.3006     0.1063   120.6490     2.4662     0.0075
 2247.0000   161.3999     5.6502     8.1264   -18.9907     9.3003     0.0958   119.5969     2.4868     0.0102
 2247.5000   158.2913     5.8050     8.2885   -18.9892     9.3000     0.0932   121.4006     2.5046     0.0147
 2248.0000   155.1828     6.1146     8.4870   -18.9877     9.2997     0.0961   120.0967     2.5025     0.0222
 2248.5000   152.0743     6.4406     8.8554   -18.9861     9.2994     0.0895   115.8111     2.4883     0.0322
 2249.0000   147.4226     7.0661     9.2928   -18.9846     9.2991     0.0838   115.0406     2.5004     0.0445
 2249.5000   144.2580     7.3529     9.5601   -18.9830     9.2988     0.0914   117.8074     2.5109     0.0579
 2250.0000   142.6182     7.3529     9.7222   -18.9815     9.2985     0.0974   120.6827     2.5109     0.0578
 2250.5000   141.1835     7.2540     9.7402   -18.9799     9.2982     0.1029   123.2033     2.4988     0.0355
 2251.0000   143.5267     6.7679     9.4974   -18.9784     9.2979     0.1081   122.7278     2.4880     0.0210
 2251.5000   149.7439     6.3292     9.1708   -18.9769     9.2976     0.1131   118.8485     2.4797     0.0129
 2252.0000   160.6155     6.0051     8.6573   -18.9753     9.2973     0.1161   116.7670     2.4664     0.0085
 2252.5000   170.2921     5.6811     8.1054   -18.7525     9.2970     0.1065   118.2229     2.4525     0.0085
 2253.0000   177.6953     5.4954     7.6160   -18.6636     9.2967     0.1065   120.7429     2.4581     0.0085
 2253.5000   178.9802     5.4954     7.2414   -18.3531     9.2964     0.1137   120.8899     2.4732     0.0096
 2254.0000   177.3404     5.4954     7.1589   -18.3516     9.2961     0.1179   117.1441     2.4648     0.0091
 2254.5000   175.7006     5.5862     7.4695   -18.3501     9.2958     0.1209   116.5388     2.4528     0.0066
 2255.0000   174.0609     5.7482     7.7803   -18.3487     9.2955     0.1162   116.5359     2.4492     0.0039
 2255.5000   171.4866     5.8050     8.4026   -18.3472     9.2952     0.1115   120.7499     2.4585     0.0038
 2256.0000   168.2309     5.9174     8.5576   -18.3457     9.2949     0.1089   123.7732     2.4702     0.0024
 2256.5000   162.8116     6.0795     8.7146   -18.3441     9.2946     0.1113   124.3586     2.4759     0.0024
 2257.0000   158.6317     6.1146     8.8676   -18.3755     9.2943     0.1065   122.9389     2.4679     0.0024
 2257.5000   157.8273     5.8050     8.6786   -18.6499     9.2940     0.0920   121.3404     2.4724     0.0029
 2258.0000   180.9533     5.4954     8.3286   -18.7079     9.2937     0.0794   121.7199     2.4788     0.0052
 2258.5000   188.6473     5.1858     7.8391   -18.9552     9.3153     0.0816   123.2974     2.5055     0.0105
 2259.0000   197.8844     4.8751     7.3874   -18.9537     9.3230     0.0805   123.1884     2.5113     0.0202
 2259.5000   205.5784     4.7131     6.9713   -18.9522     9.3226     0.0745   120.2307     2.5246     0.0311
 2260.0000   213.5795     4.5511     6.4227   -18.8374     9.3224     0.0713   114.9398     2.5366     0.0410
 2260.5000   223.1313     4.3891     6.0961   -18.6404     9.3221     0.0713   111.6837     2.5306     0.0491
 2261.0000   230.7950     4.2271     5.7695   -18.6389     9.3218     0.0633   113.1690     2.5340     0.0555
 2261.5000   235.6213     4.0650     5.5896   -18.4840     9.3215     0.0881   118.2759     2.5471     0.0589
 2262.0000   240.1019     3.9474     5.6693   -18.3272     9.3212     0.0952   124.1491     2.5396     0.0380
 2262.5000   241.6417     3.9474     5.8314   -18.3256     9.3209     0.0713   125.3639     2.5291     0.0456
 2263.0000   237.8936     3.9474     5.8988   -18.3241     9.3206     0.0527   122.4548     2.5587     0.0576
 2263.5000   233.5847     3.9474     5.8980   -18.3225     9.3203     0.0420   122.6227     2.5755     0.0642
 2264.0000   232.8806     3.9474     5.8972   -18.3210     9.3200     0.0408   125.4475     2.5778     0.0606
 2264.5000   237.5131     3.8668     5.7802   -18.3194     9.3197     0.0606   123.7073     2.5594     0.0504
 2265.0000   242.3871     3.7926     5.5840   -18.3176     9.3194     0.0905   120.6924     2.5339     0.0349
 2265.5000   243.8812     3.7926     5.5832   -18.3161     9.3191     0.1084   118.8823     2.5023     0.0262
 2266.0000   243.8580     3.7926     5.4267   -18.3146     9.3188     0.1120   117.0722     2.4779     0.0212
 2266.5000   244.8389     3.7926     5.2702   -18.3132     9.3185     0.1031   116.4595     2.4650     0.0182
 2267.0000   246.4324     3.7926     5.4252   -18.3117     9.3182     0.0963   115.8616     2.4710     0.0177
 2267.5000   246.8750     3.7926     5.7392   -18.3102     9.3179     0.0929   117.5757     2.4768     0.0271
 2268.0000   246.8473     3.7926     5.8910   -18.3086     9.3176     0.0945   122.1567     2.4800     0.0497
 2268.5000   242.1956     3.9474     5.8902   -18.3071     9.3173     0.0981   123.6843     2.4859     0.0540
 2269.0000   231.3710     3.9474     5.8894   -18.2603     9.3170     0.1007   117.6689     2.4813     0.0548
 2269.5000   223.6328     3.9474     5.8886   -17.9954     9.3167     0.0983   113.1522     2.4768     0.0507
 2270.0000   220.5243     4.1073     5.8879   -17.9218     9.3164     0.0921   111.0241     2.4828     0.0435
 2270.5000   218.8636     4.2570     5.9793   -17.6836     9.3161     0.0888   111.4896     2.4933     0.0374
 2271.0000   215.2449     4.2961     6.3042   -17.6821     9.3158     0.0877   113.0101     2.5008     0.0332
 2271.5000   207.1387     4.6204     6.6292   -17.5684     9.3168     0.0959   114.8997     2.4985     0.0310
 2272.0000   199.0331     4.8762     6.8868   -17.2449     9.3479     0.1013   115.8313     2.4829     0.0285
 2272.5000   190.5888     4.9587     7.0489   -17.0602     9.3747     0.0971   113.7431     2.4843     0.0260
