~VERSION INFORMATION
 VERS.                2.0:   CWLS LOG ASCII STANDARD - VERSION 2.0
 WRAP.                 NO:   ONE LINE PER DEPTH STEP
~WELL INFORMATION
#MNEM.UNIT      DATA TYPE    INFORMATION
#----------   ------------   ------------------------------
 STRT.F           30.0000:   START DEPTH
 STOP.F          618.0000:   STOP DEPTH
 STEP.F            0.5000:   STEP LENGTH
 NULL.          -999.2500:   NO VALUE
 COMP. FENNIX & SCISSON, INC.:   COMPANY
 WELL.       NPR #88-S-10:   WELL
 FLD .              NPR-3:   FIELD
 LOC .      S10 T38N R78W:   LOCATION
 CNTY.            NATRONA:   COUNTY
 STAT.            WYOMING:   STATE
 CTRY. UNITED STATES OF AMERICA:   COUNTRY
 SRVC.              Welex:   SERVICE COMPANY
 DATE.        22-APR-1977:   LOGDATE
 API .       490251034200:   API NUMBER
~CURVE INFORMATION
#MNEM.UNIT       API CODE    CURVE DESCRIPTION
#----------   ------------   ------------------------------
 DEPT.F                  :   
 CALD.IN     45 280 60 00:   CALIPER FROM DENSITY LOG
 GRD .GAPI   45 310 01 00:   GAMMA RAY FROM DENSITY LOG
 CORR.G/C3   45 356 01 00:   DENSITY CORRECTION
 RHOB.G/C3   45 350 01 00:   BULK DENSITY
 DPHI.DEC    45 890 12 00:   DENSITY POROSITY SANDSTONE
 ILD .OHMM   07 120 46 00:   INDUCTION LOG DEEP
 ILM .OHMM   07 120 44 00:   INDUCTION LOG MEDIUM
 SGRD.OHMM   07 220 05 00:   SHALLOW GUARD RESISTIVITY
 SPR .MV     07 010 01 00:   SPONTANEOUS POTENTIAL FROM RES.
~PARAMETER INFORMATION
#MNEM.UNIT          VALUE    DESCRIPTION
#----------   ------------   ------------------------------
 PD  .                 GL:   PERMANENT DATUM
 EPD .F              5255:   ELEVATION PERMANENT DATUM
 LMF .                 GL:   LOG MEASURED FROM
 DMF .                 GL:   DRILLING MEASURED FROM
 EGL .F              5255:   GROUND LEVEL
 DATE.        22-APR-1977:   RUN DATE
 RUN .                  1:   RUN NUMBER
 DD  .F               630:   DEPTH DRILLER
 DL  .F               620:   DEPTH LOGGER
 BLI .F               618:   BOTTOM LOG INTERVAL
 TLI .F                38:   TOP LOG INTERVAL
 CS  .IN            8.625:   CASING SIZE
 CBD .F                40:   CASING BOTTOM DRILLER
 BS  .IN            7.875:   BIT SIZE
 BSD .F               630:   BIT SIZE AT DEPTH
 DFT .            KCL GEL:   DRILLING FLUID TYPE
 DFD .                9.0:   DRILLING FLUID DENSITY
 DFV .                 40:   DRILLING FLUID VISCOSITY
 DFPH.                8.0:   DRILLING FLUID PH
 DFL .                6.4:   DRILLING FLUID LOSS
 MSS .            MUD PIT:   MUD SAMPLE SOURCE
 RMS .OHMM            .20:   RESISTIVITY MUD SAMPLE
 MST .F                65:   MUD SAMPLE TEMPERATURE
 RMF .OHMM            .18:   RESISTIVITY MUD FILTRATE SAMPLE
 MFST.F                65:   MUD FILTRATE SAMPLE TEMPERATURE
 RMC .OHMM            .28:   RESISTIVITY MUD CAKE
 MCST.F                65:   MUD CAKE SAMPLE TEMPERATURE
 MFSS.               MEAS:   MUD FILTRATE SAMPLE SOURCE
 MCSS.               MEAS:   MUD CAKE SAMPLE SOURCE
 RMB .OHMM            .18:   RESISTIVITY MUD AT BHT
 BHT .F                71:   BOTTOM HOLE TEMPERATURE
 TCS .HRS            0300:   TIME CURCULATED STOPPED
 MRT .F                71:   MAXIMUM RECORDED TEMPERATURE
 LUN .               8611:   LOGGING UNIT NUMBER
 LUL .             CASPER:   LOGGING UNIT LOCATION
 ENGI.          T. JOYNER:   RECORDING ENGINEER
 WITN.           ROB LYON:   WITNESSED BY
 CLNT.            A2DTECH:   CLIENT CODE
 ORIG.           5" PRINT:   ORIGIN OF DATA
 UWI .       490251034200:   UNIQUE WELL ID
 DICO. A2D Technologies, Inc.:   DIGITIZING COMPANY
~OTHER INFORMATION
~A   DEPT     CALD        GRD       CORR       RHOB       DPHI        ILD        ILM       SGRD        SPR   
   30.0000  -999.2500  -999.2500  -999.2500  -999.2500  -999.2500  -999.2500  -999.2500  -999.2500  -999.2500
   30.5000  -999.2500  -999.2500  -999.2500  -999.2500  -999.2500     5.2491  -999.2500  -999.2500  -999.2500
   31.0000  -999.2500  -999.2500  -999.2500  -999.2500  -999.2500     4.7358  -999.2500  -999.2500  -999.2500
   31.5000  -999.2500  -999.2500  -999.2500  -999.2500  -999.2500     5.5103  -999.2500  -999.2500  -999.2500
   32.0000  -999.2500  -999.2500  -999.2500  -999.2500  -999.2500    19.5720  -999.2500  -999.2500  -999.2500
   32.5000  -999.2500  -999.2500  -999.2500  -999.2500  -999.2500    68.6265  1811.4944  -999.2500  -999.2500
   33.0000  -999.2500  -999.2500  -999.2500  -999.2500  -999.2500   392.1847  1811.6195  -999.2500  -999.2500
   33.5000  -999.2500  -999.2500  -999.2500  -999.2500  -999.2500  1391.4016  1824.2875  -999.2500  -999.2500
   34.0000  -999.2500  -999.2500  -999.2500  -999.2500  -999.2500   979.1342  1824.4136  -999.2500  -999.2500
   34.5000  -999.2500  -999.2500  -999.2500  -999.2500  -999.2500   245.1693  1824.5397  1845.2404  -999.2500
   35.0000  -999.2500  -999.2500  -999.2500  -999.2500  -999.2500    72.4256  1824.6658  1845.8319  -999.2500
   35.5000  -999.2500  -999.2500  -999.2500  -999.2500  -999.2500     7.8797  1824.7919  1846.4233  -999.2500
   36.0000  -999.2500    99.1856  -999.2500  -999.2500  -999.2500     4.8983  1824.9180  1847.0149  -999.2500
   36.5000     7.8984    98.3399    -0.0203  -999.2500  -999.2500     5.5829  1825.0441  1847.6063  -999.2500
   37.0000     7.9581   100.1497     0.0073  -999.2500  -999.2500    15.4745  1763.2832  1848.1979  -999.2500
   37.5000     8.0179   104.1916     0.0256  -999.2500  -999.2500    36.1055   967.5601  1848.7893  -999.2500
   38.0000     8.0628   109.4311     0.0354  -999.2500  -999.2500   779.6049   498.9620  1849.3809  -999.2500
   38.5000     8.1076   111.5269     0.0324     2.3210     0.1929  1362.0037   301.5580  1849.9723  -999.2500
   39.0000     8.1375   112.4251     0.0357     2.3532     0.1797  1651.6499   143.1546  1850.5638  -999.2500
   39.5000     8.1674   112.7245     0.0400     2.3599     0.1758  1055.4141    85.3329  1851.1553  -999.2500
   40.0000     8.1824   110.4790     0.0400     2.3569     0.1782     1.5178    38.5991  1851.7468  -999.2500
   40.5000     8.1525   107.7844     0.0400     2.3532     0.1791     0.4837    21.9237  1852.3383  -999.2500
   41.0000     8.1375   109.4311     0.0430     2.3532     0.1785     0.3906     6.0345  1852.9298  -999.2500
   41.5000     8.1076   111.9761     0.0460     2.3606     0.1761     0.3474     7.8439  1853.5212  -999.2500
   42.0000     8.0777   111.9922     0.0460     2.3621     0.1740     0.3133    13.9076  1853.9408  -999.2500
   42.5000     8.0329   104.7904     0.0460     2.3606     0.1764     0.3747    15.2136  1853.9408  -999.2500
   43.0000     8.0030   103.1437     0.0460     2.3569     0.1794     0.7566    17.4658  1853.9408  -999.2500
   43.5000     7.9731   103.5928     0.0460     2.3479     0.1869     1.2086    21.7820  1853.9408  -999.2500
   44.0000     7.9581   105.6886     0.0430     2.3292     0.1944     3.2364    25.8842  1853.9408  -999.2500
   44.5000     7.9432   110.6287     0.0370     2.3277     0.1959     7.0486    26.4273  1853.9408  -999.2500
   45.0000     7.9133   110.7784     0.0370     2.3329     0.1920    10.9533    25.3575  1853.9408  -999.2500
   45.5000     7.8984   110.9281     0.0385     2.3389     0.1848    11.8965    24.3309  1853.9408  -999.2500
   46.0000     7.8685   117.9641     0.0415     2.3284     0.1926    12.2280    23.8341  1854.9668  -999.2500
   46.5000     7.8386   115.4192     0.0370     2.3247     0.1989    14.4254    23.8358  1866.7660  -999.2500
   47.0000     7.8087   112.5749     0.0309     2.3202     0.2033    17.1353    23.5108  1879.6798  -999.2500
   47.5000     7.7937   113.0239     0.0279     2.3089     0.2081    20.0758    23.3503  1879.6798  -999.2500
   48.0000     7.7788   120.5090     0.0234     2.3037     0.2057    22.7245    23.0323  1879.6798  -999.2500
   48.5000     7.7788   118.1138     0.0234     2.3157     0.1980    22.8804    22.7183  1879.6798  -999.2500
   49.0000     7.7788   121.2575     0.0249     2.3246     0.1935    22.1039    22.2545  1879.6798  -999.2500
   49.5000     7.8087   122.9042     0.0294     2.3328     0.1827    21.6502    21.8001  1866.7660  -999.2500
   50.0000     7.8236   124.7006     0.0339     2.3560     0.1699    21.0604    21.3550  1866.7660  -999.2500
   50.5000     7.8386   126.4980     0.0385     2.3717     0.1648    20.3459    21.0634  1866.7660  -999.2500
   51.0000     7.8386   127.9978     0.0430     2.3784     0.1627    17.4835    20.7762  1866.7660  -999.2500
   51.5000     7.8535   130.6944     0.0475     2.3889     0.1609    13.5489    20.4933  1879.6798  -999.2500
   52.0000     7.8535   131.5868     0.0520     2.3896     0.1591    11.4046    19.5151  1879.6798  -999.2500
   52.5000     7.8535   130.5364     0.0535     2.3896     0.1573     9.8001    18.3337  1866.7660  -999.2500
   53.0000     7.8535   130.2395     0.0535     2.3911     0.1555     9.4026    16.8967  1866.7660  -999.2500
   53.5000     7.8685   130.3892     0.0535     2.3993     0.1543     9.0836    15.5552  1853.9408  -999.2500
   54.0000     7.8834   134.0334     0.0520     2.3806     0.1681     8.5370    13.7396  1853.9408  -999.2500
   54.5000     7.8834   139.1030     0.0415     2.3694     0.1759     8.0232    11.9696  1853.9408  -999.2500
   55.0000     7.8984   143.5981     0.0264     2.3522     0.1819     7.6978    10.7194  1853.9408  -999.2500
   55.5000     7.8984   144.9102     0.0143     2.3507     0.1786     7.2846     9.9367  1866.7660  -999.2500
   56.0000     7.9133   139.9341     0.0068     2.3888     0.1484     6.9412     9.4688  1866.7660  -999.2500
   56.5000     7.9133   139.2216     0.0053     2.4075     0.1427     6.7057     9.0855  1866.7660  -999.2500
   57.0000     7.8984   139.3783     0.0053     2.4135     0.1415     6.4782     8.7780  1866.7660  -999.2500
   57.5000     7.8834   140.2155     0.0053     2.4150     0.1430     6.3017     8.4810  1853.9408  -999.2500
   58.0000     7.8535   146.2575     0.0053     2.4127     0.1472     6.0879     8.2507  1853.9408  -999.2500
   58.5000     7.8386   145.4920     0.0068     2.4053     0.1451     5.9630     8.0823  1853.9408  -999.2500
   59.0000     7.8386   142.7515     0.0068     2.4052     0.1448     5.8810     7.9172  1853.9408  -999.2500
   59.5000     7.8236   140.0819     0.0068     2.4052     0.1478     5.8402     7.8093  1853.9408  -999.2500
   60.0000     7.8087   137.2457     0.0068     2.4037     0.1532     5.8803     7.7028  1853.9408  -999.2500
   60.5000     7.8087   137.6374     0.0068     2.3910     0.1592     5.8908     7.7033  1853.9408  -999.2500
   61.0000     7.8087   142.0880     0.0023     2.3865     0.1606     5.9022     7.8109  1853.9408  -999.2500
   61.5000     7.8236   141.1447     0.0008     2.3873     0.1613     5.9136     7.8655  1853.9408  -999.2500
   62.0000     7.8236   140.0719     0.0008     2.3873     0.1607     5.9250     8.0306  1853.9408  -999.2500
   62.5000     7.8386   137.9866     0.0008     2.3843     0.1616     5.9364     8.1427  1853.9408  -999.2500
   63.0000     7.8386   136.8134     0.0008     2.3805     0.1631     5.9478     8.1997  1853.9408  -999.2500
   63.5000     7.8386   135.3985     0.0023     2.3880     0.1628     5.9589     8.0322  1853.9408  -999.2500
   64.0000     7.8236   131.7365     0.0023     2.3895     0.1589     5.9997     7.8141  1853.9408  -999.2500
   64.5000     7.8236   133.4412     0.0023     2.3880     0.1571     5.9993     7.7609  1841.2037  -999.2500
   65.0000     7.8236   138.1888     0.0023     2.3880     0.1598     5.9577     7.7081  1841.2037  -999.2500
   65.5000     7.8087   143.1757     0.0023     2.3902     0.1580     5.9573     7.7087  1841.2037  -999.2500
   66.0000     7.8087   144.4611     0.0023     2.3962     0.1544     5.9568     7.7092  1853.9408  -999.2500
