~VERSION INFORMATION
 VERS.                2.0:   CWLS LOG ASCII STANDARD - VERSION 2.0
 WRAP.                 NO:   ONE LINE PER DEPTH STEP
~WELL INFORMATION
#MNEM.UNIT      DATA TYPE    INFORMATION
#----------   ------------   ------------------------------
 STRT.F         1208.5000:   START DEPTH
 STOP.F         3816.0000:   STOP DEPTH
 STEP.F            0.5000:   STEP LENGTH
 NULL.          -999.2500:   NO VALUE
 COMP. BROWN JOHN E&C INC:   COMPANY
 WELL. NPR 3 STX-11 #13-11:   WELL
 FLD .             TEAPOT:   FIELD
 LOC .      S11 T38N R78W:   LOCATION
 CNTY.            NATRONA:   COUNTY
 STAT.            WYOMING:   STATE
 CTRY. UNITED STATES OF AMERICA:   COUNTRY
 SRVC.            Unknown:   SERVICE COMPANY
 DATE.        08-APR-1986:   LOGDATE
 API .       490251105000:   API NUMBER
~CURVE INFORMATION
#MNEM.UNIT       API CODE    CURVE DESCRIPTION
#----------   ------------   ------------------------------
 DEPT.F                  :   
 ROP .MIN/FT 91 810 01 00:   RATE OF DRILLING PENETRATION
 TGAS.UNITS  91 830 01 00:   TOTAL GAS FROM HOTWIRE
 GR  .GAPI   81 310 01 00:   GAMMA RAY
 TT  .US/F   81 520 00 00:   TRANSIT TIME
~PARAMETER INFORMATION
#MNEM.UNIT          VALUE    DESCRIPTION
#----------   ------------   ------------------------------
 PD  .                 GL:   PERMANENT DATUM
 EPD .F              5176:   ELEVATION PERMANENT DATUM
 LMF .                 KB:   LOG MEASURED FROM
 DAPD.F              11.8:   FEET ABOVE PERMANENT DATUM
 DMF .                 KB:   DRILLING MEASURED FROM
 EKB .F            5187.8:   KELLING BUSHING
 EGL .F              5176:   GROUND LEVEL
 DATE.             4-8-86:   RUN DATE
 RUN .                  1:   RUN NUMBER
 DD  .F              4051:   DEPTH DRILLER
 DL  .F              3815:   DEPTH LOGGER
 BLI .F              3815:   BOTTOM LOG INTERVAL
 TLI .F              2200:   TOP LOG INTERVAL
 CS  .IN              5.5:   CASING SIZE
 CBD .F              3861:   CASING BOTTOM DRILLER
 DFT .              WATER:   DRILLING FLUID TYPE
 BHT .F               167:   BOTTOM HOLE TEMPERATURE
 MRT .F               167:   MAXIMUM RECORDED TEMPERATURE
 LUN .            558/374:   LOGGING UNIT NUMBER
 LUL .             CASPER:   LOGGING UNIT LOCATION
 ENGI.             BAILEY:   RECORDING ENGINEER
 WITN.             BARRON:   WITNESSED BY
 CLNT.            A2DTECH:   CLIENT CODE
 ORIG.     2.5", 5" PRINT:   ORIGIN OF DATA
 UWI .       490251105000:   UNIQUE WELL ID
 DICO. A2D Technologies, Inc.:   DIGITIZING COMPANY
~OTHER INFORMATION
~A  DEPT         ROP     TGAS         GR         TT   
# ...
 1500.5000     0.7328     8.5345  -999.2500  -999.2500
 1501.0000     0.7001     8.4562  -999.2500  -999.2500
 1501.5000     0.6906     8.0292  -999.2500  -999.2500
 1502.0000     0.6900     7.7586  -999.2500  -999.2500
 1502.5000     0.7086     7.7586  -999.2500  -999.2500
 1503.0000     0.7080     7.7586  -999.2500  -999.2500
 1503.5000     0.7075     7.7586  -999.2500  -999.2500
 1504.0000     0.7044     7.7586  -999.2500  -999.2500
 1504.5000     0.6781     7.7586  -999.2500  -999.2500
 1505.0000     0.6288     7.7554  -999.2500  -999.2500
 1505.5000     0.5731     7.3707  -999.2500  -999.2500
 1506.0000     0.5303     7.7586  -999.2500  -999.2500
 1506.5000     0.5117     7.7586  -999.2500  -999.2500
 1507.0000     0.5112     7.7586  -999.2500  -999.2500
 1507.5000     0.5206     7.7586  -999.2500  -999.2500
 1508.0000     0.5294     7.7586  -999.2500  -999.2500
 1508.5000     0.5316     7.7586  -999.2500  -999.2500
 1509.0000     0.5926     7.7586  -999.2500  -999.2500
 1509.5000     0.6991     7.7586  -999.2500  -999.2500
 1510.0000     0.7856     7.7522  -999.2500  -999.2500
 1510.5000     0.8037     7.3707  -999.2500  -999.2500
 1511.0000     0.8034     7.6281  -999.2500  -999.2500
 1511.5000     0.8033     7.5724  -999.2500  -999.2500
 1512.0000     0.7626     7.3707  -999.2500  -999.2500
 1512.5000     0.7147     7.3707  -999.2500  -999.2500
 1513.0000     0.6305     7.3707  -999.2500  -999.2500
 1513.5000     0.5717     7.3707  -999.2500  -999.2500
 1514.0000     0.6204     7.3707  -999.2500  -999.2500
 1514.5000     0.7363     7.3553  -999.2500  -999.2500
 1515.0000     0.8061     6.9828  -999.2500  -999.2500
 1515.5000     0.8210     6.9828  -999.2500  -999.2500
 1516.0000     0.8015     6.9828  -999.2500  -999.2500
 1516.5000     0.7821     6.9828  -999.2500  -999.2500
 1517.0000     0.7242     6.9828  -999.2500  -999.2500
 1517.5000     0.6828     6.9828  -999.2500  -999.2500
 1518.0000     0.6406     6.9828  -999.2500  -999.2500
 1518.5000     0.6083     6.9828  -999.2500  -999.2500
 1519.0000     0.6081     6.9828  -999.2500  -999.2500
 1519.5000     0.5994     7.3707  -999.2500  -999.2500
 1520.0000     0.5885     7.3707  -999.2500  -999.2500
 1520.5000     0.5762     7.3707  -999.2500  -999.2500
 1521.0000     0.5688     7.3707  -999.2500  -999.2500
 1521.5000     0.5686     7.3707  -999.2500  -999.2500
 1522.0000     0.5684     7.3707  -999.2500  -999.2500
 1522.5000     0.5683     7.3707  -999.2500  -999.2500
 1523.0000     0.5681     7.3707  -999.2500  -999.2500
 1523.5000     0.5679     7.3707  -999.2500  -999.2500
 1524.0000     0.5677     7.3707  -999.2500  -999.2500
 1524.5000     0.5745     6.9828  -999.2500  -999.2500
 1525.0000     0.5865     6.9828  -999.2500  -999.2500
 1525.5000     0.5863     7.0190  -999.2500  -999.2500
 1526.0000     0.5862     7.3707  -999.2500  -999.2500
 1526.5000     0.5860     7.3707  -999.2500  -999.2500
 1527.0000     0.6050     7.2258  -999.2500  -999.2500
 1527.5000     0.6817     6.9828  -999.2500  -999.2500
 1528.0000     0.7782     6.9828  -999.2500  -999.2500
 1528.5000     0.8180     6.9828  -999.2500  -999.2500
 1529.0000     0.8350     6.9828  -999.2500  -999.2500
 1529.5000     0.8348     6.9828  -999.2500  -999.2500
 1530.0000     0.8272     6.9828  -999.2500  -999.2500
 1530.5000     0.8060     6.9828  -999.2500  -999.2500
 1531.0000     0.7958     6.9828  -999.2500  -999.2500
 1531.5000     0.7829     6.9828  -999.2500  -999.2500
 1532.0000     0.7762     6.9828  -999.2500  -999.2500
 1532.5000     0.7567     6.8276  -999.2500  -999.2500
 1533.0000     0.7565     6.5948  -999.2500  -999.2500
 1533.5000     0.6981     6.5948  -999.2500  -999.2500
 1534.0000     0.6792     6.3311  -999.2500  -999.2500
 1534.5000     0.6749     6.2069  -999.2500  -999.2500
 1535.0000     0.6596     6.2069  -999.2500  -999.2500
 1535.5000     0.6594     6.2069  -999.2500  -999.2500
 1536.0000     0.6592     6.2069  -999.2500  -999.2500
 1536.5000     0.6478     6.2069  -999.2500  -999.2500
 1537.0000     0.6135     6.3000  -999.2500  -999.2500
 1537.5000     0.5713     6.5948  -999.2500  -999.2500
 1538.0000     0.5623     6.7604  -999.2500  -999.2500
 1538.5000     0.5621     6.9828  -999.2500  -999.2500
 1539.0000     0.5619     6.9828  -999.2500  -999.2500
 1539.5000     0.5617     6.9828  -999.2500  -999.2500
 1540.0000     0.5615     6.9828  -999.2500  -999.2500
 1540.5000     0.5613     6.9828  -999.2500  -999.2500
 1541.0000     0.5612     6.5948  -999.2500  -999.2500
 1541.5000     0.5610     6.5948  -999.2500  -999.2500
 1542.0000     0.5608     6.5948  -999.2500  -999.2500
 1542.5000     0.5606     6.4914  -999.2500  -999.2500
 1543.0000     0.5603     6.2069  -999.2500  -999.2500
 1543.5000     0.6563     6.2069  -999.2500  -999.2500
 1544.0000     0.7523     6.2069  -999.2500  -999.2500
 1544.5000     0.7918     6.2069  -999.2500  -999.2500
 1545.0000     0.8096     6.2069  -999.2500  -999.2500
 1545.5000     0.8094     6.2069  -999.2500  -999.2500
 1546.0000     0.8026     6.2069  -999.2500  -999.2500
 1546.5000     0.7647     6.2069  -999.2500  -999.2500
 1547.0000     0.6913     6.2069  -999.2500  -999.2500
 1547.5000     0.6190     6.2069  -999.2500  -999.2500
 1548.0000     0.5832     6.2069  -999.2500  -999.2500
 1548.5000     0.5967     6.2069  -999.2500  -999.2500
 1549.0000     0.5965     6.2069  -999.2500  -999.2500
 1549.5000     0.5963     6.2069  -999.2500  -999.2500
 1550.0000     0.5962     6.2069  -999.2500  -999.2500
 1550.5000     0.5960     6.2069  -999.2500  -999.2500
 1551.0000     0.5958     5.8190  -999.2500  -999.2500
 1551.5000     0.5956     5.8190  -999.2500  -999.2500
 1552.0000     0.5954     5.8190  -999.2500  -999.2500
 1552.5000     0.5952     5.8190  -999.2500  -999.2500
 1553.0000     0.5950     5.8190  -999.2500  -999.2500
 1553.5000     0.5948     5.8190  -999.2500  -999.2500
 1554.0000     0.6523     5.8190  -999.2500  -999.2500
 1554.5000     0.7290     5.8190  -999.2500  -999.2500
 1555.0000     0.8058     5.8190  -999.2500  -999.2500
 1555.5000     0.8036     5.8190  -999.2500  -999.2500
 1556.0000     0.7862     5.8190  -999.2500  -999.2500
 1556.5000     0.7640     5.8190  -999.2500  -999.2500
 1557.0000     0.6943     5.8190  -999.2500  -999.2500
 1557.5000     0.6430     5.8190  -999.2500  -999.2500
 1558.0000     0.5798     5.8811  -999.2500  -999.2500
 1558.5000     0.5796     6.2069  -999.2500  -999.2500
 1559.0000     0.6071     6.0724  -999.2500  -999.2500
 1559.5000     0.6502     5.8190  -999.2500  -999.2500
 1560.0000     0.6500     5.8190  -999.2500  -999.2500
 1560.5000     0.5921     5.8190  -999.2500  -999.2500
 1561.0000     0.5896     5.8190  -999.2500  -999.2500
 1561.5000     0.5684     5.8190  -999.2500  -999.2500
 1562.0000     0.5531     5.8190  -999.2500  -999.2500
 1562.5000     0.5605     5.4310  -999.2500  -999.2500
 1563.0000     0.5813     5.8190  -999.2500  -999.2500
 1563.5000     0.5910     5.8190  -999.2500  -999.2500
 1564.0000     0.6426     5.8190  -999.2500  -999.2500
 1564.5000     0.7117     5.8190  -999.2500  -999.2500
 1565.0000     0.7634     5.8190  -999.2500  -999.2500
 1565.5000     0.8017     5.8190  -999.2500  -999.2500
 1566.0000     0.8007     5.8190  -999.2500  -999.2500
 1566.5000     0.7821     5.8190  -999.2500  -999.2500
 1567.0000     0.7775     5.5397  -999.2500  -999.2500
 1567.5000     0.7563     5.4310  -999.2500  -999.2500
 1568.0000     0.7351     5.4310  -999.2500  -999.2500
 1568.5000     0.7139     5.4776  -999.2500  -999.2500
 1569.0000     0.7042     5.8190  -999.2500  -999.2500
 1569.5000     0.7002     5.4310  -999.2500  -999.2500
 1570.0000     0.6940     5.4310  -999.2500  -999.2500
 1570.5000     0.6879     5.4310  -999.2500  -999.2500
 1571.0000     0.6817     5.4310  -999.2500  -999.2500
 1571.5000     0.6755     5.4310  -999.2500  -999.2500
 1572.0000     0.6693     5.1310  -999.2500  -999.2500
 1572.5000     0.6550     5.0431  -999.2500  -999.2500
 1573.0000     0.5997     5.0431  -999.2500  -999.2500
