~VERSION INFORMATION
 VERS.                2.0:   CWLS LOG ASCII STANDARD - VERSION 2.0
 WRAP.                 NO:   ONE LINE PER DEPTH STEP
~WELL INFORMATION
#MNEM.UNIT      DATA TYPE    INFORMATION
#----------   ------------   ------------------------------
 STRT.F          648.0000:   START DEPTH
 STOP.F         2443.0000:   STOP DEPTH
 STEP.F            0.5000:   STEP LENGTH
 NULL.          -999.2500:   NO VALUE
 COMP.    FENIX & SCISSON:   COMPANY
 WELL.  NPR #3 SHX-11 #22:   WELL
 FLD .             TEAPOT:   FIELD
 LOC .      S11 T38N R78W:   LOCATION
 CNTY.            NATRONA:   COUNTY
 STAT.            WYOMING:   STATE
 CTRY. UNITED STATES OF AMERICA:   COUNTRY
 SRVC.           BIRDWELL:   SERVICE COMPANY
 DATE.        23-APR-1978:   LOGDATE
 API .       490251061300:   API NUMBER
~CURVE INFORMATION
#MNEM.UNIT       API CODE    CURVE DESCRIPTION
#----------   ------------   ------------------------------
 DEPT.F                  :   
 CALD.IN     45 280 60 00:   CALIPER FROM DENSITY LOG
 CORR.G/C3   45 356 01 00:   DENSITY CORRECTION
 DPHI.DEC    45 890 12 00:   DENSITY POROSITY SANDSTONE
 GRD .GAPI   45 310 01 00:   GAMMA RAY FROM DENSITY LOG
 RHOB.G/C3   45 350 01 00:   BULK DENSITY
~PARAMETER INFORMATION
#MNEM.UNIT          VALUE    DESCRIPTION
#----------   ------------   ------------------------------
 PD  .                 GL:   PERMANENT DATUM
 EPD .F              5166:   ELEVATION PERMANENT DATUM
 LMF .                 KB:   LOG MEASURED FROM
 DMF .                 KB:   DRILLING MEASURED FROM
 EKB .F              5176:   KELLING BUSHING
 EGL .F              5166:   GROUND LEVEL
 DATE.        23-APR-1978:   RUN DATE
 RUN .                  1:   RUN NUMBER
 DD  .F              2450:   DEPTH DRILLER
 DL  .F              2450:   DEPTH LOGGER
 BLI .F              2443:   BOTTOM LOG INTERVAL
 TLI .F               670:   TOP LOG INTERVAL
 CS  .IN            9.625:   CASING SIZE
 CBD .F               660:   CASING BOTTOM DRILLER
 CBL .F               670:   CASING BOTTOM LOGGER
 BS  .IN             8.75:   BIT SIZE
 BSD .F              2450:   BIT SIZE AT DEPTH
 DFT .               MIST:   DRILLING FLUID TYPE
 LUN .               2958:   LOGGING UNIT NUMBER
 LUL .             CASPER:   LOGGING UNIT LOCATION
 ENGI.             MILLER:   RECORDING ENGINEER
 WITN.          MC GINLEY:   WITNESSED BY
 CLNT.            A2DTECH:   CLIENT CODE
 ORIG.           5" PRINT:   ORIGIN OF DATA
 UWI .       490251061300:   UNIQUE WELL ID
 DICO. A2D Technologies, Inc.:   DIGITIZING COMPANY
~OTHER INFORMATION
~A   DEPT     CALD       CORR       DPHI        GRD       RHOB   
# ...
 1197.0000    10.3743     0.0079     0.0332   116.5217     2.4936
 1197.5000    10.3743     0.0138     0.0299   116.6630     2.4913
 1198.0000    10.3593     0.0319     0.0239   117.4073     2.5018
 1198.5000    10.3593     0.0393     0.0112   110.5020     2.5139
 1199.0000    10.3443     0.0317     0.0155   108.6194     2.5206
 1199.5000    10.3443     0.0287     0.0242   106.2883     2.5151
 1200.0000    10.3479     0.0271     0.0212   110.7790     2.5079
 1200.5000    10.3556     0.0301     0.0185   111.6717     2.5109
 1201.0000    10.3579     0.0315     0.0169   111.0631     2.5162
 1201.5000    10.3420     0.0314     0.0158   108.2075     2.5185
 1202.0000    10.3413     0.0299     0.0173   104.1525     2.5199
 1202.5000    10.3404     0.0178     0.0194   104.4553     2.5184
 1203.0000    10.3397     0.0177     0.0206   108.1847     2.5147
 1203.5000    10.3390     0.0192     0.0194   110.4283     2.5140
 1204.0000    10.3383     0.0236     0.0176   106.9712     2.5162
 1204.5000    10.3376     0.0235     0.0143   106.2144     2.5215
 1205.0000    10.3367     0.0250     0.0122   108.0049     2.5260
 1205.5000    10.3360     0.0234     0.0134   109.9464     2.5244
 1206.0000    10.3204     0.0173     0.0176   110.3908     2.5215
 1206.5000    10.3196     0.0128     0.0170   109.9321     2.5193
 1207.0000    10.3189     0.0127     0.0143   109.3252     2.5178
 1207.5000    10.3180     0.0142     0.0128   108.6981     2.5217
 1208.0000    10.3023     0.0156     0.0158   104.2117     2.5260
 1208.5000    10.3016     0.0171     0.0194   103.4549     2.5215
 1209.0000    10.2859     0.0170     0.0207   105.2468     2.5125
 1209.5000    10.2552     0.0094     0.0283   110.1872     2.5074
 1210.0000    10.2246     0.0092     0.0231   112.1291     2.4974
 1210.5000    10.1937     0.0108     0.0177   110.7708     2.5101
 1211.0000    10.1781     0.0122     0.0183   108.5147     2.5169
 1211.5000    10.1474     0.0122     0.0207   106.2587     2.5147
 1212.0000    10.1317     0.0106     0.0198   106.5514     2.5131
 1212.5000    10.1160     0.0105     0.0180   108.7931     2.5139
 1213.0000    10.1002     0.0120     0.0159   109.2357     2.5169
 1213.5000    10.0846     0.0134     0.0147   105.4786     2.5177
 1214.0000    10.0989     0.0134     0.0180   104.2721     2.5169
 1214.5000    10.0980     0.0148     0.0222   105.4643     2.5139
 1215.0000    10.0973     0.0150     0.0294   106.6567     2.5086
 1215.5000    10.1116     0.0162     0.0282   109.5881     2.5041
 1216.0000    10.1107     0.0161     0.0203   111.5880     2.4989
 1216.5000    10.1251     0.0251     0.0162   110.9811     2.5026
 1217.0000    10.1242     0.0342     0.0189   109.3248     2.5139
 1217.5000    10.1235     0.0416     0.0207   110.3671     2.5177
 1218.0000    10.1378     0.0355     0.0244   114.4237     2.5154
 1218.5000    10.1369     0.0264     0.0279   115.0004     2.5048
 1219.0000    10.1513     0.0262     0.0270   111.5432     2.4996
 1219.5000    10.1570     0.0278     0.0256   107.9378     2.4989
 1220.0000    10.1647     0.0277     0.0268   106.7313     2.4996
 1220.5000    10.1789     0.0292     0.0220   106.5742     2.5034
 1221.0000    10.1781     0.0231     0.0175   109.1140     2.5087
 1221.5000    10.1925     0.0184     0.0235   112.8549     2.5139
 1222.0000    10.1916     0.0109     0.0214   114.9467     2.5139
 1222.5000    10.1909     0.0093     0.0238   116.2889     2.5116
 1223.0000    10.1901     0.0108     0.0307   116.8814     2.5079
 1223.5000    10.1892     0.0152     0.0295   117.3240     2.4995
 1224.0000    10.1885     0.0184     0.0286   116.7154     2.4966
 1224.5000    10.2030     0.0211     0.0317   113.2599     2.4989
 1225.0000    10.2021     0.0166     0.0370   112.0534     2.4989
 1225.5000    10.2065     0.0150     0.0457   111.8745     2.4959
 1226.0000    10.2156     0.0149     0.0565   113.7188     2.4790
 1226.5000    10.2147     0.0149     0.0683   117.8772     2.4598
 1227.0000    10.2140     0.0193     0.0845   120.8685     2.4440
 1227.5000    10.2133     0.0268     0.1001   121.7627     2.3997
 1228.0000    10.2126     0.0448     0.1007   120.7043     2.3696
 1228.5000    10.2106     0.0953     0.0878   118.5982     2.3754
 1229.0000    10.1960     0.1065     0.0289   117.5173     2.4305
 1229.5000    10.1953     0.1109     0.0121   116.6330     2.4410
 1230.0000    10.2097     0.1259     0.0139   115.4265     2.4515
 1230.5000    10.2088     0.0759     0.0220   112.5707     2.5327
 1231.0000    10.2098     0.0490     0.0273   110.3147     2.5196
 1231.5000    10.2288     0.0399     0.0296   107.7445     2.4996
 1232.0000    10.2366     0.0338     0.0227   107.0002     2.5004
 1232.5000    10.2509     0.0277     0.0185   106.3933     2.5056
 1233.0000    10.2650     0.0261     0.0160   106.3862     2.5139
 1233.5000    10.2642     0.0261     0.0215   106.3790     2.5192
 1234.0000    10.2785     0.0260     0.0254   106.0680     2.5139
 1234.5000    10.2776     0.0199     0.0257   106.3629     2.4989
 1235.0000    10.2920     0.0169     0.0251   107.5552     2.4959
 1235.5000    10.2911     0.0183     0.0230   108.2994     2.4989
 1236.0000    10.3054     0.0198     0.0242   106.3414     2.5042
 1236.5000    10.2895     0.0197     0.0323   104.3852     2.5086
 1237.0000    10.2738     0.0196     0.0365   103.9283     2.5109
 1237.5000    10.2582     0.0196     0.0317   105.1187     2.5041
 1238.0000    10.2724     0.0255     0.0287   106.6108     2.4891
 1238.5000    10.2965     0.0345     0.0266   106.4538     2.4793
 1239.0000    10.3182     0.0329     0.0248   106.8964     2.4846
 1239.5000    10.3451     0.0299     0.0242   108.8859     2.5019
 1240.0000    10.3742     0.0253     0.0260   110.9282     2.5034
 1240.5000    10.3735     0.0192     0.0360   111.8206     2.5034
 1241.0000    10.3728     0.0161     0.0522   110.0143     2.4987
 1241.5000    10.3570     0.0176     0.0469   103.5604     2.4808
 1242.0000    10.3391     0.0327     0.0113    99.3553     2.4478
 1242.5000    10.3255     0.0792     0.0020    99.6480     2.4801
 1243.0000    10.3098     0.0897     0.0011   100.2406     2.5169
 1243.5000    10.2727     0.0972     0.0029   100.8331     2.5301
 1244.0000    10.2556     0.0835     0.0066   101.1240     2.5477
 1244.5000    10.2177     0.0428     0.0087   101.1169     2.5440
 1245.0000    10.2020     0.0232     0.0132   100.4699     2.5387
 1245.5000    10.1564     0.0141     0.0195    99.0018     2.5319
 1246.0000    10.1407     0.0080     0.0275    98.9946     2.5154
 1246.5000    10.1250     0.0064     0.0318    98.9875     2.5169
 1247.0000    10.1241     0.0049     0.0327    98.9803     2.5109
 1247.5000    10.1235     0.0078     0.0324    99.2828     2.4959
 1248.0000    10.1256     0.0168     0.0254   100.3135     2.4890
 1248.5000    10.1370     0.0243     0.0204   101.3558     2.4968
 1249.0000    10.1460     0.0242     0.0198   102.0983     2.5026
 1249.5000    10.1590     0.0181     0.0195   100.5919     2.5086
 1250.0000    10.1659    -0.0557     0.0141    95.9370     2.5139
 1250.5000    10.1804    -0.0181     0.0042    96.8276     2.5184
 1251.0000    10.1889     0.0200    -0.0018    97.1221     2.5238
 1251.5000    10.1893     0.0269    -0.0045    97.1132     2.5349
 1252.0000    10.2049     0.0269    -0.0006    97.8574     2.5530
 1252.5000    10.2053     0.0238     0.0030    95.8994     2.5567
 1253.0000    10.2057     0.0177     0.0054    94.6747     2.5560
 1253.5000    10.1911     0.0101     0.0072    94.8338     2.5499
 1254.0000    10.1917     0.0055     0.0102    95.7262     2.5379
 1254.5000    10.2071     0.0040     0.0115    96.7685     2.5342
 1255.0000    10.1925     0.0009     0.0115    97.8109     2.5319
 1255.5000    10.1917     0.0025     0.0100    98.7113     2.5297
 1256.0000    10.1333     0.0083     0.0084    97.7947     2.5289
 1256.5000    10.0886     0.0158     0.0066    96.4382     2.5305
 1257.0000    10.0739     0.0232     0.0040    95.9813     2.5318
 1257.5000    10.0744     0.0292     0.0040    95.8242     2.5333
