~VERSION INFORMATION
 VERS.                2.0:   CWLS LOG ASCII STANDARD - VERSION 2.0
 WRAP.                 NO:   ONE LINE PER DEPTH STEP
~WELL INFORMATION
#MNEM.UNIT      DATA TYPE    INFORMATION
#----------   ------------   ------------------------------
 STRT.F           30.0000:   START DEPTH
 STOP.F         3375.5000:   STOP DEPTH
 STEP.F            0.5000:   STEP LENGTH
 NULL.          -999.2500:   NO VALUE
 COMP.       INTEX OIL CO:   COMPANY
 WELL.   NPR ##3 57-SX-34:   WELL
 FLD .             TEAPOT:   FIELD
 LOC .      S34 T39N R78W:   LOCATION
 CNTY.            NATRONA:   COUNTY
 STAT.            WYOMING:   STATE
 CTRY. UNITED STATES OF AMERICA:   COUNTRY
 SRVC.       Schlumberger:   SERVICE COMPANY
 DATE.        12-AUG-1967:   LOGDATE
 API .       490251023200:   API NUMBER
~CURVE INFORMATION
#MNEM.UNIT       API CODE    CURVE DESCRIPTION
#----------   ------------   ------------------------------
 DEPT.F                  :   
 SPR .MV     07 010 01 00:   SPONTANEOUS POTENTIAL
 ILD .OHMM   07 120 46 00:   INDUCTION LOG DEEP
 ASN .OHMM   05 041 16 00:   AMPLIFIED SHORT NORMAL 16"
 CILD.MMHO   07 110 46 00:   CONDUCTIVITY INDUCTION LOG DEEP
 LL8 .OHMM   07 220 08 00:   LATEROLOG-8 RES.
 ILM .OHMM   07 120 44 00:   INDUCTION LOG MEDIUM
 CALD.IN     45 280 60 00:   CALIPER
 GRD .GAPI   45 310 01 00:   GAMMA RAY FROM DENSITY LOG
 RHOB.G/C3   45 350 01 00:   BULK DENSITY
 DPHI.DEC    45 890 12 00:   DENSITY POROSITY SANDSTONE
 CORR.G/C3   45 356 01 00:   DENSITY CORRECTION
~PARAMETER INFORMATION
#MNEM.UNIT          VALUE    DESCRIPTION
#----------   ------------   ------------------------------
 PD  .                 GL:   PERMANENT DATUM
 EPD .F              5084:   ELEVATION PERMANENT DATUM
 LMF .                 KB:   LOG MEASURED FROM
 DAPD.F                12:   FEET ABOVE PERMANENT DATUM
 DMF .                 KB:   DRILLING MEASURED FROM
 EKB .F              5096:   KELLING BUSHING
 EGL .F              5084:   GROUND LEVEL
 DATE.            8-12-67:   RUN DATE
 RUN .                  2:   RUN NUMBER
 DD  .F              3380:   DEPTH DRILLER
 DL  .F              3371:   DEPTH LOGGER
 BLI .F              3368:   BOTTOM LOG INTERVAL
 TLI .F               630:   TOP LOG INTERVAL
 CS  .IN            10.75:   CASING SIZE
 CBD .F               643:   CASING BOTTOM DRILLER
 BS  .IN            9.875:   BIT SIZE
 BSD .F              3380:   BIT SIZE AT DEPTH
 DFT .               CHEM:   DRILLING FLUID TYPE
 DFD .                9.4:   DRILLING FLUID DENSITY
 DFV .                 48:   DRILLING FLUID VISCOSITY
 DFPH.                8.5:   DRILLING FLUID PH
 DFL .                3.6:   DRILLING FLUID LOSS
 MSS .          FLOW LINE:   MUD SAMPLE SOURCE
 RMS .OHMM           2.81:   RESISTIVITY MUD SAMPLE
 MST .F                88:   MUD SAMPLE TEMPERATURE
 RMF .OHMM            1.7:   RESISTIVITY MUD FILTRATE SAMPLE
 MFST.F                86:   MUD FILTRATE SAMPLE TEMPERATURE
 MFSS.                  M:   MUD FILTRATE SAMPLE SOURCE
 RMB .OHMM           2.03:   RESISTIVITY MUD AT BHT
 BHT .F               122:   BOTTOM HOLE TEMPERATURE
 TCS .HRS             2.5:   TIME CURCULATED STOPPED
 MRT .F               122:   MAXIMUM RECORDED TEMPERATURE
 LUN .               7030:   LOGGING UNIT NUMBER
 LUL .               CSPR:   LOGGING UNIT LOCATION
 ENGI.             SCHODE:   RECORDING ENGINEER
 WITN.                MAY:   WITNESSED BY
 CLNT.            A2DTECH:   CLIENT CODE
 ORIG.   1" 2.5" 5" PRINT:   ORIGIN OF DATA
 UWI .       490251023200:   UNIQUE WELL ID
 DICO. A2D Technologies, Inc.:   DIGITIZING COMPANY
~OTHER INFORMATION
~A   DEPT      SPR        ILD        ASN       CILD        LL8        ILM       CALD         GRD      RHOB       DPHI       CORR   
# ...
 2927.5000   -29.9279     4.5265  -999.2500  -999.2500     5.8121     5.0461    12.2320   101.7476     2.5254     0.0744     0.0824
 2928.0000   -29.8938     4.5265  -999.2500  -999.2500     7.3757     5.1623    12.2167   102.4892     2.5358     0.0654     0.0941
 2928.5000   -29.8540     4.6097  -999.2500  -999.2500     7.2996     5.2861    12.1850   103.2849     2.5626     0.0559     0.1058
 2929.0000   -29.8688     4.7230  -999.2500  -999.2500     7.0846     5.4129    12.1540   103.0954     2.5568     0.0516     0.1190
 2929.5000   -29.9315     4.8392  -999.2500  -999.2500     6.8759     5.5427    12.1242    99.9233     2.4894     0.0839     0.1283
 2930.0000   -29.9884     4.9582  -999.2500  -999.2500     6.6729     5.6756    12.0930    96.3778     2.5061     0.0783     0.1415
 2930.5000   -30.0456     5.0801  -999.2500  -999.2500     6.8024     5.8119    12.0627    93.0895     2.5591     0.0676     0.0885
 2931.0000   -30.1041     5.2050  -999.2500  -999.2500     7.0690     5.9366    12.0365    91.5526     2.5529     0.0570     0.0929
 2931.5000   -30.1607     5.3330  -999.2500  -999.2500     7.3757     5.9612    12.0348    91.6350     2.5697     0.0453     0.0951
 2932.0000   -30.2194     5.4641  -999.2500  -999.2500     7.2582     5.9835    12.0313    92.2522     2.5613     0.0538     0.1006
 2932.5000   -30.2385     5.5985  -999.2500  -999.2500     7.1291     6.0061    12.0289    93.6402     2.5433     0.0633     0.1037
 2933.0000   -30.2372     5.7260  -999.2500  -999.2500     7.0024     6.0287    12.0259    94.9103     2.5207     0.0760     0.0786
 2933.5000   -30.2371     5.7260  -999.2500  -999.2500     6.8610     6.0693    12.0230    96.3254     2.5361     0.0722     0.0405
 2934.0000   -30.2374     5.7817  -999.2500  -999.2500     7.0403     6.1607    12.0202    96.6008     2.5522     0.0575     0.0483
 2934.5000   -30.2372     5.9369  -999.2500  -999.2500     7.2540     6.2535    12.0173    96.8612     2.5327     0.0688     0.0606
 2935.0000   -30.2372     5.8899  -999.2500  -999.2500     7.4741     6.3477    12.0144    97.0582     2.5159     0.0829     0.0621
 2935.5000   -30.2372     5.7851  -999.2500  -999.2500     7.7010     6.3822    12.0116    97.0851     2.5230     0.0758     0.0458
 2936.0000   -30.2372     5.5905  -999.2500  -999.2500     7.9289     6.2679    12.0085    96.6628     2.5508     0.0595     0.0241
 2936.5000   -30.2372     5.2828  -999.2500  -999.2500     7.4693     6.1556    12.0057    95.7045     2.5446     0.0632     0.0244
 2937.0000   -30.2372     4.9921  -999.2500  -999.2500     7.0463     6.0221    12.0033    94.2279     2.5583     0.0614     0.0314
 2937.5000   -30.2372     4.7724  -999.2500  -999.2500     6.6473     5.8305    11.9982    93.0228     2.5506     0.0616     0.0390
 2938.0000   -30.2372     4.2426  -999.2500  -999.2500     6.2679     5.3240    11.9992    91.9045     2.5421     0.0686     0.0282
 2938.5000   -30.2372     3.8478  -999.2500  -999.2500     6.1556     4.7511    11.9970    94.8598     2.5315     0.0799     0.0257
 2939.0000   -30.2372     3.4903  -999.2500  -999.2500     5.8305     4.2399    12.0620    98.0145     2.5231     0.0752     0.0403
 2939.5000   -30.2372     3.0947  -999.2500  -999.2500     4.8675     3.7837    12.1365   101.2894     2.5146     0.0827     0.0602
 2940.0000   -30.2372     3.0961  -999.2500  -999.2500     4.0455     3.3765    12.2696   106.1232     2.5069     0.0965     0.0789
 2940.5000   -30.2372     3.0631  -999.2500  -999.2500     3.1666     3.2103    12.3892   111.7052     2.5000     0.0910     0.0975
 2941.0000   -30.2372     3.0408  -999.2500  -999.2500     3.5126     3.2103    12.5089   117.0900     2.4844     0.0975     0.1216
 2941.5000   -30.2372     3.0408  -999.2500  -999.2500     4.8809     3.3916    12.6369   120.4346     2.4526     0.1102     0.1083
 2942.0000   -30.2372     3.3008  -999.2500  -999.2500     6.9511     3.7544    12.7539   117.1109     2.4216     0.1228     0.1239
 2942.5000   -30.2372     3.5904  -999.2500  -999.2500     6.6754     4.1561    12.8451   110.7422     2.3967     0.1354     0.1599
 2943.0000   -30.2372     3.9053  -999.2500  -999.2500     6.3919     4.6009    12.6630   103.7389     2.3944     0.1570     0.1709
 2943.5000   -30.2372     4.2479  -999.2500  -999.2500     6.1490     5.0931    12.4999    98.9017     2.4480     0.1549     0.1727
 2944.0000   -30.2372     4.6205  -999.2500  -999.2500     6.5002     5.6381    12.3115    95.6614     2.5471     0.0707     0.1436
 2944.5000   -30.2374     5.0259  -999.2500  -999.2500     6.8291     5.9697    12.2256    92.8106     2.5811     0.0338     0.0769
 2945.0000   -30.2373     5.5226  -999.2500  -999.2500     7.1744     6.0452    12.2295    91.1797     2.5537     0.0492     0.0841
 2945.5000   -30.2370     5.4755  -999.2500  -999.2500     7.5103     6.0452    12.2190    92.1049     2.5349     0.0665     0.1076
 2946.0000   -30.2384     5.4224  -999.2500  -999.2500     7.1307     5.9329    12.2119    93.0909     2.5539     0.0594     0.1361
 2946.5000   -30.2359     5.3698  -999.2500  -999.2500     6.7799     5.7689    12.2036    91.5570     2.5715     0.0487     0.0874
 2947.0000   -30.2343     5.3177  -999.2500  -999.2500     6.4463     5.6094    12.1973    89.5346     2.5807     0.0381     0.0412
 2947.5000   -30.1269     5.2661  -999.2500  -999.2500     6.2679     5.5226    12.2006    88.2752     2.6013     0.0275     0.0589
 2948.0000   -29.9964     5.2150  -999.2500  -999.2500     6.1849     5.4237    12.3323    89.5482     2.6103     0.0193     0.0932
 2948.5000   -29.8655     5.1644  -999.2500  -999.2500     6.1066     5.4846    12.4504    91.4944     2.5834     0.0371     0.1269
 2949.0000   -29.7311     5.1143  -999.2500  -999.2500     6.0483     5.5589    12.5809    93.2687     2.5475     0.0590     0.1613
 2949.5000   -29.6085     5.0647  -999.2500  -999.2500     6.3524     5.6343    12.5350    95.0824     2.5045     0.0957     0.1974
 2950.0000   -29.4600     4.9434  -999.2500  -999.2500     6.9846     5.7260    12.4036    97.0246     2.4644     0.0940     0.2160
 2950.5000   -29.5342     4.7788  -999.2500  -999.2500     6.8968     5.7260    12.2732    98.0473     2.4824     0.0854     0.1122
 2951.0000   -29.6396     4.6932  -999.2500  -999.2500     6.6632     5.6234    12.1372    97.2070     2.5202     0.0769     0.0005
 2951.5000   -29.7560     4.3377  -999.2500  -999.2500     6.4370     5.3590    12.0688    96.4916     2.5350     0.0681     0.0182
 2952.0000   -29.8460     4.0605  -999.2500  -999.2500     6.2679     4.9587    12.0757    96.3961     2.5284     0.0729     0.0332
 2952.5000   -29.9410     3.8010  -999.2500  -999.2500     5.5097     4.5918    12.0776    96.5362     2.5253     0.0752     0.0228
 2953.0000   -30.0200     3.5581  -999.2500  -999.2500     4.9417     4.2523    12.0878    98.3769     2.5446     0.0595     0.0174
 2953.5000   -30.1026     3.3307  -999.2500  -999.2500     4.4322     3.9377    12.0977   104.4397     2.5493     0.0634     0.0336
 2954.0000   -30.1921     3.1528  -999.2500  -999.2500     3.7100     3.6460    12.1047   109.4890     2.5467     0.0539     0.0681
 2954.5000   -30.2255     2.9863  -999.2500  -999.2500     3.8262     3.3226    12.1683   115.3068     2.5546     0.0570     0.1013
 2955.0000   -30.1717     3.0243  -999.2500  -999.2500     4.1633     3.3311    12.3369   116.3978     2.5382     0.0663     0.1350
 2955.5000   -30.1268     3.0932  -999.2500  -999.2500     4.5300     3.4891    12.5107   116.9616     2.5086     0.0833     0.1714
 2956.0000   -30.0803     3.1528  -999.2500  -999.2500     4.8660     3.7769    12.5936   117.6484     2.4719     0.1034     0.1893
 2956.5000   -30.0320     3.4657  -999.2500  -999.2500     5.7600     4.0884    12.5854   116.5128     2.4208     0.1256     0.1810
 2957.0000   -29.9871     3.7623  -999.2500  -999.2500     6.4659     4.4259    12.5874   115.2484     2.4422     0.1256     0.1564
 2957.5000   -29.9382     4.0842  -999.2500  -999.2500     6.3822     4.7918    12.5851   109.9470     2.5139     0.0868     0.1300
