~VERSION INFORMATION
 VERS.                2.0:   CWLS LOG ASCII STANDARD - VERSION 2.0
 WRAP.                 NO:   ONE LINE PER DEPTH STEP
~WELL INFORMATION
#MNEM.UNIT      DATA TYPE    INFORMATION
#----------   ------------   ------------------------------
 STRT.F           18.0000:   START DEPTH
 STOP.F          501.0000:   STOP DEPTH
 STEP.F            0.5000:   STEP LENGTH
 NULL.          -999.2500:   NO VALUE
 COMP. FENIX & SCISSON INC:   COMPANY
 WELL.     NPR-3 SX #34-3:   WELL
 FLD .             TEAPOT:   FIELD
 LOC .       S3 T38N R78W:   LOCATION
 CNTY.            NATRONA:   COUNTY
 STAT.            WYOMING:   STATE
 CTRY. UNITED STATES OF AMERICA:   COUNTRY
 SRVC.            Unknown:   SERVICE COMPANY
 DATE.        13-JUL-1978:   LOGDATE
 API .       490251066600:   API NUMBER
~CURVE INFORMATION
#MNEM.UNIT       API CODE    CURVE DESCRIPTION
#----------   ------------   ------------------------------
 DEPT.F                  :   
 SPR .MV     05 010 01 00:   SPONTANEOUS POTENTIAL FROM RES.
 SN  .OHMM   05 040 16 00:   SHORT NORMAL 16"
 ILD .OHMM   05 120 46 00:   INDUCTION LOG DEEP
 CALD.IN     45 280 60 00:   CALIPER FROM DENSITY LOG
 GRD .GAPI   45 310 01 00:   GAMMA RAY FROM DENSITY LOG
 CORR.G/C3   45 356 01 00:   DENSITY CORRECTION
 DEN .G/C3   45 350 01 00:   COMPENSATED BULK DENSTIY
 DPHI.DEC    45 890 12 00:   DENSITY POROSITY SANDSTONE
~PARAMETER INFORMATION
#MNEM.UNIT          VALUE    DESCRIPTION
#----------   ------------   ------------------------------
 PD  .                 GL:   PERMANENT DATUM
 EPD .F              5209:   ELEVATION PERMANENT DATUM
 LMF .                 KB:   LOG MEASURED FROM
 DAPD.F                 4:   FEET ABOVE PERMANENT DATUM
 DMF .                 KB:   DRILLING MEASURED FROM
 EKB .F              5213:   KELLING BUSHING
 EGL .F              5209:   GROUND LEVEL
 DATE.            7-13-78:   RUN DATE
 RUN .                  1:   RUN NUMBER
 DD  .F               500:   DEPTH DRILLER
 DL  .F               507:   DEPTH LOGGER
 BLI .F               500:   BOTTOM LOG INTERVAL
 TLI .F                30:   TOP LOG INTERVAL
 CS  .IN            8.625:   CASING SIZE
 CBL .F                30:   CASING BOTTOM LOGGER
 BS  .IN            7.875:   BIT SIZE
 BSD .F               500:   BIT SIZE AT DEPTH
 DFT .                KCL:   DRILLING FLUID TYPE
 DFD .                8.6:   DRILLING FLUID DENSITY
 DFV .                 32:   DRILLING FLUID VISCOSITY
 DFPH.                  9:   DRILLING FLUID PH
 DFL .               12.2:   DRILLING FLUID LOSS
 MSS .          FLOW LINE:   MUD SAMPLE SOURCE
 RMS .OHMM            .22:   RESISTIVITY MUD SAMPLE
 MST .F                80:   MUD SAMPLE TEMPERATURE
 RMF .OHMM            .19:   RESISTIVITY MUD FILTRATE SAMPLE
 MFST.F                88:   MUD FILTRATE SAMPLE TEMPERATURE
 RMC .OHMM            .38:   RESISTIVITY MUD CAKE
 MCST.F                84:   MUD CAKE SAMPLE TEMPERATURE
 MFSS.               MEAS:   MUD FILTRATE SAMPLE SOURCE
 BHT .F                76:   BOTTOM HOLE TEMPERATURE
 TCS .HRS               1:   TIME CURCULATED STOPPED
 MRT .F                76:   MAXIMUM RECORDED TEMPERATURE
 LUN .               2958:   LOGGING UNIT NUMBER
 LUL .               CASP:   LOGGING UNIT LOCATION
 ENGI.             MILLER:   RECORDING ENGINEER
 WITN.           MCGINLEY:   WITNESSED BY
 CLNT.            A2DTECH:   CLIENT CODE
 ORIG. 2", 2.5", 5" PRINT:   ORIGIN OF DATA
 UWI .       490251066600:   UNIQUE WELL ID
 DICO. A2D Technologies, Inc.:   DIGITIZING COMPANY
~OTHER INFORMATION
~A   DEPT      SPR         SN        ILD       CALD        GRD       CORR        DEN       DPHI   
# ...
  220.5000   -35.4345     6.0819     6.1918     7.6232    84.3886    -0.0028     2.4454     0.1473
  221.0000   -35.4243     5.8795     5.9443     7.6255    86.7986    -0.0027     2.4439     0.1475
  221.5000   -35.4141     5.7232     5.7067     7.6274    85.7654    -0.0010     2.4440     0.1502
  222.0000   -35.4039     5.6483     5.6309     7.6293    85.0316    -0.0009     2.4343     0.1606
  222.5000   -35.3937     5.7699     5.8321     7.6312    84.1481    -0.0007     2.4126     0.1681
  223.0000   -35.2347     5.8940     5.9162     7.6331    83.1440    -0.0006     2.4037     0.1576
  223.5000   -34.6293     6.1050     6.0848     7.5901    81.9332     0.0011     2.4188     0.1434
  224.0000   -34.0238     6.4548     6.5673     7.5772    79.5490     0.0042     2.4504     0.1326
  224.5000   -30.9135     6.8247     7.0395     7.6091    80.3159     0.0029     2.4677     0.1323
  225.0000   -31.8453     7.0196     7.3405     7.6258    81.3785     0.0028     2.4700     0.1311
  225.5000   -34.1420     7.1706     7.6591     7.6277    82.2914     0.0047     2.4822     0.1172
  226.0000   -34.1292     7.2245     7.8821     7.6148    81.8570     0.0078     2.4908     0.1112
  226.5000   -34.1190     7.3798     7.9871     7.6167    81.2725     0.0125     2.5040     0.1094
  227.0000   -33.9600     7.4868     8.1023     7.6186    80.9882     0.0156     2.5078     0.1072
  227.5000   -33.9498     7.5952     8.1067     7.6209    80.0948     0.0143     2.4951     0.1210
  228.0000   -33.9396     7.6524     8.1110     7.6228    79.3709     0.0084     2.4876     0.1192
  228.5000   -33.7806     7.7634     8.1715     7.6247    79.5629     0.0041     2.4885     0.1182
  229.0000   -33.7704     7.8219     8.2324     7.6266    80.3021     0.0042     2.4938     0.1167
  229.5000   -33.7602     7.8817     8.2938     7.6285    81.0654     0.0028     2.4984     0.1140
  230.0000   -33.6012     7.9410     8.4716     7.6304    83.0262     0.0015     2.5029     0.1158
  230.5000   -33.2932     8.0008     8.6531     7.6323    84.8336     0.0017     2.5037     0.1151
  231.0000   -32.9603     8.0610     8.7177     7.6341    82.7562     0.0003     2.4986     0.1184
  231.5000   -29.4014     8.0105     8.7828     7.6362    82.1684     0.0005     2.4919     0.1196
  232.0000   -28.6471     7.9591     8.8493     7.6379    82.7856     0.0006     2.4897     0.1213
  232.5000   -25.0655     7.9652     8.9153     7.6398    83.5488    -0.0022     2.4883     0.1231
  233.0000   -25.3529     8.0251     8.9201     7.6417    84.1623    -0.0036     2.4837     0.1300
  233.5000   -25.4940     8.0300     8.9249     7.6436    84.1896    -0.0065     2.4745     0.1360
  234.0000   -25.6327     8.0349     8.9915     7.6459    83.7426    -0.0093     2.4615     0.1227
  234.5000   -32.6165     8.0399     8.9334     7.6478    83.2994    -0.0062     2.4750     0.1200
  235.0000   -27.8418     8.0593     8.9394     7.6497    83.5529    -0.0030     2.4864     0.1230
  235.5000   -30.2126     8.0916     8.9442     7.6516    85.7365     0.0001     2.4902     0.1196
  236.0000   -33.7738     8.1105     8.8875     7.6535    85.6014     0.0018     2.4977     0.1127
  236.5000   -29.7457     8.0597     8.7707     7.6554    83.5203     0.0035     2.5008     0.1118
  237.0000   -33.7534     8.0093     8.5323     7.6573    83.8344     0.0051     2.5069     0.1107
  237.5000   -28.6811     7.9591     8.3094     7.6593    85.0468     0.0053     2.5107     0.1078
  238.0000   -36.1114     7.8550     8.2012     7.6610    86.1094     0.0054     2.5085     0.1132
  238.5000   -37.2942     7.7522     8.0934     7.6629    87.0223     0.0056     2.5063     0.1128
  239.0000   -37.1327     7.5994     8.0421     7.6648    88.2346     0.0057     2.5041     0.1152
  239.5000   -37.1225     7.5000     7.9353     7.6667    89.1475     0.0044     2.5020     0.1176
  240.0000   -36.9634     7.4007     7.8851     7.6686    89.9107     0.0045     2.4818     0.1254
  240.5000   -36.8044     7.2548     7.7290     7.6709    90.3745     0.0017     2.4765     0.1292
  241.0000   -36.7942     7.1597     7.5750     7.6728    90.3892    -0.0012     2.4720     0.1316
  241.5000   -36.7840     7.0177     7.3731     7.6747    88.6406    -0.0010     2.4602     0.1376
  242.0000   -36.7738     6.8784     7.1273     7.6766    83.3826     0.0006     2.4618     0.1324
  242.5000   -38.4005     6.6458     6.9358     7.6632    83.7004     0.0023     2.4686     0.1315
  243.0000   -38.5391     6.4211     6.7006     7.6656    84.7630     0.0041     2.4612     0.1381
  243.5000   -38.3801     6.1303     6.3508     7.6675    86.4244     0.0074     2.4590     0.1414
  244.0000   -38.3673     5.7653     5.9722     7.6694    85.9900     0.0117     2.4501     0.1696
  244.5000   -38.3571     5.2384     5.6162     7.6716    83.9089     0.0149     2.4261     0.1752
  245.0000   -38.3469     4.6946     4.9299     7.6738    82.2769     0.0195     2.4044     0.1923
  245.5000   -38.3367     4.1496     4.1522     7.6761    82.8904     0.0257     2.3782     0.2132
  246.0000   -38.3265     3.6679     3.6447     7.6926    84.2524     0.0334     2.3445     0.2294
  246.5000   -38.3163     3.4258     3.1993     7.6943    86.5126     0.0470     2.3266     0.2249
  247.0000   -38.3061     3.1997     2.9471     7.6809    87.1261     0.0652     2.3041     0.2216
  247.5000   -38.2959     3.0300     2.8685     7.6825    86.9911     0.1044     2.3162     0.2308
  248.0000   -38.2857     2.9494     2.8700     7.6688    86.5509     0.1796     2.3099     0.2551
  248.5000   -37.9777     2.9529     2.9331     7.6708    85.8064     0.1827     2.2844     0.3070
  249.0000   -37.6696     3.0601     3.0741     7.6724    81.2006     0.1739     2.1754     0.3080
  249.5000   -37.6573     3.2996     3.5108     7.6740    80.3134     0.0734     2.1665     0.2460
  250.0000   -37.6380     3.5791     3.9072     7.6756    80.3281     0.0616     2.2858     0.1848
  250.5000   -37.5947     4.1004     4.8247     7.6773    80.2874     0.1368     2.3457     0.1823
  251.0000   -37.5513     4.6217     5.3156     7.6789    80.2498     0.0829     2.3802     0.1767
  251.5000   -37.5079     5.0345     5.6583     7.6655    80.6810     0.0470     2.4497     0.1456
  252.0000   -37.4645     5.4421     6.0230     7.6526    84.5893     0.0337     2.4978     0.1321
  252.5000   -37.4211     5.8244     6.2802     7.6542    87.7492     0.0759     2.4814     0.1248
  253.0000   -37.3777     5.9903     6.4143     7.6405    88.5137     0.0205     2.4830     0.1245
  253.5000   -37.3343     6.1610     6.5514     7.6275    89.8771     0.0027     2.4876     0.1253
  254.0000   -37.2909     6.2930     6.5552     7.6291    91.2405     0.0013     2.4795     0.1289
  254.5000   -37.2475     6.3399     6.6036     7.6307    90.0590     0.0030     2.4698     0.1354
  255.0000   -37.2166     6.3871     6.6067     7.6324    87.2308     0.0047     2.4661     0.1339
  255.5000   -37.2036     6.3905     6.6555     7.6340    88.3148     0.0048     2.4700     0.1287
  256.0000   -37.0418     6.4382     6.6586     7.6356    90.7066     0.0050     2.4747     0.1200
  256.5000   -37.0283     6.4863     6.5255     7.6372    90.8759     0.0067     2.4755     0.1291
  257.0000   -36.8636     6.4017     6.2642     7.6389    90.8920     0.0068     2.4696     0.1328
  257.5000   -36.8506     6.3166     5.8904     7.6408    91.0578     0.0055     2.4712     0.1381
  258.0000   -36.8376     6.1491     5.5741     7.6271    91.2236     0.0056     2.4623     0.1498
  258.5000   -36.8246     5.9032     5.3486     7.6141    92.5870     0.0058     2.4519     0.1587
  259.0000   -36.8115     5.6673     5.2114     7.6004    94.8486     0.0075     2.4288     0.1614
  259.5000   -36.7985     5.4034     5.1774     7.6024    95.9126     0.0107     2.4139     0.1725
  260.0000   -36.9345     5.2593     5.1449     7.6190    98.3239     0.0168     2.3930     0.1799
  260.5000   -36.7725     5.1901     5.1829     7.6355   100.1364     0.0335     2.3998     0.1568
