~VERSION INFORMATION
 VERS.                2.0:   CWLS LOG ASCII STANDARD - VERSION 2.0
 WRAP.                 NO:   ONE LINE PER DEPTH STEP
~WELL INFORMATION
#MNEM.UNIT      DATA TYPE    INFORMATION
#----------   ------------   ------------------------------
 STRT.F            0.0000:   START DEPTH
 STOP.F          542.0000:   STOP DEPTH
 STEP.F            0.5000:   STEP LENGTH
 NULL.          -999.2500:   NO VALUE
 COMP. LAWRENCE/ALLISON INC:   COMPANY
 WELL.          SX #12-11:   WELL
 FLD .             TEAPOT:   FIELD
 LOC .      S11 T38N R78W:   LOCATION
 CNTY.            NATRONA:   COUNTY
 STAT.            WYOMING:   STATE
 CTRY. UNITED STATES OF AMERICA:   COUNTRY
 SRVC.           Gearhart:   SERVICE COMPANY
 DATE.        16-SEP-1988:   LOGDATE
 API .       490251124300:   API NUMBER
~CURVE INFORMATION
#MNEM.UNIT       API CODE    CURVE DESCRIPTION
#----------   ------------   ------------------------------
 DEPT.F                  :   
 GRR .GAPI   07 310 01 00:   GAMMA RAY FROM RES. LOG.
 RLL .OHMM   07 220 00 00:   LATEROLOG RESISTIVITY
 RILD.OHMM   07 120 46 00:   INDUCTION LOG DEEP RESISTIVITY
 RILM.OHMM   07 120 44 00:   INDUCTION LOG MEDIUM RESISTIVITY
 SPR .MV     07 010 01 00:   SPONTANEOUS POTENTIAL
~PARAMETER INFORMATION
#MNEM.UNIT          VALUE    DESCRIPTION
#----------   ------------   ------------------------------
 PD  .                 GL:   PERMANENT DATUM
 EPD .F              5163:   ELEVATION PERMANENT DATUM
 LMF .                 KB:   LOG MEASURED FROM
 DAPD.F                10:   FEET ABOVE PERMANENT DATUM
 DMF .                 KB:   DRILLING MEASURED FROM
 EKB .F              5173:   KELLING BUSHING
 EDF .F              5172:   DRILLING FLOOR
 EGL .F              5163:   GROUND LEVEL
 DATE.            9-16-88:   RUN DATE
 RUN .                  1:   RUN NUMBER
 DD  .F               550:   DEPTH DRILLER
 DL  .F               545:   DEPTH LOGGER
 BLI .F               542:   BOTTOM LOG INTERVAL
 CS  .IN            9.625:   CASING SIZE
 CBD .F                50:   CASING BOTTOM DRILLER
 CBL .F                50:   CASING BOTTOM LOGGER
 BS  .IN             8.75:   BIT SIZE
 BSD .F               550:   BIT SIZE AT DEPTH
 DFT .                MUD:   DRILLING FLUID TYPE
 MSS .           FLOWLINE:   MUD SAMPLE SOURCE
 RMS .OHMM            .55:   RESISTIVITY MUD SAMPLE
 MST .F                70:   MUD SAMPLE TEMPERATURE
 RMF .OHMM            .42:   RESISTIVITY MUD FILTRATE SAMPLE
 MFST.F                71:   MUD FILTRATE SAMPLE TEMPERATURE
 RMC .OHMM            .71:   RESISTIVITY MUD CAKE
 MCST.F                71:   MUD CAKE SAMPLE TEMPERATURE
 MFSS.                  M:   MUD FILTRATE SAMPLE SOURCE
 MCSS.                  M:   MUD CAKE SAMPLE SOURCE
 RMB .OHMM            .30:   RESISTIVITY MUD AT BHT
 BHT .F                81:   BOTTOM HOLE TEMPERATURE
 TCS .HRS            1430:   TIME CURCULATED STOPPED
 TLAB.HRS            1900:   TIME LOGGER AT BOTTOM
 MRT .F                81:   MAXIMUM RECORDED TEMPERATURE
 LUN .               7597:   LOGGING UNIT NUMBER
 LUL .           GILLETTE:   LOGGING UNIT LOCATION
 ENGI.     BENCK/ROUSSEAU:   RECORDING ENGINEER
 WITN.             STRONG:   WITNESSED BY
 CLNT.            A2DTECH:   CLIENT CODE
 ORIG.        2" 5" PRINT:   ORIGIN OF DATA
 UWI .       490251124300:   UNIQUE WELL ID
 DICO. A2D Technologies, Inc.:   DIGITIZING COMPANY
~OTHER INFORMATION
~A    DEPT      GRR       RLL       RILD       RILM        SPR   
# ...
  122.0000   121.7894     7.6914     7.5484     7.1354   -56.4965
  122.5000   123.8208     7.7409     7.3371     6.8787   -56.3199
  123.0000   125.8999     7.8358     7.1831     6.6158   -56.2437
  123.5000   126.9989     7.7177     7.0323     6.3629   -56.3341
  124.0000   126.9940     7.5118     6.8847     6.1198   -56.4240
  124.5000   126.9982     7.3114     6.7403     5.8859   -56.2475
  125.0000   126.9743     7.1164     6.6201     5.6609   -56.0417
  125.5000   126.5971     6.8730     6.5602     5.4889   -55.8346
  126.0000   126.2287     6.8089     6.5558     5.5818   -55.6278
  126.5000   125.8362     6.8089     6.5591     5.7365   -55.4165
  127.0000   126.5867     7.0901     6.7267     5.8955   -55.7419
  127.5000   127.6895     7.2943     6.8668     6.0589   -56.3789
  128.0000   128.1566     7.5044     7.0099     6.2268   -57.0164
  128.5000   124.5419     7.7204     7.1560     6.3994   -57.1911
  129.0000   120.9674     7.9428     7.3051     6.5769   -57.3424
  129.5000   117.8413     8.0597     7.4573     6.7590   -57.4968
  130.0000   115.6384     8.0597     7.6127     7.0030   -57.6478
  130.5000   115.8392     8.0528     7.6908     6.9546   -57.6541
  131.0000   116.1509     7.9895     7.6191     6.8864   -57.6533
  131.5000   115.5486     7.9268     7.5366     6.8188   -57.6533
  132.0000   113.4385     7.8363     7.4480     6.7519   -57.6544
  132.5000   112.7684     7.8731     7.3604     6.6857   -57.6529
  133.0000   114.9264     7.9422     7.2738     6.6201   -57.5567
  133.5000   117.1509     7.9841     7.2026     6.5552   -57.0602
  134.0000   118.4039     7.8062     7.2026     6.4909   -56.5741
  134.5000   118.3244     7.6777     7.2026     6.4272   -56.0859
  135.0000   121.2549     7.5516     7.1985     6.3766   -56.1481
  135.5000   124.1776     7.4777     7.2947     6.5763   -56.3384
  136.0000   125.9706     7.7632     7.4362     6.8340   -56.5275
  136.5000   126.2249     7.9465     7.5751     7.2026   -56.3853
  137.0000   125.5758     8.1753     7.7173     7.1826   -55.8658
  137.5000   121.6546     8.4110     7.8625     7.1474   -55.4283
  138.0000   117.8022     8.5253     8.0592     7.1135   -55.7500
  138.5000   116.1615     8.4001     7.9925     7.0798   -56.0731
  139.0000   117.6662     8.2571     7.8887     7.0464   -56.0432
  139.5000   119.2367     8.1162     7.7874     7.0132   -55.7042
  140.0000   121.3058     7.9778     7.6876     6.9746   -55.3600
  140.5000   123.5893     7.8844     7.5890     6.9332   -55.2067
  141.0000   125.8992     7.8337     7.4921     6.8922   -55.2039
  141.5000   128.0559     7.7833     7.4085     6.8517   -55.2036
  142.0000   124.6572     7.7332     7.4561     6.7454   -55.2028
  142.5000   120.9760     7.6908     7.4988     6.7985   -55.1931
  143.0000   120.1635     7.7151     7.5421     6.8971   -55.6514
  143.5000   119.4959     7.7590     7.5856     6.9971   -56.2234
  144.0000   119.7681     7.8032     7.6296     7.0986   -56.7871
  144.5000   121.2476     7.8476     7.6908     7.2026   -57.1045
  145.0000   123.1753     7.9097     7.5835     7.0445   -57.0927
  145.5000   125.0726     7.8361     7.4062     6.8884   -57.1490
  146.0000   125.5857     7.7126     7.2330     6.7357   -57.2038
  146.5000   124.1646     7.5918     7.1354     6.6201   -57.2331
  147.0000   122.7657     7.4730     7.1354     6.6987   -57.1699
  147.5000   121.3634     7.4079     7.1354     6.7634   -57.1088
  148.0000   119.9779     7.4079     7.2982     6.8287   -57.0472
  148.5000   119.9839     7.6296     7.4567     6.8946   -57.0875
  149.0000   121.6023     7.7541     7.6187     6.9612   -57.1416
  149.5000   123.2961     7.8807     7.7842     7.0284   -57.1960
  150.0000   120.0553     8.0094     7.9532     7.0963   -57.2501
  150.5000   115.3841     8.1402     8.1248     7.1648   -57.3042
  151.0000   117.5672     8.2728     8.2142     7.2340   -57.3582
  151.5000   120.8320     8.4463     8.2133     7.3041   -57.4119
  152.0000   124.2230     8.4231     8.2122     7.4075   -57.4673
  152.5000   123.0899     8.3910     8.2122     7.3859   -57.5240
  153.0000   120.5434     8.3590     8.2122     7.3443   -57.5816
  153.5000   121.3103     8.3271     8.1270     7.3028   -57.6391
  154.0000   124.5673     8.2953     8.0369     7.2616   -57.8610
  154.5000   127.9908     8.2637     7.9479     7.2207   -58.2404
  155.0000   126.1777     8.2322     7.8598     7.1800   -58.6206
  155.5000   122.9442     8.1887     7.7728     7.1395   -59.0029
  156.0000   119.7215     8.1247     7.6867     7.0993   -59.3820
  156.5000   121.2048     8.0611     7.6015     7.0594   -59.6266
  157.0000   122.6876     7.9980     7.5173     7.0194   -59.1472
  157.5000   121.1300     7.9355     7.4340     6.9242   -58.6782
  158.0000   119.6490     7.8734     7.3517     6.7920   -58.2100
  158.5000   120.7747     7.8363     7.2704     6.6623   -57.7333
  159.0000   122.2480     7.9056     7.2704     6.5351   -57.7444
  159.5000   122.1604     7.9554     7.2922     6.4366   -57.8575
  160.0000   121.7604     8.0055     7.3103     6.4985   -57.9723
  160.5000   122.4012     8.0561     7.3285     6.5600   -58.0617
  161.0000   124.1458     8.1073     7.3814     6.6221   -58.1226
  161.5000   125.8720     8.1354     7.4815     6.6848   -58.1979
  162.0000   127.6405     8.0833     7.5829     6.7481   -58.2501
  162.5000   127.2202     8.0471     7.6857     6.8121   -57.9112
  163.0000   125.7289     8.0111     7.7802     6.8766   -57.5634
  163.5000   124.2035     7.9846     7.8471     6.9377   -57.4917
  164.0000   122.6712     8.0691     7.9147     7.0514   -57.5808
  164.5000   123.0858     8.1496     7.9828     7.1602   -57.6715
  165.0000   123.7886     8.2308     8.0515     7.2708   -57.7623
  165.5000   124.5561     8.4273     8.1208     7.3830   -57.8529
  166.0000   121.3621     8.9306     8.1907     7.4969   -57.9435
  166.5000   117.7506     9.4639     8.3087     7.6126   -58.0353
  167.0000   113.9971     9.6700     8.4497     7.7302   -58.0386
  167.5000   112.6918     9.7208     8.6080     7.8363   -57.9944
  168.0000   116.3933     9.7208     8.5583     7.8081   -57.9492
  168.5000   120.5391     9.0432     8.4632     7.7828   -57.9023
  169.0000   122.3916     8.5258     8.3703     7.7575   -57.8655
  169.5000   122.2989     8.4463     8.2885     7.7322   -58.3513
  170.0000   122.1789     8.4463     8.1529     7.7063   -58.1912
  170.5000   122.3853     8.4463     8.0583     7.6911   -57.6820
  171.0000   123.3037     8.5062     8.1983     7.9612   -57.1657
  171.5000   124.2004     8.6798     8.3212     8.1356   -56.6527
  172.0000   124.6056     8.8568     8.4459     8.0864   -56.2648
  172.5000   122.1664     8.9347     8.5258     8.0442   -56.6202
  173.0000   119.7620     8.9347     8.3675     8.0022   -56.9754
  173.5000   117.3392     8.9347     8.4286     7.9604   -56.8231
  174.0000   116.7846     8.9347     8.5350     7.9101   -56.4526
  174.5000   117.4866     8.9347     8.6431     8.0126   -56.0776
  175.0000   116.4939     8.9615     8.7524     8.1444   -55.7052
  175.5000   115.1215     9.0973     8.8631     8.2783   -55.3985
  176.0000   113.6950     9.2352     8.9752     8.4145   -55.5826
  176.5000   114.8348     9.3751     9.0962     8.5529   -55.8667
  177.0000   116.4875     9.5172     9.2235     8.6936   -56.1528
  177.5000   118.1547     9.6614     9.3525     8.8366   -56.4243
  178.0000   116.7884     9.8078     9.4834     8.9819   -56.5013
  178.5000   113.9111     9.9565     9.6161     9.1297   -56.5845
  179.0000   111.0744    10.1074     9.7507     9.2798   -57.0248
  179.5000   110.1997    10.2605     9.8871     9.4324   -58.3659
  180.0000   112.5060    10.4363    10.0255     9.5876   -57.3809
  180.5000   115.9060    10.6185    10.1658     9.7453   -57.4193
  181.0000   115.4166    10.8040    10.3081     9.9056   -57.6718
  181.5000   113.1169    10.9927    10.4523    10.0685   -57.8153
  182.0000   111.2330    11.1846    10.5986    10.2162   -57.3593
  182.5000   111.1332    11.3799    10.7469    10.3198   -56.9230
