~VERSION INFORMATION
 VERS.                2.0:   CWLS LOG ASCII STANDARD - VERSION 2.0
 WRAP.                 NO:   ONE LINE PER DEPTH STEP
~WELL INFORMATION
#MNEM.UNIT      DATA TYPE    INFORMATION
#----------   ------------   ------------------------------
 STRT.F           22.0000:   START DEPTH
 STOP.F          453.0000:   STOP DEPTH
 STEP.F            0.5000:   STEP LENGTH
 NULL.          -999.2500:   NO VALUE
 COMP. LAWRENCE/ALLISON INC:   COMPANY
 WELL.    53-41 SX #10-10:   WELL
 FLD .             TEAPOT:   FIELD
 LOC .      S10 T38N R78W:   LOCATION
 CNTY.            NATRONA:   COUNTY
 STAT.            WYOMING:   STATE
 CTRY. UNITED STATES OF AMERICA:   COUNTRY
 SRVC.           Gearhart:   SERVICE COMPANY
 DATE.        29-MAY-1988:   LOGDATE
 API .       490251122500:   API NUMBER
~CURVE INFORMATION
#MNEM.UNIT       API CODE    CURVE DESCRIPTION
#----------   ------------   ------------------------------
 DEPT.F                  :   
 GRR .GAPI   07 310 01 00:   GAMMA RAY
 ILD .OHMM   07 120 46 00:   INDUCTION LOG DEEP
 ILM .OHMM   07 120 44 00:   INDUCTION LOG MEDIUM
~PARAMETER INFORMATION
#MNEM.UNIT          VALUE    DESCRIPTION
#----------   ------------   ------------------------------
 PD  .                 GL:   PERMANENT DATUM
 EPD .F              5172:   ELEVATION PERMANENT DATUM
 LMF .                 KB:   LOG MEASURED FROM
 DAPD.F                 5:   FEET ABOVE PERMANENT DATUM
 DMF .                 KB:   DRILLING MEASURED FROM
 EKB .F              5177:   KELLING BUSHING
 EGL .F              5172:   GROUND LEVEL
 DATE.        29-MAY-1988:   RUN DATE
 RUN .                  1:   RUN NUMBER
 DD  .F               470:   DEPTH DRILLER
 DL  .F               461:   DEPTH LOGGER
 BLI .F               453:   BOTTOM LOG INTERVAL
 CS  .IN            8.625:   CASING SIZE
 CBD .F                43:   CASING BOTTOM DRILLER
 CBL .F                43:   CASING BOTTOM LOGGER
 BS  .IN            7.875:   BIT SIZE
 BSD .F               470:   BIT SIZE AT DEPTH
 DFT .                AIR:   DRILLING FLUID TYPE
 TLAB.HRS            0530:   TIME LOGGER AT BOTTOM
 MRT .F                70:   MAXIMUM RECORDED TEMPERATURE
 LUN .               7597:   LOGGING UNIT NUMBER
 LUL .           GILLETTE:   LOGGING UNIT LOCATION
 ENGI.          HUCKFELDT:   RECORDING ENGINEER
 WITN.             STRONG:   WITNESSED BY
 CLNT.            A2DTECH:   CLIENT CODE
 ORIG.       2", 5" PRINT:   ORIGIN OF DATA
 UWI .       490251122500:   UNIQUE WELL ID
 DICO. A2D Technologies, Inc.:   DIGITIZING COMPANY
~OTHER INFORMATION
~A   DEPT       GRR       ILD        ILM   
# ...
  295.0000    88.0169    17.2414    17.7069
  295.5000    88.0456    17.1251    17.7128
  296.0000    87.4673    17.2491    17.5939
  296.5000    86.5756    17.2526    17.5982
  297.0000    85.7037    17.3774    17.6032
  297.5000    85.4289    17.2602    17.4851
  298.0000    86.0717    17.2636    17.3677
  298.5000    85.4934    17.1471    17.2511
  299.0000    84.3153    16.7958    17.1363
  299.5000    84.0333    16.6825    17.0101
  300.0000    84.3678    16.8039    16.7893
  300.5000    82.8048    16.6914    16.5603
  301.0000    82.9157    16.2394    16.4492
  301.5000    83.8552    16.0199    16.3377
  302.0000    85.4426    15.7906    16.1290
  302.5000    87.2589    15.4832    16.0032
  303.0000    87.8949    15.3795    15.8955
  303.5000    87.6131    15.2778    15.6778
  304.0000    87.9529    15.2841    15.5715
  304.5000    87.9819    15.2893    15.5754
  305.0000    89.2321    15.0839    15.5786
  305.5000    91.0821    14.8789    15.5817
  306.0000    93.5390    14.7805    15.6943
  306.5000    95.3890    14.7866    15.8084
  307.0000    95.1138    14.8951    15.9226
  307.5000    93.2980    15.1102    16.0377
  308.0000    90.3240    15.2209    16.2670
  308.5000    90.3530    15.2260    16.2703
  309.0000    90.9890    15.4447    16.2743
  309.5000    91.6250    15.6744    16.2776
  310.0000    91.0470    15.8931    16.1673
  310.5000    88.9589    15.8983    16.0578
  311.0000    87.1670    15.7919    15.9490
  311.5000    85.9820    15.7985    15.8417
  312.0000    85.1006    15.6940    15.6246
  312.5000    84.4967    15.3757    15.4105
  313.0000    86.1002    15.1680    15.1986
  313.5000    87.9263    14.8592    14.9911
  314.0000    88.8658    14.6583    14.7857
  314.5000    90.1088    14.5579    14.5831
  315.0000    90.7448    14.1672    14.2836
  315.5000    91.6844    14.0724    13.7952
  316.0000    91.7205    14.1766    13.6061
  316.5000    90.8318    14.3803    13.5140
  317.0000    91.1716    14.8971    13.6123
  317.5000    90.2829    15.3223    14.0016
  318.0000    89.1047    15.9817    14.8108
  318.5000    89.4377    17.1405    16.1117
  319.0000    87.9565    19.1681    17.8268
  319.5000    86.1646    20.7033    20.1651
  320.0000    80.1238    22.2047    22.0903
  320.5000    78.9389    23.6494    24.1992
  321.0000    78.3511    25.5416    26.5096
  321.5000    77.1832    27.7780    28.9136
  322.0000    76.5980    30.0004    31.5926
  322.5000    76.0201    31.7332    33.8897
  323.0000    75.1458    32.8690    34.8588
  323.5000    73.6574    34.0454    36.1075
  324.0000    71.5620    35.5106    37.1680
  324.5000    72.8122    36.5262    38.4723
  325.0000    72.5378    37.3131    38.7503
  325.5000    71.9598    37.8493    39.0303
  326.0000    69.5609    38.1265    39.1195
  326.5000    67.7690    38.1392    39.3203
  327.0000    69.0192    38.1519    39.3299
  327.5000    70.2622    38.1252    39.3378
  328.0000    72.1122    37.3907    38.6148
  328.5000    72.7482    36.3751    36.6935
  329.0000    72.1702    34.8975    35.4208
  329.5000    71.8957    33.9495    34.4690
  330.0000    73.7529    34.1984    33.9950
  330.5000    75.6029    33.2695    33.7647
  331.0000    76.8459    32.5949    33.3034
  331.5000    76.8749    32.1546    32.8344
  332.0000    75.0430    31.4999    32.1729
  332.5000    72.6913    31.0495    31.7304
  333.0000    72.4096    30.2329    31.0774
  333.5000    72.7494    29.8245    30.2270
  334.0000    74.9028    29.0144    29.1853
  334.5000    78.2702    29.0241    27.9999
  335.0000    80.7344    29.2367    27.6148
  335.5000    82.2809    27.2804    28.0111
  336.0000    81.0724    27.0978    28.2135
  336.5000    78.0901    27.2985    28.2191
  337.0000    77.5114    27.6908    28.4244
  337.5000    75.6703    28.2850    28.4301
  338.0000    73.6320    27.5168    28.0391
  338.5000    71.5294    27.5282    27.8491
  339.0000    73.3866    27.5374    27.6618
  339.5000    76.1470    26.4187    27.4744
  340.0000    79.2109    26.7985    27.2896
  340.5000    80.7646    26.9969    27.2951
  341.0000    81.0972    27.1947    27.2247
  341.5000    80.8154    27.0148    27.1156
  342.0000    81.1046    26.6499    27.1223
  342.5000    81.1445    26.6588    27.1278
  343.0000    83.6043    26.1181    26.9426
  343.5000    84.2432    25.9433    26.9494
  344.0000    83.9636    25.4172    26.0278
  344.5000    83.3960    25.0738    25.4921
  345.0000    82.4785    24.7351    25.3194
  345.5000    80.7368    24.4009    25.1479
  346.0000    79.8583    24.0713    24.4597
  346.5000    79.8902    23.9121    23.9563
  347.0000    79.9221    23.1030    23.6030
  347.5000    80.5817    22.6301    22.8212
  348.0000    83.1765    21.7151    22.1956
  348.5000    86.3990    21.1253    21.7388
  349.0000    88.2518    20.6935    21.2914
  349.5000    87.8965    20.4156    20.8335
  350.0000    87.7086    20.0009    20.2826
  350.5000    85.9276    19.5924    19.8652
  351.0000    83.8350    19.0590    19.5920
  351.5000    82.6530    18.6698    19.0769
  352.0000    81.4629    18.4163    18.6638
  352.5000    80.5923    18.1675    18.5501
  353.0000    79.9818    18.1724    18.4269
  353.5000    79.7457    18.3043    18.4346
  354.0000    79.7855    18.1820    18.3106
  354.5000    79.5060    17.5590    18.1905
  355.0000    80.7598    17.4469    18.1981
  355.5000    82.9327    17.4527    18.0757
  356.0000    84.4734    17.3350    17.8304
  356.5000    81.7739    17.3408    17.5884
  357.0000    80.2884    17.3454    17.3512
  357.5000    79.0983    16.9923    17.1158
  358.0000    80.6556    16.7605    16.8835
  358.5000    82.8199    16.6486    16.5396
  359.0000    83.7623    16.4237    16.3152
  359.5000    85.9186    16.2006    15.9815
  360.0000    88.9854    15.7596    15.7574
  360.5000    89.9278    15.5457    15.5507
  361.0000    87.9393    15.3357    15.4474
  361.5000    87.1290    15.1265    15.4539
  362.0000    84.5686    15.0264    15.4590
  362.5000    83.3786    14.8140    15.4642
  363.0000    82.8548    14.7235    15.4707
  363.5000    82.5280    14.8314    15.4759
  364.0000    81.3578    14.7314    15.3725
  364.5000    84.1291    14.7363    15.3782
  365.0000    86.2854    14.7402    15.3833
  365.5000    87.5313    14.7451    15.3886
  366.0000    89.6876    14.8521    15.3949
  366.5000    91.2382    14.8561    15.4001
  367.0000    91.8838    14.8600    15.4052
  367.5000    91.0052    14.8640    15.3029
  368.0000    90.7257    14.8689    15.3081
  368.5000    90.7655    14.8729    15.3144
  369.0000    91.1017    14.8768    15.2114
  369.5000    91.1408    14.7765    15.2178
  370.0000    90.8612    14.5769    15.0113
  370.5000    91.2046    14.5684    14.9116
  371.0000    92.1470    14.3838    14.8125
  371.5000    92.1788    14.2868    14.6115
  372.0000    91.3083    14.2915    14.4144
  372.5000    89.8227    14.2953    14.3175
  373.0000    89.5431    14.1927    14.2235
  373.5000    90.7970    14.0071    14.1187
  374.0000    91.7393    13.9135    14.0352
  374.5000    91.4677    13.6303    13.9420
  375.0000    91.1961    13.4444    13.9478
  375.5000    92.4500    13.4488    13.9525
  376.0000    94.3028    13.5474    13.9572
  376.5000    94.9417    13.6457    13.9630
  377.0000    94.9742    13.6493    13.9677
  377.5000    93.7995    13.6530    13.9724
  378.0000    92.9209    13.6566    13.9770
  378.5000    91.1319    13.5654    13.8842
  379.0000    91.7707    13.4748    13.8890
  379.5000    93.3242    13.4793    13.7966
  380.0000    94.8774    13.3893    13.7049
  380.5000    93.0884    13.2998    13.5201
  381.0000    91.6028    13.0282    13.4303
  381.5000    90.7242    12.8522    13.3411
  382.0000    90.4522    12.8556    13.1611
  382.5000    91.4770    12.7689    12.9825
  383.0000    92.6488    12.6844    12.8952
  383.5000    95.4121    12.5943    12.8105
  384.0000    97.5685    12.4287    12.6368
  384.5000    98.8143    12.3457    12.4664
  385.0000    99.4537    12.2633    12.3825
  385.5000    99.8017    12.0136    12.2155
