~VERSION INFORMATION
 VERS.                2.0:   CWLS LOG ASCII STANDARD - VERSION 2.0
 WRAP.                 NO:   ONE LINE PER DEPTH STEP
~WELL INFORMATION
#MNEM.UNIT      DATA TYPE    INFORMATION
#----------   ------------   ------------------------------
 STRT.F            0.0000:   START DEPTH
 STOP.F          743.0000:   STOP DEPTH
 STEP.F            0.5000:   STEP LENGTH
 NULL.          -999.2500:   NO VALUE
 COMP. LAWRENCE/ALLISON INC:   COMPANY
 WELL.   NPR 3 #33-16SX11:   WELL
 FLD .                NPR:   FIELD
 LOC .      S11 T38N R78W:   LOCATION
 CNTY.            NATRONA:   COUNTY
 STAT.            WYOMING:   STATE
 CTRY. UNITED STATES OF AMERICA:   COUNTRY
 SRVC.           Gearhart:   SERVICE COMPANY
 DATE.        05-JUN-1986:   LOGDATE
 API .       490251107500:   API NUMBER
~CURVE INFORMATION
#MNEM.UNIT       API CODE    CURVE DESCRIPTION
#----------   ------------   ------------------------------
 DEPT.F                  :   
 GRR .GAPI   07 310 01 00:   GAMMA RAY
 RILD.OHMM   07 120 46 00:   INDUCTION LOG DEEP RESISTIVITY
 RILM.OHMM   07 120 44 00:   INDUCTION LOG MEDIUM RESISTIVITY
 RLL .OHMM   07 220 00 00:   LATEROLOG RESISTIVITY
 SPR .MV     07 010 01 00:   SPONTANEOUS POTENTIAL
~PARAMETER INFORMATION
#MNEM.UNIT          VALUE    DESCRIPTION
#----------   ------------   ------------------------------
 PD  .                 GL:   PERMANENT DATUM
 EPD .F              5175:   ELEVATION PERMANENT DATUM
 LMF .                 KB:   LOG MEASURED FROM
 DMF .                 KB:   DRILLING MEASURED FROM
 EKB .F              5175:   KELLING BUSHING
 EGL .F              5175:   GROUND LEVEL
 DATE.        05-JUN-1986:   RUN DATE
 RUN .                  1:   RUN NUMBER
 DD  .F               736:   DEPTH DRILLER
 DL  .F               744:   DEPTH LOGGER
 BLI .F               743:   BOTTOM LOG INTERVAL
 TLI .F                42:   TOP LOG INTERVAL
 CS  .IN            8.625:   CASING SIZE
 CBD .F                42:   CASING BOTTOM DRILLER
 CBL .F                42:   CASING BOTTOM LOGGER
 BS  .IN            7.875:   BIT SIZE
 BSD .F               736:   BIT SIZE AT DEPTH
 DFT .           KCL- GEL:   DRILLING FLUID TYPE
 DFD .                9.2:   DRILLING FLUID DENSITY
 DFV .                 42:   DRILLING FLUID VISCOSITY
 DFPH.                 11:   DRILLING FLUID PH
 MSS .           FLOWLINE:   MUD SAMPLE SOURCE
 RMS .OHMM            .51:   RESISTIVITY MUD SAMPLE
 MST .F                81:   MUD SAMPLE TEMPERATURE
 RMF .OHMM            .48:   RESISTIVITY MUD FILTRATE SAMPLE
 MFST.F                65:   MUD FILTRATE SAMPLE TEMPERATURE
 RMC .OHMM            .81:   RESISTIVITY MUD CAKE
 MCST.F                66:   MUD CAKE SAMPLE TEMPERATURE
 MFSS.               MEAS:   MUD FILTRATE SAMPLE SOURCE
 MCSS.               MEAS:   MUD CAKE SAMPLE SOURCE
 RMB .OHMM            .47:   RESISTIVITY MUD AT BHT
 BHT .F                90:   BOTTOM HOLE TEMPERATURE
 TCS .HRS            1930:   TIME CURCULATED STOPPED
 TLAB.HRS            2114:   TIME LOGGER AT BOTTOM
 LUN .               7609:   LOGGING UNIT NUMBER
 LUL .           GILLETTE:   LOGGING UNIT LOCATION
 ENGI. WEATHERMON/ JOHNSTON:   RECORDING ENGINEER
 WITN.           LENNINGS:   WITNESSED BY
 CLNT.            A2DTECH:   CLIENT CODE
 ORIG.           5" PRINT:   ORIGIN OF DATA
 UWI .       490251107500:   UNIQUE WELL ID
 DICO. A2D Technologies, Inc.:   DIGITIZING COMPANY
~OTHER INFORMATION
~A    DEPT     GRR       RILD       RILM        RLL        SPR   
# ...
   61.0000    80.4911     4.0087     4.2325   191.6192   -37.8360
   61.5000    80.1912     3.9271     3.9209    37.7910   -37.3763
   62.0000    80.2145     3.7413     3.6577    26.0862   -38.4332
   62.5000    82.0188     3.5646     3.4121    24.8473   -39.6428
   63.0000    85.6635     3.3255     3.1793    23.8319   -40.2465
   63.5000    85.3629     3.1025     2.9696    20.1524   -39.9375
   64.0000    84.7581     2.9351     2.8289    18.0223   -39.3262
   64.5000    84.7618     2.7962     2.6949    17.1653   -39.1700
   65.0000    87.8003     2.7203     2.5852    15.3227   -39.6199
   65.5000    91.1416     2.6650     2.5148    12.9817   -40.8295
   66.0000    91.7515     2.6850     2.4981    11.5286   -42.3426
   66.5000    91.1474     2.8803     2.6244    10.7522   -42.4910
   67.0000    89.0259     3.0471     2.9561    11.2163   -41.5741
   67.5000    85.6146     3.2460     3.3298    13.6481   -41.1144
   68.0000    81.7486     3.5559     3.6988    15.8959   -40.5031
   68.5000    80.8403     4.0480     4.0516    18.0682   -39.2848
   69.0000    87.2173     4.5763     4.6123    18.8482   -42.1636
   69.5000    87.5229     4.9783     5.0346    16.0501   -44.8906
   70.0000    85.7056     5.2664     5.2152    12.5664   -46.2520
   70.5000    84.7980     5.4557     5.3274    10.0038   -43.8186
   71.0000    85.7122     5.6125     5.4042     6.0724   -41.9933
   71.5000    85.1081     5.6943     5.4820     5.5068   -44.8721
   72.0000    84.2005     5.7365     5.6057     7.8715   -46.6887
   72.5000    84.2034     5.8195     5.7609    10.0590   -44.4081
   73.0000    85.4507     5.9451     5.8439    11.9020   -43.3416
   73.5000    86.9413     6.0734     6.0115    14.2812   -45.1571
   74.0000    91.1931     6.2480     6.1838    10.5733   -45.4562
   74.5000    95.7484     6.3834     6.3611     9.0669   -47.1210
   75.0000    93.6268     6.3860     6.4084     8.2806   -46.6614
   75.5000    89.3657     6.3886     6.4105     7.9336   -44.5326
   76.0000    86.6531     6.3911     6.3675     9.4155   -46.6527
   76.5000    85.4420     6.3486     6.3258    11.5967   -44.8263
   77.0000    84.8379     6.3518     6.3280    12.9743   -44.3678
   77.5000    85.1443     6.3101     6.2423    13.4391   -45.4246
   78.0000    85.1472     6.2687     6.1583    12.8000   -43.8705
   78.5000    85.1502     6.2276     6.1603    13.0255   -44.5054
   79.0000    85.1538     6.1437     6.0764    12.4541   -43.5895
   79.5000    85.1567     6.1034     6.0362    13.9345   -42.5229
   80.0000    85.7665     6.0218     5.9966    15.4800   -40.8493
   80.5000    86.3764     5.9823     5.9155    13.4625   -39.3286
   81.0000    86.0657     5.9431     5.8359    12.5550   -43.5720
   81.5000    84.5620     5.8636     5.8379    14.6512   -45.2565
   82.0000    83.6545     5.8251     5.7583    12.0468   -44.1692
   82.5000    82.7462     5.7869     5.7202    13.1978   -39.6125
   83.0000    82.4456     5.7892     5.6827    14.1584   -44.0087
   83.5000    84.5736     5.7513     5.6058    14.2616   -44.1287
   84.0000    89.2504     5.7136     5.6082    13.4887   -43.8483
   84.5000    92.1674     5.7164     5.6494    12.0341   -44.6026
   85.0000    93.0808     5.7588     5.6909    11.0942   -42.4728
   85.5000    93.0837     5.8015     5.7728    12.4129   -41.2555
   86.0000    92.1761     5.8445     5.8560    12.7679   -43.3745
   86.5000    90.3277     5.9712     5.9404    11.3387   -43.9929
   87.0000    87.9338     6.0155     6.0264    13.0466   -42.7588
   87.5000    85.8123     6.1025     6.1132    13.5149   -43.5121
   88.0000    83.3872     6.1908     6.2012    10.9590   -43.9630
   88.5000    82.4790     6.2804     6.2468    10.5843   -40.7719
   89.0000    86.4279     6.3713     6.3368    10.2237   -43.4990
   89.5000    88.6009     6.4642     6.3833     9.7375   -42.1289
   90.0000    84.6135     6.5121     6.4307     9.3310   -41.0623
   90.5000    80.3676     6.5147     6.4329     8.8961   -42.7261
   91.0000    77.9426     6.4713     6.4350     8.8358   -42.4183
   91.5000    77.3384     6.4289     6.3918     9.0897   -42.7174
   92.0000    77.3617     6.3429     6.3058     9.4821   -45.2927
   92.5000    78.5590     6.1284     6.2105     9.7539   -43.3156
   93.0000    79.4723     5.4827     5.8850     9.5820   -43.9183
   93.5000    80.0822     4.6711     5.4899     8.3670   -42.6989
   94.0000    81.2991     4.1211     4.6121     7.9130   -39.6596
   94.5000    81.9090     3.4623     3.9017     6.9787   -40.5657
   95.0000    78.2707     3.0123     3.5149     6.4182   -41.4718
   95.5000    74.9352     2.6027     2.9310     6.6975   -42.2378
   96.0000    73.1165     2.3123     2.2656     6.2448   -42.9795
   96.5000    84.3492     2.0258     1.9848     6.4238   -43.2797
   97.0000    92.2429     1.8637     1.8515     6.7007   -42.2120
   97.5000    98.7709     1.7755     1.7762     5.9928   -41.4500
   98.0000   104.0848     1.7516     1.7278     5.8290   -41.2928
   98.5000    99.8395     1.7667     1.7044     5.5518   -39.5984
   99.0000    96.2006     1.8282     1.7412     5.9977   -38.8551
   99.5000    94.3825     1.9750     1.8291     5.6726   -38.2438
  100.0000    93.4750     2.2237     2.0465     7.1476   -36.8860
  100.5000    87.4017     2.7886     2.6617     7.8870   -35.9652
  101.0000    78.9011     3.3534     3.2768     8.3447   -36.5736
  101.5000    72.8284     3.8936     3.8919     9.0788   -37.3485
  102.0000    69.1835     4.6703     4.5070     9.5379   -37.7909
  102.5000    68.8771     5.8010     5.7991     9.8833   -37.6402
  103.0000    70.0874     7.1893     6.8112    10.4544   -37.1868
  103.5000    71.6019     8.4643     7.4605    12.0291   -36.8844
  104.0000    72.8130     9.2073     8.1995    15.4812   -36.2793
  104.5000    72.2031     9.6717     9.3995    16.9615   -35.0668
  105.0000    67.0408     9.7420     9.8724    17.3273   -33.6721
  105.5000    61.5750     8.4168     9.4046    17.0922   -33.0970
  106.0000    57.9302     7.3222     8.7116    16.1640   -34.9198
  106.5000    58.2301     6.4419     7.8474    13.3422   -35.6800
  107.0000    59.4411     5.5808     6.5008    10.4836   -35.8332
  107.5000    63.9905     5.3164     5.8031     9.5751   -35.2277
  108.0000    69.7539     5.1717     5.2753     8.9309   -34.0152
  108.5000    76.4277     5.0662     4.9553     7.7128   -32.9387
  109.0000    84.9225     4.9972     4.7533     7.2443   -32.5007
  109.5000    92.8963     4.9645     4.5914     7.8268   -33.4130
  110.0000    94.9319     5.0361     4.6899     8.5642   -34.4767
  110.5000    87.0375     5.2583     4.9607    10.2909   -35.2368
  111.0000    80.9647     5.7549     5.2899    11.4339   -35.3901
  111.5000    73.6780     6.3481     5.7879    11.6795   -34.9363
  112.0000    71.5507     6.9537     6.4288    10.9711   -34.6343
  112.5000    71.5477     7.9986     7.1406    10.2330   -34.9396
  113.0000    71.2231     8.8230     8.0428     9.6791   -34.7893
  113.5000    70.9342     9.4643     8.8094     9.6901   -34.4873
  114.0000    74.2696     9.8819     9.4491    10.3886   -34.3366
  114.5000    79.4260    10.2994     9.9294    11.0678   -34.4902
  115.0000    80.0308    10.5210    10.2813    11.6275   -35.2504
  115.5000    76.0818    10.7473    10.6494    11.9616   -36.0441
  116.0000    72.7405    10.9021    10.8778    12.1343   -36.7711
  116.5000    71.8271    10.9822    11.0338    12.0538   -36.3174
  117.0000    75.4653    11.1405    11.1920    12.2359   -35.4084
  117.5000    75.7666    11.2223    11.2734    12.4925   -34.3476
  118.0000    74.5489    11.2367    11.3555    12.4086   -33.2865
  118.5000    74.8495    11.3888    11.4389    12.4138   -33.4446
  119.0000    77.2745    11.4725    11.6029    12.5052   -34.1175
  119.5000    80.9134    11.5568    11.6874    12.5973   -35.5674
  120.0000    83.3384    11.6417    11.6905    12.8689   -33.4448
  120.5000    80.2999    11.8094    11.8582    13.5267   -33.4463
  121.0000    78.4760    11.8962    11.9445    14.1055   -33.4478
  121.5000    78.1703    11.9836    12.0331    14.3091   -33.1457
