~VERSION INFORMATION
 VERS.                2.0:   CWLS LOG ASCII STANDARD - VERSION 2.0
 WRAP.                 NO:   ONE LINE PER DEPTH STEP
~WELL INFORMATION
#MNEM.UNIT      DATA TYPE    INFORMATION
#----------   ------------   ------------------------------
 STRT.F           42.0000:   START DEPTH
 STOP.F          433.5000:   STOP DEPTH
 STEP.F            0.5000:   STEP LENGTH
 NULL.          -999.2500:   NO VALUE
 COMP. BROWN JOHN E&C INC:   COMPANY
 WELL.    SX 10 #74-51-10:   WELL
 FLD .             TEAPOT:   FIELD
 LOC .      S10 T38N R78W:   LOCATION
 CNTY.            NATRONA:   COUNTY
 STAT.            WYOMING:   STATE
 CTRY. UNITED STATES OF AMERICA:   COUNTRY
 SRVC.       Schlumberger:   SERVICE COMPANY
 DATE.        10-SEP-1990:   LOGDATE
 API .       490251132600:   API NUMBER
~CURVE INFORMATION
#MNEM.UNIT       API CODE    CURVE DESCRIPTION
#----------   ------------   ------------------------------
 DEPT.F                  :   
 ILM .OHMM   07 120 44 00:   INDUCTION LOG MEDIUM
 ILD .OHMM   07 120 46 00:   INDUCTION LOG DEEP
 GRR .GAPI   07 310 01 00:   GAMMA RAY FROM RES. LOG.
~PARAMETER INFORMATION
#MNEM.UNIT          VALUE    DESCRIPTION
#----------   ------------   ------------------------------
 PD  .                 GL:   PERMANENT DATUM
 EPD .F              5177:   ELEVATION PERMANENT DATUM
 LMF .                 KB:   LOG MEASURED FROM
 DAPD.F                10:   FEET ABOVE PERMANENT DATUM
 DMF .                 KB:   DRILLING MEASURED FROM
 EKB .F              5187:   KELLING BUSHING
 EGL .F              5177:   GROUND LEVEL
 DATE.        10-SEP-1996:   RUN DATE
 RUN .                  1:   RUN NUMBER
 DD  .F               496:   DEPTH DRILLER
 DL  .F               440:   DEPTH LOGGER
 BLI .F               490:   BOTTOM LOG INTERVAL
 TLI .F               520:   TOP LOG INTERVAL
 CS  .IN            8.625:   CASING SIZE
 CBD .F                42:   CASING BOTTOM DRILLER
 CBL .F                52:   CASING BOTTOM LOGGER
 BS  .IN            7.875:   BIT SIZE
 BSD .F               496:   BIT SIZE AT DEPTH
 DFT .                AIR:   DRILLING FLUID TYPE
 MFSS.               MEAS:   MUD FILTRATE SAMPLE SOURCE
 MCSS.               CALC:   MUD CAKE SAMPLE SOURCE
 BHT .F                69:   BOTTOM HOLE TEMPERATURE
 TLAB.HRS            0146:   TIME LOGGER AT BOTTOM
 MRT .F                69:   MAXIMUM RECORDED TEMPERATURE
 LUN .               8199:   LOGGING UNIT NUMBER
 LUL .             CASPER:   LOGGING UNIT LOCATION
 ENGI.              SPEIL:   RECORDING ENGINEER
 WITN.          G. STRONG:   WITNESSED BY
 CLNT.            A2DTECH:   CLIENT CODE
 ORIG.      2" & 5" PRINT:   ORIGIN OF DATA
 UWI .       490251132600:   UNIQUE WELL ID
 DICO. A2D Technologies, Inc.:   DIGITIZING COMPANY
~OTHER INFORMATION
~A   DEPT      ILM        ILD         GRR  
# ...
  133.0000     8.1198     8.6466   100.7634
  133.5000     7.8051     8.4267   103.7473
  134.0000     7.5026     8.2269   105.7060
  134.5000     7.3183     8.1156   106.2474
  135.0000     7.3183     8.0325   104.8603
  135.5000     7.4806     7.9548   102.2393
  136.0000     7.6433     8.0447    99.7292
  136.5000     7.8095     8.1499   100.9088
  137.0000     7.9794     8.2979   102.5365
  137.5000     8.1529     8.5242   104.1856
  138.0000     8.3671     8.7797   104.6972
  138.5000     8.6391     8.9844   106.3784
  139.0000     8.7510     9.0276   107.1096
  139.5000     8.7860     9.0710   106.3493
  140.0000     8.8083     9.1155   103.0180
  140.5000     8.6546     9.1406    99.0583
  141.0000     8.5258     9.0056   100.7745
  141.5000     8.4095     8.9092   104.2636
  142.0000     8.3369     8.8088   107.8282
  142.5000     8.2704     8.8284   109.6401
  143.0000     8.2548     8.8513   109.6274
  143.5000     8.3339     8.8737   109.0794
  144.0000     8.4010     8.8903   108.2562
  144.5000     8.4687     8.8520   106.9963
  145.0000     8.5364     8.8217   105.5983
  145.5000     8.5674     8.8083   104.4885
  146.0000     8.4971     8.9829   103.5258
  146.5000     8.4462     9.1409   104.5500
  147.0000     8.3874     9.0585   106.2709
  147.5000     8.3073     8.9625   108.9382
  148.0000     8.2280     8.8713   111.2382
  148.5000     8.1493     8.7811   112.8848
  149.0000     8.0715     8.6918   112.5568
  149.5000     7.9778     8.6034   110.1787
  150.0000     7.8650     8.5160   106.1035
  150.5000     7.7537     8.4293   102.7225
  151.0000     7.6441     8.3436   103.6205
  151.5000     7.5360     8.2588   104.6984
  152.0000     7.4490     8.1790   102.3541
  152.5000     7.4236     8.1447    98.7512
  153.0000     7.3981     8.1126    98.3385
  153.5000     7.3013     7.9748   103.3634
  154.0000     7.1465     7.8015   109.2911
  154.5000     6.9530     7.5100   111.4490
  155.0000     6.6074     7.1574   108.9997
  155.5000     6.2553     6.8213   105.7337
  156.0000     5.9496     6.6288   103.3393
  156.5000     5.8037     6.4878   101.6644
  157.0000     5.8877     6.5357   100.1871
  157.5000     6.0910     6.5842    98.6487
  158.0000     6.3013     6.6351    96.9156
  158.5000     6.5035     6.7328    98.0715
  159.0000     6.6161     6.9247   101.5919
  159.5000     6.7308     7.1219   105.4330
  160.0000     6.8578     7.3245   106.1677
  160.5000     7.0006     7.5329   103.9189
  161.0000     7.1464     7.6356   103.5416
  161.5000     7.2038     7.6942   105.1335
  162.0000     7.2305     7.7529   107.5007
  162.5000     7.2578     7.8085   108.2102
  163.0000     7.2870     7.7732   108.5755
  163.5000     7.3183     7.7367   110.0319
  164.0000     7.2370     7.7137   111.9719
  164.5000     7.1506     7.6890   111.7360
  165.0000     7.0651     7.6650   110.6961
  165.5000     6.9949     7.5616   109.6227
  166.0000     6.9279     7.4565   108.7624
  166.5000     6.8616     7.3359   109.5044
  167.0000     6.7954     7.1749   112.1229
  167.5000     6.5922     6.9938   114.8048
  168.0000     6.3974     6.7371   116.2961
  168.5000     6.0286     6.3808   114.0667
  169.0000     5.6477     5.9367   110.8221
  169.5000     5.1124     5.5567   107.5946
  170.0000     4.6032     5.3891   104.7983
  170.5000     4.4785     5.4293   104.2933
  171.0000     4.7056     5.4746   104.8057
  171.5000     5.1463     5.5285   108.0014
  172.0000     5.3531     5.5810   111.1252
  172.5000     5.5832     5.8078   113.9344
  173.0000     5.8231     6.1369   113.5101
  173.5000     6.0734     6.5051   111.2468
  174.0000     6.3344     6.9081   107.9718
  174.5000     6.6066     7.2688   104.7891
  175.0000     6.7954     7.5176   106.2538
  175.5000     6.9508     7.6968   108.3982
  176.0000     7.0182     7.7370   108.7555
  176.5000     7.0857     7.7367   106.4142
  177.0000     7.1542     7.7859   106.4991
  177.5000     7.2557     7.8542   106.6768
  178.0000     7.3837     7.9442   106.6671
  178.5000     7.4919     8.0491   106.7438
  179.0000     7.5742     8.1553   108.3384
  179.5000     7.6574     8.2634   110.0382
  180.0000     7.7416     8.3583   112.1026
  180.5000     7.8087     8.4323   115.1094
  181.0000     7.8312     8.5063   115.1898
  181.5000     7.8534     8.5805   114.3901
  182.0000     7.8756     8.6474   112.6491
  182.5000     7.8980     8.6473   110.7883
  183.0000     7.9204     8.6813   110.9271
  183.5000     7.9428     8.7111   111.1123
  184.0000     7.9548     8.7271   110.2234
  184.5000     7.9548     8.7271   107.6559
  185.0000     7.9546     8.7272   107.2991
  185.5000     7.9541     8.7261   109.2812
  186.0000     7.9566     8.7283   111.5315
  186.5000     7.8239     8.5730   112.1661
  187.0000     7.7227     8.4661   111.7395
  187.5000     7.6764     8.3606   112.0163
  188.0000     7.6304     8.2555   112.3037
  188.5000     7.5946     8.2778   111.0596
  189.0000     7.5946     8.3017   109.1209
  189.5000     7.5946     8.3320   108.6823
  190.0000     7.5123     8.2185   109.4945
  190.5000     7.2663     8.0619   113.1974
  191.0000     7.0283     7.9096   114.7983
  191.5000     6.7515     7.6657   114.3265
  192.0000     6.4759     7.4127   113.2758
  192.5000     6.1941     7.1670   112.9725
  193.0000     6.0026     6.9225   112.7538
  193.5000     5.8051     6.5392   111.8870
  194.0000     5.3802     6.0707   109.3079
  194.5000     4.8699     5.3193   107.4324
  195.0000     4.2520     4.5731   109.0888
  195.5000     3.6267     3.9316   111.4836
  196.0000     3.0915     3.3801   111.1223
  196.5000     2.3754     2.9582   107.5026
  197.0000     2.1576     2.7661   102.3073
  197.5000     2.1143     2.6903    96.6869
  198.0000     2.4266     2.6655    94.0164
  198.5000     2.7649     2.6409    95.8114
  199.0000     3.0915     2.7031   101.5934
  199.5000     2.9243     2.8884   107.5524
  200.0000     3.2682     3.4732   113.5172
  200.5000     3.9614     4.1522   116.5121
  201.0000     4.7051     4.9728   116.0917
  201.5000     5.2948     5.7150   113.9799
  202.0000     5.5580     6.1721   112.7777
  202.5000     5.8255     6.5482   113.9548
  203.0000     6.0501     6.8386   115.7533
  203.5000     6.2042     6.9770   117.5359
  204.0000     6.3654     7.1177   117.8647
  204.5000     6.5893     6.9479   118.1128
  205.0000     6.7328     6.7527   118.3943
  205.5000     6.2789     6.5292   119.4339
  206.0000     5.7434     6.0530   121.8577
  206.5000     5.0755     5.5688   126.7135
  207.0000     4.4851     5.4802   130.1039
  207.5000     4.3155     5.4539   130.6169
  208.0000     4.8367     5.3726   128.4936
  208.5000     5.1430     5.2366   125.1302
  209.0000     5.0183     5.0518   121.9983
  209.5000     4.9144     5.1251   119.7446
  210.0000     5.1202     5.3060   119.9907
  210.5000     5.3313     5.5690   122.3980
  211.0000     5.5511     5.8775   124.8051
  211.5000     5.7800     6.2247   125.4502
  212.0000     6.0220     6.5906   123.3520
  212.5000     6.2914     6.8349   121.2259
  213.0000     6.5725     7.0012   122.8950
  213.5000     6.8662     7.1839   125.0608
  214.0000     7.1839     7.4816   124.8055
  214.5000     7.4481     7.8175   120.3542
  215.0000     7.6653     7.9389   116.6980
  215.5000     7.6151     8.0113   116.3064
  216.0000     7.5528     8.1036   116.1132
  216.5000     7.4695     8.0409   115.7566
  217.0000     7.3864     7.9548   115.0546
  217.5000     7.2539     7.8044   114.3581
  218.0000     7.1228     7.6653   113.6507
  218.5000     6.9941     7.5735   114.0288
  219.0000     6.8676     7.4883   114.7239
  219.5000     6.7435     7.4040   115.5367
  220.0000     6.6011     7.2671   115.3293
  220.5000     6.4333     6.9621   115.0335
  221.0000     6.2691     6.4907   114.8328
  221.5000     5.9174     6.0490   116.1683
  222.0000     5.2630     5.5017   117.5109
  222.5000     4.5559     4.9133   118.6939
  223.0000     3.9438     4.8680   119.2353
  223.5000     3.6822     4.9848   119.2292
