~VERSION INFORMATION
 VERS.                2.0:   CWLS LOG ASCII STANDARD - VERSION 2.0
 WRAP.                 NO:   ONE LINE PER DEPTH STEP
~WELL INFORMATION
#MNEM.UNIT      DATA TYPE    INFORMATION
#----------   ------------   ------------------------------
 STRT.F           70.0000:   START DEPTH
 STOP.F         1072.0000:   STOP DEPTH
 STEP.F            0.5000:   STEP LENGTH
 NULL.          -999.2500:   NO VALUE
 COMP. LAWRENCE/ALLISON INC:   COMPANY
 WELL.    67-66 SX #11-11:   WELL
 FLD .             TEAPOT:   FIELD
 LOC .      S11 T38N R78W:   LOCATION
 CNTY.            NATRONA:   COUNTY
 STAT.            WYOMING:   STATE
 CTRY. UNITED STATES OF AMERICA:   COUNTRY
 SRVC.      Dresser Atlas:   SERVICE COMPANY
 DATE.        03-FEB-1986:   LOGDATE
 API .       490251105700:   API NUMBER
~CURVE INFORMATION
#MNEM.UNIT       API CODE    CURVE DESCRIPTION
#----------   ------------   ------------------------------
 DEPT.F                  :   
 RILD.OHMM   07 120 46 00:   RESISTIVITY INDUCTION LOG DEEP
 RILM.OHMM   07 120 44 00:   RESISTIVITY INDUCTION LOG MEDIUM
 GRD .GAPI   45 310 01 00:   GAMMA RAY FROM DENSITY LOG
 CALD.IN     45 280 60 00:   CALIPER FROM DENSITY LOG
 CORR.G/C3   45 356 01 00:   DENSITY CORRECTION
 PORD.DEC    45 890 12 00:   POROSITY DENSITY SANDSTONE
 DEN .G/C3   45 350 01 00:   COMPENSATED BULK DENSTIY
~PARAMETER INFORMATION
#MNEM.UNIT          VALUE    DESCRIPTION
#----------   ------------   ------------------------------
 PD  .                 GL:   PERMANENT DATUM
 EPD .F              5245:   ELEVATION PERMANENT DATUM
 LMF .                 GL:   LOG MEASURED FROM
 DMF .                 GL:   DRILLING MEASURED FROM
 EGL .F              5245:   GROUND LEVEL
 DATE.        03-FEB-1986:   RUN DATE
 RUN .                  1:   RUN NUMBER
 DD  .F              1120:   DEPTH DRILLER
 DL  .F              1074:   DEPTH LOGGER
 BLI .F              1068:   BOTTOM LOG INTERVAL
 TLI .F                86:   TOP LOG INTERVAL
 CS  .IN            8.625:   CASING SIZE
 CBD .F                86:   CASING BOTTOM DRILLER
 CBL .F                86:   CASING BOTTOM LOGGER
 BS  .IN             6.25:   BIT SIZE
 BSD .F              1120:   BIT SIZE AT DEPTH
 DFT .                AIR:   DRILLING FLUID TYPE
 TCS .HRS               2:   TIME CURCULATED STOPPED
 LUN .               6274:   LOGGING UNIT NUMBER
 LUL .           GILLETTE:   LOGGING UNIT LOCATION
 ENGI.             MILLER:   RECORDING ENGINEER
 WITN.           JENNINGS:   WITNESSED BY
 CLNT.            A2DTECH:   CLIENT CODE
 ORIG.           5" PRINT:   ORIGIN OF DATA
 UWI .       490251105700:   UNIQUE WELL ID
 DICO. A2D Technologies, Inc.:   DIGITIZING COMPANY
~OTHER INFORMATION
~A   DEPT     RILD       RILM        GRD       CALD       CORR       PORD        DEN   
# ...
  388.5000     4.8548     4.9512   138.1227     7.3642     0.0846     0.1317     2.4593
  389.0000     4.8599     4.8890   140.8529     7.3687     0.0745     0.1297     2.4617
  389.5000     4.9329     4.8948   143.5830     7.3993     0.0898     0.1292     2.4603
  390.0000     5.0069     4.9689   144.5195     7.4748     0.1096     0.1353     2.4514
  390.5000     5.0470     5.1143   145.7549     7.5354     0.0948     0.1397     2.4424
  391.0000     5.1228     5.1917   144.8976     7.5970     0.0815     0.1426     2.4418
  391.5000     5.1638     5.1620   142.2466     7.6437     0.0938     0.1429     2.4427
  392.0000     5.1693     5.1310   140.6797     7.6904     0.1076     0.1419     2.4435
  392.5000     5.2106     5.1386   139.9243     7.7221     0.1018     0.1440     2.4368
  393.0000     5.2161     5.2164   142.3637     7.7538     0.0795     0.1476     2.4309
  393.5000     5.1842     5.2588   144.1888     7.8154     0.0556     0.1484     2.4317
  394.0000     5.1910     5.2650   145.1253     7.9070     0.0574     0.1481     2.4318
  394.5000     5.1954     5.1989   143.6701     7.9686     0.0606     0.1487     2.4327
  395.0000     5.2056     5.1677   141.9159     8.0003     0.0639     0.1480     2.4343
  395.5000     5.2424     5.1753   139.5639     7.8975     0.0656     0.1465     2.4351
  396.0000     5.2478     5.2536   138.1087     7.8690     0.0584     0.1461     2.4367
  396.5000     5.2898     5.2964   139.3441     7.8709     0.0526     0.1486     2.4316
  397.0000     5.2953     5.3027   141.1774     7.8876     0.0453     0.1530     2.4204
  397.5000     5.3748     5.3445   140.6191     7.8744     0.0561     0.1556     2.4174
  398.0000     5.3805     5.3508   139.1639     7.8763     0.0761     0.1559     2.4228
  398.5000     5.4236     5.3571   136.8119     7.8781     0.0823     0.1477     2.4324
  399.0000     5.4293     5.4006   135.2168     7.8799     0.0870     0.1462     2.4373
  399.5000     5.3961     5.4069   132.9948     7.8369     0.0886     0.1467     2.4317
  400.0000     5.3095     5.4133   134.2302     7.8084     0.0497     0.1488     2.4296
  400.5000     5.2029     5.3813   135.1514     7.8553     0.0771     0.1439     2.4410
  401.0000     5.0869     5.0612   134.5778     7.8570     0.0864     0.1418     2.4441
  401.5000     4.8513     4.8254   135.2000     7.8587     0.0746     0.1396     2.4420
  402.0000     4.6266     4.6026   139.4097     7.8902     0.0612     0.1444     2.4338
  402.5000     4.4738     4.4196   141.2277     7.9218     0.0479     0.1531     2.4226
  403.0000     4.2666     4.2146   138.8604     7.9235     0.0693     0.1595     2.4114
  403.5000     4.0690     4.1024   140.0806     7.9098     0.0803     0.1664     2.3972
  404.0000     4.0441     4.0778   147.5787     7.9115     0.0832     0.1730     2.3845
  404.5000     4.1059     4.1108   154.4790     7.9132     0.0653     0.1828     2.3696
  405.0000     4.1965     4.2593   156.8889     7.8999     0.0521     0.1942     2.3561
  405.5000     4.4095     4.4547   151.2391     7.9015     0.0644     0.2068     2.3314
  406.0000     4.6334     4.7372   145.2199     7.8732     0.0737     0.1996     2.3398
  406.5000     4.8017     4.9444   139.5435     7.8750     0.0724     0.1818     2.3679
  407.0000     5.0806     5.1934   146.3237     7.8468     0.0682     0.1621     2.4006
  407.5000     5.3756     5.4490   149.8356     7.8484     0.0624     0.1588     2.4123
  408.0000     5.5324     5.6069   147.4683     7.8800     0.0580     0.1618     2.4049
  408.5000     5.6545     5.7296   142.4104     7.9116     0.0553     0.1687     2.3982
  409.0000     5.7394     5.8956   135.5588     7.9133     0.0616     0.1680     2.3998
  409.5000     5.8647     5.9832   129.3051     7.9149     0.0695     0.1663     2.4044
  410.0000     5.9996     6.0720   125.7359     7.9012     0.0802     0.1618     2.4113
  410.5000     6.1263     6.1197   130.5495     7.8581     0.0719     0.1577     2.4174
  411.0000     6.2182     6.2536   132.9655     7.8598     0.0610     0.1546     2.4220
  411.5000     6.3116     6.3465   131.7940     7.8614     0.0675     0.1519     2.4274
  412.0000     6.4062     6.4407   126.4371     7.8780     0.0766     0.1491     2.4320
  412.5000     6.5023     6.4913   127.3583     7.9096     0.0798     0.1464     2.4351
  413.0000     6.5092     6.4972   131.5680     7.9113     0.0801     0.1448     2.4390
  413.5000     6.4710     6.5031   133.1420     7.8831     0.0818     0.1430     2.4415
  414.0000     6.4314     6.4627   135.3185     7.8847     0.0805     0.1402     2.4445
  414.5000     6.2207     6.2936   138.8499     7.8710     0.0748     0.1396     2.4437
  415.0000     5.9738     5.9603   141.2257     7.8881     0.0630     0.1432     2.4386
  415.5000     5.7766     5.7233   141.5490     7.8744     0.0497     0.1471     2.4304
  416.0000     5.5858     5.5338   138.5838     7.8765     0.0590     0.1529     2.4222
  416.5000     5.2904     5.3506   136.6936     7.8931     0.0788     0.1573     2.4156
  417.0000     5.0804     5.2306   138.3335     7.8948     0.0911     0.1611     2.4089
  417.5000     4.9126     5.0256   140.7494     7.8811     0.1003     0.1635     2.4052
  418.0000     4.6528     4.5621   138.0831     7.8828     0.0594     0.1645     2.4053
  418.5000     4.1691     3.9812   137.5035     7.8845     0.0327     0.1619     2.4054
  419.0000     3.6960     3.4742   142.9151     7.8861     0.0348     0.1625     2.4048
  419.5000     3.2784     3.1364   147.7226     7.8878     0.0410     0.1642     2.4026
  420.0000     3.0411     3.0117   153.1281     7.8595     0.0428     0.1687     2.3967
  420.5000     2.9817     3.0354   153.4453     7.8612     0.0536     0.1765     2.3818
  421.0000     3.0056     3.1450   149.5247     7.8629     0.0764     0.2196     2.3331
  421.5000     3.0296     3.3269   141.6760     7.8795     0.0942     0.2478     2.2512
  422.0000     3.1180     3.5931   136.1595     7.8961     0.1117     0.2605     2.2516
  422.5000     3.2763     3.9075   135.0075     7.8978     0.0590     0.2258     2.2881
  423.0000     3.4907     4.1335   135.3307     7.8995     0.0337     0.1954     2.3243
  423.5000     3.8768     4.4029   135.6540     7.9012     0.0550     0.1713     2.3838
  424.0000     4.3357     4.7552   133.8846     7.9028     0.0733     0.1592     2.4155
  424.5000     4.6838     4.9269   134.2079     7.8891     0.0630     0.1589     2.4141
  425.0000     4.8641     5.0348   136.3249     7.8909     0.0602     0.1619     2.4112
  425.5000     5.0639     5.0394   137.5450     7.8940     0.0756     0.1605     2.4105
  426.0000     5.0341     4.9052   135.1777     7.9091     0.0924     0.1578     2.4159
  426.5000     5.0046     4.9449   128.3261     7.9108     0.0821     0.1545     2.4213
  427.0000     5.0099     5.0183   125.9588     7.9125     0.0658     0.1512     2.4274
  427.5000     5.0151     5.0229   127.7768     7.8842     0.0694     0.1473     2.4343
  428.0000     5.0204     4.9916   131.6876     7.8411     0.0752     0.1433     2.4397
  428.5000     4.9224     4.9145   129.7937     7.8577     0.0679     0.1457     2.4331
  429.0000     4.7598     4.5740   127.7249     7.8594     0.0622     0.1514     2.4216
  429.5000     4.4154     4.0776   124.5402     7.8610     0.0607     0.1571     2.4165
  430.0000     3.6158     3.3892   123.1091     7.9075     0.0732     0.1579     2.4144
  430.5000     3.0442     2.9217   126.7209     7.9242     0.0825     0.1576     2.4176
  431.0000     2.5808     2.4792   133.9201     7.9408     0.0857     0.1591     2.4162
  431.5000     2.2338     2.2215   140.2224     7.9425     0.0905     0.1648     2.4065
  432.0000     2.1600     2.1628   146.2258     7.9438     0.0952     0.1939     2.3810
  432.5000     2.1468     2.2256   142.6627     7.9454     0.0729     0.2138     2.3389
  433.0000     2.1646     2.3871   134.3163     7.9321     0.0822     0.2526     2.2435
  433.5000     2.2745     2.6504   119.6919     7.9338     0.0960     0.2828     2.1999
