~VERSION INFORMATION
 VERS.                2.0:   CWLS LOG ASCII STANDARD - VERSION 2.0
 WRAP.                 NO:   ONE LINE PER DEPTH STEP
~WELL INFORMATION
#MNEM.UNIT      DATA TYPE    INFORMATION
#----------   ------------   ------------------------------
 STRT.F           32.0000:   START DEPTH
 STOP.F          707.0000:   STOP DEPTH
 STEP.F            0.5000:   STEP LENGTH
 NULL.          -999.2500:   NO VALUE
 COMP. FENIX & SCISSON INC:   COMPANY
 WELL.     NPR 3 #28SX-11:   WELL
 FLD .             TEAPOT:   FIELD
 LOC .      S11 T38N R78W:   LOCATION
 CNTY.            NATRONA:   COUNTY
 STAT.            WYOMING:   STATE
 CTRY. UNITED STATES OF AMERICA:   COUNTRY
 SRVC.              Welex:   SERVICE COMPANY
 DATE.        26-APR-1977:   LOGDATE
 API .       490251034400:   API NUMBER
~CURVE INFORMATION
#MNEM.UNIT       API CODE    CURVE DESCRIPTION
#----------   ------------   ------------------------------
 DEPT.F                  :   
 CALD.IN     45 280 60 00:   CALIPER FROM DENSITY LOG
 GRD .GAPI   45 310 01 00:   GAMMA RAY FROM DENSITY LOG
 CORR.G/C3   45 356 01 00:   DENSITY CORRECTION
 DPHI.DEC    45 890 12 00:   DENSITY POROSITY SANDSTONE
 RHOB.G/C3   45 350 01 00:   BULK DENSITY
~PARAMETER INFORMATION
#MNEM.UNIT          VALUE    DESCRIPTION
#----------   ------------   ------------------------------
 PD  .                 GL:   PERMANENT DATUM
 EPD .F              5203:   ELEVATION PERMANENT DATUM
 LMF .                 GL:   LOG MEASURED FROM
 DMF .                 GL:   DRILLING MEASURED FROM
 EGL .F              5203:   GROUND LEVEL
 DATE.        26-APR-1977:   RUN DATE
 RUN .                  1:   RUN NUMBER
 DD  .F               714:   DEPTH DRILLER
 DL  .F               709:   DEPTH LOGGER
 BLI .F               707:   BOTTOM LOG INTERVAL
 TLI .F                32:   TOP LOG INTERVAL
 CS  .IN            8.625:   CASING SIZE
 BS  .IN               12:   BIT SIZE
 BSD .F               714:   BIT SIZE AT DEPTH
 DFT .            KCL MUD:   DRILLING FLUID TYPE
 DFD .                8.7:   DRILLING FLUID DENSITY
 TCS .HRS            0100:   TIME CURCULATED STOPPED
 MRT .F                74:   MAXIMUM RECORDED TEMPERATURE
 ENGI.            C. DOAK:   RECORDING ENGINEER
 WITN.           ROB LYON:   WITNESSED BY
 CLNT.            A2DTECH:   CLIENT CODE
 ORIG.           5" PRINT:   ORIGIN OF DATA
 UWI .       490251034400:   UNIQUE WELL ID
 DICO. A2D Technologies, Inc.:   DIGITIZING COMPANY
~OTHER INFORMATION
~A   DEPT       CALD      GRD        CORR      DPHI       RHOB   
# ...
  154.0000     7.9173   106.9116     0.0481     0.1153     2.4868
  154.5000     7.9168   105.5934     0.0528     0.1188     2.4817
  155.0000     7.9164   104.7190     0.0545     0.1191     2.4787
  155.5000     7.9159   105.6198     0.0577     0.1161     2.4822
  156.0000     7.9155   109.2109     0.0624     0.1139     2.4924
  156.5000     7.9151   112.9451     0.0596     0.1151     2.4881
  157.0000     7.9146   115.7573     0.0492     0.1225     2.4709
  157.5000     7.9142   117.8551     0.0463     0.1216     2.4649
  158.0000     7.9137   119.0000     0.0467     0.1174     2.4814
  158.5000     7.9133   117.8212     0.0498     0.1138     2.4875
  159.0000     7.9129   113.1121     0.0499     0.1105     2.4950
  159.5000     7.9124   114.7525     0.0486     0.1092     2.5003
  160.0000     7.9120   117.7243     0.0398     0.1116     2.4922
  160.5000     7.9115   118.0301     0.0369     0.1166     2.4818
  161.0000     7.9115   113.4608     0.0356     0.1167     2.4834
  161.5000     7.9118   110.5154     0.0343     0.1151     2.4820
  162.0000     7.9120   108.6056     0.0345     0.1174     2.4738
  162.5000     7.9122   109.2105     0.0332     0.1231     2.4642
  163.0000     7.9124   111.5906     0.0273     0.1284     2.4553
  163.5000     7.9126   114.1186     0.0245     0.1325     2.4532
  164.0000     7.9128   116.6466     0.0277     0.1291     2.4659
  164.5000     7.9131   118.8788     0.0324     0.1182     2.4839
  165.0000     7.9133   119.9275     0.0371     0.1101     2.4981
  165.5000     7.9135   119.2010     0.0403     0.1076     2.4945
  166.0000     7.9137   118.3267     0.0359     0.1139     2.4774
  166.5000     7.9139   117.7449     0.0346     0.1171     2.4782
  167.0000     7.9142   117.3143     0.0363     0.1114     2.4903
  167.5000     7.9144   117.1796     0.0410     0.1069     2.4948
  168.0000     7.9146   118.0837     0.0457     0.1048     2.4995
  168.5000     7.9148   119.5762     0.0474     0.1050     2.5025
  169.0000     7.9150   121.6604     0.0445     0.1089     2.5032
  169.5000     7.9152   123.5967     0.0387     0.1142     2.4936
  170.0000     7.9155   125.6809     0.0298     0.1244     2.4706
  170.5000     7.9157   126.5966     0.0270     0.1312     2.4580
  171.0000     7.9159   123.3405     0.0241     0.1312     2.4513
  171.5000     7.9161   120.9868     0.0213     0.1338     2.4447
  172.0000     7.9163   119.3728     0.0215     0.1380     2.4403
  172.5000     7.9165   117.8993     0.0232     0.1391     2.4433
  173.0000     7.9168   116.1242     0.0264     0.1376     2.4509
  173.5000     7.9170   114.6563     0.0296     0.1331     2.4659
  174.0000     7.9172   113.6565     0.0313     0.1277     2.4719
  174.5000     7.9174   114.4908     0.0299     0.1244     2.4757
  175.0000     7.9176   116.7655     0.0271     0.1228     2.4668
  175.5000     7.9178   120.2083     0.0228     0.1267     2.4594
  176.0000     7.9181   120.9578     0.0183     0.1290     2.4550
  176.5000     7.9183   118.6075     0.0126     0.1315     2.4559
  177.0000     7.9185   117.1414     0.0113     0.1341     2.4529
  177.5000     7.9187   117.5984     0.0131     0.1382     2.4433
  178.0000     7.9189   119.8306     0.0161     0.1400     2.4516
  178.5000     7.9191   121.6189     0.0166     0.1292     2.4636
  179.0000     7.9194   122.6676     0.0196     0.1247     2.4682
  179.5000     7.9196   122.0891     0.0182     0.1240     2.4682
  180.0000     7.9198   120.4751     0.0139     0.1288     2.4637
  180.5000     7.9200   119.3049     0.0080     0.1347     2.4503
  181.0000     7.9202   117.8388     0.0052     0.1448     2.4325
  181.5000     7.9204   116.0769     0.0038     0.1499     2.4268
  182.0000     7.9207   114.4629     0.0056     0.1436     2.4380
  182.5000     7.9209   114.1770     0.0148     0.1397     2.4508
  183.0000     7.9211   114.3414     0.0210     0.1345     2.4598
  183.5000     7.9225   113.1712     0.0242     0.1291     2.4659
  184.0000     7.9240   111.1134     0.0274     0.1252     2.4600
  184.5000     7.9254   110.2390     0.0291     0.1285     2.4570
  185.0000     7.9268   110.4002     0.0292     0.1293     2.4676
  185.5000     7.9283   111.0051     0.0279     0.1266     2.4699
  186.0000     7.9297   111.7580     0.0265     0.1314     2.4521
  186.5000     7.9311   112.8067     0.0268     0.1310     2.4596
  187.0000     7.9326   114.0033     0.0269     0.1256     2.4716
  187.5000     7.9340   115.0520     0.0286     0.1220     2.4784
  188.0000     7.9354   115.8049     0.0303     0.1274     2.4688
  188.5000     7.9369   117.1495     0.0305     0.1228     2.4651
  189.0000     7.9383   119.5325     0.0337     0.1274     2.4644
  189.5000     7.9397   117.2756     0.0369     0.1227     2.4712
  190.0000     7.9412   114.6349     0.0401     0.1162     2.4802
  190.5000     7.9426   114.0958     0.0448     0.1114     2.4893
  191.0000     7.9440   118.0679     0.0449     0.1122     2.4931
  191.5000     7.9455   120.3036     0.0421     0.1170     2.4842
  192.0000     7.9469   122.3275     0.0378     0.1199     2.4753
  192.5000     7.9483   123.0277     0.0364     0.1226     2.4732
  193.0000     7.9498   120.8220     0.0396     0.1190     2.4755
  193.5000     7.9512   116.9891     0.0443     0.1109     2.4788
  194.0000     7.9526   113.8958     0.0475     0.1013     2.4945
  194.5000     7.9541   113.4619     0.0461     0.0971     2.5100
  195.0000     7.9555   116.1411     0.0434     0.0941     2.5153
  195.5000     7.9569   118.3733     0.0372     0.0946     2.5087
  196.0000     7.9584   120.9013     0.0285     0.1044     2.4849
  196.5000     7.9598   122.6897     0.0226     0.1160     2.4685
  197.0000     7.9612   124.7739     0.0200     0.1214     2.4559
  197.5000     7.9627   125.9705     0.0172     0.1324     2.4545
  198.0000     7.9641   124.5045     0.0174     0.1330     2.4621
  198.5000     7.9655   121.7070     0.0206     0.1276     2.4711
  199.0000     7.9658   119.5013     0.0238     0.1219     2.4764
  199.5000     7.9652   118.0352     0.0255     0.1188     2.4794
  200.0000     7.9649   116.5061     0.0256     0.1197     2.4761
  200.5000     7.9656   114.3617     0.0258     0.1234     2.4691
  201.0000     7.9661   115.5725     0.0260     0.1286     2.4610
  201.5000     7.9667   117.6544     0.0262     0.1294     2.4551
  202.0000     7.9673   119.2929     0.0280     0.1285     2.4583
  202.5000     7.9678   120.1959     0.0312     0.1258     2.4688
  203.0000     7.9684   120.6376     0.0344     0.1222     2.4771
  203.5000     7.9690   120.0275     0.0375     0.1178     2.4861
  204.0000     7.9695   118.5206     0.0407     0.1115     2.4966
  204.5000     7.9701   115.7538     0.0426     0.1077     2.5048
  205.0000     7.9706   114.4452     0.0441     0.1087     2.4927
  205.5000     7.9712   113.5995     0.0458     0.1166     2.4824
  206.0000     7.9718   114.6836     0.0460     0.1156     2.4866
  206.5000     7.9723   116.3454     0.0462     0.1107     2.4933
  207.0000     7.9729   118.3064     0.0449     0.1074     2.4985
  207.5000     7.9735   119.9076     0.0436     0.1063     2.5022
  208.0000     7.9740   120.6391     0.0423     0.1111     2.5023
  208.5000     7.9746   120.3795     0.0395     0.1119     2.4993
  209.0000     7.9752   117.7235     0.0367     0.1106     2.4940
  209.5000     7.9757   115.5392     0.0338     0.1132     2.4859
  210.0000     7.9763   114.4520     0.0325     0.1178     2.4807
  210.5000     7.9769   115.0594     0.0297     0.1208     2.4751
  211.0000     7.9774   116.4033     0.0284     0.1227     2.4789
  211.5000     7.9780   119.0786     0.0286     0.1221     2.4773
  212.0000     7.9786   120.5704     0.0273     0.1222     2.4711
  212.5000     7.9791   120.8788     0.0275     0.1260     2.4656
  213.0000     7.9797   119.7079     0.0277     0.1279     2.4674
  213.5000     7.9803   118.2412     0.0279     0.1280     2.4688
  214.0000     7.9808   116.9224     0.0281     0.1278     2.4591
  214.5000     7.9814   117.0828     0.0283     0.1265     2.4664
