~VERSION INFORMATION
 VERS.                2.0:   CWLS LOG ASCII STANDARD - VERSION 2.0
 WRAP.                 NO:   ONE LINE PER DEPTH STEP
~WELL INFORMATION
#MNEM.UNIT      DATA TYPE    INFORMATION
#----------   ------------   ------------------------------
 STRT.F            0.0000:   START DEPTH
 STOP.F          962.0000:   STOP DEPTH
 STEP.F            0.5000:   STEP LENGTH
 NULL.          -999.2500:   NO VALUE
 COMP. FENIX & SCISSON INC:   COMPANY
 WELL.      NPR #3 #51-14:   WELL
 FLD .             TEAPOT:   FIELD
 LOC .      S14 T38N R78W:   LOCATION
 CNTY.            NATRONA:   COUNTY
 STAT.            WYOMING:   STATE
 CTRY. UNITED STATES OF AMERICA:   COUNTRY
 SRVC.              Welex:   SERVICE COMPANY
 DATE.        03-MAR-1977:   LOGDATE
 API .       490251029700:   API NUMBER
~CURVE INFORMATION
#MNEM.UNIT       API CODE    CURVE DESCRIPTION
#----------   ------------   ------------------------------
 DEPT.F                  :   
 SGRD.OHMM   07 220 05 00:   SHALLOW RESISTIVITY
 ILM .OHMM   07 120 44 00:   INDUCTION LOG MEDIUM
 ILD .OHMM   07 120 46 00:   INDUCTION LOG DEEP
 SPR .MV     07 010 01 00:   SPONTANEOUS POTENTIAL
 DPHI.DEC    45 890 12 00:   DENSITY POROSITY SANDSTONE
 RHOB.G/C3   45 350 01 00:   BULK DENSITY
 CORR.G/C3   45 356 01 00:   DENSITY CORRECTION
 CALD.IN     45 280 60 00:   CALIPER
 GRD .GAPI   45 310 01 00:   GAMMA RAY FROM DENSITY LOG
~PARAMETER INFORMATION
#MNEM.UNIT          VALUE    DESCRIPTION
#----------   ------------   ------------------------------
 PD  .                 GL:   PERMANENT DATUM
 EPD .F            5221.8:   ELEVATION PERMANENT DATUM
 LMF .                 GL:   LOG MEASURED FROM
 DMF .                 GL:   DRILLING MEASURED FROM
 EGL .F            5221.8:   GROUND LEVEL
 DATE.             3-3-77:   RUN DATE
 RUN .                  1:   RUN NUMBER
 DD  .F               967:   DEPTH DRILLER
 DL  .F               964:   DEPTH LOGGER
 BLI .F               962:   BOTTOM LOG INTERVAL
 TLI .F                42:   TOP LOG INTERVAL
 CS  .IN            8.625:   CASING SIZE
 CBD .F                42:   CASING BOTTOM DRILLER
 CBL .F                42:   CASING BOTTOM LOGGER
 BS  .IN            7.875:   BIT SIZE
 BSD .F               967:   BIT SIZE AT DEPTH
 DFT .           CHEM-GEL:   DRILLING FLUID TYPE
 DFD .                8.7:   DRILLING FLUID DENSITY
 DFV .                 33:   DRILLING FLUID VISCOSITY
 DFPH.                7.2:   DRILLING FLUID PH
 DFL .                 10:   DRILLING FLUID LOSS
 MSS .          FLOW LINE:   MUD SAMPLE SOURCE
 RMS .OHMM           .422:   RESISTIVITY MUD SAMPLE
 MST .F                56:   MUD SAMPLE TEMPERATURE
 RMF .OHMM           .372:   RESISTIVITY MUD FILTRATE SAMPLE
 MFST.F                56:   MUD FILTRATE SAMPLE TEMPERATURE
 RMC .OHMM           .484:   RESISTIVITY MUD CAKE
 MCST.F                56:   MUD CAKE SAMPLE TEMPERATURE
 MFSS.           MEASURED:   MUD FILTRATE SAMPLE SOURCE
 MCSS.           MEASURED:   MUD CAKE SAMPLE SOURCE
 RMB .OHMM           .284:   RESISTIVITY MUD AT BHT
 BHT .F                83:   BOTTOM HOLE TEMPERATURE
 TCS .HRS               2:   TIME CURCULATED STOPPED
 MRT .F                83:   MAXIMUM RECORDED TEMPERATURE
 LUN .               8611:   LOGGING UNIT NUMBER
 LUL .           GILLETTE:   LOGGING UNIT LOCATION
 ENGI.          D. LAWSON:   RECORDING ENGINEER
 WITN.         STUEBINGER:   WITNESSED BY
 CLNT.            A2DTECH:   CLIENT CODE
 ORIG.        2" 5" PRINT:   ORIGIN OF DATA
 UWI .       490251029700:   UNIQUE WELL ID
 DICO. A2D Technologies, Inc.:   DIGITIZING COMPANY
~OTHER INFORMATION
~A    DEPT    SGRD        ILM        ILD        SPR       DPHI       RHOB       CORR       CALD        GRD   
# ...
  146.0000     8.0578     5.8983     4.5342   -35.3149     0.1097     2.4692     0.0575     8.2238   104.2167
  146.5000     7.5744     5.8399     4.5303   -35.4048     0.1175     2.4562     0.0553     8.2254   106.3374
  147.0000     7.4206     5.7326     4.5264   -35.4946     0.1253     2.4320     0.0463     8.2270   106.7048
  147.5000     7.4560     5.6273     4.5225   -35.5844     0.1309     2.4192     0.0451     8.2286   105.7403
  148.0000     7.4867     5.5239     4.5185   -35.6742     0.1195     2.4388     0.0470     8.2303   104.0464
  148.5000     7.4398     5.3800     4.5563   -35.7641     0.1142     2.4557     0.0491     8.2319   102.4066
  149.0000     7.3513     5.4514     4.5988   -35.8544     0.1094     2.4669     0.0511     8.2335   100.8938
  149.5000     7.4491     5.5830     4.6417   -35.9467     0.1046     2.4778     0.0532     8.2353    99.6193
  150.0000     7.6142     5.7168     4.6851   -35.8727     0.0998     2.4917     0.0552     8.2357    99.7530
  150.5000     7.8807     5.8535     4.7288   -35.7745     0.0964     2.4879     0.0573     8.2186    99.8964
  151.0000     8.1321     5.9936     4.7729   -35.6762     0.1012     2.4808     0.0593     8.2019    99.8050
  151.5000     8.0486     6.1370     4.8174   -35.5783     0.1049     2.4735     0.0613     8.1853    98.9851
  152.0000     7.9841     6.2309     4.8623   -35.4804     0.1039     2.4804     0.0634     8.1688    98.1872
  152.5000     8.1535     6.1492     4.9077   -35.3825     0.0981     2.4890     0.0654     8.1587    97.9609
  153.0000     8.8287     6.0897     4.9535   -35.2846     0.0923     2.4974     0.0675     8.1666   100.8830
  153.5000     8.4775     6.0308     4.9997   -35.1865     0.0924     2.4998     0.0655     8.1740   103.7320
  154.0000     7.9129     5.9725     5.0464   -35.0890     0.0977     2.4872     0.0614     8.1814   105.7857
  154.5000     8.0495     5.9513     5.0934   -34.9883     0.1027     2.4780     0.0531     8.1888   105.4146
  155.0000     8.2813     6.2034     5.1381   -35.0514     0.1051     2.4750     0.0512     8.1962   102.6053
  155.5000     8.5168     6.3852     5.1381   -35.1798     0.1068     2.4723     0.0493     8.2036   101.9911
  156.0000     8.8073     6.5722     5.1015   -35.3109     0.1095     2.4638     0.0474     8.2110   103.6105
  156.5000     8.6200     6.6889     5.0482   -35.4417     0.1122     2.4552     0.0457     8.2184   105.4800
  157.0000     8.3236     6.4947     4.9955   -35.5723     0.1148     2.4576     0.0456     8.2258   108.4268
  157.5000     8.0374     6.3372     4.9433   -35.7029     0.1109     2.4601     0.0465     8.2332   110.8308
  158.0000     7.9111     6.1835     4.8917   -35.8335     0.1058     2.4731     0.0486     8.2407   111.9050
  158.5000     8.1804     6.1175     4.8406   -35.9641     0.1006     2.4877     0.0507     8.2481   112.9797
  159.0000     8.3592     6.1609     4.7901   -36.0948     0.0955     2.4918     0.0527     8.2555   114.0522
  159.5000     8.1502     6.1929     4.7401   -36.2254     0.0944     2.4903     0.0548     8.2552   115.1140
  160.0000     8.0022     6.2304     4.7269   -36.3560     0.0956     2.4899     0.0569     8.2536   115.1235
  160.5000     7.8569     6.1119     4.7224   -36.4867     0.0923     2.4950     0.0589     8.2521   113.8346
  161.0000     7.7142     5.9713     4.7179   -36.6182     0.0891     2.5001     0.0609     8.2506   112.5604
  161.5000     7.5561     5.7899     4.7134   -36.7482     0.0858     2.5050     0.0612     8.2490   111.2805
  162.0000     7.6664     5.8480     4.7089   -36.7540     0.0840     2.5081     0.0601     8.2475   110.0019
  162.5000     7.7952     5.9360     4.7044   -36.7531     0.0892     2.5070     0.0589     8.2460   108.7232
  163.0000     7.9111     6.0253     4.7000   -36.7530     0.0945     2.4971     0.0578     8.2445   107.4431
  163.5000     7.9111     6.1159     4.6955   -36.7530     0.0988     2.4871     0.0566     8.2429   106.1651
  164.0000     7.9111     6.2319     4.6910   -36.7530     0.1001     2.4806     0.0555     8.2414   104.8986
  164.5000     7.9376     6.2191     4.6873   -36.7530     0.1014     2.4799     0.0543     8.2399   104.5536
  165.0000     8.0842     6.1872     4.7512   -36.7530     0.1027     2.4792     0.0532     8.2383   105.4619
  165.5000     8.3568     6.1552     4.8069   -36.7531     0.1040     2.4785     0.0520     8.2368   105.4549
  166.0000     8.0599     6.1175     4.8633   -36.7529     0.1049     2.4777     0.0509     8.2353   106.0294
  166.5000     8.1270     6.2175     4.9204   -36.7536     0.1052     2.4770     0.0498     8.2338   108.0393
  167.0000     8.2805     6.3828     4.9781   -36.6722     0.1054     2.4762     0.0486     8.2323   109.8832
  167.5000     8.1417     6.5525     5.0365   -36.5319     0.1055     2.4764     0.0476     8.2307   109.5498
  168.0000     7.9824     6.6542     5.0956   -36.3907     0.1049     2.4771     0.0476     8.2292   108.2190
  168.5000     8.3299     6.6750     5.1682   -36.2495     0.1043     2.4778     0.0476     8.2277   105.8714
  169.0000     8.7462     6.6958     5.2744   -36.1082     0.1036     2.4786     0.0477     8.2261   105.1622
  169.5000     9.1833     6.8002     5.3827   -35.9675     0.0985     2.4849     0.0508     8.2246   106.4319
  170.0000     9.6423     6.9866     5.4933   -35.8263     0.0932     2.4958     0.0541     8.2231   109.3136
  170.5000     9.9784     7.1786     5.6061   -35.7688     0.0878     2.5067     0.0575     8.2216   112.2085
  171.0000    10.0521     7.3760     5.7213   -35.7880     0.0799     2.5143     0.0610     8.2200   113.9043
  171.5000    10.1265     7.5783     5.8388   -35.8089     0.0855     2.5022     0.0583     8.2185   113.8144
  172.0000    10.2306     7.7864     6.0062   -35.8297     0.0958     2.4871     0.0537     8.2170   113.7405
  172.5000    10.1371     7.9111     5.9538   -35.8505     0.1062     2.4688     0.0499     8.2167   114.2004
  173.0000     9.1444     7.5348     5.8689   -35.8712     0.1106     2.4756     0.0534     8.2167   114.9937
  173.5000     8.6720     7.2795     5.7853   -35.8919     0.1009     2.4862     0.0568     8.2167   114.4770
  174.0000     8.6720     7.0328     5.7029   -35.9128     0.0940     2.4973     0.0581     8.2167   112.8016
  174.5000     8.8050     6.7677     5.6216   -35.9341     0.0900     2.5024     0.0587     8.2167   112.1284
  175.0000     9.0201     6.9006     5.5415   -35.9536     0.0871     2.5058     0.0594     8.2167   115.0550
  175.5000     9.4191     7.0538     5.4625   -35.8369     0.0847     2.5036     0.0600     8.2167   117.4219
  176.0000     8.9860     7.2103     5.3799   -35.7034     0.0907     2.5009     0.0606     8.2167   119.3477
  176.5000     8.5142     7.2836     5.4110   -35.5701     0.0917     2.4990     0.0612     8.2167   119.8666
  177.0000     8.7760     7.2190     5.4459   -35.4371     0.0906     2.4996     0.0613     8.2167   118.8264
  177.5000     9.0606     7.1631     5.4808   -35.3040     0.0895     2.5001     0.0593     8.2167   117.1635
  178.0000     9.3544     7.1076     5.5158   -35.1710     0.0892     2.5007     0.0575     8.2167   117.2950
  178.5000     9.5937     7.0857     5.5761   -35.0379     0.0908     2.5013     0.0557     8.2167   117.4385
  179.0000     9.3510     7.3709     5.6538   -34.9049     0.0900     2.5019     0.0539     8.2167   115.7047
  179.5000     9.1632     7.6159     5.7327   -34.7719     0.0952     2.4949     0.0521     8.2167   113.8639
  180.0000     9.6629     7.8683     5.8126   -34.6388     0.1000     2.4847     0.0502     8.2167   112.0344
  180.5000    10.1673     8.0572     5.8937   -34.5058     0.1052     2.4788     0.0495     8.2167   110.4641
  181.0000    10.2306     7.8882     5.9759   -34.3727     0.1001     2.4884     0.0551     8.2167   110.4725
  181.5000    10.2466     7.7591     6.0592   -34.2397     0.0941     2.4975     0.0615     8.2167   111.3674
  182.0000    10.2785     7.6946     6.1437   -34.1065     0.0881     2.5068     0.0626     8.2167   111.9966
