~VERSION INFORMATION
 VERS.                2.0:   CWLS LOG ASCII STANDARD - VERSION 2.0
 WRAP.                 NO:   ONE LINE PER DEPTH STEP
~WELL INFORMATION
#MNEM.UNIT      DATA TYPE    INFORMATION
#----------   ------------   ------------------------------
 STRT.F            6.0000:   START DEPTH
 STOP.F          622.0000:   STOP DEPTH
 STEP.F            0.5000:   STEP LENGTH
 NULL.          -999.2500:   NO VALUE
 COMP. BROWN JOHN E&C INC:   COMPANY
 WELL. 71-26 STX-15 #26-15:   WELL
 FLD .             TEAPOT:   FIELD
 LOC .      S15 T38N R78W:   LOCATION
 CNTY.            NATRONA:   COUNTY
 STAT.            WYOMING:   STATE
 CTRY. UNITED STATES OF AMERICA:   COUNTRY
 SRVC.           Gearhart:   SERVICE COMPANY
 DATE.        01-JUL-1987:   LOGDATE
 API .       490251114900:   API NUMBER
~CURVE INFORMATION
#MNEM.UNIT       API CODE    CURVE DESCRIPTION
#----------   ------------   ------------------------------
 DEPT.F                  :   
 GRR .GAPI   07 310 01 00:   GAMMA RAY FROM RES. LOG.
 RILD.OHMM   11 120 46 00:   INDUCTION LOG DEEP RESISTIVITY
 RILM.OHMM   07 120 44 00:   INDUCTION LOG MEDIUM RESISTIVITY
~PARAMETER INFORMATION
#MNEM.UNIT          VALUE    DESCRIPTION
#----------   ------------   ------------------------------
 PD  .                 GL:   PERMANENT DATUM
 EPD .F              5208:   ELEVATION PERMANENT DATUM
 LMF .                 KB:   LOG MEASURED FROM
 DAPD.F                 8:   FEET ABOVE PERMANENT DATUM
 DMF .                 KB:   DRILLING MEASURED FROM
 EKB .F              5216:   KELLING BUSHING
 EDF .F              5214:   DRILLING FLOOR
 EGL .F              5208:   GROUND LEVEL
 DATE.             7-1-87:   RUN DATE
 RUN .                  1:   RUN NUMBER
 DD  .F               630:   DEPTH DRILLER
 DL  .F               630:   DEPTH LOGGER
 BLI .F               622:   BOTTOM LOG INTERVAL
 CS  .IN            8.625:   CASING SIZE
 CBD .F                50:   CASING BOTTOM DRILLER
 CBL .F                50:   CASING BOTTOM LOGGER
 BS  .IN             7.87:   BIT SIZE
 BSD .F               630:   BIT SIZE AT DEPTH
 DFT .                AIR:   DRILLING FLUID TYPE
 TCS .HRS            0300:   TIME CURCULATED STOPPED
 TLAB.HRS            0505:   TIME LOGGER AT BOTTOM
 LUN .               7660:   LOGGING UNIT NUMBER
 LUL .           GILLETTE:   LOGGING UNIT LOCATION
 ENGI.           JOHNSTON:   RECORDING ENGINEER
 WITN.             STRONG:   WITNESSED BY
 CLNT.            A2DTECH:   CLIENT CODE
 ORIG.       2", 5" PRINT:   ORIGIN OF DATA
 UWI .       490251114900:   UNIQUE WELL ID
 DICO. A2D Technologies, Inc.:   DIGITIZING COMPANY
~OTHER INFORMATION
~A    DEPT      GRR      RILD       RILM   
# ...
  552.0000   106.1001    12.7681    12.5099
  552.5000   105.2397    12.9857    12.6999
  553.0000   104.3867    13.2070    12.8927
  553.5000   103.5347    13.4321    13.0885
  554.0000   102.6854    13.6610    13.2873
  554.5000   101.8322    13.8938    13.4891
  555.0000   101.3220    14.0678    13.6733
  555.5000   101.0275    14.0969    13.7540
  556.0000   102.3258    14.1259    13.8278
  556.5000   103.8100    14.1551    13.9020
  557.0000   105.3437    14.1843    13.9766
  557.5000   103.7959    14.2136    14.0591
  558.0000   100.4958    14.2429    14.0288
  558.5000    97.5934    14.2723    13.9952
  559.0000   100.8438    14.3017    13.9617
  559.5000   104.6924    14.3224    13.9282
  560.0000   105.8803    14.2782    13.8948
  560.5000   104.6378    14.2441    13.8616
  561.0000   105.0611    14.2104    13.8284
  561.5000   105.4857    14.1767    13.7952
  562.0000   105.7194    14.1430    13.7622
  562.5000   103.2748    14.1094    13.7293
  563.0000   100.8229    14.0758    13.6965
  563.5000   100.2245    14.0374    13.6575
  564.0000   101.9955    13.9941    13.6048
  564.5000   104.0305    13.9509    13.5523
  565.0000   106.1346    13.9079    13.5000
  565.5000   106.3938    13.8645    13.4480
  566.0000   106.5562    13.8210    13.2893
  566.5000   107.4474    13.6090    13.0278
  567.0000   110.3255    13.2364    12.7714
  567.5000   114.4815    12.8739    12.5204
  568.0000   118.7440    12.6091    12.2959
  568.5000   119.0461    12.4367    12.1259
  569.0000   115.9454    12.2667    11.9582
  569.5000   112.7801    12.0993    11.7930
  570.0000   111.9176    11.9342    11.6301
  570.5000   111.1513    11.7713    11.4694
  571.0000   110.3684    11.6107    11.3109
  571.5000   109.5880    11.4522    11.1560
  572.0000   109.1798    11.2959    10.9607
  572.5000   109.9535    11.1418    10.6738
  573.0000   112.7517    10.9897    10.3933
  573.5000   115.4990    10.9300    10.2506
  574.0000   116.4507    10.9011    10.2387
  574.5000   116.0684    10.8723    10.2268
  575.0000   116.1108    10.8435    10.2149
  575.5000   117.4139    10.8148    10.2032
  576.0000   119.0342    10.7860    10.1914
  576.5000   120.6646    10.7572    10.1798
  577.0000   121.4759    10.6658    10.1675
  577.5000   121.4739    10.5124    10.1223
  578.0000   120.4646    10.3611    10.0444
  578.5000   118.4873    10.2439     9.9748
  579.0000   118.6866    10.2021     9.9360
  579.5000   119.1507    10.1604     9.9006
  580.0000   119.4706    10.1189     9.7852
  580.5000   119.1349    10.0776     9.6117
  581.0000   118.8174    10.0365     9.5811
  581.5000   118.4808     9.9955     9.5535
  582.0000   117.7169     9.8696     9.5230
  582.5000   115.8672     9.6620     9.3475
  583.0000   116.1009     9.4585     9.1762
  583.5000   117.7751     9.2589     9.0407
  584.0000   119.4487     9.0060     8.9192
  584.5000   119.8678     9.0084     8.7993
  585.0000   119.8826     9.0075     8.6811
  585.5000   120.0898     9.0075     8.4953
  586.0000   121.3101     9.0075     8.0587
  586.5000   122.4620     9.0075     8.2397
  587.0000   123.4998     9.1302     8.5054
  587.5000   123.8596     9.3083     8.7796
  588.0000   122.2139     9.5070     9.0914
  588.5000   119.8510     9.7498     9.3180
  589.0000   117.4728    10.0001     9.5792
  589.5000   116.4816    10.2565     9.8472
  590.0000   117.4296    10.5197    10.1221
  590.5000   118.9273    10.7888    10.4047
  591.0000   120.4244    11.0652    10.6952
  591.5000   121.5109    11.2143    10.8813
  592.0000   121.4863    11.3450    11.0082
  592.5000   121.4859    11.4774    11.1365
  593.0000   121.4905    11.5709    11.2534
  593.5000   121.5034    11.5245    11.1716
  594.0000   121.4022    11.4889    11.0979
  594.5000   119.4646    11.4122    11.0246
  595.0000   117.5959    11.2525    10.9445
  595.5000   116.7626    11.2538    10.9094
  596.0000   118.4428    11.2533    10.8706
  596.5000   121.1827    11.2534    10.8437
  597.0000   123.0810    11.2534    10.9256
  597.5000   122.2521    11.3258    10.9448
  598.0000   120.9695    11.4069    10.9448
  598.5000   119.8914    11.4641    10.9447
  599.0000   119.8871    10.9251    10.9455
  599.5000   119.7919    10.5278    10.9446
  600.0000   117.9630    10.1449    10.5640
  600.5000   116.9770     9.7760    10.1564
  601.0000   118.0840     9.3196     9.7644
  601.5000   120.0685     8.6561     9.3869
  602.0000   119.9715     7.9011     9.0225
  602.5000   117.8061     6.9011     8.4003
  603.0000   115.8697     6.0278     7.6168
  603.5000   115.8711     5.2649     6.5673
  604.0000   118.2059     4.5996     5.7201
  604.5000   120.8248     4.0182     4.8625
  605.0000   123.4338     3.5783     4.0193
  605.5000   126.1348     3.2607     3.3224
  606.0000   123.1352     3.0411     2.8365
  606.5000  -999.2500     3.0416     2.6730
  607.0000  -999.2500     3.1805     2.6478
  607.5000  -999.2500     3.3186     2.7225
  608.0000  -999.2500     3.5829     2.9710
  608.5000  -999.2500     4.0445     3.3806
  609.0000  -999.2500     4.6408     3.8827
  609.5000  -999.2500     5.3438     4.5690
  610.0000  -999.2500     6.1534     5.4058
  610.5000  -999.2500     6.9735     6.3909
  611.0000  -999.2500     7.4305     6.9312
  611.5000  -999.2500     7.9175     7.4278
  612.0000  -999.2500     8.4413     7.8211
  612.5000  -999.2500     8.7359     8.2352
  613.0000  -999.2500     8.9296     8.6795
  613.5000  -999.2500     8.9580     8.7026
  614.0000  -999.2500     8.9866     8.7263
  614.5000  -999.2500     9.0153     8.7500
  615.0000  -999.2500     9.0440     8.7931
  615.5000  -999.2500     9.0728     8.8420
  616.0000  -999.2500     9.0868     8.8251
  616.5000  -999.2500     9.0317     8.8105
  617.0000  -999.2500     8.9880     8.7960
  617.5000  -999.2500     8.9444     8.7815
  618.0000  -999.2500     8.9247     8.7671
  618.5000  -999.2500     8.9244     8.7312
  619.0000  -999.2500     8.9244     8.6769
  619.5000  -999.2500     8.9243     8.6229
  620.0000  -999.2500     8.9243     8.5693
  620.5000  -999.2500     8.9243     8.5160
  621.0000  -999.2500     8.9243     8.4630
  621.5000  -999.2500     8.9243     8.4104
  622.0000  -999.2500     8.9243     8.3633
