~VERSION INFORMATION
 VERS.                2.0:   CWLS LOG ASCII STANDARD - VERSION 2.0
 WRAP.                 NO:   ONE LINE PER DEPTH STEP
~WELL INFORMATION
#MNEM.UNIT      DATA TYPE    INFORMATION
#----------   ------------   ------------------------------
 STRT.F         1500.0000:   START DEPTH
 STOP.F         3480.0000:   STOP DEPTH
 STEP.F            0.5000:   STEP LENGTH
 NULL.          -999.2500:   NO VALUE
 COMP. FLUOR DANIEL (NOPSR). INC.:   COMPANY
 WELL.   22-STX-26 #22-26:   WELL
 FLD .             NPR #3:   FIELD
 LOC .      S26 T38N R78W:   LOCATION
 CNTY.            NATRONA:   COUNTY
 STAT.            WYOMING:   STATE
 CTRY. UNITED STATES OF AMERICA:   COUNTRY
 SRVC.            Unknown:   SERVICE COMPANY
 DATE.        14-JUN-1995:   LOGDATE
 API .       490252272400:   API NUMBER
~CURVE INFORMATION
#MNEM.UNIT       API CODE    CURVE DESCRIPTION
#----------   ------------   ------------------------------
 DEPT.F                  :   
 ROP .MIN/FT 91 810 01 00:   RATE OF DRILLING PENETRATION
 TGAS.UNITS  91 830 01 00:   TOTAL GAS FROM HOTWIRE
~PARAMETER INFORMATION
#MNEM.UNIT          VALUE    DESCRIPTION
#----------   ------------   ------------------------------
 EKB .F              5348:   KELLING BUSHING
 EGL .F              5338:   GROUND LEVEL
 DATE.            6-14-95:   RUN DATE
 DD  .F              3480:   DEPTH DRILLER
 BLI .F              3480:   BOTTOM LOG INTERVAL
 TLI .F              1500:   TOP LOG INTERVAL
 CS  .IN            9.625:   CASING SIZE
 CBD .F                87:   CASING BOTTOM DRILLER
 ENGI.               HUSK:   RECORDING ENGINEER
 WITN.              TOWER:   WITNESSED BY
 CLNT.            A2DTECH:   CLIENT CODE
 ORIG.           5" PRINT:   ORIGIN OF DATA
 UWI .       490252272400:   UNIQUE WELL ID
 DICO. A2D Technologies, Inc.:   DIGITIZING COMPANY
~OTHER INFORMATION
~A  DEPT         ROP       TGAS 
# ...
 2229.0000     0.5201    13.9908
 2229.5000     0.5203    13.9866
 2230.0000     0.5206    13.9824
 2230.5000     0.5209    13.9782
 2231.0000     0.5212    13.9740
 2231.5000     0.5214    13.9698
 2232.0000     0.5217    13.9656
 2232.5000     0.5220    13.9614
 2233.0000     0.5222    13.9572
 2233.5000     0.5225    13.9530
 2234.0000     0.5228    13.9489
 2234.5000     0.5231    13.9447
 2235.0000     0.5233    13.9405
 2235.5000     0.5236    13.9363
 2236.0000     0.5239    13.9321
 2236.5000     0.5241    13.9279
 2237.0000     0.5244    13.9237
 2237.5000     0.5247    13.9195
 2238.0000     0.5250    13.9153
 2238.5000     0.5252    13.9111
 2239.0000     0.5255    13.9069
 2239.5000     0.5258    13.9027
 2240.0000     0.5260    13.8985
 2240.5000     0.5263    13.8943
 2241.0000     0.5266    13.8902
 2241.5000     0.5269    13.8860
 2242.0000     0.5271    13.8818
 2242.5000     0.5274    13.8776
 2243.0000     0.5277    13.8734
 2243.5000     0.5279    13.8692
 2244.0000     0.5282    13.8650
 2244.5000     0.5285    13.8608
 2245.0000     0.5288    13.8566
 2245.5000     0.5290    13.8524
 2246.0000     0.5293    13.8482
 2246.5000     0.5296    13.8440
 2247.0000     0.5298    13.8398
 2247.5000     0.5301    13.8356
 2248.0000     0.5304    13.8314
 2248.5000     0.5307    13.8273
 2249.0000     0.5309    13.8231
 2249.5000     0.5312    13.8189
 2250.0000     0.5315    13.8147
 2250.5000     0.5317    13.8105
 2251.0000     0.5320    13.8063
 2251.5000     0.5323    13.8021
 2252.0000     0.5326    13.7979
 2252.5000     0.5328    13.7937
 2253.0000     0.5331    13.7895
 2253.5000     0.5334    13.7853
 2254.0000     0.5336    13.7811
 2254.5000     0.5339    13.7769
 2255.0000     0.5342    13.7727
 2255.5000     0.5345    13.7685
 2256.0000     0.5347    13.7644
 2256.5000     0.5350    13.7602
 2257.0000     0.5353    13.7560
 2257.5000     0.5355    13.7518
 2258.0000     0.5358    13.7476
 2258.5000     0.5361    13.7434
 2259.0000     0.5364    13.7392
 2259.5000     0.5366    13.7350
 2260.0000     0.5369    13.7308
 2260.5000     0.5372    13.7266
 2261.0000     0.5374    13.7224
 2261.5000     0.5377    13.7182
 2262.0000     0.5380    13.7140
 2262.5000     0.5383    13.7098
 2263.0000     0.5385    13.7056
 2263.5000     0.5388    13.7015
 2264.0000     0.5391    13.6973
 2264.5000     0.5393    13.6931
 2265.0000     0.5396    13.6889
 2265.5000     0.5399    13.6847
 2266.0000     0.5402    13.6805
 2266.5000     0.5404    13.6763
 2267.0000     0.5407    13.6721
 2267.5000     0.5410    13.6679
 2268.0000     0.5412    13.6637
 2268.5000     0.5415    13.6595
 2269.0000     0.5418    13.6553
 2269.5000     0.5421    13.6511
 2270.0000     0.5423    13.6469
 2270.5000     0.5426    13.6427
 2271.0000     0.5429    13.6386
 2271.5000     0.5431    13.6344
 2272.0000     0.5434    13.6302
 2272.5000     0.5437    13.6260
 2273.0000     0.5440    13.6218
 2273.5000     0.5442    13.6176
 2274.0000     0.5445    13.6134
 2274.5000     0.5448    13.6092
 2275.0000     0.5450    13.6050
 2275.5000     0.5453    13.6008
 2276.0000     0.5456    13.5966
 2276.5000     0.5459    13.5924
 2277.0000     0.5461    13.5882
 2277.5000     0.5464    13.5840
 2278.0000     0.5467    13.5799
 2278.5000     0.6317    13.5757
 2279.0000     0.6333    13.5715
 2279.5000     0.6348    13.5673
 2280.0000     0.6364    13.5631
 2280.5000     0.6380    13.5589
 2281.0000     0.6396    13.5547
 2281.5000     0.6411    13.5505
 2282.0000     0.6427    13.5463
 2282.5000     0.6443    13.5421
 2283.0000     0.6459    13.5379
 2283.5000     0.6474    13.5337
 2284.0000     0.6491    13.5295
 2284.5000     0.8678    13.5253
 2285.0000     0.8660    13.5211
 2285.5000     0.8641    13.5170
 2286.0000     0.8622    13.5128
 2286.5000     0.6525    13.5086
 2287.0000     0.6531    13.5044
 2287.5000     0.6538    13.5002
 2288.0000     0.6545    13.4960
 2288.5000     0.7810    13.4918
 2289.0000     0.7710    13.4876
 2289.5000     0.7720    13.4834
 2290.0000     0.7726    13.4792
 2290.5000     0.5741    13.4750
 2291.0000     0.5747    13.4708
 2291.5000     0.5754    13.4666
 2292.0000     0.5761    13.4624
 2292.5000     0.5768    13.4582
 2293.0000     0.5775    13.4541
 2293.5000     0.5781    13.4499
 2294.0000     0.5788    13.4457
 2294.5000     0.5795    13.4415
 2295.0000     0.5802    13.4373
 2295.5000     0.5809    13.4331
 2296.0000     0.5816    13.4289
 2296.5000     0.7499    13.4247
 2297.0000     0.7506    13.4205
 2297.5000     0.7513    13.4163
 2298.0000     0.5843    13.4121
 2298.5000     0.5850    13.4079
 2299.0000     0.5856    13.4037
 2299.5000     0.5863    13.3995
 2300.0000     0.5870    13.3954
 2300.5000     0.5877    13.4006
 2301.0000     0.5884    13.4058
 2301.5000     0.5890    13.4111
 2302.0000     0.5897    13.4163
 2302.5000     0.5904    13.4215
 2303.0000     0.5911    13.4268
 2303.5000     0.5918    13.4320
 2304.0000     0.6860    13.4372
 2304.5000     0.6866    13.4425
 2305.0000     0.6872    13.4477
 2305.5000     0.6878    13.4529
 2306.0000     0.6883    13.4582
 2306.5000     0.6889    13.4634
 2307.0000     0.6895    13.4686
 2307.5000     0.6901    13.4739
 2308.0000     0.6907    13.4791
 2308.5000     0.6912    13.4843
 2309.0000     0.6918    13.4896
 2309.5000     0.6924    13.4948
 2310.0000     0.6274    13.5000
 2310.5000     0.5569    13.5053
 2311.0000     0.5568    13.5105
 2311.5000     0.5567    13.5157
 2312.0000     0.5566    13.5210
 2312.5000     0.5565    13.5262
 2313.0000     0.5564    13.5314
 2313.5000     0.5563    13.5367
 2314.0000     0.5562    13.5419
 2314.5000     0.5561    13.5471
 2315.0000     0.5560    13.5524
 2315.5000     0.5559    13.5576
 2316.0000     0.5558    13.5628
 2316.5000     0.5557    13.5681
 2317.0000     0.5556    13.5733
 2317.5000     0.5555    13.5785
 2318.0000     0.5554    13.5838
 2318.5000     0.5553    13.5890
 2319.0000     0.5552    13.5942
 2319.5000     0.5551    13.5995
 2320.0000     0.5551    13.6047
 2320.5000     0.5550    13.6099
 2321.0000     0.5549    13.6152
 2321.5000     0.5548    13.6204
 2322.0000     0.5547    13.6256
 2322.5000     0.5546    13.6309
 2323.0000     0.5545    13.6361
 2323.5000     0.5544    13.6413
 2324.0000     0.5543    13.6466
 2324.5000     0.5542    13.6518
 2325.0000     0.5541    13.6570
 2325.5000     0.5540    13.6623
 2326.0000     0.5539    13.6675
 2326.5000     0.5538    13.6727
 2327.0000     0.5537    13.6780
 2327.5000     0.5536    13.6832
 2328.0000     0.5535    13.6884
 2328.5000     0.5534    13.6937
 2329.0000     0.5533    13.6989
 2329.5000     0.5532    13.7041
 2330.0000     0.5531    13.7094
 2330.5000     0.5530    13.7146
 2331.0000     0.5530    13.7198
 2331.5000     0.5529    13.7251
 2332.0000     0.5528    13.7303
 2332.5000     0.5527    13.7355
 2333.0000     0.5526    13.7408
 2333.5000     0.5525    13.7460
 2334.0000     0.5524    13.7512
 2334.5000     0.5523    13.7565
 2335.0000     0.5522    13.7617
 2335.5000     0.5521    13.7670
 2336.0000     0.5520    13.7722
 2336.5000     0.5519    13.7774
 2337.0000     0.5518    13.7827
 2337.5000     0.5517    13.7879
 2338.0000     0.5516    13.7931
 2338.5000     0.5515    13.7984
 2339.0000     0.5514    13.8036
 2339.5000     0.5513    13.8088
 2340.0000     0.5512    13.8141
 2340.5000     0.5511    13.8193
 2341.0000     0.5510    13.8245
 2341.5000     0.9285    13.8298
 2342.0000     0.9290    13.8350
 2342.5000     0.9296    13.8402
 2343.0000     0.9302    13.8455
 2343.5000     0.9308    13.8507
 2344.0000     0.6901    13.8559
 2344.5000     0.6908    13.8612
 2345.0000     0.6808    13.8664
 2345.5000     0.6815    13.8716
 2346.0000     0.4200    13.8769
 2346.5000     0.4206    13.8821
 2347.0000     0.4211    13.8873
 2347.5000     0.4217    13.8926
 2348.0000     0.5166    13.8978
 2348.5000     0.5172    13.9030
 2349.0000     0.5177    13.9083
 2349.5000     0.5173    13.9135
 2350.0000     0.5169    13.9187
