~VERSION INFORMATION
 VERS.                2.0:   CWLS LOG ASCII STANDARD - VERSION 2.0
 WRAP.                 NO:   ONE LINE PER DEPTH STEP
~WELL INFORMATION
#MNEM.UNIT      DATA TYPE    INFORMATION
#----------   ------------   ------------------------------
 STRT.F           30.0000:   START DEPTH
 STOP.F          656.5000:   STOP DEPTH
 STEP.F            0.5000:   STEP LENGTH
 NULL.          -999.2500:   NO VALUE
 COMP. BROWN JOHN E&C INC:   COMPANY
 WELL. NPR 3 SHX-18-25 #25-11:   WELL
 FLD .              NPR 3:   FIELD
 LOC .      S11 T38N R78W:   LOCATION
 CNTY.            NATRONA:   COUNTY
 STAT.            WYOMING:   STATE
 CTRY. UNITED STATES OF AMERICA:   COUNTRY
 SRVC.           Gearhart:   SERVICE COMPANY
 DATE.        09-JUL-1987:   LOGDATE
 API .       490251114100:   API NUMBER
~CURVE INFORMATION
#MNEM.UNIT       API CODE    CURVE DESCRIPTION
#----------   ------------   ------------------------------
 DEPT.F                  :   
 GRR .GAPI   07 310 01 00:   GAMMA RAY FROM RES. LOG.
 RILM.OHMM   07 120 44 00:   INDUCTION LOG MEDIUM RESISTIVITY
 RILD.OHMM   07 120 46 00:   INDUCTION LOG DEEP RESISTIVITY
~PARAMETER INFORMATION
#MNEM.UNIT          VALUE    DESCRIPTION
#----------   ------------   ------------------------------
 PD  .                 GL:   PERMANENT DATUM
 EPD .F              5222:   ELEVATION PERMANENT DATUM
 LMF .                 KB:   LOG MEASURED FROM
 DAPD.F                 8:   FEET ABOVE PERMANENT DATUM
 DMF .                 KB:   DRILLING MEASURED FROM
 EKB .F              5230:   KELLING BUSHING
 EDF .F              5228:   DRILLING FLOOR
 EGL .F              5222:   GROUND LEVEL
 DATE.             7-9-87:   RUN DATE
 RUN .                  1:   RUN NUMBER
 DD  .F               662:   DEPTH DRILLER
 DL  .F               664:   DEPTH LOGGER
 BLI .F               662:   BOTTOM LOG INTERVAL
 TLI .F                30:   TOP LOG INTERVAL
 CS  .IN            8.625:   CASING SIZE
 CBD .F                48:   CASING BOTTOM DRILLER
 CBL .F                48:   CASING BOTTOM LOGGER
 BS  .IN            7.875:   BIT SIZE
 BSD .F               662:   BIT SIZE AT DEPTH
 DFT .                AIR:   DRILLING FLUID TYPE
 TLAB.HRS            1552:   TIME LOGGER AT BOTTOM
 MRT .F                80:   MAXIMUM RECORDED TEMPERATURE
 LUN .               7597:   LOGGING UNIT NUMBER
 LUL .           GILLETTE:   LOGGING UNIT LOCATION
 ENGI.         WEATHERMON:   RECORDING ENGINEER
 WITN.             STRONG:   WITNESSED BY
 CLNT.            A2DTECH:   CLIENT CODE
 ORIG.       2", 5" PRINT:   ORIGIN OF DATA
 UWI .       490251114100:   UNIQUE WELL ID
 DICO. A2D Technologies, Inc.:   DIGITIZING COMPANY
~OTHER INFORMATION
~A   DEPT       GRR      RILM       RILD   
   30.0000    83.7349  -999.2500  -999.2500
   30.5000    83.8239  -999.2500  -999.2500
   31.0000    84.5554  -999.2500  -999.2500
   31.5000    85.1297  -999.2500  -999.2500
   32.0000    86.5355  -999.2500  -999.2500
   32.5000    91.3762  -999.2500  -999.2500
   33.0000    90.9200  -999.2500  -999.2500
   33.5000    86.2594  -999.2500  -999.2500
   34.0000    81.7507  -999.2500  -999.2500
   34.5000    80.4242  -999.2500  -999.2500
   35.0000    82.4175  -999.2500  -999.2500
   35.5000    84.8261  -999.2500  -999.2500
   36.0000    87.1328  -999.2500  -999.2500
   36.5000    87.4255  -999.2500  -999.2500
   37.0000    86.4357  -999.2500  -999.2500
   37.5000    85.4702  -999.2500  -999.2500
   38.0000    84.4912  -999.2500  -999.2500
   38.5000    84.1411  -999.2500  -999.2500
   39.0000    84.1355  -999.2500  -999.2500
   39.5000    84.1367  -999.2500  -999.2500
   40.0000    84.1379  -999.2500  -999.2500
   40.5000    83.4873  -999.2500  -999.2500
   41.0000    82.1428  -999.2500  -999.2500
   41.5000    79.3055  -999.2500  -999.2500
   42.0000    76.2784  -999.2500  -999.2500
   42.5000    73.3848  -999.2500  -999.2500
   43.0000    73.6190  -999.2500  -999.2500
   43.5000    75.3783  -999.2500  -999.2500
   44.0000    77.4426  -999.2500  -999.2500
   44.5000    79.2564  -999.2500  -999.2500
   45.0000    78.2927  -999.2500  -999.2500
   45.5000    77.3141  -999.2500  -999.2500
   46.0000    76.2838  -999.2500  -999.2500
   46.5000    77.6264  -999.2500  -999.2500
   47.0000    79.6348  -999.2500  -999.2500
   47.5000    83.6286  -999.2500  -999.2500
   48.0000    88.1163  -999.2500  -999.2500
   48.5000    92.5924    38.3851     3.4397
   49.0000    97.9218    10.4027     2.8553
   49.5000   103.6636     5.2083     5.0455
   50.0000   106.8569     4.8298     5.0369
   50.5000   108.9317     6.4101    14.0028
   51.0000   110.7522     7.9798    28.8181
   51.5000   111.1004     9.1535    22.3972
   52.0000   111.4716    10.0433    12.3194
   52.5000   111.9621    10.7309     8.6037
   53.0000   114.5217     9.6080     8.1727
   53.5000   117.0388     8.2617     7.7633
   54.0000   119.3658     7.1041     7.6094
   54.5000   117.7848     6.5940     7.7479
   55.0000   116.0411     6.3012     7.8976
   55.5000   116.6179     6.2258     7.8971
   56.0000   117.5040     6.2087     7.4980
   56.5000   116.5486     6.3587     7.1717
   57.0000   114.3267     6.4690     6.8709
   57.5000   113.3983     6.5814     6.8715
   58.0000   117.0211     6.6959     6.8734
   58.5000   118.1589     6.8114     7.0065
   59.0000   116.6933     6.8092     7.1460
   59.5000   115.2075     7.0030     7.2883
   60.0000   115.3797     6.9969     7.4700
   60.5000   117.1148     6.9841     7.4146
   61.0000   114.8190     6.9704     7.3414
   61.5000   111.1036     6.9570     7.2689
   62.0000   107.5003     6.9436     7.1972
   62.5000   109.6525     6.8787     7.1260
   63.0000   113.2131     6.7692     7.0559
   63.5000   114.9790     6.6613     7.0019
   64.0000   116.0427     6.5629     7.0147
   64.5000   117.1423     6.5629     7.0252
   65.0000   118.3021     6.5849     7.0358
   65.5000   117.6840     6.6048     7.0464
   66.0000   116.2001     6.6238     7.0570
   66.5000   114.7454     6.7543     7.0668
   67.0000   116.3818     6.9110     7.2648
   67.5000   118.2305     7.0714     7.4164
   68.0000   120.0950     7.2663     7.5711
   68.5000   118.9603     7.2656     7.7291
   69.0000   117.4044     7.3045     7.7668
   69.5000   115.9549     7.3416     7.7846
   70.0000   117.7137     7.3789     7.8025
   70.5000   119.7009     7.4355     7.8204
   71.0000   117.4378     7.5208     7.8932
   71.5000   114.5667     7.6071     7.9782
   72.0000   111.7060     7.6944     8.0641
   72.5000   109.5031     7.7828     8.1509
   73.0000   110.6705     7.8721     8.2386
   73.5000   111.9910     7.9624     8.3273
   74.0000   112.8972     8.0489     8.4242
   74.5000   113.3894     8.0976     8.3609
   75.0000   113.8803     8.1183     8.2928
   75.5000   114.3456     8.0073     8.2249
   76.0000   114.6463     7.8978     8.1577
   76.5000   113.9078     7.7899     8.0911
   77.0000   110.7877     7.6801     8.0250
   77.5000   107.6062     7.5984     7.9595
   78.0000   108.0621     7.4945     7.8945
   78.5000   111.2383     7.3920     7.8245
   79.0000   114.3672     7.2910     7.8329
   79.5000   117.5980     7.1987     7.8433
   80.0000   118.3259     7.1325     7.8539
   80.5000   116.3357     7.1325     7.8644
   81.0000   113.8572     7.1869     7.8749
   81.5000   111.2740     7.2501     7.8855
   82.0000   110.2320     7.3139     7.8960
   82.5000   109.6483     7.3782     7.9066
   83.0000   109.0761     7.4432     7.9172
   83.5000   108.5565     7.5394     7.9278
   84.0000   108.2367     7.5333     7.9384
   84.5000   107.8671     7.5220     7.9490
   85.0000   109.6869     7.5107     7.9597
   85.5000   112.2182     7.4994     7.9697
   86.0000   114.6459     7.4882     8.0039
   86.5000   115.4505     7.4770     8.0363
   87.0000   115.2050     7.4692     8.0686
   87.5000   114.9519     7.5943     8.1011
   88.0000   114.6586     7.6996     8.1337
   88.5000   116.4831     7.8063     8.1664
   89.0000   118.7835     7.9145     8.1937
   89.5000   118.7768     8.0435     8.1076
   90.0000   118.3203     7.9695     8.0347
   90.5000   117.9255     7.8395     7.9592
   91.0000   119.5292     7.6932     7.8533
   91.5000   121.2701     7.5488     7.7489
   92.0000   120.2931     7.4072     7.6459
   92.5000   118.5442     7.2684     7.5442
   93.0000   117.1990     7.1421     7.4438
   93.5000   118.3845     7.0283     7.3450
   94.0000   119.5255     6.9373     7.2656
   94.5000   120.6739     6.9691     7.2517
   95.0000   121.8348     7.0011     7.2377
   95.5000   121.6061     7.0333     7.2238
   96.0000   119.7524     7.0668     7.2098
   96.5000   117.5160     7.0513     7.1987
   97.0000   116.7665     7.0314     7.1025
   97.5000   117.8826     7.0017     7.0080
   98.0000   118.9915     7.0777     6.8734
   98.5000   119.8442     7.2289     6.8938
   99.0000   120.5098     7.3833     6.9307
   99.5000   121.1191     7.5410     7.1675
  100.0000   119.3097     7.7021     7.4573
  100.5000   112.2470     7.8667     7.7589
  101.0000    99.5919     8.0346     7.9265
  101.5000    87.5376     8.2698     7.9695
  102.0000    84.6071     8.2545     7.9535
  102.5000    90.9755     8.2305     7.9403
  103.0000    98.5093     8.2066     7.9271
  103.5000   106.0235     8.1827     7.9138
  104.0000   113.5817     8.1591     7.9016
  104.5000   116.6050     8.1228     7.8571
  105.0000   115.4308     8.1245     7.7710
  105.5000   114.0008     7.9463     7.6851
  106.0000   113.7967     7.8614     7.6002
  106.5000   115.8830     7.7759     7.5163
  107.0000   116.1391     7.6914     7.4334
  107.5000   114.0290     7.6078     7.3514
  108.0000   112.6626     7.5251     7.2656
  108.5000   116.2587     7.4433     7.2656
  109.0000   122.2423     7.3331     7.2656
  109.5000   126.8803     7.4891     7.8670
  110.0000   126.0965     7.7416     8.0111
  110.5000   120.7375     8.0026     8.0594
  111.0000   111.5429     8.2727     8.1080
  111.5000   102.3540     8.5519     8.3129
  112.0000    93.0489     8.8228     8.5666
  112.5000    89.8155     8.8842     8.8279
  113.0000    92.7387     8.9763     8.9048
  113.5000   103.6060     9.0710     8.9048
  114.0000   114.4167     9.0261     8.8499
  114.5000   119.5968     8.9805     8.7156
  115.0000   119.3136     8.9352     8.5832
  115.5000   117.1002     8.8235     8.4529
  116.0000   114.3117     8.5795     8.3051
  116.5000   111.5199     8.3423     8.0689
  117.0000   109.8250     8.1114     7.8630
  117.5000   108.3774     7.8870     7.7318
  118.0000   108.5183     7.6689     7.6027
  118.5000   110.1007     7.4554     7.4759
  119.0000   112.0585     7.3113     7.4012
  119.5000   114.0313     7.2028     7.5098
  120.0000   115.2430     7.0668     7.6006
  120.5000   116.1076     7.1883     7.6926
