~VERSION INFORMATION
 VERS.                2.0:   CWLS LOG ASCII STANDARD - VERSION 2.0
 WRAP.                 NO:   ONE LINE PER DEPTH STEP
~WELL INFORMATION
#MNEM.UNIT      DATA TYPE    INFORMATION
#----------   ------------   ------------------------------
 STRT.F           46.5000:   START DEPTH
 STOP.F          435.0000:   STOP DEPTH
 STEP.F            0.5000:   STEP LENGTH
 NULL.          -999.2500:   NO VALUE
 COMP. BROWN JOHN E&C INC:   COMPANY
 WELL. NPR 3 64-63 X 10 #64-10:   WELL
 FLD .             TEAPOT:   FIELD
 LOC .      S10 T38N R78W:   LOCATION
 CNTY.            NATRONA:   COUNTY
 STAT.            WYOMING:   STATE
 CTRY. UNITED STATES OF AMERICA:   COUNTRY
 SRVC.       Schlumberger:   SERVICE COMPANY
 DATE.        17-SEP-1980:   LOGDATE
 API .       490251132300:   API NUMBER
~CURVE INFORMATION
#MNEM.UNIT       API CODE    CURVE DESCRIPTION
#----------   ------------   ------------------------------
 DEPT.F                  :   
 GRR .GAPI   07 310 01 00:   GAMMA RAY FROM RES. LOG.
 ILD .OHMM   07 120 46 00:   INDUCTION LOG DEEP
 ILM .OHMM   07 120 44 00:   INDUCTION LOG MEDIUM
~PARAMETER INFORMATION
#MNEM.UNIT          VALUE    DESCRIPTION
#----------   ------------   ------------------------------
 PD  .                 GL:   PERMANENT DATUM
 EPD .F              5184:   ELEVATION PERMANENT DATUM
 LMF .                 KB:   LOG MEASURED FROM
 DAPD.F                10:   FEET ABOVE PERMANENT DATUM
 DMF .                 KB:   DRILLING MEASURED FROM
 EKB .F              5184:   KELLING BUSHING
 EDF .F              5183:   DRILLING FLOOR
 EGL .F              5184:   GROUND LEVEL
 DATE.        11-SEP-1980:   RUN DATE
 RUN .                  1:   RUN NUMBER
 DD  .F               455:   DEPTH DRILLER
 DL  .F               456:   DEPTH LOGGER
 BLI .F               446:   BOTTOM LOG INTERVAL
 TLI .F                48:   TOP LOG INTERVAL
 CS  .IN            8.625:   CASING SIZE
 CBD .F                52:   CASING BOTTOM DRILLER
 CBL .F                48:   CASING BOTTOM LOGGER
 BS  .IN            7.875:   BIT SIZE
 BSD .F               455:   BIT SIZE AT DEPTH
 DFT .           AIR/FOAM:   DRILLING FLUID TYPE
 MSS .           MUD TANK:   MUD SAMPLE SOURCE
 MFSS.               MEAS:   MUD FILTRATE SAMPLE SOURCE
 MCSS.               CALC:   MUD CAKE SAMPLE SOURCE
 TCS .HRS            1300:   TIME CURCULATED STOPPED
 TLAB.HRS            1400:   TIME LOGGER AT BOTTOM
 LUN .               8168:   LOGGING UNIT NUMBER
 LUL .           GILLETTE:   LOGGING UNIT LOCATION
 ENGI.          M. FISHER:   RECORDING ENGINEER
 WITN.        GARY STRONG:   WITNESSED BY
 CLNT.            A2DTECH:   CLIENT CODE
 ORIG.      2" , 5" PRINT:   ORIGIN OF DATA
 UWI .       490251132300:   UNIQUE WELL ID
 DICO. A2D Technologies, Inc.:   DIGITIZING COMPANY
~OTHER INFORMATION
~A   DEPT      GRR        ILD        ILM   
# ...
  137.5000   136.1042     7.5245     7.3547
  138.0000   137.5594     7.4355     7.0646
  138.5000   140.1219     7.2485     7.1267
  139.0000   142.6849     7.0639     7.2622
  139.5000   145.2119     6.7776     7.0396
  140.0000   144.3628     6.4362     6.6972
  140.5000   141.6239     6.1135     6.3714
  141.0000   139.6000     5.8069     6.0615
  141.5000   138.5040     5.4952     5.6537
  142.0000   134.7317     5.4295     5.2288
  142.5000   127.7692     5.3432     4.9595
  143.0000   120.7743     5.3440     5.1465
  143.5000   118.6105     5.3447     5.3975
  144.0000   123.5338     5.3413     5.6600
  144.5000   129.6712     5.6688     5.9353
  145.0000   134.7877     6.0013     6.2240
  145.5000   134.6565     6.3533     6.5596
  146.0000   132.0932     6.7138     6.9391
  146.5000   130.1986     7.0033     7.2512
  147.0000   132.9799     7.2413     7.4274
  147.5000   136.6461     7.3715     7.6077
  148.0000   139.6519     7.5039     7.7136
  148.5000   139.2306     7.6077     7.8221
  149.0000   138.8725     7.7101     7.9322
  149.5000   138.5262     7.8106     8.0105
  150.0000   138.1765     7.9123     8.0986
  150.5000   139.1592     8.0154     8.1877
  151.0000   141.4026     8.0825     8.2778
  151.5000   143.3513     8.1359     8.3689
  152.0000   142.8567     8.1896     8.4460
  152.5000   139.9735     8.2437     8.4984
  153.0000   137.1122     8.2981     8.5511
  153.5000   134.3609     8.3529     8.6041
  154.0000   133.1786     8.4084     8.6575
  154.5000   136.3596     8.4531     8.7058
  155.0000   140.1709     8.4935     8.7536
  155.5000   142.9735     8.5338     8.8016
  156.0000   140.0231     8.5847     8.8498
  156.5000   135.1250     8.5638     8.9098
  157.0000   130.1151     8.5359     8.8625
  157.5000   130.1416     8.5080     8.8010
  158.0000   133.1926     8.4804     8.7398
  158.5000   136.2187     8.4525     8.6791
  159.0000   137.9601     8.4266     8.6188
  159.5000   137.7802     8.2606     8.5589
  160.0000   137.6250     8.2216     8.5053
  160.5000   137.6030     8.1775     8.4451
  161.0000   137.6148     8.1223     8.3907
  161.5000   137.1661     8.0675     8.3366
  162.0000   136.6792     7.9631     8.2829
  162.5000   136.1876     7.8228     8.0780
  163.0000   136.2045     7.6870     7.8380
  163.5000   137.3381     7.4525     7.6360
  164.0000   138.9869     7.1091     7.3759
  164.5000   140.6981     6.7796     7.0613
  165.0000   142.6377     6.3382     6.5681
  165.5000   144.8795     5.8041     6.0980
  166.0000   146.9846     5.3137     5.6126
  166.5000   147.1739     4.7316     5.0013
  167.0000   144.6363     4.1674     4.4074
  167.5000   140.9429     3.7118     3.8841
  168.0000   136.2963     3.3575     3.4272
  168.5000   130.8387     3.1263     3.0376
  169.0000   128.3266     2.9731     2.7116
  169.5000   125.8773     2.8560     2.7403
  170.0000   125.2115     2.7437     2.7839
  170.5000   130.4778     2.7116     2.8282
  171.0000   139.0974     2.8319     2.9399
  171.5000   149.3386     3.0406     3.1915
  172.0000   149.8445     3.4104     3.5647
  172.5000   146.5062     3.8244     4.0599
  173.0000   143.6080     4.2447     4.5402
  173.5000   145.4715     4.6920     4.9104
  174.0000   148.7800     5.1495     5.3099
  174.5000   152.1179     5.5409     5.7410
  175.0000   153.4732     5.9193     6.1021
  175.5000   151.9511     6.1365     6.3708
  176.0000   150.0291     6.4357     6.5590
  176.5000   150.1692     6.4118     6.5563
  177.0000   152.0925     6.3231     6.4531
  177.5000   156.8774     5.9703     6.2697
  178.0000   161.5442     5.5504     6.0248
  178.5000   166.2410     5.1594     5.3903
  179.0000   166.2736     5.0002     4.7571
  179.5000   162.9843     4.8831     4.5630
  180.0000   159.7728     4.7690     4.6654
  180.5000   156.5570     4.6487     4.7363
  181.0000   153.3455     4.6807     4.8082
  181.5000   150.0952     4.7253     4.8698
  182.0000   149.1070     4.9345     5.0812
  182.5000   153.5364     5.2068     5.3102
  183.0000   158.4043     5.4941     5.5472
  183.5000   163.3119     5.7973     5.8992
  184.0000   165.2371     6.1173     6.2681
  184.5000   158.7015     6.4549     6.6595
  185.0000   150.3405     6.7733     7.0117
  185.5000   146.2160     7.1285     7.3134
  186.0000   146.8143     7.3659     7.6281
  186.5000   148.4806     7.6316     7.9696
  187.0000   150.1280     7.7913     8.0181
  187.5000   151.7475     7.8594     8.0689
  188.0000   152.1058     7.9294     8.1191
  188.5000   150.9118     7.9696     8.1191
  189.0000   149.6595     7.8355     8.0717
  189.5000   150.8591     7.6935     7.8887
  190.0000   152.9348     7.5464     7.7099
  190.5000   151.7903     7.4021     7.5350
  191.0000   148.0659     7.2605     7.3643
  191.5000   146.9853     7.1216     7.1975
  192.0000   150.8361     6.8747     7.0233
  192.5000   154.7057     6.5142     6.8048
  193.0000   158.1505     6.1111     6.4552
  193.5000   161.5345     5.7329     5.9414
  194.0000   164.9019     5.3781     5.4684
  194.5000   167.3353     5.0452     5.0331
  195.0000   166.9078     5.0075     4.6325
  195.5000   163.7240     5.0075     4.5208
  196.0000   160.3913     5.0809     4.7408
  196.5000   154.9587     5.2476     5.0060
  197.0000   149.1941     5.4504     5.2753
  197.5000   148.2223     5.8103     5.5691
  198.0000   149.7680     6.2385     5.9037
  198.5000   150.7006     6.6981     6.3666
  199.0000   149.0252     7.1917     6.8594
  199.5000   148.2414     7.5634     7.3242
  200.0000   148.5696     7.7504     7.7945
  200.5000   148.8496     7.7961     8.0514
  201.0000   151.7545     7.8470     8.0604
  201.5000   157.6205     7.8983     8.0807
  202.0000   163.7295     7.9498     8.0954
  202.5000   167.0180     8.0020     8.1101
  203.0000   160.7713     8.0625     8.2092
  203.5000   155.7544     8.1949     8.3486
  204.0000   154.3548     8.1353     8.2491
  204.5000   161.8459     8.0399     8.1781
  205.0000   168.0337     7.9455     8.1079
  205.5000   170.9809     7.8958     8.0440
  206.0000   169.8895     7.8958     8.0517
  206.5000   164.8203     7.8958     8.0588
  207.0000   160.8021     7.8958     8.0660
  207.5000   157.5679     7.8958     8.0732
  208.0000   154.3404     7.8958     8.0804
  208.5000   151.8883     7.8958     8.0876
  209.0000   151.4100     7.8952     8.0948
  209.5000   152.8867     7.9206     8.1020
  210.0000   155.5368     7.9516     8.1093
  210.5000   158.2240     7.9704     8.1199
  211.0000   159.1737     7.8545     8.0882
  211.5000   157.7935     7.7262     8.0182
  212.0000   156.2038     7.5817     7.8948
  212.5000   155.0083     7.3714     7.6330
  213.0000   157.4362     7.1371     7.3798
  213.5000   163.9737     6.9102     7.1632
  214.0000   171.0816     6.6812     6.9777
  214.5000   174.1226     6.7636     6.9325
  215.0000   170.0814     6.8075     6.9325
  215.5000   165.3161     6.4096     6.8218
  216.0000   162.8547     6.0919     6.5457
  216.5000   162.7810     5.7894     6.1080
  217.0000   162.8419     5.5018     5.6067
  217.5000   160.4621     5.2456     5.1361
  218.0000   156.8163     5.2785     4.7359
  218.5000   149.8378     5.3098     4.8338
  219.0000   145.8020     5.3412     4.9812
  219.5000   148.5975     5.3728     5.2346
  220.0000   153.2100     5.5118     5.6028
  220.5000   157.2343     5.8793     5.9970
  221.0000   155.1742     6.2723     6.4193
  221.5000   151.6350     6.6905     6.8707
  222.0000   153.5075     7.0356     7.2304
  222.5000   157.6756     7.3300     7.5373
  223.0000   158.3671     7.2715     7.4477
  223.5000   152.9158     7.0455     7.3403
  224.0000   147.4780     6.6837     7.1278
  224.5000   151.4042     6.3346     6.5489
  225.0000   156.1510     6.0037     5.9258
  225.5000   160.8426     5.6901     5.3620
  226.0000   164.9868     5.5237     4.9122
  226.5000   162.7532     5.4804     4.9590
  227.0000   158.9727     5.4443     5.2623
  227.5000   155.4896     5.3827     5.4682
  228.0000   156.2030     5.3441     5.7343
