~VERSION INFORMATION
 VERS.                2.0:   CWLS LOG ASCII STANDARD - VERSION 2.0
 WRAP.                 NO:   ONE LINE PER DEPTH STEP
~WELL INFORMATION
#MNEM.UNIT      DATA TYPE    INFORMATION
#----------   ------------   ------------------------------
 STRT.F           16.0000:   START DEPTH
 STOP.F         1334.0000:   STOP DEPTH
 STEP.F            0.5000:   STEP LENGTH
 NULL.          -999.2500:   NO VALUE
 COMP. U S NAVY/INTEX OIL CO:   COMPANY
 WELL.  S-11 NPR 3 #87-11:   WELL
 FLD .             TEAPOT:   FIELD
 LOC .      S11 T38N R78W:   LOCATION
 CNTY.            NATRONA:   COUNTY
 STAT.            WYOMING:   STATE
 CTRY. UNITED STATES OF AMERICA:   COUNTRY
 SRVC.       Schlumberger:   SERVICE COMPANY
 DATE.        17-JUN-1966:   LOGDATE
 API .       490250958900:   API NUMBER
~CURVE INFORMATION
#MNEM.UNIT       API CODE    CURVE DESCRIPTION
#----------   ------------   ------------------------------
 DEPT.F                  :   
 GRD .GAPI   45 310 01 00:   GAMMA RAY FROM DENSITY LOG
 CALD.IN     45 280 60 00:   CALIPER
 RHOB.G/C3   45 350 01 00:   BULK DENSITY
 DPOR.DEC    45 890 12 00:   DENSITY POROSITY SANDSTONE
 DRHO.G/C3   45 356 01 00:   DENSITY CORRECTION
 ASN .OHMM   05 041 16 00:   AMPLIFIED SHORT NORMAL 16"
 ILD .OHMM   05 120 46 00:   INDUCTION LOG DEEP
 CILD.MMHO   05 110 46 00:   CONDUCTIVITY INDUCTION LOG DEEP
 SPR .MV     05 010 01 00:   SPONTANEOUS POTENTIAL FROM RES.
~PARAMETER INFORMATION
#MNEM.UNIT          VALUE    DESCRIPTION
#----------   ------------   ------------------------------
 PD  .                 GL:   PERMANENT DATUM
 EPD .F              5284:   ELEVATION PERMANENT DATUM
 LMF .                 KB:   LOG MEASURED FROM
 DAPD.F                 5:   FEET ABOVE PERMANENT DATUM
 DMF .                 KB:   DRILLING MEASURED FROM
 EKB .F              5289:   KELLING BUSHING
 EGL .F              5284:   GROUND LEVEL
 DATE.          8-17-1966:   RUN DATE
 RUN .                  1:   RUN NUMBER
 DD  .F              1335:   DEPTH DRILLER
 DL  .F              1335:   DEPTH LOGGER
 BLI .F              1334:   BOTTOM LOG INTERVAL
 TLI .F                50:   TOP LOG INTERVAL
 CS  .IN            8.625:   CASING SIZE
 CBD .F                10:   CASING BOTTOM DRILLER
 BS  .IN            7.875:   BIT SIZE
 BSD .F              1335:   BIT SIZE AT DEPTH
 DFT .           GEL-CHEM:   DRILLING FLUID TYPE
 DFD .                9.3:   DRILLING FLUID DENSITY
 DFV .                 50:   DRILLING FLUID VISCOSITY
 MSS .          FLOW LINE:   MUD SAMPLE SOURCE
 RMS .OHMM           1.38:   RESISTIVITY MUD SAMPLE
 MST .F                80:   MUD SAMPLE TEMPERATURE
 RMF .OHMM           1.09:   RESISTIVITY MUD FILTRATE SAMPLE
 MFST.F                77:   MUD FILTRATE SAMPLE TEMPERATURE
 MFSS.                  M:   MUD FILTRATE SAMPLE SOURCE
 RMB .OHMM           1.70:   RESISTIVITY MUD AT BHT
 BHT .F               108:   BOTTOM HOLE TEMPERATURE
 TCS .HRS               1:   TIME CURCULATED STOPPED
 MRT .F               108:   MAXIMUM RECORDED TEMPERATURE
 LUN .               4507:   LOGGING UNIT NUMBER
 LUL .               CSPR:   LOGGING UNIT LOCATION
 ENGI.            MANGOLD:   RECORDING ENGINEER
 WITN.                MAY:   WITNESSED BY
 CLNT.            A2DTECH:   CLIENT CODE
 ORIG.       2", 5" PRINT:   ORIGIN OF DATA
 UWI .       490250958900:   UNIQUE WELL ID
 DICO. A2D Technologies, Inc.:   DIGITIZING COMPANY
~OTHER INFORMATION
~A   DEPT       GRD      CALD       RHOB       DPOR       DRHO        ASN        ILD       CILD        SPR   
# ...
  709.5000   104.9550     8.3856     2.5022     0.0896     0.0344     6.4770     5.7362   179.3858   -42.0412
  710.0000   101.2118     8.3819     2.5004     0.0925     0.0448     6.5746     5.8983   175.0981   -42.0008
  710.5000   100.6262     8.3782     2.4958     0.0964     0.0437     6.6722     6.0608   169.6382   -41.9600
  711.0000   101.8330     8.3745     2.4999     0.0912     0.0402     6.7697     6.2231   164.1784   -41.9182
  711.5000   100.9195     8.3708     2.5032     0.0869     0.0363     6.8672     6.3854   158.7185   -41.8913
  712.0000    98.8485     8.3672     2.4925     0.1017     0.0325     6.9648     6.5478   154.3534   -42.1287
  712.5000    95.1026     8.3635     2.4860     0.0991     0.0286     7.0624     6.7105   151.6691   -42.3708
  713.0000    94.6713     8.3598     2.4984     0.0949     0.0249     7.1599     6.8723   148.9848   -42.6117
  713.5000    95.8320     8.3561     2.4988     0.0909     0.0295     7.2617     6.9981   146.4548   -42.8529
  714.0000    97.0309     8.3524     2.4923     0.0942     0.0347     7.2224     6.9617   146.3498   -43.0916
  714.5000    98.2299     8.3487     2.4856     0.0975     0.0356     7.1007     6.9276   147.4677   -43.2337
  715.0000    99.4270     8.3455     2.4795     0.1008     0.0313     6.9777     6.8715   149.0318   -43.0644
  715.5000   100.6436     8.3477     2.4860     0.0974     0.0270     6.8665     6.7141   152.7706   -42.9041
  716.0000   101.9148     8.3499     2.4930     0.0941     0.0227     6.8010     6.5661   156.5094   -42.7442
  716.5000    98.4363     8.3522     2.4997     0.0916     0.0211     6.7338     6.0664   163.4161   -42.5844
  717.0000    94.5567     8.3544     2.5010     0.0927     0.0369     6.6264     5.3831   180.8640   -42.4245
  717.5000    92.2418     8.3566     2.4804     0.1041     0.0535     6.3501     4.6946   198.3118   -42.2646
  718.0000    94.7973     8.3589     2.4601     0.1171     0.0580     6.0715     4.0054   236.4040   -42.1048
  718.5000    98.7792     8.3611     2.4305     0.1359     0.0518     5.5495     3.4715   292.6933   -41.9449
  719.0000   102.5316     8.3633     2.3894     0.1556     0.0454     5.0296     3.1328   349.6133   -41.7851
  719.5000   103.9479     8.3649     2.3480     0.1799     0.0469     4.5118     2.7924   399.8490   -41.6252
  720.0000   105.4263     8.3619     2.3066     0.2033     0.0549     3.9941     2.4518   431.9729   -41.4654
  720.5000   109.1995     8.3589     2.2653     0.2474     0.0630     3.4810     2.1395   459.7991   -41.3055
  721.0000   113.8296     8.3560     2.2242     0.2594     0.0699     3.1838     2.1338   479.1460   -41.1455
  721.5000   115.6222     8.3530     2.2174     0.2660     0.0626     3.0929     2.1310   472.2185   -40.9846
  722.0000   116.8118     8.3500     2.2459     0.2388     0.0551     3.0526     2.3478   460.2780   -40.8254
  722.5000   112.5701     8.3471     2.3189     0.2019     0.0493     3.1864     2.6560   410.6256   -40.7377
  723.0000   106.9196     8.3441     2.3891     0.1651     0.0621     3.4391     2.9729   350.6512   -41.0520
  723.5000   101.2613     8.3411     2.4582     0.1282     0.0720     3.7400     3.4661   295.1028   -41.3616
  724.0000    96.5765     8.3382     2.4994     0.0914     0.0549     4.1889     4.1846   241.3565   -41.6701
  724.5000    93.5700     8.3352     2.5169     0.0811     0.0521     5.3613     5.4907   192.0040   -41.9784
  725.0000    92.6409     8.3322     2.5190     0.0825     0.0576     6.6434     6.7683   148.9573   -42.2867
  725.5000    92.4099     8.3293     2.5162     0.0792     0.0634     7.5345     7.7620   120.7084   -42.5951
  726.0000    89.3351     8.3263     2.5307     0.0713     0.0602     8.3966     8.5104   102.7890   -42.9042
  726.5000    86.9562     8.3233     2.5226     0.0815     0.0545     9.1279     9.2244    95.8292   -43.2164
  727.0000    88.0885     8.3204     2.5098     0.1026     0.0731     9.7005     9.2902    96.5779   -43.2682
  727.5000    89.2133     8.3174     2.5164     0.0988     0.0604     9.8160     9.1058   103.0586   -43.2728
  728.0000    90.2196     8.3144     2.5239     0.0956     0.0499     9.8080     8.4916   110.5403   -43.0903
  728.5000    89.5441     8.3115     2.4841     0.1164     0.0541     9.5321     7.8646   125.1263   -42.8777
  729.0000    88.8384     8.3085     2.4395     0.1327     0.0580     9.1161     7.2415   139.7124   -42.6679
  729.5000    88.0552     8.3055     2.4409     0.1294     0.0621     8.6002     6.6222   154.2984   -42.4419
  730.0000    91.9113     8.3026     2.4453     0.1246     0.0402     7.9622     6.1352   168.8845   -42.2200
  730.5000    97.3839     8.2996     2.4446     0.1279     0.0477     7.3267     5.6377   183.4705   -41.9984
  731.0000    97.8577     8.2966     2.4334     0.1338     0.0538     6.6815     5.2008   190.9037   -41.7780
  731.5000    98.1805     8.2937     2.4222     0.1397     0.0603     6.2740     5.2033   193.4419   -41.5481
  732.0000    98.6106     8.2907     2.4201     0.1458     0.0497     6.0439     5.5310   189.3772   -41.7772
  732.5000    94.2855     8.2877     2.4484     0.1336     0.0339     6.5261     5.8849   181.2314   -42.1921
  733.0000    88.9015     8.2847     2.4685     0.1208     0.0239     7.1545     6.4068   165.5043   -42.6142
  733.5000    90.4897     8.2818     2.4726     0.1134     0.0366     7.7850     6.9195   149.1247   -43.0348
  734.0000    88.3143     8.2788     2.4650     0.1185     0.0486     8.4107     7.4321   134.0708   -43.4577
  734.5000    85.1074     8.2759     2.4573     0.1228     0.0557     8.8933     7.9452   125.4300   -43.6958
  735.0000    86.3603     8.2729     2.4495     0.1267     0.0469     9.1069     8.4580   116.7891   -43.7703
  735.5000    87.6862     8.2699     2.4407     0.1321     0.0386     9.3242     8.9677   109.3472   -43.8373
  736.0000    89.0001     8.2669     2.4310     0.1377     0.0335     9.5846     9.3441   107.2482   -44.2247
  736.5000    90.2852     8.2640     2.4211     0.1429     0.0377    10.0010     9.4861   105.1492   -44.7214
  737.0000    90.5739     8.2610     2.4253     0.1351     0.0396    10.4054     9.6322   103.0502   -45.2201
  737.5000    88.7169     8.2580     2.4306     0.1381     0.0360    10.4888     9.7772   101.4565   -45.7136
  738.0000    86.8681     8.2551     2.4271     0.1327     0.0354    10.5542     9.9243   100.6256   -46.0648
  738.5000    87.8655     8.2521     2.4439     0.1252     0.0418    10.6204    10.0047    99.7935   -46.1180
  739.0000    90.9431     8.2493     2.4608     0.1179     0.0480    10.6948    10.0698    98.9629   -46.1767
  739.5000    92.3338     8.2472     2.4616     0.1264     0.0543    10.8958    10.1334    98.1334   -46.2412
  740.0000    90.7293     8.1995     2.4389     0.1348     0.0607    10.9894    10.1969    97.6263   -46.4792
  740.5000    92.1445     8.1402     2.4224     0.1433     0.0569    11.0854    10.2606    97.3261   -46.7290
  741.0000    89.2327     8.0808     2.4067     0.1492     0.0515    11.1808    10.3242    97.0243   -46.9792
  741.5000    84.5406     8.0222     2.4178     0.1470     0.0460    11.2763    10.3878    96.7223   -47.2292
  742.0000    88.9593     8.0064     2.4357     0.1375     0.0522    11.3717    10.4514    96.4202   -47.4217
  742.5000    94.4163     8.0599     2.4537     0.1265     0.0599    11.4672    10.5145    96.1181   -47.1283
  743.0000    96.1588     8.1127     2.4715     0.1156     0.0676    11.5627    10.5802    95.8292   -46.8266
  743.5000    96.9680     8.1648     2.4830     0.1096     0.0696    11.6579    10.7141    95.0858   -46.5249
  744.0000    93.3039     8.1825     2.4715     0.1143     0.0685    11.7507    10.8476    94.3737   -46.2529
  744.5000    90.1991     8.0588     2.4641     0.1195     0.0635    11.8925    10.9806    93.6615   -46.4751
  745.0000    92.6142     7.9543     2.4795     0.1132     0.0585    12.0390    11.1136    92.9493   -46.7123
  745.5000    95.5734     8.0970     2.4713     0.1163     0.0540    12.1859    11.2462    92.2372   -46.9472
