~VERSION INFORMATION
 VERS.                2.0:   CWLS LOG ASCII STANDARD - VERSION 2.0
 WRAP.                 NO:   ONE LINE PER DEPTH STEP
~WELL INFORMATION
#MNEM.UNIT      DATA TYPE    INFORMATION
#----------   ------------   ------------------------------
 STRT.F           20.0000:   START DEPTH
 STOP.F          478.0000:   STOP DEPTH
 STEP.F            0.5000:   STEP LENGTH
 NULL.          -999.2500:   NO VALUE
 COMP. FENIX & SCISSON INC:   COMPANY
 WELL.   56 31 SX #56-3FP:   WELL
 FLD .             TEAPOT:   FIELD
 LOC .       S3 T38N R78W:   LOCATION
 CNTY.            NATRONA:   COUNTY
 STAT.            WYOMING:   STATE
 CTRY. UNITED STATES OF AMERICA:   COUNTRY
 SRVC.              Welex:   SERVICE COMPANY
 DATE.        06-JUN-1980:   LOGDATE
 API .       490251082300:   API NUMBER
~CURVE INFORMATION
#MNEM.UNIT       API CODE    CURVE DESCRIPTION
#----------   ------------   ------------------------------
 DEPT.F                  :   
 RHOB.G/C3   45 350 01 00:   BULK DENSITY
 CORR.G/C3   45 356 01 00:   DENSITY CORRECTION
 GRD .GAPI   45 310 01 00:   GAMMA RAY FROM DENSITY LOG
 CALD.IN     45 280 60 00:   CALIPER
 DPHI.DEC    45 890 12 00:   DENSITY POROSITY SANDSTONE
 NPHI.DEC    42 890 03 00:   NEUTRON POROSITY SANDSTONE
 SPR .MV     07 010 01 00:   SPONTANEOUS POTENTIAL
 ILD .OHMM   07 120 46 00:   INDUCTION LOG DEEP
 ILM .OHMM   07 120 44 00:   INDUCTION LOG MEDIUM
 SGRD.OHMM   07 220 05 00:   SHALLOW GUARD RESISTIVITY
~PARAMETER INFORMATION
#MNEM.UNIT          VALUE    DESCRIPTION
#----------   ------------   ------------------------------
 PD  .                 GL:   PERMANENT DATUM
 EPD .F              5173:   ELEVATION PERMANENT DATUM
 LMF .                 KB:   LOG MEASURED FROM
 DAPD.F                 5:   FEET ABOVE PERMANENT DATUM
 DMF .                 KB:   DRILLING MEASURED FROM
 EKB .F              5178:   KELLING BUSHING
 EGL .F              5173:   GROUND LEVEL
 DATE.             6-6-80:   RUN DATE
 RUN .                  1:   RUN NUMBER
 DD  .F               450:   DEPTH DRILLER
 DL  .F               476:   DEPTH LOGGER
 BLI .F               474:   BOTTOM LOG INTERVAL
 TLI .F                30:   TOP LOG INTERVAL
 BS  .IN            9.875:   BIT SIZE
 BSD .F               450:   BIT SIZE AT DEPTH
 DFT .            KCL MUD:   DRILLING FLUID TYPE
 DFD .                9.5:   DRILLING FLUID DENSITY
 DFV .                 48:   DRILLING FLUID VISCOSITY
 DFPH.                7.5:   DRILLING FLUID PH
 DFL .                  7:   DRILLING FLUID LOSS
 MSS .           FLOWLINE:   MUD SAMPLE SOURCE
 RMS .OHMM           1.56:   RESISTIVITY MUD SAMPLE
 MST .F                62:   MUD SAMPLE TEMPERATURE
 RMF .OHMM           1.24:   RESISTIVITY MUD FILTRATE SAMPLE
 MFST.F                62:   MUD FILTRATE SAMPLE TEMPERATURE
 RMC .OHMM           1.87:   RESISTIVITY MUD CAKE
 MCST.F                62:   MUD CAKE SAMPLE TEMPERATURE
 MFSS.           MEASURED:   MUD FILTRATE SAMPLE SOURCE
 MCSS.           MEASURED:   MUD CAKE SAMPLE SOURCE
 RMB .OHMM           1.32:   RESISTIVITY MUD AT BHT
 BHT .F                73:   BOTTOM HOLE TEMPERATURE
 TCS .HRS               6:   TIME CURCULATED STOPPED
 MRT .F                73:   MAXIMUM RECORDED TEMPERATURE
 LUN .               1892:   LOGGING UNIT NUMBER
 LUL .             CASPER:   LOGGING UNIT LOCATION
 ENGI.               REIN:   RECORDING ENGINEER
 WITN.              AMEND:   WITNESSED BY
 CLNT.            A2DTECH:   CLIENT CODE
 ORIG.        2" 5" PRINT:   ORIGIN OF DATA
 UWI .       490251082300:   UNIQUE WELL ID
 DICO. A2D Technologies, Inc.:   DIGITIZING COMPANY
~OTHER INFORMATION
~A   DEPT     RHOB       CORR        GRD       CALD       DPHI       NPHI        SPR          ILD        ILM     SGRD   
   20.0000  -999.2500  -999.2500  -999.2500  -999.2500  -999.2500  -999.2500  -999.2500     2.7338     3.1669  -999.2500
   20.5000  -999.2500  -999.2500  -999.2500  -999.2500  -999.2500  -999.2500  -999.2500     2.7338     3.1669  -999.2500
   21.0000  -999.2500  -999.2500  -999.2500  -999.2500  -999.2500  -999.2500  -999.2500     2.7338     3.1669  -999.2500
   21.5000  -999.2500  -999.2500  -999.2500  -999.2500  -999.2500  -999.2500  -999.2500     2.7458     3.1816  -999.2500
   22.0000  -999.2500  -999.2500  -999.2500  -999.2500  -999.2500  -999.2500  -999.2500     2.7338     3.1669  -999.2500
   22.5000  -999.2500  -999.2500  -999.2500  -999.2500  -999.2500  -999.2500  -999.2500     2.7338     3.1669  -999.2500
   23.0000  -999.2500  -999.2500  -999.2500  -999.2500  -999.2500  -999.2500  -999.2500     2.7338     3.1669  -999.2500
   23.5000  -999.2500  -999.2500  -999.2500  -999.2500  -999.2500  -999.2500  -999.2500     2.7337     3.1669  -999.2500
   24.0000  -999.2500  -999.2500  -999.2500  -999.2500  -999.2500  -999.2500  -999.2500     2.7336     3.1666  -999.2500
   24.5000  -999.2500  -999.2500  -999.2500  -999.2500  -999.2500  -999.2500  -999.2500     2.7334     3.1659  -999.2500
   25.0000  -999.2500  -999.2500  -999.2500  -999.2500  -999.2500  -999.2500   -43.3143     2.7517     3.1365  -999.2500
   25.5000  -999.2500  -999.2500  -999.2500  -999.2500  -999.2500  -999.2500   -43.4259     2.7693     3.1381  -999.2500
   26.0000  -999.2500  -999.2500  -999.2500  -999.2500  -999.2500  -999.2500   -43.5376     2.7870     3.2750  -999.2500
   26.5000  -999.2500  -999.2500  -999.2500  -999.2500  -999.2500  -999.2500   -43.6270     2.8048     3.3552  -999.2500
   27.0000  -999.2500  -999.2500  -999.2500  -999.2500  -999.2500  -999.2500   -43.7384     2.8228     3.3718  -999.2500
   27.5000  -999.2500  -999.2500  -999.2500  -999.2500  -999.2500  -999.2500   -43.7994     2.8470     3.3886  -999.2500
   28.0000  -999.2500  -999.2500  -999.2500  -999.2500  -999.2500  -999.2500   -43.7982     2.8897     3.4054  -999.2500
   28.5000  -999.2500  -999.2500  -999.2500  -999.2500  -999.2500  -999.2500   -43.8358     2.9329     3.4428  -999.2500
   29.0000  -999.2500  -999.2500  -999.2500  -999.2500  -999.2500  -999.2500   -43.8796     2.9770     3.4854  -999.2500
   29.5000  -999.2500  -999.2500  -999.2500  -999.2500  -999.2500  -999.2500   -43.9237     3.0246     3.5286  -999.2500
   30.0000  -999.2500  -999.2500  -999.2500  -999.2500  -999.2500  -999.2500   -43.9677     3.0394     3.5722     5.6450
   30.5000  -999.2500  -999.2500  -999.2500  -999.2500  -999.2500  -999.2500   -44.0117     3.0554     3.6164     5.7686
   31.0000  -999.2500  -999.2500  -999.2500  -999.2500  -999.2500  -999.2500   -44.0557     3.0714     3.6612     5.9594
   31.5000  -999.2500  -999.2500  -999.2500  -999.2500  -999.2500  -999.2500   -44.0998     3.0876     3.6740     5.7417
   32.0000     2.3776     0.0364    85.9406     9.8713     0.1758     0.3201   -44.1443     3.1038     3.6827     5.4739
   32.5000     2.3827     0.0390    86.5347     9.8697     0.1758     0.3174   -44.1902     3.1201     3.6913     5.1547
   33.0000     2.3942     0.0385    86.2654     9.8643     0.1755     0.3135   -44.1080     3.1379     3.7000     5.1842
   33.5000     2.4010     0.0357    86.4784     9.8601     0.1748     0.3106   -44.0112     3.1618     3.7260     5.2395
   34.0000     2.3935     0.0320    86.2626     9.8547     0.1739     0.3136   -43.9141     3.1880     3.7594     5.2954
   34.5000     2.3995     0.0287    85.9637     9.8494     0.1730     0.3165   -43.8173     3.2144     3.7931     5.3517
   35.0000     2.4001     0.0375    86.2190     9.8441     0.1683     0.3159   -43.7205     3.2410     3.8271     5.3969
   35.5000     2.3982     0.0472    86.4708     9.8387     0.1635     0.3174   -43.6236     3.2679     3.8613     5.3108
   36.0000     2.4157     0.0569    86.7206     9.8334     0.1581     0.3197   -43.5264     3.2950     3.8959     5.2401
   36.5000     2.4264     0.0665    86.9325     9.8281     0.1612     0.3198   -43.4230     3.3223     3.9308     5.1699
   37.0000     2.4248     0.0654    86.7074     9.8227     0.1666     0.3168   -43.5759     3.3499     3.9660     5.1087
   37.5000     2.4102     0.0535    86.4686     9.8173     0.1719     0.3138   -43.8033     3.3776     3.9897     5.2509
   38.0000     2.4002     0.0446    86.2306     9.8122     0.1739     0.3110   -44.0297     3.4056     4.0080     5.1848
   38.5000     2.4039     0.0450    85.9898     9.8151     0.1745     0.3178   -44.1485     3.4339     4.0264     5.1087
   39.0000     2.3989     0.0420    86.0697     9.8185     0.1727     0.3122   -43.9431     3.4568     4.0448     5.0150
   39.5000     2.3958     0.0390    86.4241     9.8219     0.1705     0.3174   -43.7503     3.4784     4.0634     5.0571
   40.0000     2.3957     0.0380    86.7773     9.8253     0.1682     0.3197   -43.6298     3.5001     4.0820     5.1125
   40.5000     2.4136     0.0633    87.1183     9.8287     0.1662     0.3185   -43.7860     3.5219     4.1007     5.1529
   41.0000     2.4077     0.0541    87.0880     9.8321     0.1662     0.3188   -43.9354     3.5439     4.1195     5.0146
   41.5000     2.4087     0.0445    87.0146     9.8355     0.1695     0.3157   -44.0845     3.5660     4.1355     5.2024
   42.0000     2.4006     0.0349    86.9363     9.8389     0.1732     0.3178   -44.2345     3.5883     4.1412     5.1441
   42.5000     2.3970     0.0313    87.1838     9.8423     0.1743     0.3207   -44.3841     3.6107     4.1469     5.1076
   43.0000     2.3948     0.0291    87.4937     9.8457     0.1821     0.3220   -44.3916     3.6351     4.1526     5.1465
   43.5000     2.3739     0.0185    87.8038     9.8491     0.1897     0.3223   -44.3599     3.6139     4.1583     5.1752
   44.0000     2.3709     0.0195    87.6513     9.8525     0.1842     0.3238   -44.1058     3.5909     4.1640     5.2041
   44.5000     2.3843     0.0248    87.0200     9.8559     0.1795     0.3271   -43.8498     3.5688     4.1697     5.2332
   45.0000     2.3938     0.0301    86.3932     9.8593     0.1774     0.3304   -43.5956     3.5806     4.1754     5.2504
   45.5000     2.3999     0.0332    85.7539     9.8627     0.1804     0.3323   -43.4016     3.5920     4.1811     5.1684
   46.0000     2.3859     0.0256    85.7304     9.8661     0.1857     0.3307   -43.4024     3.6035     4.1869     5.1076
   46.5000     2.3808     0.0190    86.0009     9.8694     0.1779     0.3286   -43.6047     3.6149     4.1926     5.1690
   47.0000     2.3943     0.0343    86.2803     9.8707     0.1664     0.3265   -43.9159     3.6266     4.1984     5.2352
   47.5000     2.4263     0.0560    86.5431     9.8693     0.1582     0.3281   -44.2299     3.6413     4.2041     5.2989
   48.0000     2.4187     0.0639    86.1312     9.8680     0.1639     0.3285   -44.5440     3.6665     4.2099     5.2989
   48.5000     2.4146     0.0464    85.6639     9.8667     0.1658     0.3249   -44.8580     3.6918     4.2458     5.3200
   49.0000     2.4192     0.0473    85.1991     9.8654     0.1562     0.3216   -45.1731     3.7172     4.3038     5.4289
   49.5000     2.4274     0.0482    85.2103     9.8640     0.1493     0.3263   -45.4873     3.7428     4.3625     5.5481
   50.0000     2.4400     0.0583    85.2818     9.8627     0.1423     0.3309   -45.7640     3.7685     4.4220     5.5481
   50.5000     2.4532     0.0794    85.3541     9.8614     0.1383     0.3290   -45.6416     3.8080     4.4824     5.6649
   51.0000     2.4538     0.0794    85.4255     9.8601     0.1353     0.3262   -45.5235     3.8494     4.5436     5.7964
   51.5000     2.4653     0.0913    85.4949     9.8587     0.1324     0.3233   -45.4015     3.8913     4.6274     5.9218
   52.0000     2.4951     0.1110    85.4940     9.8574     0.1289     0.3238   -45.4199     3.9337     4.7349     6.1168
   52.5000     2.4822     0.0921    85.3250     9.8561     0.1377     0.3271   -45.4828     3.9765     4.8335     6.3100
   53.0000     2.4611     0.0672    85.1584     9.8547     0.1301     0.3305   -45.5469     4.0198     4.7727     5.7559
