~VERSION INFORMATION
 VERS.                2.0:   CWLS LOG ASCII STANDARD - VERSION 2.0
 WRAP.                 NO:   ONE LINE PER DEPTH STEP
~WELL INFORMATION
#MNEM.UNIT      DATA TYPE    INFORMATION
#----------   ------------   ------------------------------
 STRT.F           99.0000:   START DEPTH
 STOP.F          761.5000:   STOP DEPTH
 STEP.F            0.5000:   STEP LENGTH
 NULL.          -999.2500:   NO VALUE
 COMP.          U.S. NAVY:   COMPANY
 WELL. RES 3 TEAPOT DOM #48S-11:   WELL
 FLD .             TEAPOT:   FIELD
 LOC .      S11 T38N R78W:   LOCATION
 CNTY.            NATRONA:   COUNTY
 STAT.            WYOMING:   STATE
 CTRY. UNITED STATES OF AMERICA:   COUNTRY
 SRVC.       Schlumberger:   SERVICE COMPANY
 DATE.        14-JUL-1963:   LOGDATE
 API .       490250632500:   API NUMBER
~CURVE INFORMATION
#MNEM.UNIT       API CODE    CURVE DESCRIPTION
#----------   ------------   ------------------------------
 DEPT.F                  :   
 SPR .MV     05 010 01 00:   SPONTANEOUS POTENTIAL FROM RES.
 ILD .OHMM   05 120 46 00:   INDUCTION LOG DEEP
 CILD.MMHO   05 110 46 00:   CONDUCTIVITY INDUCTION LOG DEEP
 GR  .GAPI   30 310 01 00:   GAMMA RAY
 ASN .OHMM   05 041 16 00:   AMPLIFIED SHORT NORMAL 16"
~PARAMETER INFORMATION
#MNEM.UNIT          VALUE    DESCRIPTION
#----------   ------------   ------------------------------
 PD  .                 GL:   PERMANENT DATUM
 EPD .F              5187:   ELEVATION PERMANENT DATUM
 LMF .                 KB:   LOG MEASURED FROM
 DAPD.F                 5:   FEET ABOVE PERMANENT DATUM
 DMF .                 KB:   DRILLING MEASURED FROM
 EKB .F              5192:   KELLING BUSHING
 EGL .F              5187:   GROUND LEVEL
 DATE.            7-14-63:   RUN DATE
 RUN .                  1:   RUN NUMBER
 DD  .F               762:   DEPTH DRILLER
 DL  .F               761:   DEPTH LOGGER
 BLI .F               760:   BOTTOM LOG INTERVAL
 TLI .F               100:   TOP LOG INTERVAL
 CS  .IN            8.625:   CASING SIZE
 CBD .F                10:   CASING BOTTOM DRILLER
 BS  .IN            7.875:   BIT SIZE
 BSD .F               762:   BIT SIZE AT DEPTH
 DFT .            GEL-OIL:   DRILLING FLUID TYPE
 DFD .                 10:   DRILLING FLUID DENSITY
 DFV .                 55:   DRILLING FLUID VISCOSITY
 DFPH.                9.5:   DRILLING FLUID PH
 DFL .                  4:   DRILLING FLUID LOSS
 MSS .          FLOW LINE:   MUD SAMPLE SOURCE
 RMS .OHMM           3.11:   RESISTIVITY MUD SAMPLE
 MST .F                78:   MUD SAMPLE TEMPERATURE
 RMF .OHMM           2.31:   RESISTIVITY MUD FILTRATE SAMPLE
 MFST.F                78:   MUD FILTRATE SAMPLE TEMPERATURE
 RMC .OHMM           3.82:   RESISTIVITY MUD CAKE
 MCST.F                78:   MUD CAKE SAMPLE TEMPERATURE
 MFSS.                  M:   MUD FILTRATE SAMPLE SOURCE
 MCSS.                  M:   MUD CAKE SAMPLE SOURCE
 TCS .HRS               1:   TIME CURCULATED STOPPED
 LUN .               4507:   LOGGING UNIT NUMBER
 ENGI.             KNOBEL:   RECORDING ENGINEER
 WITN.          JORGENSEN:   WITNESSED BY
 CLNT.            A2DTECH:   CLIENT CODE
 ORIG.       2", 5" PRINT:   ORIGIN OF DATA
 UWI .       490250632500:   UNIQUE WELL ID
 DICO. A2D Technologies, Inc.:   DIGITIZING COMPANY
~OTHER INFORMATION
~A   DEPT      SPR        ILD       CILD         GR        ASN   
# ...
  404.0000   -28.9980    11.0812    94.0602    68.6304    10.9435
  404.5000   -28.8373    11.0401    94.2265    62.6091    10.8248
  405.0000   -28.6768    10.9994    94.4389    61.4478    10.7790
  405.5000   -28.5190    10.9587    94.6512    63.0371    10.7062
  406.0000   -28.4654    10.9163    94.8635    63.5115    10.7028
  406.5000   -28.6228    10.8443    95.5804    63.0007    10.7034
  407.0000   -28.7763    10.7162    96.8543    62.6225    10.7027
  407.5000   -28.9288    10.5893    95.7325    67.6955    10.7006
  408.0000   -28.9628    10.4618    94.3304    73.6849    10.7305
  408.5000   -28.8382    10.3343    93.9748    71.6879    10.9874
  409.0000   -28.7156    10.2069    96.0162    65.1281    11.5752
  409.5000   -28.5920    10.0805    98.1964    62.1226    12.1479
  410.0000   -28.4692     9.9879   100.0234    62.8848    12.5218
  410.5000   -28.2281     9.9589    99.2746    57.9640    12.4936
  411.0000   -28.0266     9.9288    98.3481    59.6858    11.8518
  411.5000   -28.1333     9.8989    97.9900    59.2130    11.1783
  412.0000   -28.1996     9.8689    98.6916    67.8422    10.5090
  412.5000   -28.1203     9.8389    99.5387    68.7312    10.3046
  413.0000   -28.0439     9.8086   100.3885    66.8397    10.1332
  413.5000   -27.9678     9.7991   101.0092    66.2842    10.1786
  414.0000   -27.8912     9.7990   101.1817    72.1682    10.2674
  414.5000   -27.8144     9.7993   101.3468    68.0405    10.3581
  415.0000   -27.8105     9.7994   101.5108    63.8222    10.3894
  415.5000   -27.8122     9.7791   101.6732    65.9768    10.3505
  416.0000   -27.8815     9.6240   101.8324    69.8212    10.3113
  416.5000   -28.0642     9.4685   102.0105    69.6452    10.2714
  417.0000   -28.2449     9.3132   104.2737    73.1569    10.2329
  417.5000   -28.4158     9.1587   106.6254    70.3869    10.2344
  418.0000   -28.5143     8.9429   109.4903    65.2016    10.4458
  418.5000   -28.6101     8.6904   113.1299    69.5105    10.4809
  419.0000   -28.6172     8.4809   116.7696    63.0058    10.1303
  419.5000   -28.5248     8.3013   120.4092    71.0039     9.8116
  420.0000   -28.4044     8.1163   123.7623    78.0805     9.4720
  420.5000   -28.2841     8.0212   126.3294    82.6278     9.2217
  421.0000   -28.2120     7.9201   128.8761    85.2771     8.9827
  421.5000   -28.2129     7.8138   128.9092    82.7411     8.9077
  422.0000   -28.2143     7.8134   126.5574    69.1365     8.8933
  422.5000   -28.2994     8.0227   124.2056    70.3577     8.9018
  423.0000   -28.4817     8.2346   121.8539    68.4880     9.1466
  423.5000   -28.6621     8.4458   119.5021    66.6533     9.5082
  424.0000   -28.8196     8.6566   117.1504    63.9921     9.9062
  424.5000   -28.8159     8.8659   114.7986    74.5681    10.0381
  425.0000   -28.8153     8.9968   112.4469    72.3984    10.0320
  425.5000   -28.8153     9.0105   111.0553    74.2836    10.0145
  426.0000   -28.8153     9.0505   111.0506    68.8352     9.9980
  426.5000   -28.8153     9.0896   111.1428    66.8666     9.9816
  427.0000   -28.8157     9.0967   111.5378    61.1430     9.9656
  427.5000   -28.8146     9.0237   111.9398    55.2715     9.9256
  428.0000   -28.7265     8.9173   112.9086    62.4830     9.8750
  428.5000   -28.6286     8.8109   114.2050    50.6315     9.8862
  429.0000   -28.5307     8.7057   115.2322    46.5312     9.9405
  429.5000   -28.4330     8.5953   115.7417    52.4968     9.9942
  430.0000   -28.3353     8.6072   116.2513    52.3599     9.9740
  430.5000   -28.2374     8.6317   116.7608    56.9287     9.8284
  431.0000   -28.1397     8.6573   115.9116    58.1200     9.7989
  431.5000   -28.0413     8.6839   115.0754    61.3460     9.8173
  432.0000   -28.0442     8.7437   111.8579    74.3913     9.9572
  432.5000   -28.1081     8.8764   108.5822    65.4997    10.0986
  433.0000   -28.1718     9.0078   106.0302    65.0491    10.3224
  433.5000   -28.2338     9.1394   105.4165    65.6629    10.4065
  434.0000   -28.2906     9.2712   104.8170    66.4661    10.4356
  434.5000   -28.3468     9.4021   104.2176    69.1802    10.4608
  435.0000   -28.3978     9.4980   104.0201    72.7386    10.5327
  435.5000   -28.7023     9.4109   104.0201    75.1640    10.5036
  436.0000   -29.0077     9.2318   106.5550    64.0333    10.3389
  436.5000   -29.1687     9.0544   109.2368    68.4191    10.1775
  437.0000   -29.3384     8.8750   110.8291    77.8015    10.1110
  437.5000   -29.5097     8.7954   112.4215    81.6338    10.0624
  438.0000   -29.6808     8.7938   114.0704    70.1391    10.0406
  438.5000   -29.8510     8.7933   113.1896    68.5138    10.0400
  439.0000   -30.0294     8.7898   112.0263    75.9561    10.0400
  439.5000   -29.8036     8.9631   110.8650    74.7955    10.0411
  440.0000   -29.7183     9.1749   109.7015    70.3934    10.1545
  440.5000   -29.6156     9.2907   109.0455    78.2317    10.3017
  441.0000   -29.5152     9.1091   109.0300    67.0100    10.3994
  441.5000   -29.4151     8.9279   109.9158    59.6664    10.4032
  442.0000   -29.3150     8.7943   111.8266    61.1340    10.3972
  442.5000   -29.2147     8.8910   111.0696    59.9125    10.3795
  443.0000   -29.1140     8.8430   110.0502    60.2409    10.2826
  443.5000   -29.0186     8.7999   110.1773    66.2544    10.2202
  444.0000   -29.0293     8.7587   111.2692    69.6021     9.9375
  444.5000   -29.1000     8.7174   112.3611    67.3020     9.8693
  445.0000   -29.1687     8.6761   113.7889    65.1168     9.7929
  445.5000   -29.2371     8.6346   115.8271    62.8262     9.7303
  446.0000   -29.3056     8.5943   117.8653    60.2585     9.6789
  446.5000   -29.3743     8.5841   118.9401    67.3843     9.6270
  447.0000   -29.4223     8.5355   118.5481    64.7288     9.6139
  447.5000   -29.3676     8.4875   118.1562    69.5966     9.6036
  448.0000   -29.2497     8.4395   117.7642    55.2171     9.5976
  448.5000   -29.2869     8.3915   117.3723    57.7408     9.6088
  449.0000   -29.3330     8.3435   117.4465    63.3066     9.6214
  449.5000   -29.3797     8.2956   118.7926    68.9183     9.6350
  450.0000   -29.4043     8.2476   120.1387    73.6532     9.6073
  450.5000   -29.1489     8.1996   121.4848    69.9200     9.5639
  451.0000   -28.8990     8.1517   122.1105    71.2860     9.5187
  451.5000   -28.6509     8.1035   122.1105    79.5312     9.4689
  452.0000   -28.4177     8.0564   122.1105    76.6148     9.4137
  452.5000   -28.4782     8.0101   122.1105    75.7413     9.3971
  453.0000   -28.5788     8.1001   121.2374    76.8338     9.3962
  453.5000   -28.6796     8.1587   120.1779    69.0003     9.4006
  454.0000   -28.7801     8.2216   119.1185    71.9995     9.4809
  454.5000   -28.8806     8.2862   118.0591    75.9028     9.5596
  455.0000   -28.9811     8.3505   116.9997    74.5890     9.6301
  455.5000   -29.0816     8.4148   115.9415    78.2400     9.7010
  456.0000   -29.1820     8.4791   114.9060    72.3137     9.7725
  456.5000   -29.2825     8.5435   114.0004    62.0745     9.8447
  457.0000   -29.3832     8.6078   113.0925    62.7831     9.9179
  457.5000   -29.4835     8.6721   112.1844    60.6862     9.9918
  458.0000   -29.5834     8.7364   112.2749    62.7695    10.0483
  458.5000   -29.5250     8.8007   112.7289    72.6325    10.0660
  459.0000   -29.3220     8.8651   113.1830    73.9735    10.0503
  459.5000   -29.1199     8.9294   113.6370    67.8476    10.0397
  460.0000   -28.9171     8.9938   114.0910    63.2234     9.9993
  460.5000   -28.7146     9.0581   114.5451    54.2508     9.9283
  461.0000   -28.5117     9.0958   114.9991    65.7857     9.8616
  461.5000   -28.3099     9.0684   114.3618    70.7423     9.8361
  462.0000   -28.1058     8.9384   113.5042    65.2936     9.8088
  462.5000   -28.1368     8.8120   114.2618    61.8485     9.7804
  463.0000   -28.3658     8.6858   116.7121    65.4631     9.7545
  463.5000   -28.5979     8.5596   119.1625    63.2555     9.7076
  464.0000   -28.7946     8.4333   121.6128    64.1103     9.6569
  464.5000   -29.0800     8.3071   123.5420    58.7000     9.5203
