~VERSION INFORMATION
 VERS.                2.0:   CWLS LOG ASCII STANDARD - VERSION 2.0
 WRAP.                 NO:   ONE LINE PER DEPTH STEP
~WELL INFORMATION
#MNEM.UNIT      DATA TYPE    INFORMATION
#----------   ------------   ------------------------------
 STRT.F            3.0000:   START DEPTH
 STOP.F          604.0000:   STOP DEPTH
 STEP.F            0.5000:   STEP LENGTH
 NULL.          -999.2500:   NO VALUE
 COMP. BROWN JOHN E&C INC:   COMPANY
 WELL.    73-2 SX-3 #73-3:   WELL
 FLD .             TEAPOT:   FIELD
 LOC .       S3 T38N R78W:   LOCATION
 CNTY.            NATRONA:   COUNTY
 STAT.            WYOMING:   STATE
 CTRY. UNITED STATES OF AMERICA:   COUNTRY
 SRVC.     Atlas Wireline:   SERVICE COMPANY
 DATE.        13-APR-1992:   LOGDATE
 API .       490252251100:   API NUMBER
~CURVE INFORMATION
#MNEM.UNIT       API CODE    CURVE DESCRIPTION
#----------   ------------   ------------------------------
 DEPT.F                  :   
 GRR .GAPI   07 310 01 00:   GAMMA RAY
 RILD.OHMM   07 120 46 00:   INDUCTION LOG DEEP RESISTIVITY
 RILM.OHMM   07 120 44 00:   INDUCTION LOG MEDIUM RESISTIVITY
~PARAMETER INFORMATION
#MNEM.UNIT          VALUE    DESCRIPTION
#----------   ------------   ------------------------------
 PD  .                 GL:   PERMANENT DATUM
 EPD .F              5131:   ELEVATION PERMANENT DATUM
 LMF .                 KB:   LOG MEASURED FROM
 DAPD.F                 5:   FEET ABOVE PERMANENT DATUM
 DMF .                 KB:   DRILLING MEASURED FROM
 EKB .F              5136:   KELLING BUSHING
 EDF .F              5135:   DRILLING FLOOR
 EGL .F              5131:   GROUND LEVEL
 DATE.        13-APR-1992:   RUN DATE
 RUN .                  1:   RUN NUMBER
 DD  .F               610:   DEPTH DRILLER
 DL  .F               608:   DEPTH LOGGER
 BLI .F               605:   BOTTOM LOG INTERVAL
 TLI .F                 3:   TOP LOG INTERVAL
 CS  .IN            8.625:   CASING SIZE
 CBD .F                45:   CASING BOTTOM DRILLER
 CBL .F                50:   CASING BOTTOM LOGGER
 BS  .IN            7.875:   BIT SIZE
 BSD .F               610:   BIT SIZE AT DEPTH
 DFT .                AIR:   DRILLING FLUID TYPE
 LUN .           HL- 6272:   LOGGING UNIT NUMBER
 LUL .             CASPER:   LOGGING UNIT LOCATION
 ENGI.       P. RASHUSSEN:   RECORDING ENGINEER
 WITN.          G. STRONG:   WITNESSED BY
 CLNT.            A2DTECH:   CLIENT CODE
 ORIG.           5" PRINT:   ORIGIN OF DATA
 UWI .       490252251100:   UNIQUE WELL ID
 DICO. A2D Technologies, Inc.:   DIGITIZING COMPANY
~OTHER INFORMATION
~A    DEPT      GRR      RILD       RILM   
# ...
  185.0000   123.7344     7.8950     8.0175
  185.5000   128.2727     7.6733     7.6835
  186.0000   134.0268     7.6691     7.5718
  186.5000   132.1822     7.6649     7.5666
  187.0000   129.4256     7.6607     7.6144
  187.5000   129.7139     7.6565     7.6092
  188.0000   132.1193     7.7069     7.6572
  188.5000   134.5352     7.8110     7.7595
  189.0000   133.2932     7.8605     7.8085
  189.5000   131.4485     8.0786     7.9682
  190.0000   130.8249     8.2450     8.1305
  190.5000   130.4947     8.2983     8.1818
  191.0000   128.6500     8.2352     8.1755
  191.5000   128.3190     8.2307     8.1700
  192.0000   130.4437     8.1689     8.1076
  192.5000   131.9306     8.0512     7.9342
  193.0000   128.2127     7.9908     7.8736
  193.5000   127.3242     8.0435     7.9234
  194.0000   133.0783     8.0943     7.9179
  194.5000   134.2784     8.2037     7.9125
  195.0000   130.6048     8.1991     7.9084
  195.5000   130.5838     8.1945     7.9082
  196.0000   134.2103     8.1254     7.9081
  196.5000   132.9735     7.8487     7.9080
  197.0000   133.2565     7.7898     7.9079
  197.5000   134.4513     7.8411     7.9078
  198.0000   135.3474     7.9470     7.9077
  198.5000   134.1054     7.9610     7.9075
  199.0000   135.3003     7.9570     7.9074
  199.5000   136.1915     7.9538     7.9073
  200.0000   135.8663     7.8951     7.9072
  200.5000   134.5917     7.8369     7.9003
  201.0000   130.3282     7.7249     7.7845
  201.5000   130.2887     7.7218     7.8326
  202.0000   133.9115     7.7186     7.9909
  202.5000   132.6548     7.7154     7.9014
  203.0000   133.5339     7.7122     7.7036
  203.5000   136.2367     7.7090     7.5906
  204.0000   139.8514     7.7059     7.5844
  204.5000   139.2107     7.6491     7.6313
  205.0000   136.8997     7.6459     7.7864
  205.5000   139.4492     7.6427     7.8345
  206.0000   145.7994     7.6395     7.5597
  206.5000   147.8943     7.6357     7.5010
  207.0000   145.6819     7.6325     7.3390
  207.5000   145.0851     7.6294     7.3330
  208.0000   151.1313     7.6262     7.4291
  208.5000   154.1381     7.6231     7.5274
  209.0000   148.3303     7.6742     7.6270
  209.5000   139.1790     7.6702     7.6741
  210.0000   135.8027     7.7216     7.7215
  210.5000   135.4660     7.8263     7.7152
  211.0000   133.0017     7.8780     7.8720
  211.5000   128.4097     7.9855     7.9206
  212.0000   128.9848     8.0382     7.9134
  212.5000   130.8257     8.0348     7.9069
  213.0000   131.9588     8.0965     7.8997
  213.5000   132.2300     8.1412     8.0041
  214.0000   137.3562     8.1371     8.1100
  214.5000   138.2435     8.1337     8.1034
  215.0000   136.6828     8.1304     8.0968
  215.5000   135.4343     8.1270     8.0902
  216.0000   136.3216     8.0671     8.0836
  216.5000   135.0648     7.9518     7.9921
  217.0000   134.1202     7.7837     7.8749
  217.5000   133.7835     7.6190     7.8402
  218.0000   137.3982     7.6159     7.8338
  218.5000   137.6694     7.6128     7.7730
  219.0000   137.3313     7.5566     7.6058
  219.5000   134.8601     7.4454     7.3904
  220.0000   136.6511     7.2336     7.2821
  220.5000   136.9305     7.0865     7.1254
  221.0000   135.0658     7.0836     7.1196
  221.5000   132.9136     7.0807     7.1130
  222.0000   133.4887     7.1274     7.1570
  222.5000   132.5359     7.2247     7.1504
  223.0000   132.5032     7.3234     7.2450
  223.5000   133.6862     7.3725     7.2898
  224.0000   136.9970     7.4724     7.3348
  224.5000   134.7093     7.5752     7.4318
  225.0000   128.7234     7.6245     7.5301
  225.5000   133.2431     7.7286     7.5767
  226.0000   134.4343     7.8341     7.6769
  226.5000   132.2657     7.9411     7.7235
  227.0000   131.9290     8.0495     7.7172
  227.5000   135.2397     8.1026     7.7641
  228.0000   139.4705     8.0984     7.8668
  228.5000   136.9980     8.1527     7.9154
  229.0000   132.1020     8.1485     7.9090
  229.5000   129.9416     8.1452     8.0697
  230.0000   128.0851     8.1418     8.1196
  230.5000   126.8358     8.1964     8.2846
  231.0000   127.5622     8.1921     8.2778
  231.5000   131.9300     8.1317     8.0989
  232.0000   136.4647     8.0718     7.9793
  232.5000   133.9922     8.0123     7.9728
  233.0000   132.1357     8.0090     7.8013
  233.5000   129.3674     7.9499     7.7949
  234.0000   130.2547     7.9466     7.9533
  234.5000   131.1256     7.9433     7.7822
  235.0000   132.0047     7.9393     7.7218
  235.5000   133.4917     7.9925     7.8239
  236.0000   134.0669     8.0444     7.9266
  236.5000   134.0334     8.0983     8.0314
  237.0000   134.0000     8.1509     8.1368
  237.5000   133.6565     8.3785     8.2444
  238.0000   131.4961     8.5534     8.4708
  238.5000   129.0317     8.7301     8.7035
  239.0000   127.7831     8.8502     8.8803
  239.5000   126.5346     8.9702     8.8731
  240.0000   126.1979     9.0927     9.1168
  240.5000   126.1651     9.3467     9.3672
  241.0000   125.2205     9.6173     9.5900
  241.5000   123.0601    10.0247     9.9224
  242.0000   123.0274    10.2934    10.2294
  242.5000   123.9065    10.3624    10.1500
  243.0000   125.6452    10.5764     9.9316
  243.5000   129.9200    10.7961    10.2758
  244.0000   128.9672    11.0202    10.9329
  244.5000   118.9040    11.2491    11.0775
  245.0000   114.3120    11.4027    11.3026
  245.5000   115.1911    11.4791    11.4521
  246.0000   117.5900    11.6359    11.4816
  246.5000   119.3809    11.6299    11.3516
  247.0000   121.1719    11.5441    11.3423
  247.5000   120.8352    11.5394    11.4923
  248.0000   120.4985    11.5302    11.4097
  248.5000   122.0101    11.3698    11.3277
  249.0000   121.5461    11.2063    11.1683
  249.5000   120.6960    11.0462    10.9345
  250.0000   118.8477    10.9486    10.7056
  250.5000   120.3404    10.7337    10.4815
  251.0000   120.6287    10.4343    10.3340
  251.5000   120.6026    10.2859    10.2600
  252.0000   120.2778    10.2824    10.1865
  252.5000   119.0411    10.2788    10.2558
  253.0000   116.5886    10.2753    10.2535
  253.5000   112.9203    10.3438    10.2873
  254.0000   112.8836    10.3403    10.3210
  254.5000   114.7236    10.4092    10.3186
  255.0000   118.1461    10.4056    10.3165
  255.5000   121.3474    10.4750    10.3867
  256.0000   119.8016    10.5449    10.3845
  256.5000   117.9570    10.4669    10.4551
  257.0000   116.1124    10.4634    10.4530
  257.5000   116.3955    10.3869    10.4508
  258.0000   116.3746    10.3111    10.3760
  258.5000   120.0011    10.3075    10.3017
  259.0000   118.7645    10.2322    10.2279
  259.5000   116.0080    10.2287    10.1546
  260.0000   116.8990    10.2252    10.1525
  260.5000   121.4374    10.2217    10.1502
  261.0000   127.5140    10.1470    10.1481
  261.5000   123.7682    10.1421    10.2168
  262.0000   122.5906    10.0694    10.2863
  262.5000   125.9079    10.0659    10.2842
  263.0000   128.3187    10.0617    10.2821
  263.5000   127.0820    10.0582    10.2084
  264.0000   124.9335    10.1262    10.2063
  264.5000   123.3928    10.1937    10.2042
  265.0000   120.0285    10.2616    10.2021
  265.5000   115.1444    10.2572    10.2000
  266.0000   111.7800    10.2537    10.1979
  266.5000   112.6710    10.1788    10.0544
  267.0000   115.9936    10.1753     9.9129
  267.5000   115.9626    10.1010     9.8417
  268.0000   113.1026    10.0272     9.8397
  268.5000   108.9392     9.9507     9.8377
  269.0000   108.9140     9.8729     9.7669
  269.5000   109.5010     9.6048     9.5624
  270.0000   112.8236     9.3368     9.2971
  270.5000   114.3277     9.0131     8.9138
  271.0000   113.6937     8.6401     8.5463
  271.5000   113.6728     8.2824     8.3092
  272.0000   115.1717     8.1647     8.2497
  272.5000   122.1469     8.1619     8.2480
  273.0000   122.4248     8.1591     8.1889
  273.5000   121.4921     8.2711     8.1872
  274.0000   117.2040     8.3263     8.1855
  274.5000   115.3708     8.4405     8.1837
  275.0000   117.0210     8.4968     8.2393
  275.5000   119.5796     8.5578     8.3534
