~VERSION INFORMATION
 VERS.                2.0:   CWLS LOG ASCII STANDARD - VERSION 2.0
 WRAP.                 NO:   ONE LINE PER DEPTH STEP
~WELL INFORMATION
#MNEM.UNIT      DATA TYPE    INFORMATION
#----------   ------------   ------------------------------
 STRT.F           34.0000:   START DEPTH
 STOP.F          534.0000:   STOP DEPTH
 STEP.F            0.5000:   STEP LENGTH
 NULL.          -999.2500:   NO VALUE
 COMP.    FENIX & SCISSON:   COMPANY
 WELL.      33 SX 3 #33-3:   WELL
 FLD .             TEAPOT:   FIELD
 LOC .       S3 T38N R78W:   LOCATION
 CNTY.            NATRONA:   COUNTY
 STAT.            WYOMING:   STATE
 CTRY. UNITED STATES OF AMERICA:   COUNTRY
 SRVC.       Schlumberger:   SERVICE COMPANY
 DATE.        23-FEB-1977:   LOGDATE
 API .       490251028500:   API NUMBER
~CURVE INFORMATION
#MNEM.UNIT       API CODE    CURVE DESCRIPTION
#----------   ------------   ------------------------------
 DEPT.F                  :   
 SPR .MV     07 010 01 00:   SPONTANEOUS POTENTIAL
 LL8 .OHMM   07 220 08 00:   LATEROLOG-8 RES.
 ILD .OHMM   07 120 46 00:   INDUCTION LOG DEEP
 ILM .OHMM   07 120 44 00:   INDUCTION LOG MEDIUM
 CALD.IN     45 280 60 00:   CALIPER
 GRD .GAPI   45 310 01 00:   GAMMA RAY FROM DENSITY LOG
 RHOB.G/C3   45 350 01 00:   BULK DENSITY
 DPOR.DEC    45 890 12 00:   DENSITY POROSITY SANDSTONE
 CORR.G/C3   45 356 01 00:   DENSITY CORRECTION
~PARAMETER INFORMATION
#MNEM.UNIT          VALUE    DESCRIPTION
#----------   ------------   ------------------------------
 PD  .                 GL:   PERMANENT DATUM
 EPD .F              5170:   ELEVATION PERMANENT DATUM
 LMF .                 KB:   LOG MEASURED FROM
 DAPD.F                 5:   FEET ABOVE PERMANENT DATUM
 DMF .                 KB:   DRILLING MEASURED FROM
 EKB .F              5175:   KELLING BUSHING
 EGL .F              5170:   GROUND LEVEL
 DATE.            2-23-77:   RUN DATE
 RUN .                  1:   RUN NUMBER
 DD  .F               550:   DEPTH DRILLER
 DL  .F               535:   DEPTH LOGGER
 BLI .F               525:   BOTTOM LOG INTERVAL
 TLI .F                47:   TOP LOG INTERVAL
 CS  .IN            8.625:   CASING SIZE
 CBD .F                40:   CASING BOTTOM DRILLER
 CBL .F                47:   CASING BOTTOM LOGGER
 BS  .IN            7.875:   BIT SIZE
 BSD .F               550:   BIT SIZE AT DEPTH
 DFT .                KCL:   DRILLING FLUID TYPE
 DFD .                  9:   DRILLING FLUID DENSITY
 DFV .                 36:   DRILLING FLUID VISCOSITY
 MSS .            MUDTANK:   MUD SAMPLE SOURCE
 RMS .OHMM           .255:   RESISTIVITY MUD SAMPLE
 MST .F                74:   MUD SAMPLE TEMPERATURE
 RMF .OHMM           .246:   RESISTIVITY MUD FILTRATE SAMPLE
 MFST.F                74:   MUD FILTRATE SAMPLE TEMPERATURE
 RMC .OHMM            .38:   RESISTIVITY MUD CAKE
 MCST.F                74:   MUD CAKE SAMPLE TEMPERATURE
 MFSS.                  M:   MUD FILTRATE SAMPLE SOURCE
 MCSS.                  C:   MUD CAKE SAMPLE SOURCE
 RMB .OHMM            .34:   RESISTIVITY MUD AT BHT
 BHT .F                55:   BOTTOM HOLE TEMPERATURE
 TCS .HRS            0600:   TIME CURCULATED STOPPED
 TLAB.HRS            0730:   TIME LOGGER AT BOTTOM
 MRT .F                55:   MAXIMUM RECORDED TEMPERATURE
 LUN .               5642:   LOGGING UNIT NUMBER
 LUL .               CSPR:   LOGGING UNIT LOCATION
 ENGI.                FIX:   RECORDING ENGINEER
 WITN.         STUEBINGER:   WITNESSED BY
 CLNT.            A2DTECH:   CLIENT CODE
 ORIG.       2", 5" PRINT:   ORIGIN OF DATA
 UWI .       490251028500:   UNIQUE WELL ID
 DICO. A2D Technologies, Inc.:   DIGITIZING COMPANY
~OTHER INFORMATION
~A   DEPT      SPR        LL8        ILD        ILM       CALD         GRD      RHOB       DPOR       CORR   
# ...
   70.5000   -69.4641  1523.3284     7.8152     8.6733     8.5846   138.3088     2.4406     0.1306     0.0321
   71.0000   -67.7964  1523.3284     7.7756     8.5960     8.5760   139.3103     2.4483     0.1320     0.0280
   71.5000   -66.9668  1523.3284     7.7361     8.5758     8.5675   139.5263     2.4576     0.1231     0.0378
   72.0000   -66.2460  1523.3284     7.6941     8.5200     8.5589   138.3349     2.4609     0.1192     0.0476
   72.5000   -65.8170  1523.3284     7.6939     8.4644     8.5696   138.1084     2.4490     0.1269     0.0207
   73.0000   -65.3813  1523.3284     7.8614     8.4388     8.5978   138.7265     2.4549     0.1241     0.0258
   73.5000   -64.9436  1523.3284     7.9889     8.6592     8.6268   137.4833     2.4573     0.1212     0.0321
   74.0000   -64.5092  1523.3284     8.1182     8.7802     8.6340   135.1827     2.4523     0.1232     0.0323
   74.5000   -64.0875  1523.3284     8.2493     8.9028     8.6343   132.9781     2.4445     0.1272     0.0215
   75.0000   -63.7902  1523.3284     8.3825     9.0272     8.6342   132.7163     2.4286     0.1402     0.0093
   75.5000   -63.7930  1523.3284     8.5179     9.1532     8.6342   133.1245     2.4304     0.1312     0.0193
   76.0000   -63.7895  1523.3284     8.6548     9.2811     8.6342   131.5897     2.4289     0.1374    -0.0014
   76.5000   -63.9976  1523.3284     8.8373     9.4271     8.6342   131.0540     2.4176     0.1443     0.0072
   77.0000   -64.3579  1523.3284     8.9202     9.4237     8.6342   132.7988     2.4016     0.1512    -0.0183
   77.5000   -65.1319  1523.3284     8.8168     9.6210     8.6342   134.2603     2.4133     0.1549    -0.0219
   78.0000   -66.7252  1523.3284     8.7207     9.7804     8.6342   135.1760     2.4223     0.1426     0.0001
   78.5000   -69.1557  1523.3284     8.6258     9.7420     8.6342   135.8728     2.4376     0.1315     0.0244
   79.0000   -71.9531  1523.3284     8.5322     9.7052     8.6342   132.9993     2.4527     0.1276     0.0171
   79.5000   -75.4573  1523.3284     8.5169     9.6683     8.6342   130.5028     2.4630     0.1200     0.0355
   80.0000   -78.9651  1523.3284     8.4642     9.6316     8.6342   129.4649     2.4762     0.1200     0.0266
   80.5000   -81.9023  1523.3287     8.3804     9.6025     8.6342   130.2226     2.4632     0.1223     0.0421
   81.0000   -84.3154  1523.3304     8.2974     9.6027     8.6342   132.0258     2.4542     0.1232     0.0210
   81.5000   -87.7419  1523.3293     8.2153     9.4692     8.6342   135.2901     2.4595     0.1259     0.0156
   82.0000   -91.1786  1523.3207     8.1330     9.3056     8.6342   136.8484     2.4647     0.1250     0.0389
   82.5000   -94.6111  1522.5439     8.0919     9.1448     8.6342   135.6065     2.4587     0.1232     0.0243
   83.0000   -98.0697  1520.4883     8.0221     8.9866     8.6342   133.9977     2.4451     0.1254     0.0162
   83.5000   -99.4907  1518.4473     7.9529     8.8313     8.6342   132.6204     2.4314     0.1308     0.0123
   84.0000   -99.5034  1516.4049     7.8844     8.6785     8.6342   133.5711     2.4176     0.1391     0.0012
   84.5000   -99.5075  1514.3656     7.8163     8.5286     8.6342   136.3204     2.4062     0.1508     0.0118
   85.0000   -99.5048  1512.3282     7.7487     8.3811     8.6342   136.7884     2.4201     0.1436     0.0066
   85.5000   -99.5040  1510.2935     7.6822     8.2845     8.6342   137.5265     2.4173     0.1480     0.0146
   86.0000   -99.5040  1508.2615     7.6242     8.3985     8.6343   139.2758     2.4248     0.1398     0.0244
   86.5000   -99.5071  1506.2323     7.7679     8.5572     8.6339   140.3484     2.4427     0.1310     0.0318
   87.0000   -99.5119  1504.2058     7.9715     8.7190     8.6228   136.0351     2.4635     0.1222     0.0439
   87.5000   -99.4875  1502.1815     8.1804     8.8838     8.6113   134.4607     2.4578     0.1196     0.0310
   88.0000   -99.4727  1500.1633     8.3948     9.0020     8.5998   133.8484     2.4491     0.1274     0.0102
   88.5000   -95.4445  1498.1426     8.5960     9.1053     8.5884   131.6453     2.4507     0.1263     0.0237
   89.0000   -88.2165  1496.1270     8.4804     9.1750     8.5768   128.4641     2.4481     0.1416     0.0343
   89.5000   -80.7299  1495.4692     8.3752     9.2453     8.5746   124.7613     2.4074     0.1553     0.0169
   90.0000   -74.3713  1509.3345     8.2713     8.6212     8.5745   119.0493     2.4026     0.1553     0.0045
   90.5000   -68.2950  1176.4381     8.1686     7.5725     8.5745   109.2208     2.4225     0.1452     0.0065
   91.0000   -62.2484   427.7700     8.1330     6.5171     8.5745   107.4402     2.4406     0.1396     0.0249
   91.5000   -58.4316   163.5820     8.1006     6.9790     8.5746   106.5973     2.4346     0.1396     0.0179
   92.0000   -58.3950   113.9045     8.0698     7.7657     8.5753   106.3405     2.4334     0.1349     0.0096
   92.5000   -58.7072   143.4635     8.0391     8.6411     8.5489   105.4214     2.4497     0.1278     0.0165
   93.0000   -58.9573   132.1892     8.0084     9.0854     8.5161   104.0913     2.4660     0.1191     0.0234
   93.5000   -59.1639   117.5105     7.9842     9.0854     8.5173   102.7298     2.4753     0.1132     0.0298
   94.0000   -59.3675   104.4617     8.0217     8.9578     8.5349   101.5082     2.4760     0.1145     0.0338
   94.5000   -59.5700    90.3246     8.0688     8.8337     8.5525   102.3335     2.5015     0.1088     0.0297
   95.0000   -59.7742    42.4366     8.1160     8.7535     8.5704   106.1667     2.5012     0.1073     0.0240
   95.5000   -59.9904    15.4988     8.1636     8.8402     8.5745   109.3735     2.5046     0.1067     0.0255
   96.0000   -59.7007    13.1223     8.2115     8.8397     8.5746   109.4724     2.5013     0.1075     0.0399
   96.5000   -59.3001    11.0284     8.2596     8.8833     8.5746   107.1747     2.4782     0.1116     0.0324
   97.0000   -58.8885    11.0750     8.3080     8.9313     8.5745   106.1190     2.4538     0.1244     0.0185
   97.5000   -58.0714    11.1307     8.3567     8.9795     8.5745   105.5705     2.4517     0.1246     0.0128
   98.0000   -56.4361    10.6621     8.4057     9.0194     8.5745   107.2147     2.4525     0.1247     0.0198
   98.5000   -54.8294    10.1494     8.5170     9.1517     8.5745   110.1839     2.4536     0.1240     0.0233
   99.0000   -53.9559    10.2846     8.5170     9.2860     8.5745   108.8556     2.4548     0.1240     0.0159
   99.5000   -56.5958    10.6287     8.5998     9.4222     8.5745   107.5184     2.4443     0.1275     0.0212
  100.0000   -57.4883    10.5311     8.6911     9.5605     8.5769   108.3755     2.4341     0.1314     0.0157
  100.5000   -58.1008    10.3942     8.7834     9.7008     8.5802   109.1153     2.4369     0.1348     0.0109
  101.0000   -58.7116    10.2435     8.8767     9.8431     8.5835   108.3671     2.4485     0.1285     0.0163
  101.5000   -59.1084    10.5681     8.9710     9.9875     8.5869   107.2579     2.4601     0.1201     0.0120
  102.0000   -59.2783    11.0631     9.0662    10.1395     8.5902   104.9290     2.4624     0.1198     0.0196
  102.5000   -59.4483    11.5492     9.1625    10.2518     8.5936   101.7803     2.4610     0.1199     0.0112
  103.0000   -59.6167    11.6780     9.2503    10.5505     8.5896   101.2124     2.4618     0.1183     0.0175
  103.5000   -59.7852    11.8766     9.3898    10.7904     8.5806   102.3838     2.4659     0.1164     0.0238
  104.0000   -59.9544    12.0789     9.6133    11.0376     8.5715   101.0642     2.4662     0.1196     0.0234
  104.5000   -60.1239    12.3203     9.8416    11.2931     8.5625   101.2324     2.4652     0.1200     0.0159
  105.0000   -60.2897    12.2939    10.0739    11.5546     8.5548   103.7234     2.4748     0.1140     0.0423
  105.5000   -60.3542    12.2068    10.3113    11.8221     8.5503   104.8940     2.4841     0.1112     0.0375
  106.0000   -60.0619    12.5345    10.5543    12.2311     8.5445   103.5444     2.4809     0.1152     0.0326
  106.5000   -59.7790    13.3769    10.8029    12.6873     8.5386   101.6504     2.4851     0.1107     0.0494
