~VERSION INFORMATION
 VERS.                2.0:   CWLS LOG ASCII STANDARD - VERSION 2.0
 WRAP.                 NO:   ONE LINE PER DEPTH STEP
~WELL INFORMATION
#MNEM.UNIT      DATA TYPE    INFORMATION
#----------   ------------   ------------------------------
 STRT.F           11.0000:   START DEPTH
 STOP.F          807.0000:   STOP DEPTH
 STEP.F            0.5000:   STEP LENGTH
 NULL.          -999.2500:   NO VALUE
 COMP. BROWN JOHN E&C INC:   COMPANY
 WELL. NPR 3 SHX-34 #77-1-34:   WELL
 FLD .             TEAPOT:   FIELD
 LOC .      S34 T39N R79W:   LOCATION
 CNTY.            NATRONA:   COUNTY
 STAT.            WYOMING:   STATE
 CTRY. UNITED STATES OF AMERICA:   COUNTRY
 SRVC.     Atlas Wireline:   SERVICE COMPANY
 DATE.        07-DEC-1991:   LOGDATE
 API .       490252248000:   API NUMBER
~CURVE INFORMATION
#MNEM.UNIT       API CODE    CURVE DESCRIPTION
#----------   ------------   ------------------------------
 DEPT.F                  :   
 CALD.IN     45 280 60 00:   CALIPER FROM DENSITY LOG
 CORR.G/C3   45 356 01 00:   DENSITY CORRECTION
 DEN .G/C3   45 350 01 00:   COMPENSATED BULK DENSTIY
 GRD .GAPI   45 310 01 00:   GAMMA RAY FROM DENSITY LOG
 PORD.DEC    45 890 12 00:   POROSITY DENSITY SANDSTONE
 GRR .GAPI   07 310 01 00:   GAMMA RAY FROM RESISTIVITY
 RILD.OHMM   07 120 46 00:   RESISTIVITY INDUCTION LOG DEEP
 RILM.OHMM   07 120 44 00:   RESITIVITY INDUCTION LOG MEDIUM
~PARAMETER INFORMATION
#MNEM.UNIT          VALUE    DESCRIPTION
#----------   ------------   ------------------------------
 PD  .                 GL:   PERMANENT DATUM
 EPD .F              5098:   ELEVATION PERMANENT DATUM
 LMF .                 KB:   LOG MEASURED FROM
 DAPD.F                10:   FEET ABOVE PERMANENT DATUM
 DMF .                 KB:   DRILLING MEASURED FROM
 EKB .F              5108:   KELLING BUSHING
 EDF .F              5107:   DRILLING FLOOR
 EGL .F              5098:   GROUND LEVEL
 DATE.        07-DEC-1991:   RUN DATE
 RUN .                  1:   RUN NUMBER
 DD  .F               810:   DEPTH DRILLER
 DL  .F               810:   DEPTH LOGGER
 BLI .F               808:   BOTTOM LOG INTERVAL
 CS  .IN            9.625:   CASING SIZE
 CBD .F                85:   CASING BOTTOM DRILLER
 CBL .F                97:   CASING BOTTOM LOGGER
 BS  .IN             8.75:   BIT SIZE
 BSD .F               810:   BIT SIZE AT DEPTH
 DFT .                AIR:   DRILLING FLUID TYPE
 BHT .F                90:   BOTTOM HOLE TEMPERATURE
 MRT .F                90:   MAXIMUM RECORDED TEMPERATURE
 LUN .            HL 6274:   LOGGING UNIT NUMBER
 LUL .             CASPER:   LOGGING UNIT LOCATION
 ENGI.       P. RASMUSSEN:   RECORDING ENGINEER
 WITN.        GARY STRONG:   WITNESSED BY
 CLNT.            A2DTECH:   CLIENT CODE
 ORIG.           5" PRINT:   ORIGIN OF DATA
 UWI .       490252248000:   UNIQUE WELL ID
 DICO. A2D Technologies, Inc.:   DIGITIZING COMPANY
~OTHER INFORMATION
~A   DEPT     CALD       CORR        DEN        GRD       PORD         GRR      RILD       RILM   
# ...
  456.5000     9.1707     0.0043     2.3994   127.5095     0.1500   101.6829     7.6602     7.8637
  457.0000     9.1700     0.0028     2.3971   128.7023     0.1512   104.6772     7.4002     7.7022
  457.5000     9.1693     0.0027     2.3971   130.5756     0.1521   106.4703     7.2704     7.4921
  458.0000     9.1688     0.0087     2.4031   131.9868     0.1473   106.4616     7.1266     7.3383
  458.5000     9.1682     0.0177     2.4083   131.6782     0.1446   106.1548     6.9943     7.2375
  459.0000     9.1675     0.0176     2.4113   131.0691     0.1431   106.7707     7.0912     7.1876
  459.5000     9.1669     0.0146     2.4053   131.6615     0.1461   102.1632     7.0906     7.1876
  460.0000     9.1664     0.0100     2.4015   133.1526     0.1500    99.5200     7.1887     7.3383
  460.5000     9.1654     0.0068     2.4030   132.1953     0.1503   104.3139     7.2882     7.4921
  461.0000     9.1601     0.0024     2.4105   129.2299     0.1446   107.9088     7.3889     7.6491
  461.5000     9.1600     0.0008     2.4173   127.7233     0.1419   109.1035     7.4397     7.8095
  462.0000     9.1598     0.0023     2.4135   126.2820     0.1416   106.9905     7.4908     7.8637
  462.5000     9.1597     0.0068     2.4120   126.8769     0.1443   110.5854     7.5944     7.8591
  463.0000     9.1595     0.0112     2.4135   128.6716     0.1440   113.5797     7.5938     7.8637
  463.5000     9.1594     0.0112     2.4158   129.2679     0.1431   112.3676     7.6989     7.9182
  464.0000     9.1892     0.0066     2.4164   131.0626     0.1419   106.9535     7.8054     7.9732
  464.5000     9.2040     0.0036     2.4149   133.4593     0.1413   106.9448     7.9134     8.0285
  465.0000     9.2189     0.0035     2.4126   135.8958     0.1419   107.5389     8.0229     8.1403
  465.5000     9.2337     0.0020     2.4129   137.0516     0.1450   108.7298     8.1339     8.2536
  466.0000     9.2486     0.0019     2.4053   132.8403     0.1483   110.2205     8.2464     8.3686
  466.5000     9.2184     0.0004     2.4008   132.2340     0.1498   112.3140     8.3605     8.4851
  467.0000     9.2033    -0.0013     2.3985   135.8559     0.1492   112.9081     8.4178     8.6033
  467.5000     9.1881    -0.0042     2.4008   137.0274     0.1486   111.0955     8.4756     8.6033
  468.0000     9.1724    -0.0058     2.4053   135.8191     0.1477   109.2851     8.4749     8.6033
  468.5000     9.1578    -0.0073     2.4068   137.9155     0.1456   112.0510     8.4160     8.5440
  469.0000     9.1727    -0.0074     2.4083   140.0119     0.1441   114.9714     8.3576     8.4851
  469.5000     9.1876    -0.0074     2.4113   140.0048     0.1411   116.1661     8.2423     8.3686
  470.0000     9.2024    -0.0029     2.4158   138.4977     0.1384   115.8550     8.1850     8.1953
  470.5000     9.1872     0.0045     2.4211   139.3929     0.1366   114.9455     8.1282     8.0941
  471.0000     9.1871     0.0075     2.4233   142.6905     0.1366   113.4353     8.0162     8.0930
  471.5000     9.1719     0.0105     2.4158   145.7357     0.1396   111.5526     8.0156     8.1483
  472.0000     9.1718     0.0134     2.4082   148.3834     0.1429   109.8123     8.0151     8.0909
  472.5000     9.1567     0.0134     2.4090   148.9797     0.1438   110.7046     8.0701     8.1459
  473.0000     9.1715     0.0133     2.4127   144.7684     0.1426   111.2987     8.1255     8.2100
  473.5000     9.1864     0.0117     2.4144   138.1561     0.1408   110.3870     8.1248     8.2572
  474.0000     9.1862     0.0072     2.4150   132.4433     0.1408   109.7777     8.1243     8.3133
  474.5000     9.1861     0.0042     2.4142   130.9361     0.1414   109.1682     8.1237     8.1978
  475.0000     9.2009     0.0011     2.4112   130.9305     0.1430   109.4580     8.0117     8.1967
  475.5000     9.1857     0.0011     2.4067   132.1260     0.1454   111.5515     7.9560     8.0831
  476.0000     9.2006     0.0010     2.4052   135.7958     0.1469   113.9453     7.9007     8.0817
  476.5000     9.1855     0.0016     2.4074   139.0201     0.1454   113.3360     7.9002     8.0250
  477.0000     9.1853     0.0023     2.4097   139.9167     0.1430   112.4184     7.8997     7.9686
  477.5000     9.1851     0.0029     2.4097   138.7084     0.1439   112.1154     7.8992     7.9676
  478.0000     9.1850     0.0017     2.4029   139.3033     0.1464   113.9086     7.8985     7.8571
  478.5000     9.1699     0.0002     2.4014   139.2962     0.1490   116.3023     7.8437     7.8560
  479.0000     9.1697     0.0001     2.4044   138.3896     0.1499   115.3928     7.7892     7.8006
  479.5000     9.1695    -0.0014     2.4104   137.4831     0.1460   112.6814     7.7887     7.7458
  480.0000     9.1694    -0.0029     2.4141   136.2762     0.1433   109.3092     7.7346     7.6385
  480.5000     9.1739    -0.0030     2.4141   135.6685     0.1415   105.7551     7.6750     7.5848
  481.0000     9.1841    -0.0015     2.4111   135.3639     0.1427   105.4462     7.5749     7.5315
  481.5000     9.1840     0.0000     2.4081   135.6585     0.1451   107.2393     7.4705     7.4249
  482.0000     9.1838     0.0000     2.4051   135.0508     0.1476   107.8335     7.3169     7.3239
  482.5000     9.2136    -0.0016     2.4066   133.8439     0.1482   104.2191     7.1664     7.2224
  483.0000     9.2135    -0.0031     2.4073   133.8368     0.1452   103.6096     6.9228     7.0731
  483.5000     9.2133    -0.0031     2.4081   134.4332     0.1446   106.6021     6.5956     6.7848
  484.0000     9.1982    -0.0032     2.4073   135.6273     0.1464   116.8036     6.3275     6.4188
  484.5000     9.1830    -0.0032     2.3998   136.8228     0.1506   122.8010     6.1124     6.1147
  485.0000     9.1829    -0.0032     2.3892   138.9178     0.1551   125.7954     5.9867     6.0297
  485.5000     9.1828    -0.0033     2.3779   140.7139     0.1609   125.7867     5.8636     5.9461
  486.0000     9.1826    -0.0003     2.3674   142.5100     0.1681   118.3943     5.9039     6.0281
  486.5000     9.1824     0.0057     2.3651   144.0058     0.1705   114.3559     5.9854     6.0273
  487.0000     9.1823     0.0087     2.3794   144.9329     0.1675   112.2451     6.0684     6.1105
  487.5000     9.1821     0.0102     2.3907   143.3924     0.1576   110.1344     6.1949     6.1947
  488.0000     9.1820     0.0086     2.3997   140.0835     0.1500   108.3240     6.3242     6.3674
  488.5000     9.1818     0.0056     2.4020   139.1783     0.1488   108.9278     6.5008     6.5451
  489.0000     9.1817     0.0040     2.4005   140.3724     0.1489   113.1094     6.6876     6.7744
  489.5000     9.1815     0.0025     2.4012   140.0650     0.1492   114.3041     6.8689     6.9158
  490.0000     9.1814     0.0025     2.4020   136.1554     0.1492   113.3924     6.9641     7.0109
  490.5000     9.1813     0.0024     2.4035   131.9455     0.1489   113.0835     6.9156     7.1076
  491.0000     9.1661     0.0024     2.4042   131.6156     0.1489   115.4772     6.8675     7.1064
  491.5000     9.1510     0.0009     2.4034   133.8237     0.1492   118.1872     6.8671     7.1055
  492.0000     9.1508    -0.0007     2.4019   136.1312     0.1495   116.0584     6.7723     7.0069
  492.5000     9.1507    -0.0052     2.4004   137.3268     0.1495   111.8456     6.7719     6.9577
  493.0000     9.1505    -0.0067     2.3974   139.1229     0.1501   107.3324     6.7249     6.8613
  493.5000     9.1504    -0.0053     2.3914   141.5355     0.1549   104.6211     6.6781     6.7661
  494.0000     9.1502    -0.0007     2.3868   142.1145     0.1568   108.8166     6.5861     6.6261
  494.5000     9.1651     0.0022     2.3853   137.0023     0.1580   113.0681     6.5378     6.5343
  495.0000     9.1649     0.0052     2.3861   135.4951     0.1580   114.2048     6.4058     6.4437
  495.5000     9.1798     0.0052     2.3861   137.2912     0.1580   109.9898     6.1454     6.2671
  496.0000     9.1796     0.0051     2.3861   144.7916     0.1586   108.1793     5.9776     6.0953
  496.5000     9.1795     0.0081     2.3853   151.0923     0.1592   109.3741     5.7347     5.7043
