~VERSION INFORMATION
 VERS.                2.0:   CWLS LOG ASCII STANDARD - VERSION 2.0
 WRAP.                 NO:   ONE LINE PER DEPTH STEP
~WELL INFORMATION
#MNEM.UNIT      DATA TYPE    INFORMATION
#----------   ------------   ------------------------------
 STRT.F           50.0000:   START DEPTH
 STOP.F          854.0000:   STOP DEPTH
 STEP.F            0.5000:   STEP LENGTH
 NULL.          -999.2500:   NO VALUE
 COMP. FENIX & SCISSON INC:   COMPANY
 WELL.    45 SX 11 #45-11:   WELL
 FLD .             TEAPOT:   FIELD
 LOC .      S11 T38N R78W:   LOCATION
 CNTY.            NATRONA:   COUNTY
 STAT.            WYOMING:   STATE
 CTRY. UNITED STATES OF AMERICA:   COUNTRY
 SRVC.           BIRDWELL:   SERVICE COMPANY
 DATE.        01-MAR-1978:   LOGDATE
 API .       490251058600:   API NUMBER
~CURVE INFORMATION
#MNEM.UNIT       API CODE    CURVE DESCRIPTION
#----------   ------------   ------------------------------
 DEPT.F                  :   
 CALD.IN     45 280 60 00:   CALIPER
 CORR.G/C3   45 356 01 00:   DENSITY CORRECTION
 RHOB.G/C3   45 350 01 00:   BULK DENSITY
 DPOR.DEC    45 890 12 00:   DENSITY POROSITY SANDSTONE
 GRD .GAPI   45 310 01 00:   GAMMA RAY FROM DENSITY LOG
 SPR .MV     05 010 01 00:   SPONTANEOUS POTENTIAL FROM RES.
 SN  .OHMM   05 040 16 00:   SHORT NORMAL 16"
 ILD .OHMM   05 120 46 00:   INDUCTION LOG DEEP
~PARAMETER INFORMATION
#MNEM.UNIT          VALUE    DESCRIPTION
#----------   ------------   ------------------------------
 PD  .                 GL:   PERMANENT DATUM
 EPD .F              5186:   ELEVATION PERMANENT DATUM
 LMF .                 KB:   LOG MEASURED FROM
 DAPD.F                 4:   FEET ABOVE PERMANENT DATUM
 DMF .                 KB:   DRILLING MEASURED FROM
 EKB .F              5190:   KELLING BUSHING
 EGL .F              5186:   GROUND LEVEL
 DATE.           3-1-1978:   RUN DATE
 RUN .                  1:   RUN NUMBER
 DD  .F               848:   DEPTH DRILLER
 DL  .F               856:   DEPTH LOGGER
 BLI .F               851:   BOTTOM LOG INTERVAL
 TLI .F                50:   TOP LOG INTERVAL
 CS  .IN            8.625:   CASING SIZE
 CBD .F                40:   CASING BOTTOM DRILLER
 CBL .F                40:   CASING BOTTOM LOGGER
 BS  .IN            7.875:   BIT SIZE
 BSD .F               848:   BIT SIZE AT DEPTH
 DFT .          LIGNOSULF:   DRILLING FLUID TYPE
 DFD .                8.5:   DRILLING FLUID DENSITY
 DFV .                 30:   DRILLING FLUID VISCOSITY
 DFPH.               11.5:   DRILLING FLUID PH
 MSS .                PIT:   MUD SAMPLE SOURCE
 RMS .OHMM              2:   RESISTIVITY MUD SAMPLE
 MST .F                59:   MUD SAMPLE TEMPERATURE
 RMF .OHMM            1.8:   RESISTIVITY MUD FILTRATE SAMPLE
 MFST.F                60:   MUD FILTRATE SAMPLE TEMPERATURE
 RMC .OHMM            2.2:   RESISTIVITY MUD CAKE
 MCST.F                60:   MUD CAKE SAMPLE TEMPERATURE
 MFSS.               MEAS:   MUD FILTRATE SAMPLE SOURCE
 MCSS.               MEAS:   MUD CAKE SAMPLE SOURCE
 RMB .OHMM           1.69:   RESISTIVITY MUD AT BHT
 BHT .F                70:   BOTTOM HOLE TEMPERATURE
 TCS .HRS               3:   TIME CURCULATED STOPPED
 MRT .F                70:   MAXIMUM RECORDED TEMPERATURE
 LUN .               2959:   LOGGING UNIT NUMBER
 LUL .               CASP:   LOGGING UNIT LOCATION
 ENGI.            POINTER:   RECORDING ENGINEER
 WITN.         HARRINGTON:   WITNESSED BY
 CLNT.            A2DTECH:   CLIENT CODE
 ORIG.       2", 5" PRINT:   ORIGIN OF DATA
 UWI .       490251058600:   UNIQUE WELL ID
 DICO. A2D Technologies, Inc.:   DIGITIZING COMPANY
~OTHER INFORMATION
~A   DEPT       CALD      CORR      RHOB       DPOR        GRD        SPR         SN        ILD   
   50.0000     7.8770    -0.1951  -999.2500  -999.2500  -999.2500  -162.0712  -999.2500  -999.2500
   50.5000     8.0026    -0.1414  -999.2500  -999.2500  -999.2500  -153.2897  -999.2500  -999.2500
   51.0000     8.1282     0.0188  -999.2500  -999.2500  -999.2500  -131.1618  -999.2500  -999.2500
   51.5000     8.1961     0.1576  -999.2500  -999.2500  -999.2500  -131.7934  -999.2500  -999.2500
   52.0000     8.2169     0.2449  -999.2500  -999.2500  -999.2500   -91.2281     4.0185  -999.2500
   52.5000     8.8618     0.2181  -999.2500  -999.2500  -999.2500   -93.0511     3.9343  -999.2500
   53.0000     9.6229     0.1240  -999.2500  -999.2500    49.8739   -62.3628     4.0245  -999.2500
   53.5000     9.6527     0.0805  -999.2500  -999.2500    69.1795   -63.3528     5.3593     2.8852
   54.0000     8.9212     0.0770     2.1044     0.2784    89.1005   -63.6073     5.7923     3.4560
   54.5000     8.5101     0.0749     2.1621     0.2741    94.6980   -61.3717     6.1077     4.9862
   55.0000     8.0648     0.0786     2.1958     0.2715    94.9895   -61.3570     6.1077    12.9763
   55.5000     7.9679     0.0644     2.2076     0.2653    95.1401   -61.0308     6.1937     8.4484
   56.0000     7.8887     0.0544     2.2021     0.2582    94.5888   -58.4618     6.4691     4.4515
   56.5000     7.8835     0.0550     2.2206     0.2655    93.8776   -57.8860     6.7567     4.4405
   57.0000     7.8815     0.0558     2.2157     0.2610    93.1567   -57.8741     6.9573     4.4287
   57.5000     7.8796     0.0566     2.2157     0.2552    92.4038   -57.8346     6.9195     4.4170
   58.0000     7.8775     0.0549     2.2347     0.2508    93.6594   -57.7923     6.8911     4.4052
   58.5000     7.8754     0.0523     2.2367     0.2478    95.2913   -57.7482     6.8628     4.3935
   59.0000     7.8733     0.0495     2.2408     0.2448    96.9285   -57.5703     6.8346     4.3819
   59.5000     7.8712     0.0491     2.2477     0.2447    97.1931   -56.5554     6.8066     4.3694
   60.0000     7.8691     0.0507     2.2462     0.2465    95.4425   -55.6718     6.7786     4.1825
   60.5000     7.8669     0.0523     2.2516     0.2415    93.8084   -55.7993     6.7659     4.0484
   61.0000     7.8648     0.0510     2.2564     0.2367    95.2508   -55.5446     6.7987     3.9943
   61.5000     7.8627     0.0472     2.2484     0.2318    96.6123   -54.4919     6.8275     3.9415
   62.0000     7.8606     0.0435     2.2681     0.2271    97.9780   -53.4913     6.8565     3.9047
   62.5000     7.8585     0.0399     2.2818     0.2215    98.7343   -53.4400     6.8856     3.8946
   63.0000     7.8564     0.0363     2.2833     0.2174    99.4455   -53.4490     6.9149     3.8848
   63.5000     7.8543     0.0408     2.2850     0.2136   101.5946   -53.4586     6.9443     3.8750
   64.0000     7.8522     0.0458     2.2964     0.2098   103.7681   -53.3998     6.9573     3.8653
   64.5000     7.8501     0.0509     2.3062     0.1999   105.8144   -51.4589     6.9432     3.8556
   65.0000     7.8480     0.0562     2.3112     0.1831   105.8882   -51.2220     6.9328     3.8460
   65.5000     7.8459     0.0564     2.3375     0.1732   104.6419   -50.8178     6.9223     3.8361
   66.0000     7.8432     0.0532     2.3566     0.1649   103.3802   -50.3276     6.9117     3.7774
   66.5000     7.8372     0.0499     2.3710     0.1638   103.1372   -49.9357     6.9005     3.7369
   67.0000     7.8312     0.0466     2.3805     0.1644   103.9845   -49.7413     6.8952     3.6970
   67.5000     7.8252     0.0465     2.3743     0.1642   104.7843   -49.4013     6.6496     3.6574
   68.0000     7.8192     0.0511     2.3768     0.1658   105.2660   -49.0537     6.4056     3.6183
   68.5000     7.8132     0.0562     2.3806     0.1734   101.9527   -48.9859     6.1657     3.5930
   69.0000     7.8071     0.0583     2.3651     0.1809    97.4548   -48.9849     5.7626     3.5872
   69.5000     7.7975     0.0576     2.3515     0.1820    98.8177   -48.9857     5.3457     3.5814
   70.0000     7.7823     0.0567     2.3509     0.1859   100.7085   -48.9858     4.9590     3.5757
   70.5000     7.7672     0.0589     2.3450     0.1906   101.9975   -48.9858     4.6203     3.5700
   71.0000     7.7521     0.0687     2.3377     0.1954   101.3736   -48.9858     4.4814     3.5642
   71.5000     7.7369     0.0795     2.3299     0.1981   100.4225   -48.9858     4.3443     3.5604
   72.0000     7.7229     0.0902     2.3232     0.1937   100.7289   -48.9861     4.2114     3.6118
   72.5000     7.7226     0.0976     2.3262     0.1868   101.2368   -48.9857     4.1322     3.6555
   73.0000     7.7231     0.0987     2.3298     0.1795    99.2415   -48.9655     4.1458     3.6998
   73.5000     7.7486     0.0845     2.3416     0.1705    99.6836   -48.8306     4.1596     3.7445
   74.0000     7.8036     0.0685     2.3509     0.1672   101.5198   -49.0016     4.1736     3.7899
   74.5000     7.8570     0.0570     2.3725     0.1704   103.1934   -49.0928     4.1875     3.8358
   75.0000     7.8841     0.0484     2.3831     0.1721   103.6226   -49.3650     4.2014     3.8700
   75.5000     7.8831     0.0397     2.3658     0.1714   102.8156   -49.6308     4.2098     3.9045
   76.0000     7.8818     0.0364     2.3641     0.1754   102.1499   -49.6149     4.1785     3.9393
   76.5000     7.8804     0.0354     2.3575     0.1795   103.4686   -49.1482     4.1563     3.9813
   77.0000     7.8791     0.0345     2.3538     0.1823   104.7847   -48.7623     4.1342     3.9797
   77.5000     7.8778     0.0336     2.3535     0.1832   104.8595   -48.7056     4.1123     3.9778
   78.0000     7.8764     0.0326     2.3475     0.1836   103.7528   -48.6408     4.0904     3.9759
   78.5000     7.8751     0.0335     2.3479     0.1854   103.2034   -48.5758     4.0687     3.9740
   79.0000     7.8737     0.0353     2.3442     0.1873   101.4378   -48.3601     4.0560     3.9721
   79.5000     7.8724     0.0370     2.3385     0.1880    96.3398   -48.2805     4.0560     3.9702
   80.0000     7.8711     0.0389     2.3374     0.1860    93.0835   -48.1914     4.0560     3.9683
   80.5000     7.8697     0.0410     2.3429     0.1803    93.9462   -48.0988     4.0560     3.9664
   81.0000     7.8684     0.0421     2.3491     0.1812    95.3612   -48.0050     4.0560     3.9644
   81.5000     7.8670     0.0431     2.3535     0.1827    92.8954   -48.0099     4.0560     3.9625
   82.0000     7.8657     0.0441     2.3498     0.1783    90.3514   -48.0691     4.0560     3.9606
   82.5000     7.8645     0.0451     2.3514     0.1779    91.6741   -48.1283     4.0560     3.9587
   83.0000     7.8677     0.0462     2.3557     0.1755    96.9413   -48.1460     4.0560     3.9568
   83.5000     7.8710     0.0472     2.3590     0.1791    99.5597   -47.9960     4.0560     3.9549
   84.0000     7.8743     0.0482     2.3511     0.1793    99.6453   -47.8503     4.0560     3.9530
   84.5000     7.8776     0.0492     2.3514     0.1843    98.1673   -47.7044     4.0560     3.9511
   85.0000     7.8810     0.0500     2.3533     0.1859    96.4899   -47.5686     4.0560     3.9492
   85.5000     7.8851     0.0556     2.3444     0.1833    96.4964   -47.5663     4.0560     3.9473
   86.0000     7.8530     0.0636     2.3488     0.1806    98.5306   -47.6401     4.0560     3.9458
   86.5000     7.8166     0.0719     2.3536     0.1799   100.0637   -47.8111     4.0560     3.9474
   87.0000     7.7831     0.0800     2.3541     0.1811    97.7790   -47.9791     4.0560     3.9496
   87.5000     7.7718     0.0874     2.3533     0.1694    95.4733   -48.1587     3.7438     3.4756
   88.0000     7.7613     0.0725     2.3581     0.1738    95.2796   -47.6469     3.2721     2.9288
   88.5000     7.7508     0.0745     2.3772     0.1797    93.6909   -46.8563     3.0398     2.9536
   89.0000     7.7403     0.0845     2.3964     0.1855    88.7772   -46.0804     3.0931     2.9921
   89.5000     7.7292     0.0804     2.4014     0.1986    83.6074   -45.5527     3.1314     3.0311
   90.0000     7.7073     0.0746     2.3284     0.2237    83.9870   -45.6698     3.1694     3.0682
