~VERSION INFORMATION
 VERS.                2.0:   CWLS LOG ASCII STANDARD - VERSION 2.0
 WRAP.                 NO:   ONE LINE PER DEPTH STEP
~WELL INFORMATION
#MNEM.UNIT      DATA TYPE    INFORMATION
#----------   ------------   ------------------------------
 STRT.F            8.0000:   START DEPTH
 STOP.F          866.5000:   STOP DEPTH
 STEP.F            0.5000:   STEP LENGTH
 NULL.          -999.2500:   NO VALUE
 COMP. LAWRENCE/ALLISON INC:   COMPANY
 WELL.    42-11 SX #11-11:   WELL
 FLD .              NPR 3:   FIELD
 LOC .      S11 T38N R78W:   LOCATION
 CNTY.            NATRONA:   COUNTY
 STAT.            WYOMING:   STATE
 CTRY. UNITED STATES OF AMERICA:   COUNTRY
 SRVC.           Gearhart:   SERVICE COMPANY
 DATE.        17-MAY-1987:   LOGDATE
 API .       490251112700:   API NUMBER
~CURVE INFORMATION
#MNEM.UNIT       API CODE    CURVE DESCRIPTION
#----------   ------------   ------------------------------
 DEPT.F                  :   
 GRR .GAPI   07 310 01 00:   GAMMA RAY FROM RES. LOG.
 RILD.OHMM   07 120 46 00:   INDUCTION LOG DEEP RESISTIVITY
 RILM.OHMM   07 120 44 00:   INDUCTION LOG MEDIUM RESISTIVITY
~PARAMETER INFORMATION
#MNEM.UNIT          VALUE    DESCRIPTION
#----------   ------------   ------------------------------
 PD  .                 GL:   PERMANENT DATUM
 EPD .F              5166:   ELEVATION PERMANENT DATUM
 LMF .                 KB:   LOG MEASURED FROM
 DAPD.F                 8:   FEET ABOVE PERMANENT DATUM
 DMF .                 KB:   DRILLING MEASURED FROM
 EKB .F              5174:   KELLING BUSHING
 EDF .F              5174:   DRILLING FLOOR
 EGL .F              5166:   GROUND LEVEL
 DATE.            5-17-87:   RUN DATE
 RUN .                  1:   RUN NUMBER
 DD  .F               891:   DEPTH DRILLER
 DL  .F               874:   DEPTH LOGGER
 BLI .F               865:   BOTTOM LOG INTERVAL
 TLI .F                44:   TOP LOG INTERVAL
 CS  .IN            8.625:   CASING SIZE
 CBD .F                49:   CASING BOTTOM DRILLER
 CBL .F                44:   CASING BOTTOM LOGGER
 BS  .IN            7.875:   BIT SIZE
 BSD .F               891:   BIT SIZE AT DEPTH
 DFT .           AIR FOAM:   DRILLING FLUID TYPE
 TCS .HRS            0300:   TIME CURCULATED STOPPED
 TLAB.HRS            1255:   TIME LOGGER AT BOTTOM
 MRT .F                80:   MAXIMUM RECORDED TEMPERATURE
 LUN .               7597:   LOGGING UNIT NUMBER
 LUL .           GILLETTE:   LOGGING UNIT LOCATION
 ENGI.            WANGLER:   RECORDING ENGINEER
 WITN.             STRONG:   WITNESSED BY
 CLNT.            A2DTECH:   CLIENT CODE
 ORIG.       2", 5" PRINT:   ORIGIN OF DATA
 UWI .       490251112700:   UNIQUE WELL ID
 DICO. A2D Technologies, Inc.:   DIGITIZING COMPANY
~OTHER INFORMATION
~A    DEPT      GRR      RILD       RILM   
# ...
  554.0000   112.4853     5.3250     5.0779
  554.5000   109.9790     5.5792     5.3441
  555.0000   109.8558     5.8573     5.6244
  555.5000   109.6773     6.1406     5.9186
  556.0000   107.6432     6.3582     6.1640
  556.5000   105.1750     6.5771     6.4049
  557.0000   104.2772     6.8035     6.6556
  557.5000   105.6472     7.0377     6.9429
  558.0000   107.4613     7.1735     7.0201
  558.5000   109.2756     7.2288     7.1004
  559.0000   109.8528     7.2845     7.2098
  559.5000   109.0453     7.3478     7.1346
  560.0000   108.6720     7.2188     7.0199
  560.5000   111.6232     7.0740     6.9069
  561.0000   114.6897     6.9417     6.7868
  561.5000   115.7914     6.8200     6.6246
  562.0000   113.4408     6.7004     6.4647
  562.5000   110.5527     6.5829     6.3577
  563.0000   108.7716     6.4558     6.3171
  563.5000   108.9590     6.3007     6.1149
  564.0000   110.5006     6.1179     5.8796
  564.5000   110.0225     5.8792     5.6534
  565.0000   108.9760     5.6498     5.4359
  565.5000   109.6729     5.4293     5.2268
  566.0000   112.2289     5.2296     5.0257
  566.5000   117.1155     5.1804     4.8489
  567.0000   119.1150     5.2215     4.7134
  567.5000   119.4336     5.2679     4.8762
  568.0000   119.8123     5.4486     5.1089
  568.5000   120.8950     5.6787     5.3527
  569.0000   122.0386     5.9156     5.6077
  569.5000   122.9576     6.1623     5.8580
  570.0000   120.8390     6.4194     6.0801
  570.5000   118.7133     6.6871     6.2907
  571.0000   116.6089     6.8826     6.5119
  571.5000   114.6489     7.0127     6.7397
  572.0000   113.4578     7.1425     6.9347
  572.5000   113.2518     7.1365     7.0767
  573.0000   112.6742     7.1292     7.2103
  573.5000   111.4159     7.1219     7.2103
  574.0000   110.1545     7.1146     7.2103
  574.5000   109.9682     7.1073     7.2103
  575.0000   110.7745     7.1000     7.2103
  575.5000   111.7673     7.0928     7.2103
  576.0000   112.7672     7.0855     7.2103
  576.5000   113.6490     7.0782     7.2103
  577.0000   114.2353     7.0710     7.2103
  577.5000   114.8910     7.0637     7.2103
  578.0000   116.1158     7.0565     7.2103
  578.5000   117.6691     7.0493     7.2103
  579.0000   119.2701     7.0421     7.2103
  579.5000   120.2028     7.0349     7.2103
  580.0000   120.6436     7.0277     7.2103
  580.5000   119.7031     7.0204     7.2104
  581.0000   118.1191     7.0135     7.2104
  581.5000   116.9401     7.0100     7.2103
  582.0000   118.2821     7.0763     7.1682
  582.5000   120.7752     7.1425     6.9918
  583.0000   122.9531     6.9663     6.7596
  583.5000   120.2367     6.7076     6.5350
  584.0000   116.2707     6.4586     6.3179
  584.5000   112.9174     6.2389     6.1080
  585.0000   114.8022     6.1261     5.9051
  585.5000   118.5025     6.0153     5.6401
  586.0000   122.1145     5.9129     5.6990
  586.5000   121.2742     5.7696     5.7922
  587.0000   115.9739     5.6082     5.8869
  587.5000   116.8062     5.4043     5.9129
  588.0000   118.9411     5.1686     5.8022
  588.5000   120.6887     4.9883     5.3408
  589.0000   120.8727     4.9883     4.9081
  589.5000   121.3642     5.0140     4.5104
  590.0000   122.6324     5.0321     4.1687
  590.5000   119.2221     5.0503     4.4246
  591.0000   115.2862     5.0685     4.8124
  591.5000   113.8268     5.1178     5.2220
  592.0000   113.7526     5.3080     5.6565
  592.5000   117.2682     5.6094     6.1271
  593.0000   116.8211     5.9718     6.3028
  593.5000   116.2461     6.2290     6.4266
  594.0000   116.3964     6.3310     6.5604
  594.5000   116.7853     6.4376     6.6226
  595.0000   116.1474     6.2380     6.5758
  595.5000   114.8080     5.8938     6.4644
  596.0000   113.4323     5.5871     6.1064
  596.5000   114.0810     5.2388     5.5698
  597.0000   117.8464     4.9853     5.1427
  597.5000   122.1690     4.6953     4.8751
  598.0000   122.4693     4.5406     4.7137
  598.5000   121.4300     4.8083     5.0347
  599.0000   120.3779     5.1126     5.3475
  599.5000   119.4857     5.4362     5.6762
  600.0000   120.1227     5.7802     6.0578
  600.5000   120.8952     6.1462     6.4928
  601.0000   119.5567     6.5355     6.9268
  601.5000   117.8918     6.9435     7.2241
  602.0000   116.5795     7.2365     7.4767
  602.5000   118.7362     7.4138     7.6520
  603.0000   118.8156     7.5746     7.7946
  603.5000   116.9306     7.7388     7.9382
  604.0000   115.3171     7.7897     8.0010
  604.5000   114.5848     7.8071     8.0005
  605.0000   115.5947     7.8245     7.9998
  605.5000   117.1150     7.8420     7.9998
  606.0000   118.6598     7.9191     8.1648
  606.5000   119.2692     8.0492     8.3079
  607.0000   118.4952     8.1518     8.2738
  607.5000   114.6227     8.0310     8.2180
  608.0000   110.3547     7.9332     8.1626
  608.5000   105.9040     7.8366     8.1076
  609.0000   105.1207     7.7411     8.0530
  609.5000   107.4557     7.7032     7.9998
  610.0000   111.4608     7.8082     8.1442
  610.5000   115.4562     7.9369     8.2880
  611.0000   116.7030     8.0676     8.4034
  611.5000   113.8594     8.2298     8.4551
  612.0000   109.8434     8.1524     8.5070
  612.5000   106.8059     7.8501     8.5593
  613.0000   105.8793     7.2185     8.6225
  613.5000   106.5848     6.4987     8.6278
  614.0000   108.6909     6.0659     7.1498
  614.5000   110.5718     5.6388     6.1972
  615.0000   111.2801     5.5853     5.3714
  615.5000   112.8535     5.6171     4.6557
  616.0000   115.8438     5.6549     4.3704
  616.5000   118.9303     5.6936     4.7481
  617.0000   115.9272     5.9358     5.2519
  617.5000   111.8904     6.2528     5.8144
  618.0000   109.7736     6.7489     6.4252
  618.5000   108.0129     7.7192     7.1053
  619.0000   105.2679     8.5393     7.8548
  619.5000   102.0923     9.2098     8.6834
  620.0000    99.0094     9.6011     9.2176
  620.5000    97.9060     9.7365     9.3633
  621.0000    99.6799     9.7965     9.4342
  621.5000   102.6704     9.8447     9.5056
  622.0000   106.7040     9.8917     9.5776
  622.5000   108.7781     9.9416     9.6501
  623.0000   107.1530    10.2763     9.7232
  623.5000   104.3859    10.6641     9.7968
  624.0000   101.5962    11.3351    10.0356
  624.5000    98.8203    12.1911    11.0619
  625.0000    93.0534    13.1117    12.1226
  625.5000    85.6290    14.1018    13.1547
  626.0000    78.3451    15.1666    14.2090
  626.5000    72.8423    16.3119    15.3281
  627.0000    70.6257    17.4559    16.5416
  627.5000    68.9076    18.1414    17.8543
  628.0000    67.2417    18.8539    18.3359
  628.5000    65.8135    19.4761    18.8979
  629.0000    64.3569    19.6130    18.5779
  629.5000    64.6535    19.7508    18.2171
  630.0000    65.1052    19.8911    17.8634
  630.5000    65.9307    20.1090    17.5224
  631.0000    66.7829    20.3293    17.6949
  631.5000    67.6283    20.5674    18.4039
  632.0000    68.4829    20.5000    19.2368
  632.5000    67.8882    20.4163    19.8161
  633.0000    66.3119    20.3327    19.6589
  633.5000    65.0634    20.2498    19.3658
  634.0000    66.1265    20.1898    19.0521
  634.5000    68.7025    19.8864    18.8463
  635.0000    71.0542    19.6098    18.7439
  635.5000    72.2452    19.3370    18.6420
  636.0000    72.2685    19.0773    18.5443
  636.5000    72.0094    19.2786    18.3699
  637.0000    71.1391    19.4751    18.6127
  637.5000    70.2847    19.6737    18.9035
  638.0000    69.4373    19.8743    19.2543
  638.5000    68.6573    20.0769    19.6116
  639.0000    68.3583    20.3118    19.8897
  639.5000    68.3668    20.5873    20.0645
  640.0000    69.4642    20.9626    20.2410
  640.5000    72.4533    21.0420    20.4190
  641.0000    75.7053    21.1215    20.5985
  641.5000    78.0828    21.2013    20.7702
  642.0000    76.3328    21.2814    20.7108
  642.5000    73.3194    21.3618    20.6544
  643.0000    70.4374    21.4425    20.5761
  643.5000    68.9707    21.5235    20.6091
  644.0000    69.3790    21.5700    20.6692
  644.5000    70.7895    21.3696    20.7299
