~VERSION INFORMATION
 VERS.                2.0:   CWLS LOG ASCII STANDARD - VERSION 2.0
 WRAP.                 NO:   ONE LINE PER DEPTH STEP
~WELL INFORMATION
#MNEM.UNIT      DATA TYPE    INFORMATION
#----------   ------------   ------------------------------
 STRT.F            0.0000:   START DEPTH
 STOP.F          542.0000:   STOP DEPTH
 STEP.F            0.5000:   STEP LENGTH
 NULL.          -999.2500:   NO VALUE
 COMP. LAWRENCE/ALLISON INC:   COMPANY
 WELL.          SX #12-11:   WELL
 FLD .             TEAPOT:   FIELD
 LOC .      S11 T38N R78W:   LOCATION
 CNTY.            NATRONA:   COUNTY
 STAT.            WYOMING:   STATE
 CTRY. UNITED STATES OF AMERICA:   COUNTRY
 SRVC.           Gearhart:   SERVICE COMPANY
 DATE.        16-SEP-1988:   LOGDATE
 API .       490251124300:   API NUMBER
~CURVE INFORMATION
#MNEM.UNIT       API CODE    CURVE DESCRIPTION
#----------   ------------   ------------------------------
 DEPT.F                  :   
 GRR .GAPI   07 310 01 00:   GAMMA RAY FROM RES. LOG.
 RLL .OHMM   07 220 00 00:   LATEROLOG RESISTIVITY
 RILD.OHMM   07 120 46 00:   INDUCTION LOG DEEP RESISTIVITY
 RILM.OHMM   07 120 44 00:   INDUCTION LOG MEDIUM RESISTIVITY
 SPR .MV     07 010 01 00:   SPONTANEOUS POTENTIAL
~PARAMETER INFORMATION
#MNEM.UNIT          VALUE    DESCRIPTION
#----------   ------------   ------------------------------
 PD  .                 GL:   PERMANENT DATUM
 EPD .F              5163:   ELEVATION PERMANENT DATUM
 LMF .                 KB:   LOG MEASURED FROM
 DAPD.F                10:   FEET ABOVE PERMANENT DATUM
 DMF .                 KB:   DRILLING MEASURED FROM
 EKB .F              5173:   KELLING BUSHING
 EDF .F              5172:   DRILLING FLOOR
 EGL .F              5163:   GROUND LEVEL
 DATE.            9-16-88:   RUN DATE
 RUN .                  1:   RUN NUMBER
 DD  .F               550:   DEPTH DRILLER
 DL  .F               545:   DEPTH LOGGER
 BLI .F               542:   BOTTOM LOG INTERVAL
 CS  .IN            9.625:   CASING SIZE
 CBD .F                50:   CASING BOTTOM DRILLER
 CBL .F                50:   CASING BOTTOM LOGGER
 BS  .IN             8.75:   BIT SIZE
 BSD .F               550:   BIT SIZE AT DEPTH
 DFT .                MUD:   DRILLING FLUID TYPE
 MSS .           FLOWLINE:   MUD SAMPLE SOURCE
 RMS .OHMM            .55:   RESISTIVITY MUD SAMPLE
 MST .F                70:   MUD SAMPLE TEMPERATURE
 RMF .OHMM            .42:   RESISTIVITY MUD FILTRATE SAMPLE
 MFST.F                71:   MUD FILTRATE SAMPLE TEMPERATURE
 RMC .OHMM            .71:   RESISTIVITY MUD CAKE
 MCST.F                71:   MUD CAKE SAMPLE TEMPERATURE
 MFSS.                  M:   MUD FILTRATE SAMPLE SOURCE
 MCSS.                  M:   MUD CAKE SAMPLE SOURCE
 RMB .OHMM            .30:   RESISTIVITY MUD AT BHT
 BHT .F                81:   BOTTOM HOLE TEMPERATURE
 TCS .HRS            1430:   TIME CURCULATED STOPPED
 TLAB.HRS            1900:   TIME LOGGER AT BOTTOM
 MRT .F                81:   MAXIMUM RECORDED TEMPERATURE
 LUN .               7597:   LOGGING UNIT NUMBER
 LUL .           GILLETTE:   LOGGING UNIT LOCATION
 ENGI.     BENCK/ROUSSEAU:   RECORDING ENGINEER
 WITN.             STRONG:   WITNESSED BY
 CLNT.            A2DTECH:   CLIENT CODE
 ORIG.        2" 5" PRINT:   ORIGIN OF DATA
 UWI .       490251124300:   UNIQUE WELL ID
 DICO. A2D Technologies, Inc.:   DIGITIZING COMPANY
~OTHER INFORMATION
~A    DEPT      GRR       RLL       RILD       RILM        SPR   
# ...
  366.0000    87.3262    17.9301    20.0413    19.0300   -48.9298
  366.5000    80.2454    19.4666    22.5907    21.2133   -48.8729
  367.0000    78.0603    20.1790    23.2428    21.9645   -48.5696
  367.5000    75.7430    19.7433    23.9391    21.6681   -48.2448
  368.0000    73.4676    19.3999    24.6562    21.1566   -47.9241
  368.5000    74.2685    19.2643    25.3947    20.9593   -47.1234
  369.0000    75.3862    20.0117    26.0913    21.8769   -45.8809
  369.5000    76.5502    21.0207    26.5492    22.8033   -46.0443
  370.0000    74.8327    22.0806    27.0152    25.1994   -46.6808
  370.5000    72.5573    23.1939    27.4893    27.8146   -46.0315
  371.0000    69.8388    24.3633    27.7620    28.4206   -45.9885
  371.5000    67.2968    25.0432    27.5105    28.5505   -46.3845
  372.0000    66.4889    24.2239    27.2699    26.3729   -46.7824
  372.5000    67.3830    23.2799    27.0314    24.7428   -46.7851
  373.0000    70.3551    22.3681    26.7949    23.2114   -46.7253
  373.5000    73.3033    21.5568    26.5606    23.0180   -46.6730
  374.0000    76.0174    21.5568    26.3282    23.5459   -47.1246
  374.5000    75.6223    23.1174    26.0979    24.6845   -48.1582
  375.0000    74.7986    24.2353    25.7572    25.8781   -49.2291
  375.5000    76.6790    25.4072    26.1850    27.2466   -49.4429
  376.0000    79.5518    26.0445    27.0553    28.1983   -49.3604
  376.5000    82.5636    26.1325    27.9544    29.3675   -49.2696
  377.0000    82.6432    26.2208    28.8834    29.4842   -49.1809
  377.5000    81.8621    26.7023    29.8433    29.6111   -49.0926
  378.0000    81.0515    27.3410    30.8351    29.7385   -49.0046
  378.5000    79.8996    27.9951    31.8598    29.8664   -48.9163
  379.0000    76.8001    28.6634    32.9186    29.9230   -48.8972
  379.5000    73.6759    29.0936    33.6692    30.4961   -48.9512
  380.0000    70.6803    28.2383    34.3303    31.3582   -49.0053
  380.5000    70.8098    27.5064    35.0044    31.1668   -49.0592
  381.0000    75.4967    27.9256    35.6917    30.8414   -49.1407
  381.5000    80.3086    28.4651    36.3939    30.7760   -49.2400
  382.0000    82.9516    29.0194    37.1131    32.3799   -49.3395
  382.5000    84.1774    29.5840    37.8174    34.4806   -49.4391
  383.0000    83.4241    30.1605    37.0681    36.7273   -49.5386
  383.5000    82.7012    30.4905    36.3335    39.1088   -49.6382
  384.0000    81.9985    30.2488    35.6170    40.0082   -49.7377
  384.5000    81.5350    29.9645    34.9158    36.6222   -49.8373
  385.0000    81.1053    29.6828    34.2284    35.1964   -49.9368
  385.5000    81.2928    28.4626    33.5542    34.2861   -50.0363
  386.0000    83.6471    27.1498    32.8940    33.4793   -50.1352
  386.5000    85.5580    25.8975    31.9597    33.0334   -50.2358
  387.0000    83.2937    25.1882    30.7534    32.6200   -50.3787
  387.5000    80.9508    24.7169    29.5925    32.2521   -50.6774
  388.0000    77.3144    24.2242    28.4755    30.5413   -50.9661
  388.5000    78.0836    23.7287    27.4006    29.0639   -51.2545
  389.0000    81.5237    23.2436    26.4118    27.6579   -51.5373
  389.5000    84.7459    22.7683    25.7729    26.4159   -51.6292
  390.0000    86.2542    22.3028    25.1495    25.8464   -51.2786
  390.5000    87.8490    21.8437    24.5411    25.2892   -50.9364
  391.0000    87.6046    21.5155    23.9475    24.7440   -50.5931
  391.5000    85.9462    21.3921    23.2347    24.2073   -50.2492
  392.0000    84.3033    21.2712    23.3678    23.6682   -49.9053
  392.5000    84.1997    21.1510    23.5426    23.8179   -49.6794
  393.0000    86.9128    21.0309    23.7188    24.0802   -49.4566
  393.5000    89.5947    20.9586    23.8964    24.3415   -49.2331
  394.0000    92.1169    21.1073    24.0752    24.6057   -49.0114
  394.5000    91.0125    21.2325    24.2554    24.8729   -48.9047
  395.0000    89.7531    21.3583    24.4369    25.1431   -48.9777
  395.5000    88.4527    21.4875    24.6198    25.4145   -49.0483
  396.0000    89.1136    21.5537    24.8041    25.5662   -49.1194
  396.5000    90.1084    21.3557    24.9897    25.7302   -49.1907
  397.0000    88.5641    21.3557    25.1767    25.7749   -49.2618
  397.5000    84.8138    21.3557    25.3651    26.4636   -49.2526
  398.0000    83.7174    21.3557    25.5550    26.7607   -49.1012
  398.5000    85.7040    21.5033    25.7462    27.0798   -48.9536
  399.0000    87.6664    21.7251    25.9389    27.4015   -48.8479
  399.5000    89.6130    21.9500    26.7408    27.7269   -48.7867
  400.0000    90.5091    22.1752    26.1664    28.0562   -48.7254
  400.5000    88.3346    22.3792    25.6399    28.3054   -48.6642
  401.0000    86.2701    21.9660    25.1276    27.2915   -48.6029
  401.5000    84.1015    21.5986    24.6270    26.2705   -48.5416
  402.0000    85.2556    21.2374    24.1362    25.2960   -48.4803
  402.5000    87.4413    20.8816    23.6553    24.3582   -48.4190
  403.0000    89.0787    20.5345    23.1839    23.9118   -48.3577
  403.5000    89.3643    20.2496    22.7219    23.5299   -48.2963
  404.0000    88.7240    20.0231    22.2692    23.1542   -48.2351
  404.5000    87.8542    19.7974    21.8254    22.7844   -48.1740
  405.0000    86.9687    19.5743    21.3905    22.4205   -48.1126
  405.5000    86.1797    19.3538    20.9593    22.0625   -48.0325
  406.0000    88.5592    19.2087    21.0246    21.7100   -47.8536
  406.5000    91.1520    19.1151    21.0909    21.3635   -47.6748
  407.0000    93.7949    19.0219    21.1574    21.0223   -47.4963
  407.5000    93.9253    18.9292    21.2241    20.9405   -47.3174
  408.0000    93.4199    18.8369    21.2910    20.8547   -47.1623
  408.5000    91.4179    18.7288    21.3581    20.7692   -47.0219
  409.0000    89.3494    18.7817    21.4255    20.6841   -46.8820
  409.5000    87.3022    18.8968    21.4930    20.5993   -46.7420
  410.0000    85.2327    19.0140    21.5608    20.5702   -46.6020
  410.5000    83.1661    19.1315    21.6288    20.7935   -46.4621
  411.0000    81.1237    19.2643    21.6970    20.9593   -46.3220
  411.5000    80.0890    19.0767    21.7597    20.7475   -46.1806
  412.0000    82.9829    18.8649    21.3918    20.5524   -46.0334
  412.5000    85.7745    18.6555    21.0577    20.3592   -46.2864
  413.0000    88.5586    18.4484    20.7288    20.1679   -46.6019
  413.5000    91.3461    18.2437    20.4051    20.0000   -46.9189
  414.0000    94.1268    18.0412    20.0864    20.0458   -47.2349
  414.5000    96.8838    17.8409    19.7727    20.0870   -47.5554
  415.0000    97.1108    17.6429    19.4639    20.1283   -47.7007
  415.5000    94.4504    17.4471    19.1599    20.1883   -47.8056
  416.0000    91.7657    17.2531    18.8607    19.9334   -47.9072
  416.5000    91.7794    17.0551    18.5661    19.4795   -48.0101
  417.0000    92.8434    16.8544    18.2761    19.0359   -47.9704
  417.5000    93.9273    16.6487    17.9907    18.6024   -47.7916
  418.0000    94.6860    16.4455    17.6847    18.1787   -47.6121
  418.5000    93.5073    16.2448    17.3665    17.7648   -47.4323
  419.0000    92.2172    16.0466    17.0539    17.3602   -47.2527
  419.5000    90.8551    15.8508    16.7469    16.9649   -47.0727
  420.0000    92.0193    15.6573    16.4455    16.7385   -46.8939
  420.5000    93.9281    15.4660    16.1491    16.7385   -46.7115
  421.0000    95.8865    15.2776    15.8579    16.7385   -46.8672
  421.5000    95.1805    15.0992    15.5276    16.7385   -47.2882
  422.0000    92.4666    15.2540    15.6745    16.7385   -47.7103
  422.5000    89.7246    15.4035    15.9053    16.5079   -48.0715
  423.0000    89.6384    15.5552    16.1386    16.2417   -48.0308
  423.5000    92.5930    15.7082    16.3748    15.9798   -47.9887
  424.0000    95.3100    15.8619    16.6144    15.7221   -47.9474
  424.5000    92.0176    15.9724    16.7385    15.4686   -47.9061
  425.0000    88.3394    15.6600    16.2317    15.2191   -47.8631
  425.5000    89.0471    15.4220    15.8998    14.9737   -47.9119
  426.0000    90.6939    15.1876    15.5747    14.7323   -47.9800
  426.5000    92.4235    14.9567    15.2556    14.4947   -48.0471
