~VERSION INFORMATION
 VERS.                2.0:   CWLS LOG ASCII STANDARD - VERSION 2.0
 WRAP.                 NO:   ONE LINE PER DEPTH STEP
~WELL INFORMATION
#MNEM.UNIT      DATA TYPE    INFORMATION
#----------   ------------   ------------------------------
 STRT.F            0.5000:   START DEPTH
 STOP.F         2271.5000:   STOP DEPTH
 STEP.F            0.5000:   STEP LENGTH
 NULL.          -999.2500:   NO VALUE
 COMP. BROWN JOHN E&C INC:   COMPANY
 WELL. NPR 3 STX-11 #27-11:   WELL
 FLD .             TEAPOT:   FIELD
 LOC .      S11 T38N R78W:   LOCATION
 CNTY.            NATRONA:   COUNTY
 STAT.            WYOMING:   STATE
 CTRY. UNITED STATES OF AMERICA:   COUNTRY
 SRVC.      Dresser Atlas:   SERVICE COMPANY
 DATE.        20-JAN-1993:   LOGDATE
 API .       490251108500:   API NUMBER
~CURVE INFORMATION
#MNEM.UNIT       API CODE    CURVE DESCRIPTION
#----------   ------------   ------------------------------
 DEPT.F                  :   
 ILD .OHMM   07 120 46 00:   INDUCTION LOG DEEP
 ILM .OHMM   07 120 44 00:   INDUCTION LOG MEDIUM
 GRR .GAPI   07 310 01 00:   GAMMA RAY FROM RES. LOG.
~PARAMETER INFORMATION
#MNEM.UNIT          VALUE    DESCRIPTION
#----------   ------------   ------------------------------
 PD  .                 GL:   PERMANENT DATUM
 EPD .F              5187:   ELEVATION PERMANENT DATUM
 LMF .                 KB:   LOG MEASURED FROM
 DAPD.F                12:   FEET ABOVE PERMANENT DATUM
 DMF .                 KB:   DRILLING MEASURED FROM
 EKB .F            5198.8:   KELLING BUSHING
 EDF .F            5197.8:   DRILLING FLOOR
 EGL .F              5187:   GROUND LEVEL
 DATE.            1-20-93:   RUN DATE
 RUN .                  1:   RUN NUMBER
 DD  .F              2279:   DEPTH DRILLER
 DL  .F              2279:   DEPTH LOGGER
 BLI .F              2271:   BOTTOM LOG INTERVAL
 TLI .F               692:   TOP LOG INTERVAL
 CS  .IN            8.625:   CASING SIZE
 CBD .F               689:   CASING BOTTOM DRILLER
 CBL .F               692:   CASING BOTTOM LOGGER
 BS  .IN            7.875:   BIT SIZE
 BSD .F              2279:   BIT SIZE AT DEPTH
 DFT .                OIL:   DRILLING FLUID TYPE
 BHT .F                92:   BOTTOM HOLE TEMPERATURE
 TCS .HRS               2:   TIME CURCULATED STOPPED
 MRT .F                92:   MAXIMUM RECORDED TEMPERATURE
 LUN .            HL-6274:   LOGGING UNIT NUMBER
 LUL .             CASPER:   LOGGING UNIT LOCATION
 ENGI.             RAUTIO:   RECORDING ENGINEER
 WITN.             STRONG:   WITNESSED BY
 CLNT.            A2DTECH:   CLIENT CODE
 ORIG.  2", 5", 20" PRINT:   ORIGIN OF DATA
 UWI .       490251108500:   UNIQUE WELL ID
 DICO. A2D Technologies, Inc.:   DIGITIZING COMPANY
~OTHER INFORMATION
~A    DEPT     ILD        ILM         GRR  
# ...
  910.5000    11.8359    11.0383   130.4567
  911.0000    11.7406    10.9834   130.7835
  911.5000    11.6461    10.9271   129.7703
  912.0000    11.5524    10.8188   127.2504
  912.5000    11.4594    10.7087   124.3368
  913.0000    11.3672    10.5999   121.5299
  913.5000    11.2757    10.4922   125.4174
  914.0000    11.1849    10.3855   132.0442
  914.5000    11.0948    10.2435   134.2805
  915.0000    10.9855    10.2622   133.7865
  915.5000    10.9211    10.2910   133.2574
  916.0000    10.9141    10.3199   132.5670
  916.5000    10.9066    10.3489   129.1279
  917.0000    10.8988    10.3779   125.6692
  917.5000    10.8911    10.4070   125.8896
  918.0000    10.8834    10.4362   125.7015
  918.5000    10.8757    10.4655   125.7608
  919.0000    10.8680    10.4949   127.4391
  919.5000    10.8603    10.5311   128.4004
  920.0000    10.8526    10.5074   128.6043
  920.5000    10.8450    10.4768   128.9736
  921.0000    10.8377    10.4463   129.6458
  921.5000    10.8290    10.4158   130.3430
  922.0000    10.7229    10.3855   131.6121
  922.5000    10.6243    10.3552   134.9880
  923.0000    10.6056    10.3250   133.9308
  923.5000    10.5869    10.2949   129.4992
  924.0000    10.5683    10.2649   126.7453
  924.5000    10.5497    10.2350   125.8078
  925.0000    10.5311    10.2052   129.1396
  925.5000    10.5125    10.1754   130.1984
  926.0000    10.4940    10.1458   130.6191
  926.5000    10.4755    10.1162   131.0113
  927.0000    10.4573    10.0867   132.1858
  927.5000    10.4348    10.0567   133.6747
  928.0000    10.4675    10.0762   133.0697
  928.5000    10.5110    10.0972   129.0116
  929.0000    10.5547    10.1181   124.7064
  929.5000    10.5986    10.1392   123.6860
  930.0000    10.6427    10.1602   127.5850
  930.5000    10.6869    10.1813   128.8698
  931.0000    10.7314    10.2025   126.3135
  931.5000    10.7760    10.2238   123.8431
  932.0000    10.8211    10.2437   125.6034
  932.5000    10.8272    10.2444   132.5995
  933.0000    10.8043    10.2138   136.4219
  933.5000    10.7588    10.1708   134.3974
  934.0000    10.6832    10.1092   131.2691
  934.5000    10.5411    10.0308   128.8925
  935.0000    10.4014     9.9531   128.3088
  935.5000    10.2635     9.8723   127.0038
  936.0000    10.1275     9.6551   124.3083
  936.5000     9.9933     9.4271   121.6294
  937.0000     9.8438     9.3441   119.3798
  937.5000     9.6917     9.2611   122.0678
  938.0000     9.5420     9.1784   129.8360
  938.5000     9.3946     9.0964   134.1282
  939.0000     9.2495     9.0151   136.3128
  939.5000     9.1065     8.9345   136.3515
  940.0000     9.0441     8.8546   133.9391
  940.5000     8.9961     8.7754   129.4292
  941.0000     8.9483     8.6970   127.1683
  941.5000     8.9007     8.6192   128.5160
  942.0000     8.8533     8.5870   129.8086
  942.5000     8.8062     8.5740   130.5217
  943.0000     8.7593     8.5611   129.7738
  943.5000     8.7127     8.5483   129.0544
  944.0000     8.6663     8.5356   128.3565
  944.5000     8.6201     8.5224   129.3689
  945.0000     8.5743     8.4539   133.7484
  945.5000     8.5290     8.3450   135.3415
  946.0000     8.4832     8.2374   134.8923
  946.5000     8.4388     8.1330   133.5115
  947.0000     8.0478     7.8798   132.1069
  947.5000     7.9226     7.6382   132.7785
  948.0000     7.5069     7.4041   135.7500
  948.5000     7.0537     7.1772   138.0239
  949.0000     6.6279     6.9646   135.2944
  949.5000     6.5010     6.7774   131.3936
  950.0000     6.4573     6.5775   125.2829
  950.5000     6.5093     6.5775   116.6516
  951.0000     6.5497     6.6982   106.3876
  951.5000     6.5775     6.9417   115.3483
  952.0000     6.6942     7.1940   128.2766
  952.5000     6.9241     7.4556   141.0580
  953.0000     7.1618     7.7289   142.0682
  953.5000     7.4078     7.9114   141.3998
  954.0000     7.6326     7.9270   138.1767
  954.5000     7.6899     7.9412   134.4547
  955.0000     7.7477     7.9554   132.2540
  955.5000     7.8060     7.9696   134.0673
  956.0000     7.8646     7.9842   138.5193
  956.5000     7.9237     8.1330   140.4774
  957.0000     7.9842     8.3613   140.3289
  957.5000     8.1509     8.5837   139.7344
  958.0000     8.3681     8.9453   138.4126
  958.5000     8.5912     9.3221   136.8265
  959.0000     8.8202     9.7148   136.9707
  959.5000     9.0553     9.9684   136.8229
  960.0000     9.2966    10.1280   134.2163
  960.5000     9.5404    10.2901   129.3526
  961.0000     9.7896    10.4548   131.5221
  961.5000    10.0454    10.6222   133.7619
  962.0000    10.3078    10.7917   130.8477
  962.5000    10.5771    10.9614   127.7251
  963.0000    10.9554    11.1346   126.7611
  963.5000    11.2339    11.9505   129.6144
  964.0000    12.0608    12.7906   132.7255
  964.5000    12.8952    13.6864   132.7093
  965.0000    13.7874    14.6441   129.6515
  965.5000    14.7414    15.6689   126.8220
  966.0000    15.7613    16.7654   124.7724
  966.5000    16.8518    17.8209   123.6766
  967.0000    17.6649    17.8209   122.6186
  967.5000    17.7396    17.6572   121.5506
  968.0000    17.8209    17.2325   120.4641
  968.5000    17.1034    16.3747   120.4301
  969.0000    16.3606    15.5595   120.6080
  969.5000    15.6500    14.7847   120.3386
  970.0000    14.9703    14.0482   119.5268
  970.5000    14.3471    13.3525   121.2384
  971.0000    13.9029    12.7769   123.2172
  971.5000    13.4725    12.5405   127.7657
  972.0000    13.0555    12.2880   133.4200
  972.5000    12.6513    12.0420   133.2056
  973.0000    12.2597    11.8007   130.3595
  973.5000    11.8735    11.5645   127.8537
  974.0000    11.6323    11.3327   127.9607
  974.5000    11.3919    11.1057   124.8096
  975.0000    11.1564    10.8267   123.4245
  975.5000    10.9271    10.6927   120.4315
  976.0000    10.8523    10.5602   117.5144
  976.5000    10.7785    10.4297   118.7502
  977.0000    10.7052    10.3006   122.2987
  977.5000    10.6323    10.1731   125.7893
  978.0000    10.5600    10.0472   128.2436
  978.5000    10.4853     9.9228   127.6428
  979.0000    10.3352     9.7816   127.6337
  979.5000    10.3365     9.9310   127.8032
  980.0000    10.7819    10.1099   126.9891
  980.5000    11.1011    10.3531   123.9749
  981.0000    11.4042    10.7781   123.8934
  981.5000    11.6563    11.2205   123.8919
  982.0000    12.4706    11.7125   122.6905
  982.5000    13.2771    12.3098   121.3903
  983.0000    14.1358    12.9375   124.8049
  983.5000    14.9547    13.4231   128.4864
  984.0000    15.5946    13.7598   130.5308
  984.5000    16.3356    14.1381   131.0681
  985.0000    16.6855    14.5610   129.4730
  985.5000    16.8609    14.6812   125.8184
  986.0000    16.7255    14.4018   122.6082
  986.5000    16.3218    13.8880   124.0982
  987.0000    15.9279    13.3925   125.6577
  987.5000    15.5435    12.9147   126.3041
  988.0000    15.3351    12.4342   125.0170
  988.5000    15.2333    12.4993   123.7520
  989.0000    15.2904    12.5677   122.9551
  989.5000    15.3745    12.6366   123.1835
  990.0000    15.3745    12.8078   124.6157
  990.5000    15.9424    13.0580   126.1696
  991.0000    16.5618    13.3360   123.8009
  991.5000    17.1666    13.7199   121.5066
  992.0000    17.7936    14.1154   121.6908
  992.5000    18.4434    14.5206   123.0248
  993.0000    18.9868    14.6812   124.3394
  993.5000    19.3576    14.5258   125.6433
  994.0000    19.7250    14.4169   126.2577
  994.5000    19.4912    14.3088   126.0558
  995.0000    19.2663    14.2015   126.0129
  995.5000    19.0440    14.0949   126.7762
  996.0000    18.8242    13.9892   127.4241
  996.5000    18.6104    13.8904   125.3577
  997.0000    18.2745    13.5905   123.1864
  997.5000    17.8174    13.3130   123.2558
  998.0000    17.3035    13.0440   126.5991
  998.5000    16.5930    12.7091   129.8659
  999.0000    15.9205    12.3241   129.5969
  999.5000    15.2737    11.9483   126.3455
 1000.0000    14.6534    11.5839   126.2404
 1000.5000    14.0582    11.2307   129.3530
 1001.0000    13.7274    10.9146   131.7468
