~VERSION INFORMATION
 VERS.                2.0:   CWLS LOG ASCII STANDARD - VERSION 2.0
 WRAP.                 NO:   ONE LINE PER DEPTH STEP
~WELL INFORMATION
#MNEM.UNIT      DATA TYPE    INFORMATION
#----------   ------------   ------------------------------
 STRT.F           36.0000:   START DEPTH
 STOP.F          442.0000:   STOP DEPTH
 STEP.F            0.5000:   STEP LENGTH
 NULL.          -999.2500:   NO VALUE
 COMP.    FENIX & SCISSON:   COMPANY
 WELL.      NPR #66-SX-10:   WELL
 FLD .             TEAPOT:   FIELD
 LOC .      S10 T38N R78W:   LOCATION
 CNTY.            NATRONA:   COUNTY
 STAT.            WYOMING:   STATE
 CTRY. UNITED STATES OF AMERICA:   COUNTRY
 SRVC.              Welex:   SERVICE COMPANY
 DATE.        19-APR-1977:   LOGDATE
 API .       490251036100:   API NUMBER
~CURVE INFORMATION
#MNEM.UNIT       API CODE    CURVE DESCRIPTION
#----------   ------------   ------------------------------
 DEPT.F                  :   
 CALD.IN     45 280 60 00:   CALIPER FROM DENSITY LOG
 DPHI.DEC    45 890 12 00:   DENSITY POROSITY SANDSTONE
 DRHO.G/C3   45 356 01 00:   DENSITY CORRECTION
 GRD .GAPI   45 310 01 00:   GAMMA RAY FROM DENSITY LOG
 RHOB.G/C3   45 350 01 00:   BULK DENSITY
 ILD .OHMM   07 120 46 00:   INDUCTION LOG DEEP
 ILM .OHMM   07 120 44 00:   INDUCTION LOG MEDIUM
 SGRD.OHMM   07 221 05 00:   SHALLOW SHORT GUARD RESISTIVITY
 SPR .MV     07 010 01 00:   SPONTANEOUS POTENTIAL
~PARAMETER INFORMATION
#MNEM.UNIT          VALUE    DESCRIPTION
#----------   ------------   ------------------------------
 PD  .                 GL:   PERMANENT DATUM
 EPD .F              5200:   ELEVATION PERMANENT DATUM
 LMF .                 GL:   LOG MEASURED FROM
 DMF .                 GL:   DRILLING MEASURED FROM
 EGL .F              5200:   GROUND LEVEL
 DATE.        19-APR-1977:   RUN DATE
 RUN .                  1:   RUN NUMBER
 DD  .F               476:   DEPTH DRILLER
 DL  .F               447:   DEPTH LOGGER
 BLI .F               445:   BOTTOM LOG INTERVAL
 TLI .F                35:   TOP LOG INTERVAL
 CS  .IN            8.625:   CASING SIZE
 CBD .F                42:   CASING BOTTOM DRILLER
 CBL .F                42:   CASING BOTTOM LOGGER
 BS  .IN            7.875:   BIT SIZE
 BSD .F               476:   BIT SIZE AT DEPTH
 DFT .            KCL MUD:   DRILLING FLUID TYPE
 DFD .                8.8:   DRILLING FLUID DENSITY
 DFV .                 37:   DRILLING FLUID VISCOSITY
 MSS .           FLOWLINE:   MUD SAMPLE SOURCE
 RMS .OHMM           1.06:   RESISTIVITY MUD SAMPLE
 MST .F                48:   MUD SAMPLE TEMPERATURE
 RMF .OHMM           1.03:   RESISTIVITY MUD FILTRATE SAMPLE
 MFST.F                48:   MUD FILTRATE SAMPLE TEMPERATURE
 RMC .OHMM           1.18:   RESISTIVITY MUD CAKE
 MCST.F                48:   MUD CAKE SAMPLE TEMPERATURE
 MFSS.               MEAS:   MUD FILTRATE SAMPLE SOURCE
 MCSS.               MEAS:   MUD CAKE SAMPLE SOURCE
 RMB .OHMM           0.86:   RESISTIVITY MUD AT BHT
 BHT .F                59:   BOTTOM HOLE TEMPERATURE
 TCS .HRS               5:   TIME CURCULATED STOPPED
 MRT .F                59:   MAXIMUM RECORDED TEMPERATURE
 LUN .               8611:   LOGGING UNIT NUMBER
 LUL .             CASPER:   LOGGING UNIT LOCATION
 ENGI.               DOAK:   RECORDING ENGINEER
 WITN.        MR. R. LYON:   WITNESSED BY
 CLNT.            A2DTECH:   CLIENT CODE
 ORIG.      2.5" 5" PRINT:   ORIGIN OF DATA
 UWI .       490251036100:   UNIQUE WELL ID
 DICO. A2D Technologies, Inc.:   DIGITIZING COMPANY
~OTHER INFORMATION
~A   DEPT     CALD       DPHI       DRHO         GRD      RHOB        ILD        ILM       SGRD        SPR   
# ...
  364.5000     7.7456     0.1561     0.0100    83.3943     2.3809    20.3963    25.5628    33.7466   -37.0059
  365.0000     7.7611     0.1579     0.0146    78.6675     2.3825    19.6136    25.9016    33.7282   -37.0228
  365.5000     7.7766     0.1579     0.0207    76.1587     2.3833    19.0595    26.2442    32.8023   -37.0371
  366.0000     7.7774     0.1596     0.0223    78.6878     2.3728    18.5211    26.2320    34.1506   -37.0515
  366.5000     7.7929     0.1665     0.0163    81.5104     2.3684    17.9979    26.2197    33.6699   -37.0658
  367.0000     7.7946     0.1688     0.0166    83.5928     2.3692    17.7294    25.1562    31.8644   -37.0802
  367.5000     7.8091     0.1623     0.0225    84.3652     2.3819    17.3518    25.1730    32.7286   -36.7994
  368.0000     7.8100     0.1557     0.0090    80.4572     2.3760    16.9715    25.9227    33.1623   -36.8142
  368.5000     7.8255     0.1694    -0.0015    77.2120     2.3521    16.6296    27.2644    31.8136   -36.5332
  369.0000     7.8112     0.1750     0.0000    78.1588     2.3574    16.3925    26.4328    31.7544   -36.5487
  369.5000     7.7972     0.1697     0.0167    79.7972     2.3664    15.9402    25.4410    31.3490   -36.6254
  370.0000     7.7831     0.1615     0.0258    78.9191     2.3731    15.7130    25.0862    30.9077   -36.8732
  370.5000     7.7693     0.1654     0.0228    75.6726     2.3799    15.2794    27.4196    31.3368   -36.8879
  371.0000     7.7700     0.1693     0.0169    79.3834     2.3625    15.0616    29.1186    32.2530   -36.9027
  371.5000     7.7707     0.1704     0.0185    82.2060     2.3598    14.8470    28.9141    33.0372   -36.9174
  372.0000     7.7862     0.1501     0.0200    83.9924     2.3964    14.6353    27.3268    29.2022   -36.9322
  372.5000     7.7869     0.1465     0.0201    84.2986     2.4002    14.6246    24.4901    28.7907   -36.9469
  373.0000     7.8026     0.1501     0.0171    83.6783     2.3928    14.6139    24.3370    28.7750   -36.9645
  373.5000     7.8033     0.1516     0.0157    82.0984     2.3883    15.0277    24.3257    28.7593   -36.9788
  374.0000     7.8040     0.1497     0.0127    82.7031     2.3958    15.4099    23.9848    28.7436   -36.9932
  374.5000     7.8195     0.1509     0.0097    83.8974     2.3884    15.1477    22.7002    28.7279   -36.9400
  375.0000     7.8203     0.1521     0.0068    85.9799     2.3869    14.7698    21.1933    28.7122   -37.0218
  375.5000     7.8210     0.1476     0.0053    86.7301     2.4040    14.9628    19.2537    28.6966   -37.0362
  376.0000     7.8217     0.1314     0.0190    88.5165     2.4370    15.4360    16.3381    27.1546   -37.3455
  376.5000     7.8224     0.1189     0.0266    90.3029     2.4632    15.8609    15.8908    25.6985   -37.3609
  377.0000     7.8379     0.1198     0.0281    90.6345     2.4475    16.5212    16.3302    24.9934   -37.6696
  377.5000     7.8387     0.1236     0.0220    89.2696     2.4319    16.8623    16.8050    24.6415   -37.9793
  378.0000     7.8395     0.1281     0.0117    82.0438     2.4215    16.5002    17.9744    25.3098   -37.9941
  378.5000     7.8403     0.1327     0.0057    84.4248     2.4118    16.2540    18.7293    25.6438   -37.9410
  379.0000     7.8260     0.1379     0.0012    88.8757     2.4066    16.1485    19.5792    26.3393   -37.7266
  379.5000     7.8120     0.1409    -0.0017    90.2181     2.4022    16.1367    20.2581    26.6873   -37.8446
  380.0000     7.8129     0.1522    -0.0017    85.3433     2.3970    16.3477    18.6590    26.6727   -38.0531
  380.5000     7.8431     0.1501     0.0014    83.8731     2.3973    16.3341    16.4613    25.9229   -38.0678
  381.0000     7.8734     0.1462     0.0090    83.5872     2.4046    16.3222    16.0401    25.2284   -38.0826
  381.5000     7.9037     0.1432     0.0166    82.5611     2.4113    16.5347    16.3606    25.2146   -38.0973
  382.0000     7.9044     0.1396     0.0167    78.5745     2.4158    16.5219    17.5385    25.2701   -38.1148
  382.5000     7.8140     0.1363     0.0106    78.1405     2.4032    16.7364    18.6551    25.6208   -38.1291
  383.0000     7.7876     0.1338     0.0043    78.9592     2.3943    16.9588    19.1152    25.8719   -38.1435
  383.5000     7.7736     0.1317    -0.0042    81.4198     2.3913    17.1735    19.6348    26.2133   -38.1578
  384.0000     7.7893     0.1413    -0.0117    82.9076     2.4018    17.3963    19.8953    24.6117   -38.1721
  384.5000     7.7900     0.1389    -0.0222    80.5518     2.4101    17.4226    19.3507    23.6198   -38.1865
  385.0000     7.7908     0.1367    -0.0372    79.2297     2.4060    17.6092    19.2333    23.9476   -38.2008
  385.5000     7.7970     0.1433    -0.0628    82.0523     2.3967    17.5946    18.8122    23.9182   -38.2153
  386.0000     7.8069     0.1495    -0.0462    82.8025     2.3922    17.1974    18.2973    23.1162   -38.2537
  386.5000     7.8076     0.1430    -0.0129    80.8883     2.3945    16.2518    17.7964    24.4000   -38.5398
  387.0000     7.8084     0.1396    -0.0052    79.2701     2.3893    15.6549    17.3013    26.4676   -38.5546
  387.5000     7.8091     0.1375    -0.0053    79.7615     2.4028    15.4213    16.8351    25.7413   -38.6431
  388.0000     7.7951     0.1357    -0.0021    82.2534     2.4110    15.1912    16.5690    24.0309   -38.8791
  388.5000     7.8106     0.1327     0.0009    83.4477     2.4178    14.9646    16.1444    23.3715   -38.8938
  389.0000     7.8136     0.1273     0.0055    83.6033     2.4298    14.8605    16.0857    22.7302   -38.9086
  389.5000     7.8153     0.1201     0.0085    80.0633     2.4460    14.6486    15.8494    22.4102   -39.2183
  390.0000     7.8128     0.1177     0.0056    78.1465     2.4515    14.6379    15.4048    21.7953   -39.2330
  390.5000     7.8136     0.1186     0.0041    79.4914     2.4456    14.4293    15.0509    21.4882   -39.2507
  391.0000     7.8143     0.1195     0.0072    81.2778     2.4426    14.2236    14.8683    21.1854   -39.2651
  391.5000     7.8150     0.1189     0.0133    82.9162     2.4501    14.2132    14.5359    21.1739   -39.5744
  392.0000     7.8271     0.1171     0.0179    83.8164     2.4561    14.2034    14.4266    21.1623   -39.5887
  392.5000     7.8313     0.1158     0.0164    84.2689     2.4584    14.0004    14.2243    21.1508   -39.6031
  393.0000     7.8320     0.1168     0.0089    83.9852     2.4547    13.9901    14.2163    21.0533   -39.6174
  393.5000     7.8328     0.1209     0.0060    83.1071     2.4488    13.9797    14.2096    20.7425   -39.6318
  394.0000     7.8336     0.1217     0.0091    81.6370     2.4435    13.9692    14.2030    20.4363   -39.6461
  394.5000     7.8343     0.1193     0.0122    79.4267     2.4456    13.9587    14.1964    20.2582   -39.6608
  395.0000     7.8350     0.1130     0.0183    82.2493     2.4668    13.9483    14.1898    19.9727   -39.6755
  395.5000     7.8358     0.1017     0.0244    78.7067     2.4750    13.9378    13.9910    19.9618   -39.6903
  396.0000     7.8365     0.1049     0.0184    80.3451     2.4691    13.8746    13.9845    19.9488   -39.7679
  396.5000     7.8224     0.1088     0.0094    85.0921     2.4580    13.7286    13.9779    19.9382   -40.0147
  397.0000     7.8232     0.1142     0.0034    88.6687     2.4550    13.7184    13.9713    19.9276   -40.0295
  397.5000     7.8214     0.1123     0.0140    92.8989     2.4841    13.5759    13.9489    19.9170   -40.0442
  398.0000     7.8099     0.1102     0.0141    92.2302     2.4790    13.5125    13.7688    19.9064   -40.0590
  398.5000     7.8107     0.1123     0.0064    90.4640     2.4700    13.4547    13.7796    19.6261   -40.0737
  399.0000     7.8261     0.1156    -0.0026    91.0662     2.4563    13.3096    13.9454    19.6157   -40.0885
  399.5000     7.8227     0.1170    -0.0038    90.9282     2.4492    13.2978    14.1304    19.6052   -40.1060
  400.0000     7.8128     0.1107     0.0008    89.3101     2.4642    13.2881    14.1227    19.3293   -40.1204
  400.5000     7.8136     0.1045     0.0038    88.8736     2.4754    13.2784    14.1160    19.3056   -40.1347
