~VERSION INFORMATION
 VERS.                2.0:   CWLS LOG ASCII STANDARD - VERSION 2.0
 WRAP.                 NO:   ONE LINE PER DEPTH STEP
~WELL INFORMATION
#MNEM.UNIT      DATA TYPE    INFORMATION
#----------   ------------   ------------------------------
 STRT.F           14.0000:   START DEPTH
 STOP.F          583.0000:   STOP DEPTH
 STEP.F            0.5000:   STEP LENGTH
 NULL.          -999.2500:   NO VALUE
 COMP. LAWRENCE/ALLISON INC:   COMPANY
 WELL.     NPR3 #34-66 SX:   WELL
 FLD .          MPR NO. 3:   FIELD
 LOC .      S10 T38N R78W:   LOCATION
 CNTY.            NATRONA:   COUNTY
 STAT.            WYOMING:   STATE
 CTRY. UNITED STATES OF AMERICA:   COUNTRY
 SRVC.           Gearhart:   SERVICE COMPANY
 DATE.        19-JUN-1986:   LOGDATE
 API .       490251109400:   API NUMBER
~CURVE INFORMATION
#MNEM.UNIT       API CODE    CURVE DESCRIPTION
#----------   ------------   ------------------------------
 DEPT.F                  :   
 GRR .GAPI   07 310 01 00:   GAMMA RAY
 RILD.OHMM   07 120 46 00:   INDUCTION LOG DEEP RESISTIVITY
 RILM.OHMM   07 120 44 00:   INDUCTION LOG MEDIUM RESISTIVITY
~PARAMETER INFORMATION
#MNEM.UNIT          VALUE    DESCRIPTION
#----------   ------------   ------------------------------
 PD  .                 GL:   PERMANENT DATUM
 EPD .F              5262:   ELEVATION PERMANENT DATUM
 LMF .                 KB:   LOG MEASURED FROM
 DAPD.F                 5:   FEET ABOVE PERMANENT DATUM
 DMF .                 KB:   DRILLING MEASURED FROM
 EKB .F              5267:   KELLING BUSHING
 EGL .F              5262:   GROUND LEVEL
 DATE.        19-JUN-1986:   RUN DATE
 RUN .                  1:   RUN NUMBER
 DD  .F               609:   DEPTH DRILLER
 DL  .F               602:   DEPTH LOGGER
 BLI .F               592:   BOTTOM LOG INTERVAL
 TLI .F                47:   TOP LOG INTERVAL
 CS  .IN            8.625:   CASING SIZE
 CBD .F                47:   CASING BOTTOM DRILLER
 CBL .F                46:   CASING BOTTOM LOGGER
 BS  .IN            7.875:   BIT SIZE
 BSD .F               609:   BIT SIZE AT DEPTH
 DFT .               FOAM:   DRILLING FLUID TYPE
 TCS .HRS            0130:   TIME CURCULATED STOPPED
 TLAB.HRS            0330:   TIME LOGGER AT BOTTOM
 MRT .F                65:   MAXIMUM RECORDED TEMPERATURE
 LUN .               7609:   LOGGING UNIT NUMBER
 LUL .           GILLETTE:   LOGGING UNIT LOCATION
 ENGI.         WEATHERMON:   RECORDING ENGINEER
 WITN.           JENNINGS:   WITNESSED BY
 CLNT.            A2DTECH:   CLIENT CODE
 ORIG.           5" PRINT:   ORIGIN OF DATA
 UWI .       490251109400:   UNIQUE WELL ID
 DICO. A2D Technologies, Inc.:   DIGITIZING COMPANY
~OTHER INFORMATION
~A   DEPT      GRR       RILD       RILM   
# ...
  287.0000   103.5008     8.7489     8.7996
  287.5000   107.7626     8.7507     8.9260
  288.0000   116.8950     8.8141     8.9278
  288.5000   119.6347     8.8159     8.9296
  289.0000   113.8508     8.8181     8.9315
  289.5000   109.5890     8.8199     8.9337
  290.0000   106.4638     8.7600     8.8107
  290.5000   103.8052     8.5792     8.6895
  291.0000   103.8052     8.5209     8.6299
  291.5000   105.0228     8.5227     8.5716
  292.0000   106.5449     8.5244     8.5734
  292.5000   106.5449     8.4073     8.5151
  293.0000   106.2405     8.3501     8.4571
  293.5000   106.2405     8.2934     8.3407
  294.0000   109.8935     8.1222     8.2264
  294.5000   112.9376     7.9550     8.0563
  295.0000   114.7641     7.8457     7.8897
  295.5000   116.2861     7.6791     7.8354
  296.0000   116.8950     7.2659     7.6655
  296.5000   117.5038     6.9189     7.4109
  297.0000   117.4612     6.4966     7.0070
  297.5000   117.1994     6.0574     6.6718
  298.0000   116.2861     5.6479     6.2640
  298.5000   116.5906     5.1927     5.7584
  299.0000   115.6773     4.6671     5.1773
  299.5000   113.8508     4.0067     4.6003
  300.0000   107.4581     3.6835     4.0259
  300.5000   106.5449     3.4112     3.3781
  301.0000   108.0670     3.1147     3.1277
  301.5000   109.5890     2.9250     2.9326
  302.0000   104.1096     2.8053     2.7969
  302.5000    97.7169     2.7867     2.7587
  303.0000    95.8904     2.8075     2.7794
  303.5000    99.5434     2.8884     2.8396
  304.0000   104.1096     3.0349     2.9629
  304.5000   107.1537     3.2340     3.2023
  305.0000   109.0207     3.5691     3.5200
  305.5000   109.8935     3.9391     3.9572
  306.0000   109.5890     4.3186     4.3681
  306.5000   109.5890     4.8137     4.8555
  307.0000   110.1979     5.2218     5.3596
  307.5000   109.5890     5.6430     5.7519
  308.0000   108.9802     5.8465     5.9603
  308.5000   110.5997     5.9730     6.0889
  309.0000   115.6773     6.0595     6.1339
  309.5000   119.0259     6.0616     6.0079
  310.0000   119.9391     6.0212     5.9260
  310.5000   117.8082     5.8982     5.8048
  311.0000   116.8950     5.7773     5.7660
  311.5000   117.5403     5.6583     5.6081
  312.0000   124.5053     5.5040     5.4929
  312.5000   128.7671     5.3911     5.3428
  313.0000   122.3744     5.2436     5.2331
  313.5000   116.5906     5.1361     5.1978
  314.0000   112.6332     5.1019     5.1274
  314.5000   110.5023     5.1040     5.0575
  315.0000   111.4359     5.1417     5.0949
  315.5000   114.7641     5.1797     5.2057
  316.0000   117.8082     5.2917     5.3560
  316.5000   121.4612     5.4443     5.5495
  317.0000   124.2009     5.6842     5.8314
  317.5000   123.8965     6.0111     6.0421
  318.0000   119.6347     6.3605     6.3939
  318.5000   116.5337     6.5900     6.7232
  319.0000   113.8508     6.8758     6.9621
  319.5000   111.7199     7.1238     7.2645
  320.0000   109.5890     7.3292     7.3699
  320.5000   108.0670     7.3834     7.4768
  321.0000   110.8067     7.4385     7.5321
  321.5000   112.9376     7.4935     7.5346
  322.0000   112.8644     7.3909     7.4844
  322.5000   110.8067     7.2399     7.3824
  323.0000   111.1111     7.1414     7.2824
  323.5000   116.5906     7.0442     7.1825
  324.0000   120.2435     6.9458     6.9863
  324.5000   120.2882     6.7588     6.8428
  325.0000   118.7215     6.6196     6.6553
  325.5000   118.4170     6.4391     6.3761
  326.0000   118.4170     6.2629     6.1215
  326.5000   117.8082     6.0916     5.8706
  327.0000   121.1568     5.9249     5.7098
  327.5000   122.3744     5.6798     5.5533
  328.0000   121.1568     5.4888     5.3633
  328.5000   118.1045     5.4518     5.3275
  329.0000   116.2861     5.4925     5.3674
  329.5000   113.8508     5.5720     5.4837
  330.0000   110.1979     5.7327     5.6024
  330.5000   110.8067     5.9813     5.8458
  331.0000   114.1553     6.2853     6.0998
  331.5000   116.5906     6.5186     6.3648
  332.0000   116.8950     6.7944     6.5972
  332.5000   111.7199     7.0395     6.8336
  333.0000   109.2846     7.2935     6.9816
  333.5000   109.2846     7.4513     7.1832
  334.0000   114.7641     7.4538     7.2874
  334.5000   119.6347     7.4563     7.3931
  335.0000   120.2435     7.5115     7.4477
  335.5000   117.8082     7.5146     7.5071
  336.0000   116.5906     7.4639     7.6123
  336.5000   115.9817     7.4671     7.6149
  337.0000   115.3729     7.4696     7.6175
  337.5000   115.0685     7.5248     7.6201
  338.0000   118.4170     7.5273     7.6226
  338.5000   121.1568     7.5300     7.6252
  339.0000   121.0918     7.5331     7.6279
  339.5000   119.3303     7.5356     7.5769
  340.0000   120.2435     7.4848     7.5802
  340.5000   123.2877     7.4880     7.5290
  341.0000   125.1142     7.4375     7.5322
  341.5000   124.2009     7.4407     7.5347
  342.0000   119.9391     7.3911     7.4844
  342.5000   118.7215     7.4463     7.5399
  343.0000   120.5479     7.4489     7.5430
  343.5000   121.4612     7.4514     7.5456
  344.0000   121.1568     7.4539     7.5481
  344.5000   119.3303     7.4564     7.5507
  345.0000   117.8082     7.4067     7.5003
  345.5000   118.7255     7.3060     7.3974
  346.0000   121.2055     7.2072     7.2462
  346.5000   122.6788     7.1085     7.1480
  347.0000   123.8965     7.0124     7.0506
  347.5000   127.5495     6.9164     7.0030
  348.0000   131.2024     6.7751     6.8591
  348.5000   132.1157     6.6829     6.7662
  349.0000   131.1781     6.5435     6.6273
  349.5000   128.7671     6.3228     6.4911
  350.0000   126.9406     6.1065     6.0954
  350.5000   126.6362     5.9382     5.8446
  351.0000   126.3156     5.8518     5.7635
  351.5000   125.1142     5.7349     5.6840
  352.0000   125.4186     5.7359     5.5661
  352.5000   127.5495     5.7366     5.4891
  353.0000   126.0274     5.7778     5.5286
  353.5000   123.8843     5.8603     5.6474
  354.0000   120.8524     6.0282     5.8915
  354.5000   122.6788     6.2007     6.1462
  355.0000   125.1142     6.3781     6.4119
  355.5000   126.9406     6.4692     6.5964
  356.0000   127.8539     6.6078     6.7374
  356.5000   127.8539     6.7971     6.8819
  357.0000   125.4186     6.7980     6.8829
  357.5000   119.6347     6.6106     6.7401
  358.0000   115.3729     6.3835     6.5082
  358.5000   115.0400     6.2076     6.2791
  359.0000   119.5535     5.9046     6.0256
  359.5000   125.1142     5.5497     5.8183
  360.0000   127.8539     5.2843     5.6577
  360.5000   126.0274     5.3222     5.3867
  361.0000   122.0700     5.3605     5.2013
  361.5000   117.4003     5.4033     5.3506
  362.0000   114.1553     5.5148     5.6212
  362.5000   112.0244     5.7528     5.9056
  363.0000   110.5023     6.0859     6.2044
  363.5000   110.4678     6.4384     6.5182
  364.0000   115.4704     6.7200     6.8129
  364.5000   118.4170     7.0063     7.0942
  365.0000   117.1994     7.2068     7.2464
  365.5000   115.9817     7.4131     7.4541
  366.0000   119.0259     7.6252     7.5606
  366.5000   118.9975     7.6825     7.7256
  367.0000   116.2861     7.8447     7.8888
  367.5000   113.5464     7.8458     7.9455
  368.0000   115.0685     7.9578     8.0591
  368.5000   115.3729     8.0149     8.1171
  369.0000   114.4556     8.0725     8.1182
  369.5000   109.8935     8.1307     8.1193
  370.0000   107.4581     8.1318     8.1779
  370.5000   105.3272     8.1902     8.1214
  371.0000   108.0670     8.2490     8.1801
  371.5000   111.7199     8.1923     8.1812
  372.0000   111.1111     8.1937     8.1862
  372.5000   109.8935     8.2525     8.2414
  373.0000   111.7199     8.3118     8.3007
  373.5000   114.4597     8.3129     8.3604
  374.0000   115.4218     8.4316     8.4205
  374.5000   111.6773     8.5005     8.4216
  375.0000   111.4155     8.6743     8.6026
  375.5000   112.6332     8.7981     8.8492
  376.0000   111.1111     8.9866     9.0390
  376.5000   109.5890     9.1149     9.1682
  377.0000   107.0888     9.1804     9.1695
  377.5000   105.6317     9.1173     9.1654
