~VERSION INFORMATION
 VERS.                2.0:   CWLS LOG ASCII STANDARD - VERSION 2.0
 WRAP.                 NO:   ONE LINE PER DEPTH STEP
~WELL INFORMATION
#MNEM.UNIT      DATA TYPE    INFORMATION
#----------   ------------   ------------------------------
 STRT.F           30.0000:   START DEPTH
 STOP.F          744.0000:   STOP DEPTH
 STEP.F            0.5000:   STEP LENGTH
 NULL.          -999.2500:   NO VALUE
 COMP. FENIX & SCISSON INC:   COMPANY
 WELL.   NPR 3 #53 S - 34:   WELL
 FLD .             TEAPOT:   FIELD
 LOC .      S34 T39N R78W:   LOCATION
 CNTY.            NATRONA:   COUNTY
 STAT.            WYOMING:   STATE
 CTRY. UNITED STATES OF AMERICA:   COUNTRY
 SRVC.       Schlumberger:   SERVICE COMPANY
 DATE.        28-MAR-1977:   LOGDATE
 API .       490251031700:   API NUMBER
~CURVE INFORMATION
#MNEM.UNIT       API CODE    CURVE DESCRIPTION
#----------   ------------   ------------------------------
 DEPT.F                  :   
 CALD.IN     45 280 60 00:   CALIPER FROM DENSITY LOG
 GRD .GAPI   45 310 01 00:   GAMMA RAY FROM DENSITY LOG
 CORR.G/C3   45 356 01 00:   DENSITY CORRECTION
 DPHI.DEC    45 890 12 00:   DENSITY POROSITY SANDSTONE
 RHOB.G/C3   45 350 01 00:   BULK DENSITY
~PARAMETER INFORMATION
#MNEM.UNIT          VALUE    DESCRIPTION
#----------   ------------   ------------------------------
 PD  .                 GL:   PERMANENT DATUM
 EPD .F              5081:   ELEVATION PERMANENT DATUM
 LMF .                 GL:   LOG MEASURED FROM
 DAPD.F                 5:   FEET ABOVE PERMANENT DATUM
 DMF .                 KB:   DRILLING MEASURED FROM
 EKB .F              5086:   KELLING BUSHING
 EGL .F              5081:   GROUND LEVEL
 DATE.        20-MAR-1977:   RUN DATE
 RUN .                  1:   RUN NUMBER
 DD  .F               751:   DEPTH DRILLER
 DL  .F               745:   DEPTH LOGGER
 BLI .F               744:   BOTTOM LOG INTERVAL
 TLI .F                30:   TOP LOG INTERVAL
 CBL .F                38:   CASING BOTTOM LOGGER
 BS  .IN            7.875:   BIT SIZE
 BSD .F               751:   BIT SIZE AT DEPTH
 DFT .             5% KCL:   DRILLING FLUID TYPE
 MSS .           MUD TANK:   MUD SAMPLE SOURCE
 RMS .OHMM            .23:   RESISTIVITY MUD SAMPLE
 MST .F                68:   MUD SAMPLE TEMPERATURE
 RMF .OHMM            .18:   RESISTIVITY MUD FILTRATE SAMPLE
 MFST.F                68:   MUD FILTRATE SAMPLE TEMPERATURE
 RMC .OHMM            .35:   RESISTIVITY MUD CAKE
 MCST.F                68:   MUD CAKE SAMPLE TEMPERATURE
 MFSS.               MEAS:   MUD FILTRATE SAMPLE SOURCE
 MCSS.               CALC:   MUD CAKE SAMPLE SOURCE
 RMB .OHMM            .24:   RESISTIVITY MUD AT BHT
 BHT .F                60:   BOTTOM HOLE TEMPERATURE
 TCS .HRS            0300:   TIME CURCULATED STOPPED
 MRT .F                60:   MAXIMUM RECORDED TEMPERATURE
 LUN .               7680:   LOGGING UNIT NUMBER
 LUL .               CSPR:   LOGGING UNIT LOCATION
 ENGI.                FIX:   RECORDING ENGINEER
 WITN.              BURKE:   WITNESSED BY
 CLNT.            A2DTECH:   CLIENT CODE
 ORIG.           5" PRINT:   ORIGIN OF DATA
 UWI .       490251031700:   UNIQUE WELL ID
 DICO. A2D Technologies, Inc.:   DIGITIZING COMPANY
~OTHER INFORMATION
~A   DEPT     CALD        GRD       CORR       DPHI       RHOB   
# ...
   91.0000     8.3254    80.2823     0.0138     0.1440     2.4116
   91.5000     8.3273    80.9152     0.0162     0.1440     2.4155
   92.0000     8.3293    81.5482     0.0217     0.1412     2.4234
   92.5000     8.3467    80.7944     0.0180     0.1424     2.4196
   93.0000     8.3487    78.0375     0.0304     0.1334     2.4293
   93.5000     8.3506    75.5888     0.0487     0.1212     2.4517
   94.0000     8.3526    76.6965     0.0515     0.1255     2.4492
   94.5000     8.3546    77.9337     0.0423     0.1196     2.4539
   95.0000     8.3565    77.6459     0.0432     0.1158     2.4618
   95.5000     8.3431    78.1247     0.0487     0.1195     2.4471
   96.0000     8.3451    80.1444     0.0295     0.1254     2.4340
   96.5000     8.3471    82.4723     0.0218     0.1312     2.4301
   97.0000     8.3495    84.8001     0.0180     0.1384     2.4224
   97.5000     8.3514    85.8912     0.0158     0.1446     2.4047
   98.0000     8.3534    81.4436     0.0143     0.1495     2.4031
   98.5000     8.3551    82.0765     0.0176     0.1448     2.4128
   99.0000     8.3573    82.7094     0.0199     0.1407     2.4219
   99.5000     8.3593    83.3424     0.0177     0.1398     2.4181
  100.0000     8.3608    86.1325     0.0271     0.1351     2.4290
  100.5000     8.3570    83.0723     0.0256     0.1388     2.4237
  101.0000     8.3538    80.6254     0.0140     0.1540     2.4042
  101.5000     8.3507    82.9550     0.0126     0.1558     2.3974
  102.0000     8.3525    84.5096     0.0119     0.1511     2.4038
  102.5000     8.3545    82.3754     0.0128     0.1374     2.4096
  103.0000     8.3562    80.8530     0.0247     0.1262     2.4303
  103.5000     8.3579    80.5586     0.0493     0.1122     2.4675
  104.0000     8.3437    80.7356     0.0451     0.1181     2.4705
  104.5000     8.3304    80.1377     0.0291     0.1249     2.4444
  105.0000     8.3166    77.6907     0.0199     0.1357     2.4320
  105.5000     8.3183    75.8601     0.0136     0.1397     2.4251
  106.0000     8.3354    74.6458     0.0131     0.1291     2.4260
  106.5000     8.3371    73.1234     0.0164     0.1406     2.4245
  107.0000     8.3388    66.3621     0.0194     0.1511     2.4129
  107.5000     8.3246    62.6825     0.0170     0.1585     2.3982
  108.0000     8.3267    62.5422     0.0093     0.1647     2.3897
  108.5000     8.3284    64.2601     0.0041     0.1811     2.3748
  109.0000     8.3301    72.2908     0.0027     0.1907     2.3491
  109.5000     8.3317    77.3939     0.0114     0.2028     2.3172
  110.0000     8.3334    81.8807     0.0209     0.2239     2.2881
  110.5000     8.3351    86.2134     0.0304     0.2400     2.2448
  111.0000     8.3368    92.0870     0.0315     0.2648     2.1969
  111.5000     8.3385    95.4952     0.0293     0.2977     2.1490
  112.0000     8.3556    95.3595     0.0425     0.3135     2.1359
  112.5000     8.3727    90.9095     0.0401     0.3197     2.1205
  113.0000     8.3898    87.5380     0.0438     0.3144     2.1244
  113.5000     8.4069    83.0880     0.0509     0.3054     2.1361
  114.0000     8.3451    78.0216     0.0621     0.2886     2.2176
  114.5000     8.3022    73.2511     0.0077     0.2174     2.2565
  115.0000     8.3043    67.8582     0.0243     0.1596     2.3566
  115.5000     8.3060    65.2794     0.0337     0.1375     2.4025
  116.0000     8.3231    64.6899     0.0275     0.1459     2.4064
  116.5000     8.3248    64.2147     0.0423     0.1446     2.4119
  117.0000     8.3107    62.5116     0.0292     0.1421     2.4151
  117.5000     8.2973    61.0015     0.0208     0.1511     2.4028
  118.0000     8.2990    59.6261     0.0270     0.1483     2.4090
  118.5000     8.3007    58.4690     0.0294     0.1461     2.4091
  119.0000     8.3024    57.8665     0.0209     0.1488     2.4037
  119.5000     8.3040    59.7385     0.0164     0.1597     2.3891
  120.0000     8.3057    67.4610     0.0203     0.1699     2.3760
  120.5000     8.3074    69.9447     0.0049     0.1754     2.3644
  121.0000     8.3091    71.5039     0.0057     0.1704     2.3730
  121.5000     8.3108    73.9876     0.0120     0.1714     2.3707
  122.0000     8.3124    78.4744     0.0213     0.1808     2.3390
  122.5000     8.3141    84.3480     0.0430     0.1940     2.3166
  123.0000     8.3158    85.7485     0.0532     0.2144     2.3011
  123.5000     8.3175    74.6775     0.0230     0.2132     2.3105
  124.0000     8.3192    69.7652     0.0301     0.1606     2.3757
  124.5000     8.3209    68.8545     0.0208     0.1666     2.3767
  125.0000     8.3225    69.0270     0.0333     0.1616     2.3852
  125.5000     8.3242    67.6632     0.0248     0.1608     2.3860
  126.0000     8.3259    67.3688     0.0171     0.1717     2.3644
  126.5000     8.3276    69.3949     0.0195     0.1732     2.3652
  127.0000     8.3138    70.4919     0.0188     0.1682     2.3715
  127.5000     8.3159    70.0480     0.0189     0.1629     2.3809
  128.0000     8.3018    69.7536     0.0166     0.1669     2.3763
  128.5000     8.3039    69.7766     0.0097     0.1715     2.3702
  129.0000     8.3055    69.6363     0.0059     0.1752     2.3640
  129.5000     8.3072    68.7348     0.0036     0.1786     2.3547
  130.0000     8.3089    67.8287     0.0068     0.1891     2.3438
  130.5000     8.2947    68.0011     0.0247     0.1866     2.3394
  131.0000     8.3123    70.1767     0.0596     0.1714     2.3588
  131.5000     8.2981    70.8068     0.0759     0.1443     2.4059
  132.0000     8.2843    66.8236     0.0512     0.1527     2.4102
  132.5000     8.2864    64.5307     0.0636     0.1495     2.4048
  133.0000     8.2881    63.4705     0.0474     0.1570     2.3941
  133.5000     8.2898    63.9512     0.0390     0.1653     2.3833
  134.0000     8.2915    65.2022     0.0298     0.1703     2.3725
  134.5000     8.2773    65.6828     0.0190     0.1628     2.3834
  135.0000     8.2636    66.4716     0.0175     0.1559     2.3936
  135.5000     8.2348    68.0309     0.0176     0.1515     2.4022
  136.0000     8.1247    70.2106     0.0161     0.1555     2.3953
  136.5000     8.3153    68.6558     0.0115     0.1664     2.3775
  137.0000     8.3170    66.6903     0.0038     0.1831     2.3527
  137.5000     8.3032    66.4095     0.0101     0.1843     2.3497
  138.0000     8.2895    68.5630     0.0210     0.1750     2.3614
  138.5000     8.2912    73.2259     0.0272     0.1687     2.3731
  139.0000     8.2774    72.2732     0.0342     0.1612     2.3825
  139.5000     8.2792    70.4083     0.0320     0.1553     2.3965
  140.0000     8.2812    67.8927     0.0228     0.1708     2.3811
  140.5000     8.2829    66.2162     0.0213     0.1745     2.3687
  141.0000     8.2846    61.9203     0.0182     0.1757     2.3603
  141.5000     8.2862    58.3947     0.0106     0.1794     2.3472
  142.0000     8.3034    62.8815     0.0261     0.1828     2.3511
  142.5000     8.2892    67.6765     0.0362     0.1741     2.3628
  143.0000     8.1524    68.7734     0.0340     0.1706     2.3660
  143.5000     8.0306    69.8689     0.0356     0.1752     2.3614
  144.0000     8.2021    70.3449     0.0488     0.1609     2.3832
  144.5000     8.3118    69.9056     0.0388     0.1575     2.3910
  145.0000     8.3289    69.3077     0.0234     0.1646     2.3833
  145.5000     8.3306    68.0934     0.0196     0.1552     2.3981
  146.0000     8.3322    67.0332     0.0134     0.1579     2.4021
  146.5000     8.3339    66.2812     0.0096     0.1462     2.4053
  147.0000     8.3356    65.6832     0.0159     0.1347     2.4100
  147.5000     8.3373    65.0853     0.0338     0.1132     2.4822
  148.0000     8.3390    65.2578     0.0145     0.0992     2.5032
  148.5000     8.3252    66.5088     0.0192     0.1032     2.4979
  149.0000     8.3269    67.4517     0.0107     0.1171     2.4615
  149.5000     8.3131    69.6272     0.0007     0.1342     2.4274
  150.0000     8.3302    71.9580     0.0077     0.1441     2.3964
  150.5000     8.3283    71.2013     0.0148     0.1664     2.3811
  151.0000     8.3159    62.8945     0.0087     0.1813     2.3575
  151.5000     8.3035    60.5970     0.0026     0.1903     2.3458
