~VERSION INFORMATION
 VERS.                2.0:   CWLS LOG ASCII STANDARD - VERSION 2.0
 WRAP.                 NO:   ONE LINE PER DEPTH STEP
~WELL INFORMATION
#MNEM.UNIT      DATA TYPE    INFORMATION
#----------   ------------   ------------------------------
 STRT.F           34.0000:   START DEPTH
 STOP.F         1014.5000:   STOP DEPTH
 STEP.F            0.5000:   STEP LENGTH
 NULL.          -999.2500:   NO VALUE
 COMP. FENIX & SCISSON INC:   COMPANY
 WELL.       NPR-3 #54-14:   WELL
 FLD .             TEAPOT:   FIELD
 LOC .      S14 T38N R78W:   LOCATION
 CNTY.            NATRONA:   COUNTY
 STAT.            WYOMING:   STATE
 CTRY. UNITED STATES OF AMERICA:   COUNTRY
 SRVC.            Unknown:   SERVICE COMPANY
 DATE.        20-APR-1978:   LOGDATE
 API .       490251062100:   API NUMBER
~CURVE INFORMATION
#MNEM.UNIT       API CODE    CURVE DESCRIPTION
#----------   ------------   ------------------------------
 DEPT.F                  :   
 SPR .MV     05 010 01 00:   SPONTANEOUS POTENTIAL FROM RES.
 SN  .OHMM   05 040 16 00:   SHORT NORMAL 16"
 ILD .OHMM   05 120 46 00:   INDUCTION LOG DEEP
 CALD.IN     45 280 60 00:   CALIPER
 GRD .GAPI   45 310 01 00:   GAMMA RAY FROM DENSITY LOG
 RHOB.G/C3   45 350 01 00:   BULK DENSITY
 DPOR.DEC    45 890 12 00:   DENSITY POROSITY SANDSTONE
 CORR.G/C3   45 356 01 00:   DENSITY CORRECTION
~PARAMETER INFORMATION
#MNEM.UNIT          VALUE    DESCRIPTION
#----------   ------------   ------------------------------
 PD  .                 GL:   PERMANENT DATUM
 EPD .F              5268:   ELEVATION PERMANENT DATUM
 LMF .                 KB:   LOG MEASURED FROM
 DAPD.F                 4:   FEET ABOVE PERMANENT DATUM
 DMF .                 KB:   DRILLING MEASURED FROM
 EKB .F              5272:   KELLING BUSHING
 EGL .F              5268:   GROUND LEVEL
 DATE.          4-20-1978:   RUN DATE
 RUN .                  1:   RUN NUMBER
 DD  .F              1030:   DEPTH DRILLER
 DL  .F              1021:   DEPTH LOGGER
 BLI .F              1014:   BOTTOM LOG INTERVAL
 TLI .F                50:   TOP LOG INTERVAL
 CS  .IN            8.625:   CASING SIZE
 CBD .F                40:   CASING BOTTOM DRILLER
 BS  .IN            7.875:   BIT SIZE
 BSD .F              1030:   BIT SIZE AT DEPTH
 DFT .                KCL:   DRILLING FLUID TYPE
 DFD .                8.6:   DRILLING FLUID DENSITY
 DFV .                 33:   DRILLING FLUID VISCOSITY
 DFPH.                 10:   DRILLING FLUID PH
 DFL .                  8:   DRILLING FLUID LOSS
 MSS .          FLOW LINE:   MUD SAMPLE SOURCE
 RMS .OHMM            .34:   RESISTIVITY MUD SAMPLE
 MST .F                64:   MUD SAMPLE TEMPERATURE
 RMF .OHMM            .36:   RESISTIVITY MUD FILTRATE SAMPLE
 MFST.F                60:   MUD FILTRATE SAMPLE TEMPERATURE
 RMC .OHMM            .48:   RESISTIVITY MUD CAKE
 MCST.F                68:   MUD CAKE SAMPLE TEMPERATURE
 MFSS.               MEAS:   MUD FILTRATE SAMPLE SOURCE
 MCSS.               MEAS:   MUD CAKE SAMPLE SOURCE
 RMB .OHMM            .29:   RESISTIVITY MUD AT BHT
 BHT .F                74:   BOTTOM HOLE TEMPERATURE
 TCS .HRS               6:   TIME CURCULATED STOPPED
 MRT .F                74:   MAXIMUM RECORDED TEMPERATURE
 LUN .               2958:   LOGGING UNIT NUMBER
 LUL .               CASP:   LOGGING UNIT LOCATION
 ENGI.             MILLER:   RECORDING ENGINEER
 WITN.           MCGINELY:   WITNESSED BY
 CLNT.            A2DTECH:   CLIENT CODE
 ORIG.       2", 5" PRINT:   ORIGIN OF DATA
 UWI .       490251062100:   UNIQUE WELL ID
 DICO. A2D Technologies, Inc.:   DIGITIZING COMPANY
~OTHER INFORMATION
~A   DEPT      SPR         SN        ILD       CALD         GRD      RHOB       DPOR       CORR   
# ...
  115.0000   -33.6272     5.8881     6.8775     7.2671    96.9686     2.4066     0.1604     0.0642
  115.5000   -33.6082     5.7312     6.6099     7.0130    97.2093     2.3869     0.1711     0.0556
  116.0000   -33.5892     5.6236     6.3527     7.0319    98.1912     2.3669     0.1779     0.0485
  116.5000   -33.5702     5.5180     6.1055     7.1355   102.1767     2.3583     0.1810     0.0417
  117.0000   -33.5512     5.4150     5.9403     7.4594   106.0660     2.3500     0.1841     0.0415
  117.5000   -33.5322     5.3669     5.9403     7.7734   108.5410     2.3673     0.1772     0.0368
  118.0000   -33.5132     5.3669     5.8841     8.0916   104.6862     2.3957     0.1646     0.0292
  118.5000   -33.4942     5.4359     5.8864     8.1771   100.8621     2.3981     0.1543     0.0242
  119.0000   -33.4752     5.6225     5.9537     8.1761    98.4130     2.4047     0.1520     0.0280
  119.5000   -33.4562     5.8155     6.0416     8.1584    97.1293     2.4088     0.1514     0.0317
  120.0000   -33.4372     5.9512     6.1610     8.0926    95.3402     2.4038     0.1537     0.0435
  120.5000   -33.4182     6.0544     6.3782     8.0318    92.5598     2.3995     0.1542     0.0627
  121.0000   -33.3992     6.1323     6.6030     7.9556    89.7566     2.4125     0.1475     0.0819
  121.5000   -33.3802     6.1836     6.7820     7.7786    88.6364     2.4180     0.1484     0.0929
  122.0000   -33.3612     6.2354     6.8520     7.5974    91.0929     2.4158     0.1492     0.0925
  122.5000   -33.3422     6.2936     6.9227     7.4864    94.1084     2.4131     0.1499     0.0876
  123.0000   -33.3232     6.3810     6.9942     7.4233    93.7908     2.4104     0.1476     0.0828
  123.5000   -33.3041     6.4695     7.0664     7.4369    90.6327     2.4175     0.1426     0.0737
  124.0000   -33.2851     6.5593     7.2725     7.4830    92.0088     2.4257     0.1407     0.0504
  124.5000   -33.2661     6.6503     7.5126     7.4917    94.1282     2.4304     0.1417     0.0212
  125.0000   -33.2471     6.6974     7.7607     7.5009    94.5611     2.4282     0.1428     0.0101
  125.5000   -33.2281     6.6974     7.8349     7.5101    93.4525     2.4243     0.1457     0.0033
  126.0000   -33.2091     6.6974     7.7375     7.5194    90.7949     2.4174     0.1498    -0.0005
  126.5000   -33.1901     6.6974     7.6630     7.5285    88.1266     2.4106     0.1529    -0.0004
  127.0000   -33.1706     6.6979     7.5893     7.5370    86.5217     2.4037     0.1549     0.0009
  127.5000   -33.1740     6.6450     7.5163     7.5831    87.5862     2.3966     0.1570     0.0022
  128.0000   -33.1824     6.5929     7.4441     7.6371    89.4423     2.3982     0.1558     0.0034
  128.5000   -33.1909     6.5412     7.3725     7.6889    97.4289     2.4043     0.1502     0.0048
  129.0000   -33.1994     6.4899     7.3016     7.7964   105.1992     2.4104     0.1478     0.0087
  129.5000   -33.2078     6.4390     7.2313     7.9090   103.1702     2.4165     0.1448     0.0170
  130.0000   -33.2162     6.3885     7.1618     8.0217    99.7238     2.4226     0.1410     0.0252
  130.5000   -33.2247     6.3384     7.1442     8.1249    97.9662     2.4287     0.1375     0.0304
  131.0000   -33.2331     6.2883     7.1442     8.1656    96.7359     2.4340     0.1373     0.0323
  131.5000   -33.2415     6.2785     7.1530     8.2097    94.1567     2.4319     0.1380     0.0343
  132.0000   -33.2499     6.2702     7.1641     8.1601    93.6184     2.4298     0.1384     0.0362
  132.5000   -33.2584     6.2621     7.1752     8.0914    95.5992     2.4314     0.1361     0.0368
  133.0000   -33.2668     6.2540     7.1863     7.9994    97.5527     2.4386     0.1338     0.0350
  133.5000   -33.2752     6.2459     7.1975     7.8785    99.5069     2.4451     0.1334     0.0331
  134.0000   -33.2837     6.2378     7.2086     7.7582   101.4986     2.4374     0.1396     0.0316
  134.5000   -33.2921     6.2298     7.2198     7.6375   101.9137     2.4289     0.1444     0.0335
  135.0000   -33.3005     6.2217     7.2310     7.5171    96.8896     2.4232     0.1452     0.0355
  135.5000   -33.3089     6.2137     7.2422     7.3993    93.8441     2.4118     0.1441     0.0375
  136.0000   -33.3174     6.2056     7.2535     7.3630    93.3459     2.4233     0.1438     0.0394
  136.5000   -33.3258     6.1976     7.2643     7.3410    92.2012     2.4210     0.1476     0.0375
  137.0000   -33.3342     6.1896     7.2773     7.3215    93.6962     2.4153     0.1484     0.0352
  137.5000   -33.3427     6.1816     7.2090     7.3257    96.9618     2.4157     0.1491     0.0271
  138.0000   -33.3513     6.1735     7.1320     7.3656    97.6680     2.4156     0.1496     0.0189
  138.5000   -33.3597     6.1641     7.0558     7.4015    95.9931     2.4055     0.1578     0.0113
  139.0000   -33.3572     6.1769     6.9804     7.4369    94.5023     2.3956     0.1615     0.0095
  139.5000   -33.2946     6.1947     6.9059     7.4722    94.4714     2.3881     0.1589     0.0077
  140.0000   -33.2326     6.2124     6.8321     7.5076    96.7937     2.3960     0.1553     0.0060
  140.5000   -33.1707     6.2302     6.7591     7.5430    99.2321     2.4043     0.1516     0.0042
  141.0000   -33.1089     6.2481     6.6868     7.5783    99.3408     2.4115     0.1496     0.0035
  141.5000   -33.0471     6.2660     6.6358     7.6136    97.3678     2.4108     0.1501     0.0035
  142.0000   -32.9853     6.2900     6.6358     7.6488    95.4746     2.4087     0.1508     0.0035
  142.5000   -32.9235     6.3278     6.6533     7.7418    93.9611     2.4066     0.1515     0.0035
  143.0000   -32.8616     6.3658     6.6775     7.8559    94.6408     2.4061     0.1501     0.0068
  143.5000   -32.7998     6.4041     6.7018     7.9706    96.0230     2.4099     0.1469     0.0104
  144.0000   -32.7380     6.4425     6.7261     8.0856    98.8164     2.4179     0.1437     0.0141
  144.5000   -32.6762     6.4812     6.7507     8.1932   101.6936     2.4260     0.1405     0.0177
  145.0000   -32.6144     6.5202     6.7904     8.1964   104.5265     2.4330     0.1396     0.0213
  145.5000   -32.5526     6.5593     6.8387     8.1960   104.7771     2.4306     0.1417     0.0247
  146.0000   -32.4908     6.5987     6.8873     8.1416    99.7869     2.4275     0.1414     0.0349
  146.5000   -32.4290     6.6384     6.9363     8.0429    97.3681     2.4262     0.1384     0.0457
  147.0000   -32.3671     6.6782     7.0228     7.9025    98.8422     2.4338     0.1355     0.0564
  147.5000   -32.3053     6.7184     7.1237     7.7620    99.5124     2.4422     0.1326     0.0626
  148.0000   -32.2432     6.7587     7.2260     7.6214   100.3747     2.4490     0.1308     0.0599
  148.5000   -32.1800     6.7993     7.3299     7.4970   101.9844     2.4476     0.1313     0.0574
  149.0000   -32.2038     6.8417     7.4352     7.4205   104.1753     2.4466     0.1338     0.0548
  149.5000   -32.2431     6.8862     7.5420     7.3762   105.2030     2.4334     0.1363     0.0523
  150.0000   -32.2827     6.9310     7.6504     7.3324   105.2207     2.4309     0.1387     0.0451
  150.5000   -32.3220     6.9761     7.7603     7.3031   105.0636     2.4341     0.1412     0.0359
  151.0000   -32.3613     7.0215     7.8501     7.3116   104.9520     2.4288     0.1428     0.0325
  151.5000   -32.4007     7.0672     7.8963     7.3189   106.1890     2.4233     0.1432     0.0294
  152.0000   -32.4400     7.1132     7.9428     7.3491   107.3964     2.4264     0.1432     0.0238
  152.5000   -32.4793     7.1595     7.9896     7.3860   104.2595     2.4309     0.1446     0.0136
  153.0000   -32.5186     7.2061     8.0365     7.4004   100.8597     2.4230     0.1471     0.0047
  153.5000   -32.5580     7.2530     8.0585     7.4007    97.7583     2.4154     0.1465     0.0017
  154.0000   -32.5973     7.3002     8.0638     7.4004   100.9440     2.4184     0.1450    -0.0015
  154.5000   -32.6366     7.3448     8.0695     7.3992   106.1932     2.4220     0.1481    -0.0006
  155.0000   -32.6759     7.3144     8.0752     7.4435   112.0117     2.4089     0.1504     0.0023
