~VERSION INFORMATION
 VERS.                2.0:   CWLS LOG ASCII STANDARD - VERSION 2.0
 WRAP.                 NO:   ONE LINE PER DEPTH STEP
~WELL INFORMATION
#MNEM.UNIT      DATA TYPE    INFORMATION
#----------   ------------   ------------------------------
 STRT.F          566.5000:   START DEPTH
 STOP.F         2065.5000:   STOP DEPTH
 STEP.F            0.5000:   STEP LENGTH
 NULL.          -999.2500:   NO VALUE
 COMP. LAWRENCE/ALLISON INC:   COMPANY
 WELL.      NPR 3 #25-X-3:   WELL
 FLD .             TEAPOT:   FIELD
 LOC .       S3 T38N R78W:   LOCATION
 CNTY.            NATRONA:   COUNTY
 STAT.            WYOMING:   STATE
 CTRY. UNITED STATES OF AMERICA:   COUNTRY
 SRVC.            Unknown:   SERVICE COMPANY
 DATE.        26-SEP-1987:   LOGDATE
 API .       490251119000:   API NUMBER
~CURVE INFORMATION
#MNEM.UNIT       API CODE    CURVE DESCRIPTION
#----------   ------------   ------------------------------
 DEPT.F                  :   
 ROP .MIN/FT 91 810 01 00:   RATE OF DRILLING PENETRATION
 TGAS.UNITS  91 830 01 00:   TOTAL GAS FROM HOTWIRE
~PARAMETER INFORMATION
#MNEM.UNIT          VALUE    DESCRIPTION
#----------   ------------   ------------------------------
 DATE.        26-SEP-1987:   RUN DATE
 RUN .                  1:   RUN NUMBER
 DD  .F              2066:   DEPTH DRILLER
 TLI .F               566:   TOP LOG INTERVAL
 WITN. R. HUSK/R. PETERSON:   WITNESSED BY
 CLNT.            A2DTECH:   CLIENT CODE
 ORIG.           5" PRINT:   ORIGIN OF DATA
 UWI .       490251119000:   UNIQUE WELL ID
 DICO. A2D Technologies, Inc.:   DIGITIZING COMPANY
~OTHER INFORMATION
~A   DEPT        ROP       TGAS 
# ...
  688.0000     0.3639   798.6478
  688.5000     0.3633   798.5497
  689.0000     0.3627   798.4516
  689.5000     0.3621   798.3535
  690.0000     0.3615   798.2555
  690.5000     0.3609   798.1574
  691.0000     0.3602   798.0593
  691.5000     0.3596   797.9612
  692.0000     0.3590   797.8632
  692.5000     0.3584   797.7651
  693.0000     0.3578   797.6670
  693.5000     0.3572   797.5689
  694.0000     0.3566   797.4708
  694.5000     0.3560   797.3728
  695.0000     0.3554   797.2747
  695.5000     0.3548   797.1766
  696.0000     0.3542   797.0786
  696.5000     0.3536   796.9805
  697.0000     0.3530   796.8824
  697.5000     0.3524   796.7843
  698.0000     0.3518   796.6862
  698.5000     0.3512   796.5881
  699.0000     0.3506   796.4901
  699.5000     0.3500   796.3920
  700.0000     0.3494   796.2939
  700.5000     0.3488   796.1959
  701.0000     0.3482   796.0978
  701.5000     0.3476   795.9997
  702.0000     0.3470   795.9016
  702.5000     0.3464   795.8035
  703.0000     0.3458   795.7054
  703.5000     0.3452   795.6074
  704.0000     0.3446   795.5093
  704.5000     0.3440   795.4113
  705.0000     0.3434   795.3132
  705.5000     0.3428   795.2151
  706.0000     0.3422   795.1170
  706.5000     0.3417   795.0189
  707.0000     0.3415   794.9208
  707.5000     0.3413   794.8228
  708.0000     0.3410   794.7247
  708.5000     0.3408   794.6266
  709.0000     0.3406   794.5286
  709.5000     0.3403   794.4305
  710.0000     0.3401   794.3324
  710.5000     0.3398   794.2343
  711.0000     0.3396   794.1362
  711.5000     0.3394   794.0381
  712.0000     0.3391   793.9401
  712.5000     0.3389   793.8420
  713.0000     0.3386   793.7440
  713.5000     0.3384   793.6459
  714.0000     0.3382   793.5478
  714.5000     0.3379   793.4497
  715.0000     0.3377   793.3516
  715.5000     0.3375   793.2535
  716.0000     0.3372   793.1555
  716.5000     0.3370   793.0574
  717.0000     0.3367   792.9593
  717.5000     0.3365   792.8613
  718.0000     0.3363   792.7632
  718.5000     0.3360   792.6651
  719.0000     0.3358   792.5670
  719.5000     0.3355   792.4689
  720.0000     0.3353   792.3708
  720.5000     0.3351   792.2728
  721.0000     0.3348   792.1747
  721.5000     0.3346   792.0766
  722.0000     0.3344   791.9786
  722.5000     0.3341   791.8805
  723.0000     0.3339   787.5677
  723.5000     0.3336   772.7208
  724.0000     0.3334   757.8738
  724.5000     0.3332   743.0269
  725.0000     0.3329   728.1800
  725.5000     0.3327   713.3331
  726.0000     0.3325   698.4861
  726.5000     0.3322   683.6393
  727.0000     0.3320   668.7924
  727.5000     0.3317   653.9454
  728.0000     0.3315   639.0985
  728.5000     0.3313   624.2516
  729.0000     0.3310   609.4047
  729.5000     0.3308   594.5577
  730.0000     0.3305   579.7108
  730.5000     0.3303   564.8640
  731.0000     0.3301   550.0170
  731.5000     0.3298   535.1701
  732.0000     0.3296   520.3232
  732.5000     0.3294   505.4763
  733.0000     0.3291   490.6293
  733.5000     0.3289   475.7824
  734.0000     0.3286   460.9355
  734.5000     0.3284   446.0886
  735.0000     0.3282   431.2417
  735.5000     0.3279   416.3947
  736.0000     0.3277   408.2658
  736.5000     0.3275   408.3594
  737.0000     0.3272   408.4424
  737.5000     0.3270   408.5253
  738.0000     0.3267   408.6083
  738.5000     0.3265   408.6912
  739.0000     0.3263   408.7742
  739.5000     0.3260   408.8571
  740.0000     0.3258   408.9401
  740.5000     0.3255   409.0230
  741.0000     0.3253   409.1060
  741.5000     0.3251   409.1889
  742.0000     0.3248   409.2719
  742.5000     0.3246   409.3548
  743.0000     0.3244   409.4378
  743.5000     0.3241   409.5207
  744.0000     0.3239   409.6037
  744.5000     0.3236   409.6866
  745.0000     0.3234   409.7696
  745.5000     0.3232   409.8525
  746.0000     0.3229   409.9355
  746.5000     0.3227   410.0184
  747.0000     0.3224   410.1013
  747.5000     0.3222   410.1843
  748.0000     0.3220   410.2673
  748.5000     0.3217   410.3502
  749.0000     0.3215   410.4332
  749.5000     0.3213   410.5161
  750.0000     0.3210   410.5991
  750.5000     0.3208   410.6820
  751.0000     0.3205   410.7650
  751.5000     0.3203   410.8479
  752.0000     0.3201   410.9308
  752.5000     0.3198   411.0138
  753.0000     0.3196   411.0968
  753.5000     0.3194   411.1797
  754.0000     0.3191   411.2627
  754.5000     0.3189   411.3456
  755.0000     0.3186   411.4286
  755.5000     0.3184   411.5115
  756.0000     0.3182   411.5945
  756.5000     0.3179   411.6774
  757.0000     0.3177   411.7603
  757.5000     0.3174   411.8433
  758.0000     0.3172   411.9263
  758.5000     0.3170   412.0092
  759.0000     0.3167   412.0922
  759.5000     0.3165   412.1751
  760.0000     0.3163   412.2581
  760.5000     0.3160   412.3410
  761.0000     0.3158   412.4240
  761.5000     0.3155   412.5069
  762.0000     0.3153   412.5898
  762.5000     0.3151   412.6728
  763.0000     0.3148   412.7558
  763.5000     0.3146   412.8387
  764.0000     0.3143   412.9217
  764.5000     0.3141   413.0046
  765.0000     0.3139   413.0876
  765.5000     0.3136   413.1705
  766.0000     0.3134   413.2534
  766.5000     0.3132   413.3364
  767.0000     0.3129   405.4680
  767.5000     0.3127   391.3351
  768.0000     0.3124   377.2021
  768.5000     0.3122   363.0691
  769.0000     0.3120   348.9362
  769.5000     0.3117   334.8032
  770.0000     0.3115   320.6702
  770.5000     0.3113   314.4254
  771.0000     0.3110   314.4446
  771.5000     0.3108   314.4638
  772.0000     0.3105   314.4831
  772.5000     0.3103   314.5023
  773.0000     0.3101   314.5216
  773.5000     0.3098   314.5408
  774.0000     0.3096   314.5601
  774.5000     0.3093   314.5793
  775.0000     0.3091   314.5986
  775.5000     0.3089   314.6179
  776.0000     0.3086   314.6371
  776.5000     0.3084   314.6563
  777.0000     0.3082   314.6756
  777.5000     0.3079   314.6949
  778.0000     0.3077   314.7141
  778.5000     0.3079   314.7333
  779.0000     0.3188   314.7526
  779.5000     0.3400   314.7719
  780.0000     0.3508   314.7911
  780.5000     0.3825   314.8104
  781.0000     0.3828   314.8296
  781.5000     0.3832   314.8488
  782.0000     0.3939   314.8681
  782.5000     0.3941   314.8874
  783.0000     0.3943   314.9066
  783.5000     0.3945   314.9258
  784.0000     0.3948   314.9451
  784.5000     0.3950   314.9644
  785.0000     0.3952   314.9836
  785.5000     0.3954   315.0029
  786.0000     0.3956   315.0221
  786.5000     0.3959   315.0414
  787.0000     0.3961   315.0606
  787.5000     0.3963   315.0799
  788.0000     0.3965   315.0991
  788.5000     0.3967   315.1183
  789.0000     0.3970   315.1376
  789.5000     0.3972   315.1569
  790.0000     0.3974   315.1761
  790.5000     0.3976   315.1954
  791.0000     0.3978   315.2146
  791.5000     0.3981   315.2339
  792.0000     0.3983   315.2531
  792.5000     0.3985   315.2724
  793.0000     0.3987   315.2916
  793.5000     0.3989   315.3109
  794.0000     0.3992   315.3301
  794.5000     0.3994   315.3494
  795.0000     0.3996   315.3686
  795.5000     0.3998   315.3879
  796.0000     0.4000   315.4071
  796.5000     0.4003   315.4264
  797.0000     0.4005   315.4456
  797.5000     0.4007   315.4649
  798.0000     0.4009   315.4841
  798.5000     0.4011   315.5034
  799.0000     0.4013   315.5226
  799.5000     0.4016   315.5419
  800.0000     0.4018   315.5611
  800.5000     0.4020   315.5804
  801.0000     0.4022   315.5996
  801.5000     0.4024   315.6189
  802.0000     0.4027   315.6381
  802.5000     0.4029   315.6574
  803.0000     0.4031   315.6656
  803.5000     0.4033   315.6602
  804.0000     0.4035   315.6548
  804.5000     0.4038   315.6494
  805.0000     0.4040   315.6440
  805.5000     0.4042   315.6386
  806.0000     0.4044   315.6332
  806.5000     0.4046   315.6278
  807.0000     0.4049   315.6224
  807.5000     0.4051   315.6169
  808.0000     0.4053   315.6115
  808.5000     0.4055   315.6061
  809.0000     0.4057   315.6007
