~VERSION INFORMATION
 VERS.                2.0:   CWLS LOG ASCII STANDARD - VERSION 2.0
 WRAP.                 NO:   ONE LINE PER DEPTH STEP
~WELL INFORMATION
#MNEM.UNIT      DATA TYPE    INFORMATION
#----------   ------------   ------------------------------
 STRT.F           70.0000:   START DEPTH
 STOP.F          806.0000:   STOP DEPTH
 STEP.F            0.5000:   STEP LENGTH
 NULL.          -999.2500:   NO VALUE
 COMP. U S NAVY/INTEX OIL CO:   COMPANY
 WELL. RES 3 TEAPOT DOME #33-S-2:   WELL
 FLD .             TEAPOT:   FIELD
 LOC .       S2 T38N R78W:   LOCATION
 CNTY.            NATRONA:   COUNTY
 STAT.            WYOMING:   STATE
 CTRY. UNITED STATES OF AMERICA:   COUNTRY
 SRVC.         Lane Wells:   SERVICE COMPANY
 DATE.        15-MAR-1980:   LOGDATE
 API .       490250644600:   API NUMBER
~CURVE INFORMATION
#MNEM.UNIT       API CODE    CURVE DESCRIPTION
#----------   ------------   ------------------------------
 DEPT.F                  :   
 GR  .GAPI   30 310 01 00:   GAMMA RAY
 SPR .MV     05 010 01 00:   SPONTANEOUS POTENTIAL FROM RES.
 CILD.MMHO   05 110 46 00:   CONDUCTIVITY INDUCTION LOG DEEP
 ASN .OHMM   05 041 16 00:   AMPLIFIED SHORT NORMAL 16"
 ILD .OHMM   05 120 46 00:   INDUCTION LOG DEEP
~PARAMETER INFORMATION
#MNEM.UNIT          VALUE    DESCRIPTION
#----------   ------------   ------------------------------
 PD  .                 GL:   PERMANENT DATUM
 EPD .F              5119:   ELEVATION PERMANENT DATUM
 LMF .                 KB:   LOG MEASURED FROM
 DAPD.F                 5:   FEET ABOVE PERMANENT DATUM
 DMF .                 KB:   DRILLING MEASURED FROM
 EKB .F              5124:   KELLING BUSHING
 EGL .F              5119:   GROUND LEVEL
 DATE.            3-15-60:   RUN DATE
 RUN .                  1:   RUN NUMBER
 DD  .F               810:   DEPTH DRILLER
 DL  .F               808:   DEPTH LOGGER
 BLI .F               806:   BOTTOM LOG INTERVAL
 TLI .F                70:   TOP LOG INTERVAL
 CS  .IN            8.625:   CASING SIZE
 CBD .F                12:   CASING BOTTOM DRILLER
 BS  .IN            7.875:   BIT SIZE
 BSD .F               810:   BIT SIZE AT DEPTH
 DFT .   GEL/OIL EMULSION:   DRILLING FLUID TYPE
 DFD .                6.8:   DRILLING FLUID DENSITY
 DFV .                 34:   DRILLING FLUID VISCOSITY
 DFPH.                7.6:   DRILLING FLUID PH
 DFL .                9.4:   DRILLING FLUID LOSS
 MSS .           FLOWLINE:   MUD SAMPLE SOURCE
 RMS .OHMM            4.2:   RESISTIVITY MUD SAMPLE
 MST .F                65:   MUD SAMPLE TEMPERATURE
 RMF .OHMM            3.3:   RESISTIVITY MUD FILTRATE SAMPLE
 MFST.F                68:   MUD FILTRATE SAMPLE TEMPERATURE
 RMC .OHMM              4:   RESISTIVITY MUD CAKE
 MCST.F                68:   MUD CAKE SAMPLE TEMPERATURE
 MFSS.                MUD:   MUD FILTRATE SAMPLE SOURCE
 MCSS.              PRESS:   MUD CAKE SAMPLE SOURCE
 RMB .OHMM            3.9:   RESISTIVITY MUD AT BHT
 BHT .F                71:   BOTTOM HOLE TEMPERATURE
 MRT .F                71:   MAXIMUM RECORDED TEMPERATURE
 LUN .             L-4474:   LOGGING UNIT NUMBER
 LUL .             CASPER:   LOGGING UNIT LOCATION
 ENGI.      GRIGGS/NELSON:   RECORDING ENGINEER
 WITN.   JORGENSEN/HUDSON:   WITNESSED BY
 CLNT.            A2DTECH:   CLIENT CODE
 ORIG. 1", 2.5", 5" PRINT:   ORIGIN OF DATA
 UWI .       490250644600:   UNIQUE WELL ID
 DICO. A2D Technologies, Inc.:   DIGITIZING COMPANY
~OTHER INFORMATION
~A   DEPT       GR        SPR        CILD         ASN        ILD 
   70.0000  -999.2500   -29.2137   120.9419     4.3597     5.2355
   70.5000  -999.2500   -29.5766   120.9419     4.6262     5.0451
   71.0000  -999.2500   -29.6621   128.5571     4.5564     5.0102
   71.5000  -999.2500   -29.8203   135.0618     4.4274     4.9457
   72.0000  -999.2500   -29.9784   139.9006     4.2455     4.8547
   72.5000  -999.2500   -30.1365   144.7395     4.2836     4.9055
   73.0000  -999.2500   -30.2946   151.4028     4.3540     4.9915
   73.5000  -999.2500   -30.4528   151.4028     4.4701     5.0775
   74.0000  -999.2500   -30.6653   151.4028     4.5863     5.1635
   74.5000  -999.2500   -30.5443   147.4798     4.7405     5.2496
   75.0000  -999.2500   -30.3599   141.4972     4.6104     5.3356
   75.5000  -999.2500   -30.1754   135.5147     4.3597     5.4216
   76.0000  -999.2500   -29.9395   129.5321     4.5189     5.5076
   76.5000  -999.2500   -30.0061   123.5495     4.7447     5.6162
   77.0000  -999.2500   -30.0315   123.8038     4.6947     5.6566
   77.5000  -999.2500   -30.0917   117.5669     4.9864     6.0623
   78.0000  -999.2500   -30.2122   111.5844     5.1766     6.6090
   78.5000  -999.2500   -30.2900   105.6018     5.4066     7.1777
   79.0000  -999.2500   -30.3036    99.6192     5.7748     7.8079
   79.5000  -999.2500   -30.2657    93.6367     6.7150     8.4709
   80.0000  -999.2500   -30.2063    86.6733     8.7834     8.8889
   80.5000  -999.2500   -30.1517    86.6733    10.8563     8.8253
   81.0000  -999.2500   -30.1053    89.1483    11.0436     8.4128
   81.5000  -999.2500   -30.0517    92.0516     9.6628     7.9708
   82.0000  -999.2500   -29.9879    94.9549     7.9878     7.6273
   82.5000  -999.2500   -29.9417    97.8582     6.5183     7.3032
   83.0000  -999.2500   -29.9475   100.7615     5.8183     6.9313
   83.5000  -999.2500   -30.0136   103.6648     5.8339     6.5277
   84.0000  -999.2500   -30.1176   106.5681     5.7986     6.1467
   84.5000  -999.2500   -30.2229   109.5190     5.6753     5.8674
   85.0000  -999.2500   -30.2920   110.2806     5.6748     5.7443
   85.5000  -999.2500   -30.3009   111.0548     5.6880     5.7291
   86.0000  -999.2500   -30.2564   111.8290     5.7261     5.7175
   86.5000  -999.2500   -30.1926   112.6032     5.7766     5.6724
   87.0000  -999.2500   -30.1384   113.3267     5.8014     5.6269
   87.5000  -999.2500   -30.0938   113.3267     5.8573     5.5984
   88.0000  -999.2500   -30.0410   113.3267     5.8754     5.5695
   88.5000  -999.2500   -29.9787   115.4526     5.7796     5.5320
   89.0000  -999.2500   -29.9369   117.3881     5.6565     5.4954
   89.5000  -999.2500   -29.9498   119.3236     5.5583     5.4632
   90.0000  -999.2500   -30.0156   121.2592     5.4614     5.4312
   90.5000  -999.2500   -30.0987   123.1947     5.3930     5.3974
   91.0000  -999.2500   -30.1739   124.7495     5.3790     5.3618
   91.5000  -999.2500   -30.2462   126.7349     5.3955     5.3264
   92.0000  -999.2500   -30.3212   128.3939     5.4152     5.2957
   92.5000  -999.2500   -30.3920   130.0530     5.4398     5.2662
   93.0000  -999.2500   -30.4628   131.7120     5.4753     5.2257
   93.5000  -999.2500   -30.5470   133.3710     5.4385     5.1683
   94.0000  -999.2500   -30.6243   135.0301     5.3246     5.1039
   94.5000  -999.2500   -30.6430   136.1723     5.1752     5.0439
   95.0000  -999.2500   -30.5858   141.2492     5.0417     4.9874
   95.5000  -999.2500   -30.4957   145.1202     4.9284     4.9297
   96.0000  -999.2500   -30.4162   148.9913     4.8056     4.8716
   96.5000  -999.2500   -30.3466   152.8624     4.6656     4.8136
   97.0000  -999.2500   -30.2739   156.7335     4.5442     4.7531
   97.5000  -999.2500   -30.2017   160.6045     4.4830     4.6967
   98.0000  -999.2500   -30.1287   164.4756     4.4830     4.6638
   98.5000  -999.2500   -30.0449   166.6333     4.5044     4.6649
   99.0000  -999.2500   -29.9719   163.8359     4.5115     4.6875
   99.5000  -999.2500   -29.9599   161.8968     4.5018     4.7119
  100.0000  -999.2500   -30.0213   159.9577     4.4890     4.7312
  100.5000  -999.2500   -30.1086   158.0186     4.4797     4.7492
  101.0000  -999.2500   -30.1790   156.0795     4.4804     4.7678
  101.5000  -999.2500   -30.2399   154.1404     4.5108     4.7874
  102.0000  -999.2500   -30.3095   151.4028     4.5860     4.8093
  102.5000  -999.2500   -30.3787   151.4028     4.6866     4.8304
  103.0000  -999.2500   -30.4403   151.4028     4.7621     4.8456
  103.5000  -999.2500   -30.5125   151.4028     4.7780     4.8598
  104.0000  -999.2500   -30.5960   150.3976     4.7538     4.8883
  104.5000  -999.2500   -30.6431   148.8441     4.7420     4.9363
  105.0000  -999.2500   -30.6090   147.2906     4.7724     4.9923
  105.5000  -999.2500   -30.5106   145.7371     4.8302     5.0448
  106.0000  -999.2500   -30.4037   143.7876     4.8885     5.0950
  106.5000  -999.2500   -30.3163   143.7876     4.9408     5.1471
  107.0000  -999.2500   -30.2318   143.7876     4.9941     5.1998
  107.5000  -999.2500   -30.1313   141.1766     5.0513     5.2510
  108.0000  -999.2500   -30.0274   137.8477     5.1118     5.3035
  108.5000  -999.2500   -29.9530   134.5188     5.1754     5.3569
  109.0000  -999.2500   -29.9281   131.1898     5.2336     5.4073
  109.5000  -999.2500   -29.9379   127.8609     5.2739     5.4572
  110.0000  -999.2500   -29.9459   124.5319     5.3049     5.5134
  110.5000  -999.2500   -29.9350   120.9419     5.3564     5.5696
  111.0000  -999.2500   -29.9286   120.9419     5.4380     5.6030
  111.5000  -999.2500   -29.9632   120.9419     5.5269     5.5934
  112.0000  -999.2500   -30.0534   122.8076     5.6051     5.5456
  112.5000  -999.2500   -30.1893   124.7495     5.6673     5.4910
  113.0000  -999.2500   -30.3379   126.6914     5.6764     5.4623
  113.5000  -999.2500   -30.4525   128.6333     5.5707     5.4504
  114.0000  -999.2500   -30.5361   130.5751     5.3468     5.3982
  114.5000  -999.2500   -30.6847   132.3647     5.0844     5.2635
  115.0000  -999.2500   -30.9659   140.7415     4.8573     5.0804
  115.5000  -999.2500   -31.2530   148.5090     4.6595     4.9121
  116.0000  -999.2500   -31.3202   156.2766     4.4503     4.7580
  116.5000  -999.2500   -31.1229   164.0441     4.2251     4.5760
  117.0000  -999.2500   -30.8298   171.8116     4.0068     4.3957
  117.5000  -999.2500   -30.5640   179.5792     3.8071     4.3209
  118.0000  -999.2500   -30.3079   187.3467     3.6454     4.3962
  118.5000  -999.2500   -30.0798   193.2866     3.5848     4.5468
  119.0000  -999.2500   -29.9799   193.2866     3.6948     4.6814
  119.5000  -999.2500   -30.0167   193.2866     3.9697     4.7892
  120.0000  -999.2500   -30.0969   178.4369     4.3178     4.9055
  120.5000  -999.2500   -30.2016   166.7856     4.6413     5.0362
  121.0000  -999.2500   -30.3780   155.1343     4.9057     5.1604
  121.5000  -999.2500   -30.5627   143.4830     5.1236     5.2748
  122.0000  -999.2500   -30.6061   131.8317     5.3049     5.3962
  122.5000  -999.2500   -30.4710   120.1804     5.4483     5.5260
  123.0000  -999.2500   -30.2602   108.5291     5.5629     5.6465
  123.5000  -999.2500   -30.0804   101.9038     5.6733     5.7566
  124.0000  -999.2500   -30.0142    96.3447     5.7961     5.8835
  124.5000  -999.2500   -30.1617    92.4609     5.9219     6.0347
  125.0000  -999.2500   -30.5512    88.5771     6.0296     6.1581
  125.5000  -999.2500   -31.0198    82.8657     6.1237     6.1906
  126.0000  -999.2500   -31.3178    83.8938     6.2357     6.1451
  126.5000  -999.2500   -31.3460    85.8357     6.3694     6.0972
  127.0000  -999.2500   -31.2190    87.7776     6.4694     6.0828
  127.5000  -999.2500   -31.0925    89.7194     6.4719     6.0557
  128.0000  -999.2500   -31.0054    91.6613     6.3729     5.9679
  128.5000  -999.2500   -30.9131    93.6032     6.2227     5.8426
  129.0000  -999.2500   -30.8008    95.5451     6.0647     5.7350
  129.5000  -999.2500   -30.6967    98.0962     5.9044     5.6561
  130.0000  -999.2500   -30.6040   102.8938     5.7320     5.5761
  130.5000  -999.2500   -30.4977   109.8846     5.5452     5.4812
