~VERSION INFORMATION
 VERS.                2.0:   CWLS LOG ASCII STANDARD - VERSION 2.0
 WRAP.                 NO:   ONE LINE PER DEPTH STEP
~WELL INFORMATION
#MNEM.UNIT      DATA TYPE    INFORMATION
#----------   ------------   ------------------------------
 STRT.F           30.0000:   START DEPTH
 STOP.F          468.0000:   STOP DEPTH
 STEP.F            0.1000:   STEP LENGTH
 NULL.          -999.2500:   NO VALUE
 COMP. LAWRENCE/ALLISON INC:   COMPANY
 WELL.    72-12 SX #10-10:   WELL
 FLD .             TEAPOT:   FIELD
 LOC .      S10 T38N R78W:   LOCATION
 CNTY.            NATRONA:   COUNTY
 STAT.            WYOMING:   STATE
 CTRY. UNITED STATES OF AMERICA:   COUNTRY
 SRVC.           Gearhart:   SERVICE COMPANY
 DATE.        17-MAY-1988:   LOGDATE
 API .       490251122400:   API NUMBER
~CURVE INFORMATION
#MNEM.UNIT       API CODE    CURVE DESCRIPTION
#----------   ------------   ------------------------------
 DEPT.F                  :   
 GRR .GAPI   07 310 01 00:   GAMMA RAY
 RILD.OHMM   07 120 46 00:   INDUCTION LOG DEEP RESISTIVITY
 RILM.OHMM   07 120 44 00:   INDUCTION LOG MEDIUM RESISTIVITY
~PARAMETER INFORMATION
#MNEM.UNIT          VALUE    DESCRIPTION
#----------   ------------   ------------------------------
 PD  .                 GL:   PERMANENT DATUM
 EPD .F              5166:   ELEVATION PERMANENT DATUM
 LMF .                 KB:   LOG MEASURED FROM
 DAPD.F              10.2:   FEET ABOVE PERMANENT DATUM
 DMF .                 KB:   DRILLING MEASURED FROM
 EKB .F            5176.2:   KELLING BUSHING
 EGL .F              5166:   GROUND LEVEL
 DATE.        17-MAY-1988:   RUN DATE
 RUN .                  1:   RUN NUMBER
 DD  .F               480:   DEPTH DRILLER
 DL  .F               476:   DEPTH LOGGER
 BLI .F               468:   BOTTOM LOG INTERVAL
 TLI .F                47:   TOP LOG INTERVAL
 CS  .IN            9.625:   CASING SIZE
 CBD .F                43:   CASING BOTTOM DRILLER
 CBL .F                47:   CASING BOTTOM LOGGER
 BS  .IN             8.75:   BIT SIZE
 BSD .F               480:   BIT SIZE AT DEPTH
 DFT .                AIR:   DRILLING FLUID TYPE
 TCS .HRS            0630:   TIME CURCULATED STOPPED
 TLAB.HRS            0930:   TIME LOGGER AT BOTTOM
 LUN .               7597:   LOGGING UNIT NUMBER
 LUL .           GILLETTE:   LOGGING UNIT LOCATION
 ENGI.             SLATKY:   RECORDING ENGINEER
 WITN.             STRONG:   WITNESSED BY
 CLNT.            A2DTECH:   CLIENT CODE
 ORIG.           5" PRINT:   ORIGIN OF DATA
 UWI .       490251122400:   UNIQUE WELL ID
 DICO. A2D Technologies, Inc.:   DIGITIZING COMPANY
~OTHER INFORMATION
~A   DEPT      GRR       RILD       RILM   
# ...
  102.8000   105.7309     9.8219     9.7077
  102.9000   105.3398     9.8199     9.6506
  103.0000   105.0990     9.7645     9.6502
  103.1000   104.9045     9.7095     9.6117
  103.2000   105.2098     9.6547     9.5577
  103.3000   105.2115     9.6164     9.5156
  103.4000   105.3818     9.6126     9.5152
  103.5000   105.6263     9.5486     9.4631
  103.6000   105.9184     9.5481     9.4484
  103.7000   106.4310     9.5169     9.4224
  103.8000   106.8925     9.4809     9.3821
  103.9000   107.3796     9.4804     9.3817
  104.0000   107.8667     9.4797     9.3813
  104.1000   108.3050     9.4793     9.3809
  104.2000   108.5613     9.4788     9.3805
  104.3000   108.7939     9.4782     9.3801
  104.4000   109.0384     9.4777     9.3797
  104.5000   109.2828     9.4771     9.3793
  104.6000   109.5273     9.4767     9.4196
  104.7000   109.7825     9.4761     9.4441
  104.8000   110.0162     9.4756     9.4437
  104.9000   110.2606     9.4751     9.4452
  105.0000   110.5051     9.4745     9.4978
  105.1000   110.6988     9.4740     9.5084
  105.2000   110.7007     9.5095     9.5373
  105.3000   111.1683     9.5391     9.5741
  105.4000   111.3103     9.5489     9.5768
  105.5000   111.4242     9.6046     9.6401
  105.6000   111.6170     9.6041     9.6397
  105.7000   111.6189     9.6418     9.6701
  105.8000   111.6206     9.6701     9.7239
  105.9000   111.4489     9.6818     9.7780
  106.0000   111.3212     9.7365     9.8415
  106.1000   111.2703     9.7359     9.8411
  106.2000   111.0219     9.7760     9.8733
  106.3000   110.7887     9.8028     9.9091
  106.4000   110.5479     9.8023     9.9142
  106.5000   110.3071     9.8017     9.9774
  106.6000   110.0125     9.8572    10.0249
  106.7000   109.5158     9.9120    10.0463
  106.8000   108.5737     9.9374    10.0459
  106.9000   107.7806     9.9368    10.0523
  107.0000   107.0545     9.9390    10.1152
  107.1000   106.3285    10.0050    10.1148
  107.2000   105.5855    10.0045    10.1144
  107.3000   105.1133    10.0358    10.1140
  107.4000   104.8065    10.0732    10.1135
  107.5000   104.4495    10.0727    10.1131
  107.6000   103.9661    10.0720    10.1127
  107.7000   103.4734    10.0716    10.1123
  107.8000   103.2372    10.0710    10.1118
  107.9000   102.6412    10.0907    10.1114
  108.0000   101.7980    10.1402    10.1110
  108.1000   100.8293    10.1395    10.1106
  108.2000    99.8461    10.0896    10.0723
  108.3000    99.8479    10.0682    10.0396
  108.4000    99.8497    10.0676    10.0290
  108.5000    99.9697    10.0587     9.9691
  108.6000   100.2719     9.9967     9.9166
  108.7000   100.7643     9.9455     9.8991
  108.8000   101.4860     9.8894     9.8740
  108.9000   102.0362     9.8336     9.8185
  109.0000   102.6424     9.7881     9.7610
  109.1000   103.3721     9.7875     9.7085
  109.2000   104.1067     9.7356     9.6540
  109.3000   105.0725     9.6807     9.5997
  109.4000   105.7094     9.6261     9.5458
  109.5000   106.2312     9.5717     9.4910
  109.6000   106.7529     9.5163     9.4388
  109.7000   107.2746     9.4641     9.3858
  109.8000   107.7964     9.4107     9.3330
  109.9000   108.3620     9.3576     9.2806
  110.0000   108.5859     9.3048     9.2284
  110.1000   108.9921     9.2522     9.1766
  110.2000   109.3778     9.2001     9.1251
  110.3000   109.7043     9.1482     9.0738
  110.4000   110.4923     9.0966     9.0095
  110.5000   110.7172     9.0452     8.9098
  110.6000   110.9616     8.9922     8.8598
  110.7000   111.2061     8.8916     8.8100
  110.8000   111.4505     8.7921     8.7605
  110.9000   111.7135     8.6937     8.7113
  111.0000   111.7152     8.5963     8.6623
  111.1000   111.8808     8.4999     8.6137
  111.2000   112.2287     8.3887     8.5653
  111.3000   112.7158     8.3108     8.5172
  111.4000   113.2377     8.2448     8.4549
  111.5000   113.4646     8.1824     8.3662
  111.6000   113.8739     8.0955     8.3658
  111.7000   114.3610     8.0436     8.3274
  111.8000   114.8921     8.0044     8.2806
  111.9000   115.6710     7.9592     8.2191
  112.0000   115.8990     7.9143     8.1347
  112.1000   116.3093     7.8697     8.1343
  112.2000   116.6909     7.8207     8.0960
  112.3000   116.9353     7.8203     8.0506
  112.4000   117.1953     7.8199     8.0053
  112.5000   117.4242     7.8194     7.9649
  112.6000   117.1681     7.8190     7.9645
  112.7000   116.7911     7.8185     7.9642
  112.8000   116.5503     7.8181     7.9639
  112.9000   116.2953     7.8177     7.9636
  113.0000   115.8404     7.8173     7.9633
  113.1000   115.5249     7.8258     7.9629
  113.2000   115.0691     7.8709     7.9626
  113.3000   114.3901     7.8705     7.9906
  113.4000   113.8801     7.9020     8.0175
  113.5000   113.4232     7.9460     8.0237
  113.6000   112.6021     7.9901     8.0728
  113.7000   111.8503     8.0347     8.0725
  113.8000   111.3188     8.0343     8.1019
  113.9000   110.5559     8.0338     8.1283
  114.0000   109.8667     8.0565     8.1279
  114.1000   108.9707     8.1013     8.1276
  114.2000   108.0020     8.1464     8.1693
  114.3000   107.3279     8.1917     8.2147
  114.4000   107.8377     8.2373     8.2605
  114.5000   108.3020     8.2831     8.3064
  114.6000   109.1309     8.3435     8.3553
  114.7000   110.1033     8.4339     8.3550
  114.8000   110.9754     8.4892     8.3873
  114.9000   111.4831     8.4888     8.4555
  115.0000   112.1819     8.5160     8.5402
  115.1000   112.9115     8.5634     8.5895
  115.2000   113.5297     8.6110     8.5891
  115.3000   113.9657     8.6659     8.6582
  115.4000   114.2195     8.7071     8.7319
  115.5000   114.4545     8.7555     8.7805
  115.6000   114.6990     8.7859     8.8302
  115.7000   114.8309     8.7918     8.8786
  115.8000   114.8327     8.8462     8.8545
  115.9000   114.8346     8.8457     8.8291
  116.0000   114.8364     8.8452     8.8287
  116.1000   114.8382     8.8448     8.8284
  116.2000   114.8400     8.8443     8.8280
  116.3000   114.7887     8.8437     8.8276
  116.4000   114.5407     8.7978     8.8272
  116.5000   114.5424     8.7815     8.8269
  116.6000   114.3693     8.7596     8.8265
  116.7000   114.0139     8.7196     8.8261
  116.8000   113.5846     8.7191     8.7874
  116.9000   113.3376     8.7187     8.7642
  117.0000   112.8667     8.6835     8.7781
  117.1000   112.2073     8.6573     8.8247
  117.2000   111.4812     8.6568     8.8242
  117.3000   110.8103     8.6563     8.8239
  117.4000   110.3164     8.7038     8.8236
  117.5000   109.6061     8.7158     8.8232
  117.6000   108.7030     8.7153     8.8228
  117.7000   107.6178     8.7276     8.8224
  117.8000   106.5750     8.7761     8.8221
  117.9000   106.0831     8.8249     8.8503
  118.0000   106.0848     8.8741     8.8830
  118.1000   106.4426     8.9234     8.8869
  118.2000   107.1648     8.9582     8.9442
  118.3000   108.1372     8.9604     8.9439
  118.4000   109.1225     9.0196     8.9735
  118.5000   110.5606     9.0604     9.0056
  118.6000   111.6602     9.0817     9.0107
  118.7000   112.3953     9.0979     9.0677
  118.8000   112.9406     9.1441     9.1113
  118.9000   113.6770     9.1435     9.1304
  119.0000   114.1596     9.1864     9.1491
  119.1000   114.6467     9.2063     9.2000
  119.2000   115.1337     9.2245     9.2572
  119.3000   115.5024     9.2758     9.3028
  119.4000   115.5042     9.3337     9.3546
  119.5000   115.5061     9.3333     9.4066
  119.6000   115.5079     9.3661     9.4511
  119.7000   115.3891     9.3974     9.4506
  119.8000   115.1483     9.3968     9.4982
  119.9000   114.9073     9.3963     9.5159
  120.0000   114.4242     9.4439     9.5155
  120.1000   113.9408     9.4609     9.5151
  120.2000   113.5790     9.4603     9.5146
  120.3000   113.2770     9.4598     9.5143
  120.4000   112.7936     9.4592     9.5139
  120.5000   112.3101     9.4587     9.5135
  120.6000   111.6437     9.4955     9.5131
  120.7000   111.0402     9.5237     9.5127
  120.8000   110.4945     9.5232     9.5123
  120.9000   109.7739     9.5226     9.5119
