~VERSION INFORMATION
 VERS.                2.0:   CWLS LOG ASCII STANDARD - VERSION 2.0
 WRAP.                 NO:   ONE LINE PER DEPTH STEP
~WELL INFORMATION
#MNEM.UNIT      DATA TYPE    INFORMATION
#----------   ------------   ------------------------------
 STRT.F           38.0000:   START DEPTH
 STOP.F         1202.0000:   STOP DEPTH
 STEP.F            0.5000:   STEP LENGTH
 NULL.          -999.2500:   NO VALUE
 COMP.       INTEX OIL CO:   COMPANY
 WELL.     72 S 14 #72-14:   WELL
 FLD .            WILDCAT:   FIELD
 LOC .      S14 T38N R78W:   LOCATION
 CNTY.            NATRONA:   COUNTY
 STAT.            WYOMING:   STATE
 CTRY. UNITED STATES OF AMERICA:   COUNTRY
 SRVC.       Schlumberger:   SERVICE COMPANY
 DATE.        26-AUG-1966:   LOGDATE
 API .       490250970800:   API NUMBER
~CURVE INFORMATION
#MNEM.UNIT       API CODE    CURVE DESCRIPTION
#----------   ------------   ------------------------------
 DEPT.F                  :   
 SPR .MV     05 010 01 00:   SPONTANEOUS POTENTIAL FROM RES.
 ASN .OHMM   05 041 16 00:   AMPLIFIED SHORT NORMAL 16"
 ILD .OHMM   05 120 46 00:   INDUCTION LOG DEEP
 CILD.MMHO   05 110 46 00:   CONDUCTIVITY INDUCTION LOG DEEP
 CORR.G/C3   45 356 01 00:   DENSITY CORRECTION
 GRD .GAPI   45 310 01 00:   GAMMA RAY FROM DENSITY LOG
 CALD.IN     45 280 60 00:   CALIPER FROM DENSITY LOG
 DPHI.DEC    45 890 12 00:   DENSITY POROSITY SANDSTONE
 RHOB.G/C3   45 350 01 00:   BULK DENSITY
~PARAMETER INFORMATION
#MNEM.UNIT          VALUE    DESCRIPTION
#----------   ------------   ------------------------------
 PD  .                 GL:   PERMANENT DATUM
 EPD .F              5265:   ELEVATION PERMANENT DATUM
 LMF .                 KB:   LOG MEASURED FROM
 DAPD.F                 5:   FEET ABOVE PERMANENT DATUM
 DMF .                 KB:   DRILLING MEASURED FROM
 EKB .F              5270:   KELLING BUSHING
 DATE.        26-AUG-1966:   RUN DATE
 RUN .                  1:   RUN NUMBER
 DD  .F              1201:   DEPTH DRILLER
 DL  .F              1203:   DEPTH LOGGER
 BLI .F              1202:   BOTTOM LOG INTERVAL
 TLI .F                46:   TOP LOG INTERVAL
 CS  .IN            8.625:   CASING SIZE
 BS  .IN             6.75:   BIT SIZE
 BSD .F              1201:   BIT SIZE AT DEPTH
 DFT .     CHEM- GEL- OIL:   DRILLING FLUID TYPE
 DFD .                9.4:   DRILLING FLUID DENSITY
 MRT .F                94:   MAXIMUM RECORDED TEMPERATURE
 LUN .               3527:   LOGGING UNIT NUMBER
 LUL .             CASPER:   LOGGING UNIT LOCATION
 ENGI.             KNOBEL:   RECORDING ENGINEER
 WITN.                MAY:   WITNESSED BY
 CLNT.            A2DTECH:   CLIENT CODE
 ORIG.       2", 5" PRINT:   ORIGIN OF DATA
 UWI .       490250970800:   UNIQUE WELL ID
 DICO. A2D Technologies, Inc.:   DIGITIZING COMPANY
~OTHER INFORMATION
~A   DEPT      SPR        ASN        ILD       CILD       CORR        GRD       CALD       DPHI       RHOB   
# ...
  476.0000   -27.7108     3.9039     3.6428   369.7610     0.0615    91.4582     6.8887     0.1466     2.4092
  476.5000   -28.6145     3.7988     3.4181   396.7952     0.0569   102.8725     6.8450     0.1637     2.3434
  477.0000   -26.9578     3.7538     3.2688   411.8174     0.0600   111.8278     6.7867     0.2193     2.2896
  477.5000   -25.4518     3.4234     3.1945   418.5812     0.0670   115.8651     6.8623     0.2241     2.2978
  478.0000   -24.6988     3.2883     3.1201   417.5377     0.0690   115.8786     6.9527     0.2010     2.3293
  478.5000   -24.6873     3.4084     3.1210   399.8285     0.0653   114.9978     6.9538     0.1879     2.3488
  479.0000   -24.8494     3.6637     3.2718   375.8116     0.0379   112.3287     6.9250     0.1822     2.3593
  479.5000   -25.0000     3.6937     3.4227   347.2902     0.0203   102.5061     6.9109     0.1806     2.3608
  480.0000   -25.0000     4.0541     3.8038   321.7718     0.0164    98.2688     6.8970     0.1528     2.3765
  480.5000   -25.0000     4.5195     4.3252   282.7416     0.0151   100.9681     6.8832     0.1336     2.4184
  481.0000   -25.1506     4.8048     4.6262   248.2142     0.0158   107.2409     6.8693     0.1447     2.4237
  481.5000   -25.3228     5.0450     4.9272   225.6988     0.0208   109.7100     6.9899     0.1459     2.4162
  482.0000   -25.6024     5.2408     5.2282   215.1954     0.0369   105.2559     7.0952     0.1480     2.4125
  482.5000   -25.6024     5.4354     5.4543   208.2582     0.0436   101.2455     7.0963     0.1380     2.4365
  483.0000   -25.7530     5.6006     5.5301   200.1964     0.0471   100.1378     7.0526     0.1276     2.4485
  483.5000   -25.9036     5.7357     5.6810   194.1976     0.0504   101.2724     7.0239     0.1263     2.4545
  484.0000   -26.0542     5.8709     5.7568   188.9494     0.0522   103.2977     6.9799     0.1255     2.4500
  484.5000   -26.0542     5.9615     5.8326   184.4520     0.0557   103.7583     7.0260     0.1250     2.4493
  485.0000   -26.2048     6.0511     5.9085   179.2057     0.0609   104.4424     7.0419     0.1203     2.4598
  485.5000   -26.2048     6.2462     5.9843   176.2080     0.0460   104.0087     7.0579     0.1193     2.4546
  486.0000   -26.3554     6.3964     5.9850   173.2139     0.0496    99.9983     7.0440     0.1131     2.4758
  486.5000   -26.5060     6.5015     6.0608   170.9688     0.0637    99.3378     7.0451     0.1107     2.4786
  487.0000   -26.5060     6.5773     6.1368   169.4744     0.0654   100.9194     7.0459     0.1179     2.4695
  487.5000   -26.5060     6.6366     6.2126   169.4833     0.0602   101.1530     7.0469     0.1140     2.4607
  488.0000   -26.2048     6.6667     6.2884   170.9919     0.0399    99.1579     7.0330     0.1191     2.4690
  488.5000   -26.0542     6.6216     6.2891   172.5006     0.0309   100.0656     7.0341     0.1116     2.4731
  489.0000   -25.9036     6.5465     6.2147   174.7599     0.0363   104.7735     7.0352     0.1062     2.4874
  489.5000   -25.7530     6.4245     6.1403   178.6084     0.0520   106.5753     7.0511     0.0993     2.5005
  490.0000   -25.6024     6.2613     5.9909   183.7850     0.0463   108.3738     7.0522     0.1094     2.4770
  490.5000   -25.4518     6.1411     5.8415   189.7981     0.0346   107.0459     7.0532     0.1148     2.4697
  491.0000   -25.4518     5.9610     5.6171   197.3127     0.0250   107.5098     7.0542     0.1211     2.4458
  491.5000   -25.6024     5.8108     5.3177   205.5781     0.0180   107.9670     7.0553     0.1231     2.4251
  492.0000   -25.6024     5.6420     5.0932   214.5960     0.0152   104.8542     7.0563     0.1384     2.4258
  492.5000   -25.6024     5.3754     4.9436   224.3629     0.0220   104.6407     7.0574     0.1399     2.4274
  493.0000   -25.7530     5.1652     4.7192   239.3850     0.0355   104.8811     7.0435     0.1387     2.4293
  493.5000   -25.7530     4.9550     4.4875   260.4132     0.0438   104.6710     7.0446     0.1336     2.4387
  494.0000   -25.7530     4.6997     4.1951   277.1871     0.0456   106.6963     7.0456     0.1317     2.4424
  494.5000   -25.6024     4.5001     3.9706   294.9637     0.0468   110.9572     7.0467     0.1356     2.4282
  495.0000   -25.6024     4.2793     3.8212   299.4754     0.0475   114.3238     7.0477     0.1512     2.4014
  495.5000   -25.6024     4.1441     3.8221   297.9810     0.0483   116.3492     7.0338     0.1595     2.3857
  496.0000   -25.4518     4.3393     3.8980   294.9851     0.0475   116.5862     7.0349     0.1754     2.3715
  496.5000   -25.3012     4.2793     3.9738   291.1261     0.0424   112.3522     7.0360     0.1691     2.3775
  497.0000   -25.3012     4.1725     4.1247   286.7429     0.0385   104.7059     7.0219     0.1583     2.4142
  497.5000   -25.3012     4.3544     4.2755   279.9932     0.0381    99.4134     7.0232     0.1307     2.4425
  498.0000   -25.3012     4.7748     4.4264   258.2286     0.0393    98.7528     7.0242     0.1235     2.4558
  498.5000   -25.4518     4.9850     4.6525   237.1255     0.0371    99.2167     7.0101     0.1238     2.4519
  499.0000   -25.6024     5.1351     4.8034   213.9503     0.0287   105.9366     7.0263     0.1295     2.4356
  499.5000   -25.6024     5.2573     5.0293   204.9484     0.0236   107.5149     7.0122     0.1139     2.4372
  500.0000   -25.5773     5.3303     5.2553   202.7015     0.0488   106.8543     7.0104     0.1022     2.4888
  500.5000   -25.5140     5.3066     5.4061   207.2149     0.0686   106.2005     6.9936     0.1040     2.4948
  501.0000   -25.4487     5.2856     5.2567   211.8775     0.0658   105.7635     7.0155     0.1106     2.4768
  501.5000   -25.4473     5.2557     5.1075   216.2400     0.0603   105.3259     7.0314     0.1127     2.4731
  502.0000   -25.4458     5.2108     4.9581   218.4993     0.0521   104.4428     7.0176     0.1240     2.4649
  502.5000   -25.4440     5.1359     4.8086   221.4153     0.0439   104.0041     6.9739     0.1294     2.4447
  503.0000   -25.2919     5.0009     4.6590   232.7327     0.0394   105.1358     6.9303     0.1312     2.4395
  503.5000   -25.2904     4.8209     4.4347   259.0090     0.0328   104.4763     6.8568     0.1398     2.4313
  504.0000   -25.1384     4.5658     4.1352   289.7898     0.0309   103.1461     6.6790     0.1413     2.4373
  504.5000   -24.9863     4.2956     3.8356   317.5676     0.0413   103.3808     6.5310     0.1200     2.4553
  505.0000   -24.8342     3.9605     3.6036   338.5886     0.0558   106.9687     6.4873     0.1188     2.4577
  505.5000   -24.6822     3.6249     3.3868   358.1081     0.0599   104.9679     6.6970     0.1257     2.4381
  506.0000   -24.6807     3.4553     3.3123   372.4927     0.0521   101.6231     6.9812     0.1415     2.4067
  506.5000   -24.5271     3.4254     3.1628   373.1231     0.0656   103.4254     7.0568     0.1589     2.3858
  507.0000   -24.3765     3.6057     3.1637   367.1171     0.0762   104.5542     7.0280     0.1729     2.3678
  507.5000   -24.3747     3.5458     3.3146   361.8618     0.0769   103.4476     6.9396     0.1902     2.3626
  508.0000   -24.5238     3.4859     3.5406   350.6006     0.0629   102.1175     6.9258     0.1998     2.3454
  508.5000   -24.6733     3.6963     3.7665   329.5796     0.0411   100.7874     7.0162     0.1890     2.3829
  509.0000   -24.8225     4.1018     3.9174   304.8048     0.0259   100.1279     7.0322     0.1492     2.4091
  509.5000   -24.9716     4.4185     4.1434   283.0330     0.0248    99.6919     7.0332     0.1483     2.4173
  510.0000   -25.1208     4.5545     4.2944   259.0090     0.0236    96.3498     7.0492     0.1554     2.4069
  510.5000   -25.2696     4.5377     4.3702   239.4895     0.0264    96.5845     7.0502     0.1605     2.3979
  511.0000   -25.2680     4.4928     4.5211   233.4835     0.0290    99.9489     7.0513     0.1566     2.4017
  511.5000   -25.4172     4.5380     4.5219   233.5881     0.0281   101.9692     7.0374     0.1494     2.4099
  512.0000   -25.4156     4.5982     4.5226   239.7300     0.0236   100.8653     7.0385     0.1578     2.4002
