~VERSION INFORMATION
 VERS.                2.0:   CWLS LOG ASCII STANDARD - VERSION 2.0
 WRAP.                 NO:   ONE LINE PER DEPTH STEP
~WELL INFORMATION
#MNEM.UNIT      DATA TYPE    INFORMATION
#----------   ------------   ------------------------------
 STRT.F           27.0000:   START DEPTH
 STOP.F          760.0000:   STOP DEPTH
 STEP.F            0.5000:   STEP LENGTH
 NULL.          -999.2500:   NO VALUE
 COMP. FENIX & SCISSON INC:   COMPANY
 WELL.    NPR #3 #33-S-14:   WELL
 FLD .             TEAPOT:   FIELD
 LOC .      S14 T38N R78W:   LOCATION
 CNTY.            NATRONA:   COUNTY
 STAT.            WYOMING:   STATE
 CTRY. UNITED STATES OF AMERICA:   COUNTRY
 SRVC.              Welex:   SERVICE COMPANY
 DATE.        02-FEB-1977:   LOGDATE
 API .       490251027700:   API NUMBER
~CURVE INFORMATION
#MNEM.UNIT       API CODE    CURVE DESCRIPTION
#----------   ------------   ------------------------------
 DEPT.F                  :   
 SPR .MV     07 010 01 00:   SPONTANEOUS POTENTIAL
 SGRD.OHMM   07 220 05 00:   SHALLOW RESISTIVITY
 ILD .OHMM   07 120 46 00:   INDUCTION LOG DEEP
 ILM .OHMM   07 120 44 00:   INDUCTION LOG MEDIUM
 GRD .GAPI   45 310 01 00:   GAMMA RAY FROM DENSITY LOG
 CALD.IN     45 280 60 00:   CALIPER
 RHOB.G/C3   45 350 01 00:   BULK DENSITY
 CORR.G/C3   45 356 01 00:   DENSITY CORRECTION
 DPHI.DEC    45 890 00 00:   DENSITY POROSITY
~PARAMETER INFORMATION
#MNEM.UNIT          VALUE    DESCRIPTION
#----------   ------------   ------------------------------
 PD  .                 GL:   PERMANENT DATUM
 EPD .F              5219:   ELEVATION PERMANENT DATUM
 LMF .                 GL:   LOG MEASURED FROM
 DMF .                 GL:   DRILLING MEASURED FROM
 EKB .F              5224:   KELLING BUSHING
 EGL .F              5219:   GROUND LEVEL
 DATE.           2-2-1977:   RUN DATE
 RUN .                  1:   RUN NUMBER
 DD  .F               761:   DEPTH DRILLER
 DL  .F               762:   DEPTH LOGGER
 BLI .F               760:   BOTTOM LOG INTERVAL
 TLI .F                25:   TOP LOG INTERVAL
 CS  .IN            8.625:   CASING SIZE
 CBD .F              42.5:   CASING BOTTOM DRILLER
 CBL .F                46:   CASING BOTTOM LOGGER
 BS  .IN            7.875:   BIT SIZE
 BSD .F               761:   BIT SIZE AT DEPTH
 DFT .           CHEM-GEL:   DRILLING FLUID TYPE
 DFD .                8.9:   DRILLING FLUID DENSITY
 DFV .                 37:   DRILLING FLUID VISCOSITY
 DFPH.                  7:   DRILLING FLUID PH
 DFL .                8.4:   DRILLING FLUID LOSS
 MSS .          FLOW LINE:   MUD SAMPLE SOURCE
 RMS .OHMM           .231:   RESISTIVITY MUD SAMPLE
 MST .F                45:   MUD SAMPLE TEMPERATURE
 RMF .OHMM           .322:   RESISTIVITY MUD FILTRATE SAMPLE
 MFST.F                45:   MUD FILTRATE SAMPLE TEMPERATURE
 RMC .OHMM           .439:   RESISTIVITY MUD CAKE
 MCST.F                45:   MUD CAKE SAMPLE TEMPERATURE
 MFSS.           MEASURED:   MUD FILTRATE SAMPLE SOURCE
 MCSS.           MEASURED:   MUD CAKE SAMPLE SOURCE
 RMB .OHMM           .182:   RESISTIVITY MUD AT BHT
 BHT .F                57:   BOTTOM HOLE TEMPERATURE
 TCS .HRS             5.5:   TIME CURCULATED STOPPED
 MRT .F                57:   MAXIMUM RECORDED TEMPERATURE
 LUN .               8611:   LOGGING UNIT NUMBER
 LUL .           GILLETTE:   LOGGING UNIT LOCATION
 ENGI.             LAWSON:   RECORDING ENGINEER
 WITN. VOORHEES/RHOADES/JAPP/PETTINGILL/STUEBINGER:   WITNESSED BY
 CLNT.            A2DTECH:   CLIENT CODE
 ORIG.     1", 2.5" PRINT:   ORIGIN OF DATA
 UWI .       490251027700:   UNIQUE WELL ID
 DICO. A2D Technologies, Inc.:   DIGITIZING COMPANY
~OTHER INFORMATION
~A   DEPT      SPR       SGRD        ILD        ILM        GRD       CALD         RHOB      CORR      DPHI   
# ...
  355.5000   -29.9604    10.1553     7.5072     8.4643   127.2775     8.8850     2.4920     0.0949     0.0915
  356.0000   -29.9604    10.0883     7.5508     8.4382   125.1100     8.8993     2.4897     0.0946     0.0909
  356.5000   -29.9603    10.3910     7.5938     8.4121   121.4330     8.9293     2.4874     0.0943     0.0895
  357.0000   -29.9603    10.8000     7.6423     8.3707   117.5810     8.9462     2.4865     0.0940     0.0904
  357.5000   -29.9602    11.2251     7.7072     8.4747   118.0162     8.9514     2.4856     0.0936     0.0931
  358.0000   -29.9604    11.6670     7.7725     8.7406   119.0863     8.9563     2.4845     0.0933     0.0959
  358.5000   -29.9606    12.1262     7.8384     9.0147   120.1400     8.9611     2.4809     0.0930     0.0986
  359.0000   -29.9676    11.5772     7.9049     9.2975   120.9734     8.9660     2.4773     0.0927     0.1003
  359.5000   -29.9754    11.0531     7.9719     9.3551   120.3578     8.9708     2.4759     0.0924     0.0975
  360.0000   -29.9833    10.7750     8.0396     9.3551   119.4717     8.9757     2.4802     0.0907     0.0936
  360.5000   -29.9911    11.4174     8.1070     9.3551   118.5750     8.9806     2.4844     0.0858     0.0916
  361.0000   -29.9990    11.6850     8.1756     9.3551   117.6795     8.9855     2.4887     0.0812     0.0932
  361.5000   -30.0068    11.1905     8.2224     9.3551   116.7848     8.9903     2.4929     0.0765     0.0903
  362.0000   -30.0147    10.2634     8.2360     9.3551   115.8892     8.9952     2.4946     0.0718     0.0864
  362.5000   -30.0225    10.3910     8.2497     9.3551   114.9885     9.0001     2.4938     0.0689     0.0875
  363.0000   -30.0304    10.7169     8.2633     9.3551   114.0924     9.0050     2.4908     0.0712     0.0899
  363.5000   -30.0382    11.0531     8.2770     9.3551   114.1800     9.0098     2.4879     0.0733     0.0922
  364.0000   -30.0460    11.3998     8.2907     9.3551   115.9041     9.0147     2.4868     0.0755     0.0945
  364.5000   -30.0539    11.2182     8.3044     9.3551   117.6334     9.0196     2.4945     0.0776     0.0861
  365.0000   -30.0617    10.9107     8.3182     9.3551   118.7255     9.0245     2.5020     0.0797     0.0774
  365.5000   -30.0696    10.6115     8.3320     9.3551   116.7864     9.0294     2.5085     0.0819     0.0751
  366.0000   -30.0774    10.3206     8.3458     9.3551   114.9005     9.0342     2.5094     0.0840     0.0773
  366.5000   -30.0853    10.5947     8.3596     9.3551   113.0197     9.0398     2.5095     0.0861     0.0808
  367.0000   -30.0931    11.0239     8.3734     9.3551   113.4919     9.0073     2.5085     0.0883     0.0792
  367.5000   -30.1009    11.4705     8.3873     9.3551   114.2437     8.9602     2.5073     0.0904     0.0780
  368.0000   -30.1088    11.9351     8.4012     9.3551   114.9949     8.9128     2.5055     0.0926     0.0820
  368.5000   -30.1166    12.4186     8.4151     9.3551   115.7423     8.8651     2.5011     0.0948     0.0859
  369.0000   -30.1245    12.7406     8.4291     9.3552   116.4849     8.8477     2.4969     0.0954     0.0898
  369.5000   -30.1323    12.3531     8.4431     9.3552   117.2534     8.8474     2.4926     0.0836     0.0937
  370.0000   -30.1402    11.9774     8.4571     9.3552   116.6751     8.8475     2.4883     0.0941     0.0939
  370.5000   -30.1480    11.6131     8.4712     9.3555   115.5395     8.8475     2.4901     0.0815     0.0888
  371.0000   -30.1558    11.2599     8.4855     9.3552   114.3679     8.8475     2.4942     0.0745     0.0869
  371.5000   -30.1637    10.9177     8.4992     9.3551   113.3051     8.8475     2.4918     0.0760     0.0895
  372.0000   -30.1715    10.7106     8.5119     9.3570   115.0086     8.8475     2.4901     0.0780     0.0923
  372.5000   -30.1794    11.0124     8.5247     9.3349   116.8731     8.8475     2.4952     0.0800     0.0861
  373.0000   -30.1872    11.3228     8.4865     9.2793   117.0473     8.8475     2.5004     0.0820     0.0797
  373.5000   -30.1950    11.6423     8.4487     9.2261   116.4507     8.8475     2.5055     0.0839     0.0761
  374.0000   -30.2029    11.8387     8.4095     9.1728   116.3251     8.8475     2.5099     0.0859     0.0725
  374.5000   -30.2107    11.5151     8.3703     9.1200   119.4000     8.8475     2.5124     0.0878     0.0729
  375.0000   -30.2186    11.3086     8.3319     9.0672   121.1002     8.8475     2.5096     0.0898     0.0765
  375.5000   -30.2264    11.5382     8.2934     9.0148   118.9289     8.8474     2.5059     0.0918     0.0801
  376.0000   -30.2342    11.8938     8.2551     8.9627   117.2098     8.8470     2.5021     0.0908     0.0837
  376.5000   -30.2421    11.7324     8.2170     8.9109   115.4599     8.8503     2.4984     0.0889     0.0874
  377.0000   -30.2499    11.2882     8.1790     8.8595   115.8859     8.9089     2.4946     0.0870     0.0901
  377.5000   -30.2578    10.8596     8.1412     8.8083   117.6526     8.9659     2.4909     0.0851     0.0915
  378.0000   -30.2656    11.0842     8.1036     8.7575   118.4793     9.0015     2.4872     0.0832     0.0929
  378.5000   -30.2735    11.3063     8.0661     8.7069   115.4481     8.9624     2.4860     0.0812     0.0927
  379.0000   -30.2813    11.5415     8.0288     8.6566   112.9828     8.9218     2.4906     0.0793     0.0890
  379.5000   -30.2892    11.6850     7.9917     8.6066   110.5298     8.8812     2.4914     0.0774     0.0840
  380.0000   -30.2970    11.4705     7.9548     8.5569   109.1153     8.8407     2.4846     0.0755     0.0876
  380.5000   -30.3055    11.2599     7.9181     8.5174   111.2454     8.7987     2.4779     0.0736     0.0938
  381.0000   -30.3131    11.0531     7.8875     8.4923   112.1777     8.7932     2.4718     0.0716     0.0974
  381.5000   -30.3204    10.8502     7.8569     8.4681   110.6682     8.7997     2.4714     0.0697     0.0981
  382.0000   -30.3306    10.8340     7.8265     8.4441   112.9190     8.8064     2.4710     0.0678     0.0983
  382.5000   -30.3336    10.8178     7.7965     8.4201   117.4223     8.8131     2.4674     0.0659     0.0963
  383.0000   -30.3462    10.8016     7.7726     8.3962   121.2692     8.8197     2.4621     0.0640     0.0965
  383.5000   -30.3626    10.7855     7.7726     8.3721   123.1367     8.8266     2.4677     0.0628     0.0974
  384.0000   -30.1461    10.7694     7.7725     8.4056   123.9266     8.8282     2.4737     0.0646     0.0983
  384.5000   -29.5796    10.7533     7.7722     8.4391   122.2641     8.8282     2.4797     0.0663     0.0992
  385.0000   -29.6301    10.7373     7.7720     8.4726   120.6492     8.8282     2.4857     0.0680     0.0976
  385.5000   -29.6650    10.7212     7.7724     8.5067   119.4092     8.8282     2.4906     0.0697     0.0951
  386.0000   -29.7224    10.7052     7.7708     8.5410   120.5154     8.8282     2.4894     0.0714     0.0926
  386.5000   -29.7725    10.6877     7.7738     8.5754   121.6435     8.8282     2.4884     0.0718     0.0901
  387.0000   -29.8218    10.6734     7.8281     8.6101   119.9763     8.8282     2.4873     0.0704     0.0902
  387.5000   -29.8736    10.6429     7.8832     8.6448   117.7493     8.8282     2.4863     0.0690     0.0934
  388.0000   -29.9241    11.4555     7.9383     8.6797   115.5513     8.8282     2.4848     0.0676     0.0958
  388.5000   -29.9752    11.3624     7.9940     8.7226   114.5042     8.8282     2.4871     0.0662     0.0921
  389.0000   -30.0258    11.0565     8.0503     8.7676   117.0445     8.8282     2.4893     0.0647     0.0885
  389.5000   -30.0765    10.6765     8.1070     8.8129   119.0703     8.8282     2.4915     0.0653     0.0848
  390.0000   -30.1272    11.5406     8.1640     8.8583   121.1158     8.8282     2.4935     0.0662     0.0871
  390.5000   -30.1779    12.1052     8.2214     8.9039   121.4014     8.8283     2.4941     0.0672     0.0907
  391.0000   -30.2285    12.0337     8.2792     8.9499   120.1022     8.8283     2.4946     0.0682     0.0894
  391.5000   -30.2792    11.8435     8.3379     8.9960   118.7585     8.8222     2.4952     0.0692     0.0882
