~VERSION INFORMATION
 VERS.                2.0:   CWLS LOG ASCII STANDARD - VERSION 2.0
 WRAP.                 NO:   ONE LINE PER DEPTH STEP
~WELL INFORMATION
#MNEM.UNIT      DATA TYPE    INFORMATION
#----------   ------------   ------------------------------
 STRT.F            2.5000:   START DEPTH
 STOP.F         1003.0000:   STOP DEPTH
 STEP.F            0.5000:   STEP LENGTH
 NULL.          -999.2500:   NO VALUE
 COMP. U S NAVY-INTEX OIL:   COMPANY
 WELL.   NPR #3 #87-SX-27:   WELL
 FLD .             TEAPOT:   FIELD
 LOC .      S27 T39N R78W:   LOCATION
 CNTY.            NATRONA:   COUNTY
 STAT.            WYOMING:   STATE
 CTRY. UNITED STATES OF AMERICA:   COUNTRY
 SRVC. Schlumberger Well Surveying Corp:   SERVICE COMPANY
 DATE.        13-AUG-1961:   LOGDATE
 API .       490250659000:   API NUMBER
~CURVE INFORMATION
#MNEM.UNIT       API CODE    CURVE DESCRIPTION
#----------   ------------   ------------------------------
 DEPT.F                  :   
 ASN .OHMM   05 041 16 00:   AMPLIFIER SHORT NORMAL
 SPR .MV     05 010 01 00:   SPONTANEOUS POTENSIAL
 CILD.MMHO   05 110 46 00:   CONDUCTIVITY INDUCTION LOG DEEP
 ILD .OHMM   05 120 46 00:   INDUCTION LOG DEEP
 GRN .MG/TON 35 310 30 00:   GAMMA RAY
 NEUT.NAPI   35 330 01 00:   NEUTRON
~PARAMETER INFORMATION
#MNEM.UNIT          VALUE    DESCRIPTION
#----------   ------------   ------------------------------
 PD  .                 GL:   PERMANENT DATUM
 EPD .F              5082:   ELEVATION PERMANENT DATUM
 LMF .                 KB:   LOG MEASURED FROM
 DAPD.F                 5:   FEET ABOVE PERMANENT DATUM
 DMF .                 KB:   DRILLING MEASURED FROM
 EKB .F              5087:   KELLING BUSHING
 EGL .F              5082:   GROUND LEVEL
 DATE.        13-AUG-1961:   RUN DATE
 RUN .                  1:   RUN NUMBER
 DD  .F              1000:   DEPTH DRILLER
 DL  .F              1003:   DEPTH LOGGER
 BLI .F              1002:   BOTTOM LOG INTERVAL
 TLI .F                90:   TOP LOG INTERVAL
 BS  .IN             6.75:   BIT SIZE
 BSD .F              1000:   BIT SIZE AT DEPTH
 DFT . OIL EMUL (12% OIL):   DRILLING FLUID TYPE
 DFD .                9.3:   DRILLING FLUID DENSITY
 DFV .                 60:   DRILLING FLUID VISCOSITY
 DFL .                  4:   DRILLING FLUID LOSS
 MSS .           FLOWLINE:   MUD SAMPLE SOURCE
 RMS .OHMM           1.29:   RESISTIVITY MUD SAMPLE
 MST .F                80:   MUD SAMPLE TEMPERATURE
 TCS .HRS               1:   TIME CURCULATED STOPPED
 LUN .               2523:   LOGGING UNIT NUMBER
 LUL .               CSPR:   LOGGING UNIT LOCATION
 ENGI.              SCOTT:   RECORDING ENGINEER
 WITN.          JORGENSEN:   WITNESSED BY
 CLNT.            A2DTECH:   CLIENT CODE
 ORIG.       2", 5" PRINT:   ORIGIN OF DATA
 UWI .       490250659000:   UNIQUE WELL ID
 DICO. A2D Technologies, Inc.:   DIGITIZING COMPANY
~OTHER INFORMATION
~A    DEPT     ASN        SPR       CILD        ILD          GRN     NEUT   
# ...
  470.5000    13.9224   -15.6344    63.0631    14.1182     5.0217   355.9660
  471.0000    14.1141   -15.9159    62.0821    14.6707     5.0669   373.9847
  471.5000    14.2996   -16.2725    59.6397    15.3400     4.9381   376.4248
  472.0000    14.5035   -16.5165    57.0571    16.0482     4.8103   375.6549
  472.5000    14.7898   -16.6104    57.0571    16.4784     4.7952   387.2901
  473.0000    15.0165   -16.6667    55.5556    16.5460     4.8080   393.0913
  473.5000    15.3153   -16.3664    55.5556    16.4638     4.9306   388.3280
  474.0000    15.4344   -15.9159    60.6807    15.8690     4.9775   365.4326
  474.5000    15.2365   -15.6156    63.1832    15.0431     5.0389   345.2307
  475.0000    14.6396   -15.9159    67.0671    14.3449     5.0886   341.1088
  475.5000    14.2365   -15.9722    69.5094    13.7617     5.1413   341.4142
  476.0000    13.7838   -16.2162    72.0721    13.3082     5.2022   330.7723
  476.5000    13.1381   -16.4602    75.8959    12.8935     5.1711   325.6742
  477.0000    12.7397   -16.5541    79.8399    12.4827     5.1613   323.9192
  477.5000    12.3123   -16.8168    82.5826    12.2277     5.1860   323.1487
  478.0000    12.0761   -16.8919    84.0841    12.0286     5.1435   323.1373
  478.5000    11.9074   -16.9670    85.6656    11.8326     5.0558   323.1255
  479.0000    11.6366   -16.8168    87.0871    11.6895     5.0047   323.5523
  479.5000    11.5616   -16.4039    88.7421    11.5809     4.9728   319.9934
  480.0000    11.4865   -16.0661    89.5562    11.5813     4.9518   299.5574
  480.5000    11.4865   -15.9159    90.0901    11.6814     5.1552   296.8811
  481.0000    11.5616   -15.9159    89.8098    11.8833     5.2745   296.5000
  481.5000    11.7117   -15.9159    87.0871    11.9905     5.3877   298.0045
  482.0000    11.8709   -16.0661    86.4264    12.0346     5.5317   288.3543
  482.5000    12.0258   -16.2162    83.9841    12.0351     5.5736   279.0051
  483.0000    12.2372   -16.3664    81.0811    12.0354     5.6406   285.0644
  483.5000    12.2372   -16.5165    81.0811    11.8852     5.8329   292.9763
  484.0000    12.1582   -16.6667    81.0811    11.6506     5.8475   299.5278
  484.5000    12.0120   -16.9107    84.3044    11.3163     5.8628   297.1761
  485.0000    11.6742   -17.1171    89.1891    10.9827     5.8627   283.5670
  485.5000    10.9610   -17.1171    94.5946    10.7654     6.0586   256.9207
  486.0000    10.4625   -16.8168    99.7798    10.3534     6.2342   243.1689
  486.5000    10.0302   -15.8408   103.9641     9.6285     6.3372   237.1622
  487.0000     9.8264   -15.0150   111.1111     9.1039     6.3836   247.7764
  487.5000     9.6227   -14.4520   119.1189     8.1984     6.4199   250.1064
  488.0000     9.3039   -13.9640   129.1291     7.5261     6.2539   253.2101
  488.5000     8.5847   -13.3821   137.7778     7.0640     6.1600   253.8161
  489.0000     8.3375   -13.0255   143.2834     6.4677     6.2462   253.0809
  489.5000     8.1832   -12.7628   148.6487     6.1711     6.3681   247.5756
  490.0000     8.0450   -12.6126   151.5515     5.9412     6.4744   221.1371
  490.5000     7.8688   -12.7815   153.4334     5.8664     6.6378   211.2139
  491.0000     7.6727   -12.9129   157.6577     5.8667     6.7358   201.0337
  491.5000     7.2849   -13.1194   159.1592     5.9424     6.7507   193.7733
  492.0000     7.1922   -13.2132   159.1592     6.0181     6.5546   201.5987
  492.5000     7.1922   -13.3634   156.7568     6.0366     6.3346   216.5269
  493.0000     7.2277   -13.5135   154.3143     6.0942     6.1049   219.7597
  493.5000     7.3724   -13.6637   151.6517     6.0945     6.0934   223.2189
  494.0000     7.4637   -13.7387   150.9309     6.0949     6.1780   227.1203
  494.5000     7.5290   -13.8138   150.1501     6.0953     6.2612   229.4957
  495.0000     7.5826   -13.8138   148.6487     6.0956     6.3428   228.1608
  495.5000     7.5492   -13.9640   148.6487     6.0960     6.3835   215.6985
  496.0000     7.5102   -14.1141   147.1471     6.0964     6.4198   212.6413
  496.5000     7.4712   -14.1141   147.1471     6.1721     6.4028   211.8820
  497.0000     7.3646   -14.1141   147.1471     6.2478     6.3177   223.2553
  497.5000     7.3123   -14.1141   147.1471     6.3629     6.3046   239.4847
  498.0000     7.2823   -14.1141   147.1471     6.4859     6.3045   253.6656
  498.5000     7.3710   -14.1141   146.9669     6.6254     6.3044   254.3475
  499.0000     7.5375   -13.9640   145.6456     6.6258     6.2954   254.0501
  499.5000     7.6352   -13.7575   145.6456     6.6204     6.1458   250.4796
  500.0000     7.7177   -13.5135   145.6456     6.4759     5.9699   249.7584
  500.5000     7.7908   -13.2695   146.5866     6.3788     6.1155   253.5449
  501.0000     7.7928   -13.2132   150.5305     6.2508     6.2195   253.5311
  501.5000     7.7327   -13.5135   153.1532     6.1758     6.3135   253.9768
  502.0000     7.5758   -13.7387   153.9139     6.1009     6.3865   257.2943
  502.5000     7.4572   -13.9827   154.6546     6.1013     6.4148   260.3288
  503.0000     7.3724   -14.2643   154.6546     6.1017     6.4390   260.3181
  503.5000     7.3369   -14.4144   154.6546     6.1020     6.3108   261.6177
  504.0000     7.2973   -14.4144   154.6546     6.1778     6.1958   269.4352
  504.5000     7.2640   -14.4144   154.6546     6.1781     6.0765   271.8040
  505.0000     7.2372   -14.4144   153.3057     6.1785     5.9798   274.1143
  505.5000     7.3273   -14.4144   153.3183     6.2977     5.9410   275.4849
  506.0000     7.4090   -14.3774   153.3333     6.3454     5.9119   272.0926
  506.5000     7.4821   -14.2643   152.3674     6.4808     5.9604   263.2661
  507.0000     7.5826   -14.1141   148.4185     6.5610     6.2798   261.7985
  507.5000     7.7939   -13.9214   145.8715     6.6961     6.2648   261.7909
  508.0000     7.8607   -13.3634   143.5235     6.7711     6.2637   261.7828
  508.5000     7.8059   -13.2132   141.3944     6.8535     6.3676   262.1641
  509.0000     7.7341   -13.2132   139.9112     6.9209     6.4933   262.7246
  509.5000     7.7844   -13.2132   138.4234     6.9959     6.4752   269.3507
  510.0000     7.9595   -13.2583   136.7367     7.0708     6.3068   286.2477
  510.5000     8.0795   -13.3634   135.4504     7.1181     6.1535   302.7391
  511.0000     8.2137   -13.5981   133.9640     7.2207     5.9925   304.4067
  511.5000     8.3050   -13.8431   132.3975     7.3708     5.9675   306.0970
  512.0000     8.3874   -14.1141   129.4923     7.4106     5.9772   308.0297
  512.5000     8.4610   -14.3331   129.5045     7.5333     6.0672   309.4778
  513.0000     8.5305   -14.4279   128.0183     7.6709     6.2754   311.8113
  513.5000     8.5722   -14.5646   127.1120     7.5626     6.4819   308.7653
  514.0000     8.6210   -14.5646   126.5442     7.5145     6.5105   306.5273
  514.5000     8.6554   -14.5646   128.0640     7.3685     6.5193   302.6781
  515.0000     8.6852   -14.3794   128.8789     7.2678     6.5192   300.3175
  515.5000     8.6810   -14.0395   129.8546     7.1419     6.5348   291.2610
  516.0000     8.5950   -13.6637   132.6143     6.9458     6.6094   279.8803
  516.5000     8.3911   -13.3599   133.3082     6.7471     6.7619   276.9814
  517.0000     8.1257   -13.2132   135.6456     6.6137     6.8631   278.5071
  517.5000     8.0175   -13.2132   137.1646     6.5004     6.9181   289.5565
  518.0000     7.8973   -13.2743   139.2393     6.4623     6.9284   300.1808
  518.5000     7.8106   -13.6694   140.2153     6.4619     6.9254   303.3763
  519.0000     7.7705   -13.9144   141.7117     6.4616     6.7862   305.2645
  519.5000     7.7206   -13.9640   143.2282     6.4637     6.5622   302.2534
  520.0000     7.6727   -13.5135   144.7454     6.5361     6.3070   298.0387
  520.5000     7.6457   -13.2132   144.7598     6.5358     6.2016   294.9542
  521.0000     7.6908   -13.0631   144.7748     6.5354     6.1938   292.7107
  521.5000     7.7059   -13.2132   144.7911     6.6103     6.3142   291.9441
  522.0000     7.7060   -13.4324   144.8048     6.6099     6.4512   293.1662
