~VERSION INFORMATION
 VERS.                2.0:   CWLS LOG ASCII STANDARD - VERSION 2.0
 WRAP.                 NO:   ONE LINE PER DEPTH STEP
~WELL INFORMATION
#MNEM.UNIT      DATA TYPE    INFORMATION
#----------   ------------   ------------------------------
 STRT.F            0.0000:   START DEPTH
 STOP.F          469.0000:   STOP DEPTH
 STEP.F            0.5000:   STEP LENGTH
 NULL.          -999.2500:   NO VALUE
 COMP. BROWN JOHN E&C INC:   COMPANY
 WELL. NPR 3 SX-10 4 #54-10:   WELL
 FLD .             TEAPOT:   FIELD
 LOC .      S10 T38N R78W:   LOCATION
 CNTY.            NATRONA:   COUNTY
 STAT.            WYOMING:   STATE
 CTRY. UNITED STATES OF AMERICA:   COUNTRY
 SRVC.     Atlas Wireline:   SERVICE COMPANY
 DATE.        25-APR-1991:   LOGDATE
 API .       490251133500:   API NUMBER
~CURVE INFORMATION
#MNEM.UNIT       API CODE    CURVE DESCRIPTION
#----------   ------------   ------------------------------
 DEPT.F                  :   
 RILD.OHMM   07 120 46 00:   INDUCTION LOG DEEP RESISTIVITY
 RILM.OHMM   07 120 44 00:   INDUCTION LOG MEDIUM RESISTIVITY
 GRD .GAPI   45 310 01 00:   GAMMA RAY FROM DENSITY LOG
 CALD.IN     45 280 60 00:   CALIPER FROM DENSITY LOG
 CORR.G/C3   45 356 01 00:   DENSITY CORRECTION
 PORD.DEC    45 890 12 00:   POROSITY DENSITY SANDSTONE
 DEN .G/C3   45 350 01 00:   COMPENSATED BULK DENSTIY
~PARAMETER INFORMATION
#MNEM.UNIT          VALUE    DESCRIPTION
#----------   ------------   ------------------------------
 PD  .                 GL:   PERMANENT DATUM
 EPD .F              5182:   ELEVATION PERMANENT DATUM
 LMF .                 KB:   LOG MEASURED FROM
 DAPD.F                10:   FEET ABOVE PERMANENT DATUM
 DMF .                 KB:   DRILLING MEASURED FROM
 EKB .F              5172:   KELLING BUSHING
 EGL .F              5182:   GROUND LEVEL
 DATE.        25-APR-1991:   RUN DATE
 RUN .                  1:   RUN NUMBER
 DD  .F               471:   DEPTH DRILLER
 DL  .F               471:   DEPTH LOGGER
 BLI .F               469:   BOTTOM LOG INTERVAL
 CS  .IN            8.625:   CASING SIZE
 CBD .F                44:   CASING BOTTOM DRILLER
 CBL .F                44:   CASING BOTTOM LOGGER
 BS  .IN            7.875:   BIT SIZE
 BSD .F               471:   BIT SIZE AT DEPTH
 DFT .                AIR:   DRILLING FLUID TYPE
 LUN .           HL- 6307:   LOGGING UNIT NUMBER
 LUL .             CASPER:   LOGGING UNIT LOCATION
 ENGI.    KINNETT/ ZIEGER:   RECORDING ENGINEER
 WITN.             STRONG:   WITNESSED BY
 CLNT.            A2DTECH:   CLIENT CODE
 ORIG.        2" 5" PRINT:   ORIGIN OF DATA
 UWI .       490251133500:   UNIQUE WELL ID
 DICO. A2D Technologies, Inc.:   DIGITIZING COMPANY
~OTHER INFORMATION
~A    DEPT    RILD       RILM         GRD      CALD       CORR       PORD        DEN   
# ...
  273.0000    22.0554    19.4746   109.5633     8.4706     0.0116     0.1846     2.3450
  273.5000    22.0510    19.3351   109.3373     8.4396     0.0116     0.1846     2.3464
  274.0000    21.8944    19.3300   109.7892     8.4252     0.0086     0.1867     2.3411
  274.5000    21.5887    19.1913   112.0482     8.4251     0.0056     0.1883     2.3366
  275.0000    21.4343    19.0528   112.2741     8.4249     0.0071     0.1895     2.3358
  275.5000    21.4301    18.7857   110.2410     8.4698     0.0102     0.1863     2.3441
  276.0000    21.2779    18.5224   106.6265     8.4697     0.0117     0.1816     2.3494
  276.5000    20.9808    18.3897   106.3780     8.4845     0.0132     0.1810     2.3501
  277.0000    20.8318    18.3951   106.6265     8.4994     0.0177     0.1831     2.3486
  277.5000    20.6838    18.3788   106.4006     8.4992     0.0193     0.1840     2.3478
  278.0000    20.8235    18.5028   106.4006     8.4690     0.0178     0.1798     2.3508
  278.5000    20.9642    18.6265   105.7229     8.4389     0.0163     0.1759     2.3628
  279.0000    21.2526    18.7510   103.0120     8.4237     0.0073     0.1738     2.3638
  279.5000    21.2473    18.7448   102.1084     8.4236     0.0043     0.1768     2.3568
  280.0000    21.2430    18.7386   103.0120     8.4234     0.0028     0.1855     2.3474
  280.5000    21.0912    18.7336   102.9102     8.4233     0.0013     0.1919     2.3297
  281.0000    20.7967    18.5994    99.3976     8.4231     0.0043     0.1952     2.3266
  281.5000    20.6490    18.2122    99.1717     8.4380     0.0058     0.1940     2.3311
  282.0000    20.3607    18.0817   103.9157     8.4228     0.0104     0.1903     2.3364
  282.5000    20.2160    17.9520   106.4006     8.4227     0.0104     0.1831     2.3507
  283.0000    19.9329    17.6994   105.9488     8.4225     0.0059     0.1774     2.3559
  283.5000    19.6546    17.4513   105.7229     8.4224     0.0014     0.1759     2.3620
  284.0000    19.5150    17.3263   106.8524     8.4072    -0.0016     0.1759     2.3604
  284.5000    19.5112    17.0834   106.4006     8.4070    -0.0001     0.1774     2.3589
  285.0000    19.3591    17.0788   104.8193     8.4069    -0.0001     0.1795     2.3544
  285.5000    19.1012    16.9554   103.9157     8.4218     0.0120     0.1820     2.3506
  286.0000    18.5753    16.7178   103.0120     8.4216     0.0180     0.1864     2.3445
  286.5000    18.1894    16.4835   102.1084     8.4215     0.0180     0.1880     2.3393
  287.0000    17.9355    16.2525   101.8825     8.4213     0.0180     0.1880     2.3377
  287.5000    17.5629    16.0247   104.5934     8.4211     0.0135     0.1831     2.3468
  288.0000    17.4374    15.9088   109.3373     8.4210     0.0074     0.1771     2.3618
  288.5000    17.1939    15.7959   108.4337     8.4209     0.0045     0.1705     2.3738
  289.0000    17.0718    15.9015   104.8193     8.4207     0.0061     0.1647     2.3791
  289.5000    16.9505    15.8962   102.7861     8.4206     0.0106     0.1639     2.3798
  290.0000    16.7138    15.8920   103.9157     8.4204     0.0061     0.1684     2.3736
  290.5000    16.5944    15.7780   107.3381     8.4203     0.0061     0.1711     2.3678
  291.0000    16.5911    15.7729   107.5301     8.4201     0.0061     0.1699     2.3685
  291.5000    16.5878    15.7688   104.8193     8.4668     0.0061     0.1687     2.3715
  292.0000    16.4700    15.7646   103.0120     8.4799     0.0062     0.1687     2.3737
  292.5000    16.2400    15.6516   100.9789     8.4347     0.0092     0.1696     2.3707
  293.0000    16.3497    15.6474    99.1717     8.4345     0.0062     0.1705     2.3684
  293.5000    16.2328    15.4272    98.9458     8.4194     0.0047     0.1711     2.3684
  294.0000    16.0062    15.2110    98.4940     8.4192     0.0045     0.1699     2.3684
  294.5000    15.6737    14.9978    98.4940     8.4193     0.0047     0.1663     2.3744
  295.0000    15.4513    14.7876   101.6566     8.4490     0.0062     0.1614     2.3812
  295.5000    15.2384    14.7836   106.1747     8.4638     0.0063     0.1593     2.3864
  296.0000    15.2354    14.6768   109.1114     8.4636     0.0108     0.1574     2.3887
  296.5000    15.2324    14.6729   107.0783     8.4335     0.0123     0.1569     2.3917
  297.0000    15.0197    14.5678   104.7513     8.4333     0.0108     0.1587     2.3890
  297.5000    14.8083    14.3636   101.2048     8.4182     0.0123     0.1633     2.3781
  298.0000    14.4016    14.2607    98.4940     8.4180     0.0184     0.1684     2.3705
  298.5000    14.1024    14.0607    99.1717     8.4178     0.0229     0.1691     2.3735
  299.0000    14.0023    13.9592   105.0452     8.4177     0.0244     0.1553     2.3866
  299.5000    13.9995    13.7635   108.2078     8.4176     0.0229     0.1397     2.4164
  300.0000    13.9967    13.7917   106.4001     8.4174     0.0167     0.1334     2.4255
  300.5000    13.9938    13.7572   105.9097     8.4173     0.0049     0.1359     2.4254
  301.0000    14.2850    13.8500   106.6130     8.4479     0.0033     0.1410     2.4194
  301.5000    14.3807    13.9434   107.0567     8.4770     0.0033     0.1467     2.4119
  302.0000    14.5785    14.2332   105.0171     8.4618     0.0033     0.1473     2.4043
  302.5000    14.7797    14.5290   102.9775     8.4317     0.0093     0.1479     2.4081
  303.0000    14.7760    14.6270   101.8416     8.4165     0.0107     0.1418     2.4194
  303.5000    14.8765    14.6233   102.7387     8.4164     0.0167     0.1377     2.4216
  304.0000    14.8727    14.8242   103.6358     8.4162     0.0062     0.1434     2.4171
  304.5000    14.9752    14.7190   102.9500     8.4160     0.0016     0.1483     2.4051
  305.0000    15.0742    14.7160   102.0400     8.4159    -0.0014     0.1507     2.4005
  305.5000    15.0704    14.6114   102.9371     8.4158    -0.0015     0.1531     2.3983
  306.0000    14.8599    14.5077   106.3192     8.4156    -0.0013     0.1579     2.3922
  306.5000    14.5512    14.2065   106.5386     8.4154     0.0000     0.1601     2.3862
  307.0000    14.3480    13.8137   106.0787     8.4153     0.0030     0.1595     2.3832
  307.5000    13.9529    13.4245   105.6221     8.4151     0.0044     0.1565     2.3896
  308.0000    13.7581    13.3393   106.5192     8.4150     0.0104     0.1506     2.4042
  308.5000    13.4723    13.1532   108.0925     8.4149     0.0149     0.1435     2.4125
  309.0000    13.2804    13.0597   110.8122     8.4147     0.0164     0.1396     2.4163
  309.5000    13.0709    12.7886   112.8224     8.4145     0.0103     0.1360     2.4223
  310.0000    12.7373    12.6978   111.9139     8.4294     0.0103     0.1330     2.4306
  310.5000    12.7347    12.6952   114.6167     8.4443     0.0103     0.1321     2.4313
  311.0000    12.8213    12.7815   111.8978     8.4291     0.0102     0.1330     2.4306
  311.5000    13.0874    12.9566   106.4696     8.4290     0.0149     0.1342     2.4283
  312.0000    13.9269    13.4102   104.8818     8.4138     0.0267     0.1352     2.4275
  312.5000    14.9232    14.4770   108.4898     8.4136     0.0222     0.1355     2.4253
  313.0000    16.1021    15.4346   109.3870     8.4135     0.0161     0.1364     2.4245
  313.5000    17.5169    17.4355   109.1544     8.4134     0.0041     0.1415     2.4012
  314.0000    19.4781    18.6819   103.7248     8.4132     0.0023     0.1569     2.3770
  314.5000    21.5282    20.2966    96.4765     8.4130     0.0100     0.1726     2.3673
  315.0000    23.5531    22.0509    92.8538     8.4129     0.0115     0.1717     2.3650
  315.5000    25.7684    23.9568    91.0537     8.4128     0.0160     0.1656     2.3744
  316.0000    28.5855    25.6694    89.2400     8.4126     0.0160     0.1626     2.3800
  316.5000    31.0581    26.9389    83.5860     8.4125     0.0114     0.1726     2.3431
  317.0000    32.8221    27.1206    82.2241     8.4123     0.0114     0.1883     2.3198
  317.5000    33.5048    27.4933    84.7025     8.4121     0.0144     0.2088     2.2919
  318.0000    33.9656    27.6787    91.0197     8.4120     0.0158     0.2380     2.2562
