~VERSION INFORMATION
 VERS.                2.0:   CWLS LOG ASCII STANDARD - VERSION 2.0
 WRAP.                 NO:   ONE LINE PER DEPTH STEP
~WELL INFORMATION
#MNEM.UNIT      DATA TYPE    INFORMATION
#----------   ------------   ------------------------------
 STRT.F            0.0000:   START DEPTH
 STOP.F          678.0000:   STOP DEPTH
 STEP.F            0.5000:   STEP LENGTH
 NULL.          -999.2500:   NO VALUE
 COMP. FENIX & SCISSON INC:   COMPANY
 WELL. 37-21 SX 11 WO #37-11:   WELL
 FLD .             TEAPOT:   FIELD
 LOC .      S11 T38N R78W:   LOCATION
 CNTY.            NATRONA:   COUNTY
 STAT.            WYOMING:   STATE
 CTRY. UNITED STATES OF AMERICA:   COUNTRY
 SRVC.      Dresser Atlas:   SERVICE COMPANY
 DATE.        14-OCT-1983:   LOGDATE
 API .       490251084300:   API NUMBER
~CURVE INFORMATION
#MNEM.UNIT       API CODE    CURVE DESCRIPTION
#----------   ------------   ------------------------------
 DEPT.F                  :   
 SPR .MV     07 010 01 00:   SPONTANEOUS POTENTIAL
 SFLU.OHMM   07 220 01 00:   SPHERICALLY FOCUSED LOG UNAVERAGED RESISTIVITY
 ILM .OHMM   07 120 44 00:   INDUCTION LOG MEDIUM
 ILD .OHMM   07 120 46 00:   INDUCTION LOG DEEP
 NPHI.DEC    42 890 03 00:   NEUTRON POROSITY SANDSTONE
 DPHI.DEC    45 890 12 00:   DENSITY POROSITY SANDSTONE
 RHOB.G/C3   45 350 01 00:   BULK DENSITY
 CORR.G/C3   45 356 01 00:   DENSITY CORRECTION
 GRD .GAPI   45 310 01 00:   GAMMA RAY FROM DENSITY LOG
 CALD.IN     45 280 60 00:   CALIPER
~PARAMETER INFORMATION
#MNEM.UNIT          VALUE    DESCRIPTION
#----------   ------------   ------------------------------
 PD  .                 GL:   PERMANENT DATUM
 EPD .F              5188:   ELEVATION PERMANENT DATUM
 LMF .                 KB:   LOG MEASURED FROM
 DAPD.F                 5:   FEET ABOVE PERMANENT DATUM
 DMF .                 KB:   DRILLING MEASURED FROM
 EKB .F              5193:   KELLING BUSHING
 EGL .F              5188:   GROUND LEVEL
 DATE.           10-14-83:   RUN DATE
 RUN .                  4:   RUN NUMBER
 DD  .F               629:   DEPTH DRILLER
 DL  .F               630:   DEPTH LOGGER
 BLI .F               624:   BOTTOM LOG INTERVAL
 TLI .F               335:   TOP LOG INTERVAL
 BS  .IN             8.75:   BIT SIZE
 BSD .F               629:   BIT SIZE AT DEPTH
 DFT .          KCL WATER:   DRILLING FLUID TYPE
 LUN .               6307:   LOGGING UNIT NUMBER
 LUL .               GLTE:   LOGGING UNIT LOCATION
 ENGI.            DEYOUNG:   RECORDING ENGINEER
 WITN.            SCHULTE:   WITNESSED BY
 CLNT.            A2DTECH:   CLIENT CODE
 ORIG.       2", 5" PRINT:   ORIGIN OF DATA
 UWI .       490251084300:   UNIQUE WELL ID
 DICO. A2D Technologies, Inc.:   DIGITIZING COMPANY
~OTHER INFORMATION
~A    DEPT     SPR       SFLU        ILM        ILD       NPHI       DPHI       RHOB       CORR        GRD       CALD   
# ...
   33.5000   -36.2519    14.9330     5.1421     5.2927  -999.2500  -999.2500  -999.2500  -999.2500  -999.2500  -999.2500
   34.0000   -36.0855    14.0942     4.9968     5.1235  -999.2500  -999.2500  -999.2500  -999.2500  -999.2500  -999.2500
   34.5000   -35.9237    13.3089     4.8609     4.9597  -999.2500  -999.2500  -999.2500  -999.2500  -999.2500  -999.2500
   35.0000   -35.7663    12.5673     4.6406     4.8012  -999.2500  -999.2500  -999.2500  -999.2500  -999.2500  -999.2500
   35.5000   -35.6079    11.9416     4.4377     4.6477  -999.2500  -999.2500  -999.2500  -999.2500  -999.2500  -999.2500
   36.0000   -35.4515    11.5720     4.2438     4.4991  -999.2500  -999.2500  -999.2500  -999.2500  -999.2500  -999.2500
   36.5000   -35.3692    11.2147     4.0583     4.3357  -999.2500  -999.2500  -999.2500  -999.2500  -999.2500  -999.2500
   37.0000   -35.5403    10.8708     3.8809     4.1747  -999.2500  -999.2500  -999.2500  -999.2500  -999.2500  -999.2500
   37.5000   -35.7035    10.4915     3.7113     4.0196  -999.2500  -999.2500  -999.2500  -999.2500  -999.2500  -999.2500
   38.0000   -35.8694    10.0787     3.5491     3.8704  -999.2500  -999.2500  -999.2500  -999.2500  -999.2500  -999.2500
   38.5000   -35.8607     9.3650     3.4037     3.7266  -999.2500  -999.2500  -999.2500  -999.2500  -999.2500  -999.2500
   39.0000   -35.7648     8.6516     3.2918     3.5882  -999.2500  -999.2500  -999.2500  -999.2500  -999.2500  -999.2500
   39.5000   -35.6670     7.9926     3.1840     3.4550  -999.2500  -999.2500  -999.2500  -999.2500  -999.2500  -999.2500
   40.0000   -35.5677     7.3838     3.0796     3.3085  -999.2500  -999.2500  -999.2500  -999.2500  -999.2500  -999.2500
   40.5000   -35.5634     6.9271     2.9766     3.3091  -999.2500  -999.2500  -999.2500  -999.2500  -999.2500  -999.2500
   41.0000   -35.6125     6.7586     2.9356     3.3084  -999.2500  -999.2500  -999.2500  -999.2500  -999.2500  -999.2500
   41.5000   -35.6627     6.8894     2.9981     3.3079  -999.2500  -999.2500  -999.2500  -999.2500  -999.2500  -999.2500
   42.0000   -35.7130     7.0104     3.0573     3.4128  -999.2500  -999.2500  -999.2500  -999.2500  -999.2500  -999.2500
   42.5000   -35.7632     6.9861     3.1169     3.5353  -999.2500  -999.2500  -999.2500  -999.2500  -999.2500  -999.2500
   43.0000   -35.8134     6.9479     3.2065     3.6631  -999.2500  -999.2500  -999.2500  -999.2500  -999.2500  -999.2500
   43.5000   -35.8639     6.9105     3.3797     3.7952  -999.2500  -999.2500  -999.2500  -999.2500  -999.2500  -999.2500
   44.0000   -35.9174     6.8835     3.5615     3.9567  -999.2500  -999.2500  -999.2500  -999.2500  -999.2500  -999.2500
   44.5000   -35.8267     6.9300     3.7536     4.1536  -999.2500  -999.2500  -999.2500  -999.2500  -999.2500  -999.2500
   45.0000   -35.7003     6.9735     3.9560     4.3603  -999.2500  -999.2500  -999.2500  -999.2500  -999.2500  -999.2500
   45.5000   -35.5738     7.0172     4.1693     4.5773  -999.2500  -999.2500  -999.2500  -999.2500  -999.2500  -999.2500
   46.0000   -35.4330     7.0752     4.3941     4.8051  -999.2500  -999.2500  -999.2500  -999.2500  -999.2500  -999.2500
   46.5000   -35.0323     7.0450     4.6311     5.0442  -999.2500  -999.2500  -999.2500  -999.2500  -999.2500  -999.2500
   47.0000   -34.6838     7.0010     4.8808     5.2952  -999.2500  -999.2500  -999.2500  -999.2500  -999.2500  -999.2500
   47.5000   -34.4208     6.9574     5.1439     5.5588  -999.2500  -999.2500  -999.2500  -999.2500  -999.2500  -999.2500
   48.0000   -33.8701     6.9140     5.4213     5.8354  -999.2500  -999.2500  -999.2500  -999.2500  -999.2500  -999.2500
   48.5000   -33.1999     6.8835     5.7136     6.1273  -999.2500  -999.2500  -999.2500  -999.2500  -999.2500  -999.2500
   49.0000   -32.9077     6.9784     6.0217     6.4059  -999.2500  -999.2500  -999.2500  -999.2500  -999.2500  -999.2500
   49.5000   -32.6300     7.0525     6.3458     6.6464  -999.2500  -999.2500  -999.2500  -999.2500  -999.2500  -999.2500
   50.0000   -32.3493     7.1273     6.5826     6.8938  -999.2500  -999.2500     2.2057  -999.2500  -999.2500  -999.2500
   50.5000   -32.0537     7.2026     6.7143     7.1505  -999.2500  -999.2500     2.1977    -0.0877  -999.2500  -999.2500
   51.0000   -32.1549     7.3166     6.8514     7.4167  -999.2500  -999.2500     2.2041    -0.0877  -999.2500  -999.2500
   51.5000   -32.3843     7.7601     7.0314     7.6928  -999.2500  -999.2500     2.2068    -0.0877  -999.2500  -999.2500
   52.0000   -32.6172     8.2365     7.3228     7.9792     0.3773     0.2907     2.2011    -0.0877  -999.2500  -999.2500
   52.5000   -32.8493     8.6566     7.6243     8.2762     0.3737     0.2907     2.1995    -0.0877  -999.2500  -999.2500
   53.0000   -33.0811     8.9432     7.9383     8.5843     0.3678     0.2907     2.1978    -0.0877  -999.2500  -999.2500
   53.5000   -33.3128     9.2750     8.2653     8.9039     0.3632     0.2907     2.1899    -0.0878  -999.2500  -999.2500
   54.0000   -33.6541     9.7103     8.4969     9.2354     0.3573     0.2952     2.1641    -0.0821    64.0237  -999.2500
   54.5000   -34.0269    10.1169     8.2670     9.5792     0.3514     0.3015     2.0632    -0.0533    64.0237  -999.2500
   55.0000   -34.3980    10.4310     8.1167     9.9358     0.3470     0.3139     2.0032    -0.0158    65.7931  -999.2500
   55.5000   -34.9035    10.7549     8.2795    10.1138     0.3438     0.3882     2.0674     0.0209    68.4701  -999.2500
   56.0000   -35.4894    10.9797     8.4611    10.0594     0.3402     0.4438     2.1496     0.0417    71.5164  -999.2500
   56.5000   -36.0769    10.2550     8.7327     9.6349     0.3367     0.4053     2.1951     0.0606    74.3753  -999.2500
   57.0000   -36.6640     9.7392     8.5619     9.2273     0.3331     0.3461     2.2085     0.0668    77.2197  -999.2500
   57.5000   -37.1982     9.2494     8.2384     8.8138     0.3295     0.3119     2.2132     0.0724    80.0667  -999.2500
   58.0000   -37.5808     8.7842     7.9294     8.5996     0.3251     0.2852     2.2088     0.0780    82.9069  -999.2500
   58.5000   -37.9607     8.4838     7.6320     8.3750     0.3239     0.2845     2.2180     0.0799    84.2539  -999.2500
   59.0000   -38.3407     8.3152     7.3458     8.1562     0.3232     0.2838     2.2327     0.0813    85.3164  -999.2500
   59.5000   -38.7213     8.1485     7.2352     7.9432     0.3225     0.2832     2.2470     0.0826    86.4225  -999.2500
   60.0000   -39.0982     8.0409     7.1853     7.7358     0.3182     0.2784     2.2610     0.0803    85.0128  -999.2500
   60.5000   -39.4754     8.0713     7.1357     7.6128     0.3096     0.2686     2.2710     0.0753    85.1179  -999.2500
   61.0000   -39.4525     8.1243     7.0865     7.5435     0.3011     0.2588     2.2685     0.0703    88.2893  -999.2500
   61.5000   -39.4510     8.1914     7.0376     7.5435     0.2952     0.2519     2.2559     0.0653    91.4691  -999.2500
   62.0000   -39.4362     8.0451     6.9890     7.5435     0.2926     0.2491     2.2431     0.0643    88.0780  -999.2500
   62.5000   -39.4165     7.8532     6.9408     7.5154     0.2969     0.2553     2.2322     0.0637    88.9581  -999.2500
   63.0000   -39.3973     7.6659     6.8929     7.4645     0.3032     0.2615     2.2395     0.0631    89.6675  -999.2500
   63.5000   -39.3782     7.4756     6.8453     7.4139     0.3112     0.2676     2.2470     0.0625    89.0442  -999.2500
   64.0000   -39.3591     7.5532     6.7983     7.3637     0.3129     0.2740     2.2546     0.0619    88.2610  -999.2500
   64.5000   -39.3400     7.6386     6.7582     7.3138     0.3083     0.2695     2.2621     0.0613    87.1491  -999.2500
   65.0000   -39.3209     7.7243     6.7586     7.2722     0.3029     0.2647     2.2696     0.0605    84.7457  -999.2500
   65.5000   -39.3018     7.8107     6.7586     7.3367     0.2972     0.2599     2.2770     0.0593    83.8198  -999.2500
   66.0000   -39.2818     7.8980     6.7586     7.2898     0.2891     0.2551     2.2924     0.0580    85.3816  -999.2500
   66.5000   -39.2170     7.9864     6.7588     7.2582     0.2803     0.2503     2.3123     0.0568    87.2095  -999.2500
