~VERSION INFORMATION
 VERS.                2.0:   CWLS LOG ASCII STANDARD - VERSION 2.0
 WRAP.                 NO:   ONE LINE PER DEPTH STEP
~WELL INFORMATION
#MNEM.UNIT      DATA TYPE    INFORMATION
#----------   ------------   ------------------------------
 STRT.F           48.0000:   START DEPTH
 STOP.F          539.0000:   STOP DEPTH
 STEP.F            0.5000:   STEP LENGTH
 NULL.          -999.2500:   NO VALUE
 COMP. LAWRENCE/ALLISON INC:   COMPANY
 WELL.   57-21 SHX #10-10:   WELL
 FLD .             TEAPOT:   FIELD
 LOC .      S10 T38N R78W:   LOCATION
 CNTY.            NATRONA:   COUNTY
 STAT.            WYOMING:   STATE
 CTRY. UNITED STATES OF AMERICA:   COUNTRY
 SRVC.           Gearhart:   SERVICE COMPANY
 DATE.        12-JUN-1986:   LOGDATE
 API .       490251108700:   API NUMBER
~CURVE INFORMATION
#MNEM.UNIT       API CODE    CURVE DESCRIPTION
#----------   ------------   ------------------------------
 DEPT.F                  :   
 GRR .GAPI   11 310 01 00:   GAMMA RAY FROM RES.
 LLA .OHMM   11 220 00 00:   LATEROLOG AVERAGE RES.
 RILD.OHMM   07 120 46 00:   INDUCTION LOG DEEP RESISTIVITY
 RILM.OHMM   07 120 44 00:   INDUCTION LOG MEDIUM RESISTIVITY
~PARAMETER INFORMATION
#MNEM.UNIT          VALUE    DESCRIPTION
#----------   ------------   ------------------------------
 PD  .                 GL:   PERMANENT DATUM
 EPD .F              5196:   ELEVATION PERMANENT DATUM
 LMF .                 KB:   LOG MEASURED FROM
 DAPD.F                 5:   FEET ABOVE PERMANENT DATUM
 DMF .                 KB:   DRILLING MEASURED FROM
 EKB .F              5201:   KELLING BUSHING
 EGL .F              5196:   GROUND LEVEL
 DATE.           61-12-86:   RUN DATE
 RUN .                  1:   RUN NUMBER
 DD  .F               545:   DEPTH DRILLER
 DL  .F             543.5:   DEPTH LOGGER
 BLI .F             539.5:   BOTTOM LOG INTERVAL
 TLI .F                48:   TOP LOG INTERVAL
 CS  .IN            8.625:   CASING SIZE
 CBD .F                47:   CASING BOTTOM DRILLER
 BS  .IN            7.875:   BIT SIZE
 BSD .F               545:   BIT SIZE AT DEPTH
 DFT .          FRESH-MUD:   DRILLING FLUID TYPE
 DFD .                9.3:   DRILLING FLUID DENSITY
 DFV .                 38:   DRILLING FLUID VISCOSITY
 MSS .           FLOWLINE:   MUD SAMPLE SOURCE
 RMS .OHMM            .51:   RESISTIVITY MUD SAMPLE
 MST .F                82:   MUD SAMPLE TEMPERATURE
 RMF .OHMM            .38:   RESISTIVITY MUD FILTRATE SAMPLE
 MFST.F                78:   MUD FILTRATE SAMPLE TEMPERATURE
 RMC .OHMM            .65:   RESISTIVITY MUD CAKE
 MCST.F                79:   MUD CAKE SAMPLE TEMPERATURE
 MFSS.                  M:   MUD FILTRATE SAMPLE SOURCE
 MCSS.                  M:   MUD CAKE SAMPLE SOURCE
 RMB .OHMM            .49:   RESISTIVITY MUD AT BHT
 BHT .F                85:   BOTTOM HOLE TEMPERATURE
 TCS .HRS            1800:   TIME CURCULATED STOPPED
 TLAB.HRS            2000:   TIME LOGGER AT BOTTOM
 MRT .F                85:   MAXIMUM RECORDED TEMPERATURE
 LUN .               7609:   LOGGING UNIT NUMBER
 LUL .           GILLETTE:   LOGGING UNIT LOCATION
 ENGI.              BAUER:   RECORDING ENGINEER
 WITN.              FIVAS:   WITNESSED BY
 CLNT.            A2DTECH:   CLIENT CODE
 ORIG.       2", 5" PRINT:   ORIGIN OF DATA
 UWI .       490251108700:   UNIQUE WELL ID
 DICO. A2D Technologies, Inc.:   DIGITIZING COMPANY
~OTHER INFORMATION
~A   DEPT       GRR       LLA       RILD       RILM   
   48.0000    65.6566  -999.2500  -999.2500  -999.2500
   48.5000    68.8889     9.5481     7.0343     4.7954
   49.0000    73.3333     8.4574     8.7274     5.0368
   49.5000    76.0198     7.5413    10.7732     5.6384
   50.0000    80.6693     6.7968    11.4295     6.1710
   50.5000    82.0594     6.4116    11.0699     6.9080
   51.0000    84.4749     6.6304    10.2609     7.7330
   51.5000    86.8636     6.7918     9.5109     8.2372
   52.0000    89.7680     6.9565     8.6433     8.6806
   52.5000    92.4488     7.1247     8.8008     8.5773
   53.0000    92.7306     7.2969     9.0698     8.4080
   53.5000    92.1038     7.4733     9.3469     8.2257
   54.0000    89.8714     7.6209     9.5459     8.2794
   54.5000    87.7061     7.4746     9.4670     8.3568
   55.0000    87.9833     7.3311     9.3110     8.4349
   55.5000    89.0165     7.1904     9.1576     8.4585
   56.0000    91.5579     7.0524     9.0067     8.3392
   56.5000    94.5033     6.9695     8.8583     8.2483
   57.0000    96.2811     7.1491     8.7123     8.1584
   57.5000    93.9633     7.1185     8.6173     8.0696
   58.0000    90.9066     7.0678     8.5287     7.9816
   58.5000    88.9001     7.0224     8.4410     7.8948
   59.0000    89.0447     7.0224     8.3542     7.8518
   59.5000    88.7642     7.0225     8.2683     7.8518
   60.0000    88.3369     7.0087     8.1833     7.7541
   60.5000    89.4887     6.8701     8.0991     7.6166
   61.0000    90.7092     6.7345     8.0646     7.4273
   61.5000    93.0408     6.6015     8.0459     7.4419
   62.0000    95.2018     6.4583     8.0272     7.4601
   62.5000    95.5620     6.6411     8.0011     7.4784
   63.0000    91.1621     6.8609     8.0567     7.5194
   63.5000    86.8490     6.9682     8.1729     7.7682
   64.0000    83.5955     7.2116     8.2907     7.9998
   64.5000    87.1699     7.5650     8.4103     7.9846
   65.0000    91.3433     7.5650     8.5318     7.9675
   65.5000    95.5428     7.5562     8.6133     7.9505
   66.0000    98.5226     7.4949     8.5654     7.9338
   66.5000    99.7120     7.3397     8.5256     7.8519
   67.0000    99.9983     7.1234     8.4861     7.7755
   67.5000   100.3085     6.8929     8.3638     7.6915
   68.0000   101.7672     6.9682     8.2020     7.6085
   68.5000   105.1172     7.0224     8.0433     7.5264
   69.0000   106.6563     6.9695     7.8877     7.4451
   69.5000   107.2093     6.9291     7.7351     7.3647
   70.0000   107.0647     6.8657     7.5854     7.2346
   70.5000   106.9252     6.5989     7.4387     7.0636
   71.0000   106.7861     6.3426     7.2947     6.8966
   71.5000   106.6486     6.0960     7.1536     6.7336
   72.0000   106.5148     5.8590     7.0152     6.5744
   72.5000   105.3876     5.5659     6.8886     6.4190
   73.0000   103.0802     5.5747     6.8457     6.2672
   73.5000   100.7874     5.5883     6.8033     6.2064
   74.0000    99.1758     5.6020     6.7654     6.1648
   74.5000   102.3004     5.6158     6.8935     6.2369
   75.0000   105.0705     5.7896     7.0385     6.3837
   75.5000   106.4911     5.9874     7.1867     6.5339
   76.0000   103.7527     6.1925     7.3379     6.6876
   76.5000    99.8931     6.3399     7.4922     6.8503
   77.0000    96.2532     6.2785     7.6497     7.0224
   77.5000    93.1926     6.2111     7.8106     7.1988
   78.0000    89.9554     6.1714     7.9807     7.3352
   78.5000    89.1074     6.2837     8.0032     7.4288
   79.0000    89.7822     6.3766     8.0112     7.5237
   79.5000    92.2353     6.5091     8.0191     7.6196
   80.0000    94.2243     6.4684     8.0270     7.7007
   80.5000    95.0605     6.3985     8.0350     7.6378
   81.0000    95.0041     6.5796     8.0429     7.5753
   81.5000    94.8327     6.5288     8.0509     7.4981
   82.0000    95.5688     6.4066     8.0588     7.5171
   82.5000    97.2155     6.4568     8.0668     7.5490
   83.0000    98.8423     6.5416     8.0799     7.5812
   83.5000    99.7309     6.6276     8.1389     7.6357
   84.0000    97.5438     6.7144     8.1982     7.6905
   84.5000    94.2776     6.8025     8.2580     7.7458
   85.0000    94.6712     6.8291     8.3183     7.8014
   85.5000    96.9504     6.8291     8.3789     7.8518
   86.0000    98.2467     6.8231     8.4523     7.8440
   86.5000    96.3106     6.7629     8.4070     7.8353
   87.0000    94.8309     6.7032     8.3340     7.8266
   87.5000    95.7400     6.6439     8.2616     7.8180
   88.0000    97.7784     6.5793     8.2275     7.8093
   88.5000    99.5873     6.6274     8.2530     7.8007
   89.0000    98.7967     6.6963     8.2713     7.7921
   89.5000    98.4050     6.7659     8.2897     7.7801
   90.0000    99.2468     6.8291     8.3078     7.8007
   90.5000    99.9251     6.7032     8.3607     7.8444
   91.0000    98.1905     6.8212     8.4139     7.8884
   91.5000    96.7736     7.0633     8.4674     7.9326
   92.0000    97.2582     7.2661     8.5345     7.9770
   92.5000    97.0863     7.0442     8.5162     7.9993
   93.0000    93.9063     6.9979     8.4858     7.9394
   93.5000    93.3415     6.9708     8.4192     7.8546
   94.0000    97.3200     6.7423     8.3437     7.7708
   94.5000   101.2633     6.4060     8.2712     7.6878
   95.0000   102.2358     6.5111     8.1992     7.6057
   95.5000   100.2240     6.5873     8.1472     7.5569
   96.0000    98.1650     6.6643     8.1400     7.5299
   96.5000    93.9055     6.7423     8.1327     7.5029
   97.0000    90.6467     6.7659     8.1255     7.4934
   97.5000    91.4338     6.7521     8.1182     7.4884
   98.0000    93.4890     6.7325     8.1110     7.4835
   98.5000    95.6700     6.7130     8.1037     7.4785
   99.0000    99.4386     6.6888     8.0965     7.4735
   99.5000   103.8226     6.6411     8.0892     7.4686
  100.0000   108.0570     6.5938     8.0820     7.4636
  100.5000   107.7281     6.5796     8.0748     7.4587
  101.0000   104.9772     6.5796     8.0740     7.4537
  101.5000   103.6690     6.6355     8.0740     7.4488
  102.0000   104.2277     6.5796     8.0740     7.4438
  102.5000   106.2833     6.5242     8.0740     7.4388
  103.0000   107.9363     6.5187     8.0740     7.4336
  103.5000   108.8827     6.5187     8.0738     7.4285
  104.0000   107.3280     6.5304     8.0739     7.4233
  104.5000   105.1948     6.6483     8.0842     7.5255
  105.0000   105.6999     6.7683     8.1886     7.5694
  105.5000   105.9151     6.8520     8.2945     7.6135
  106.0000   103.9601     6.8976     8.4017     7.6905
  106.5000   100.7291     6.9435     8.5103     7.8014
  107.0000    97.4871     7.0006     8.6201     7.9139
  107.5000    96.6298     7.0629     8.6979     7.9850
  108.0000    98.6452     7.1258     8.6979     8.0711
  108.5000   100.6751     7.2147     8.6979     8.1495
  109.0000   102.2008     7.1425     8.6979     8.1495
  109.5000   103.3072     6.9879     8.6981     8.1495
  110.0000   103.6227     6.8366     8.7157     8.1495
  110.5000   100.3907     6.7032     8.7508     8.1495
  111.0000    97.0640     6.8246     8.7863     8.1495
  111.5000    97.1220     6.9620     8.8219     8.2410
  112.0000   100.1302     7.1100     8.8577     8.3439
  112.5000   106.6850     7.3340     8.9649     8.4480
  113.0000   108.1272     7.5650     9.0815     8.5590
  113.5000   104.9502     7.6363     9.1996     8.6720
  114.0000   101.5934     7.5522     9.3203     8.7865
  114.5000    97.7348     7.5010     9.4450     8.9026
  115.0000    94.7320     7.6170     9.5713     9.0201
  115.5000    92.4723     7.7297     9.6994     9.1393
  116.0000    92.1021     7.8441     9.8161     9.2599
  116.5000    95.8447     7.9252     9.8161     9.3700
  117.0000    99.6265     7.9252     9.7331     9.2900
  117.5000    99.5958     7.8025     9.6157     9.1770
  118.0000    96.4037     7.7094     9.4997     9.0653
  118.5000    93.2328     7.6174     9.3851     8.9550
  119.0000    95.0683     7.5265     9.2832     8.8461
  119.5000    98.4400     7.4367     9.2627     8.7382
  120.0000   101.5754     7.3568     9.2401     8.6322
  120.5000   103.3332     7.3568     9.2175     8.5478
