~VERSION INFORMATION
 VERS.                2.0:   CWLS LOG ASCII STANDARD - VERSION 2.0
 WRAP.                 NO:   ONE LINE PER DEPTH STEP
~WELL INFORMATION
#MNEM.UNIT      DATA TYPE    INFORMATION
#----------   ------------   ------------------------------
 STRT.F           32.0000:   START DEPTH
 STOP.F          571.0000:   STOP DEPTH
 STEP.F            0.5000:   STEP LENGTH
 NULL.          -999.2500:   NO VALUE
 COMP. FENIX & SCISSON INCORP.:   COMPANY
 WELL.      NPR-3 #21-S-3:   WELL
 FLD .             TEAPOT:   FIELD
 LOC .       S3 T38N R78W:   LOCATION
 CNTY.            NATRONA:   COUNTY
 STAT.            WYOMING:   STATE
 CTRY. UNITED STATES OF AMERICA:   COUNTRY
 SRVC.           BIRDWELL:   SERVICE COMPANY
 DATE.        25-JUL-1978:   LOGDATE
 API .       490251067100:   API NUMBER
~CURVE INFORMATION
#MNEM.UNIT       API CODE    CURVE DESCRIPTION
#----------   ------------   ------------------------------
 DEPT.F                  :   
 CALD.IN     45 280 60 00:   CALIPER FROM DENSITY LOG
 CORR.G/C3   45 356 01 00:   DENSITY CORRECTION
 DPHI.DEC    45 890 10 00:   DENSITY POROSITY LIMESTONE
 GRD .GAPI   45 310 01 00:   GAMMA RAY FROM DENSITY LOG
 RHOB.G/C3   45 350 01 00:   BULK DENSITY
 ILD .OHMM   05 120 46 00:   INDUCTION LOG DEEP
 SN  .OHMM   05 040 16 00:   SHORT NORMAL 16"
 SPR .MV     05 010 01 00:   SPONTANEOUS POTENTIAL FROM RES.
 NPHI.DEC    42 890 01 00:   NEUTRON POROSITY LIMESTONE
~PARAMETER INFORMATION
#MNEM.UNIT          VALUE    DESCRIPTION
#----------   ------------   ------------------------------
 PD  .                 GL:   PERMANENT DATUM
 EPD .F              5203:   ELEVATION PERMANENT DATUM
 LMF .                 KB:   LOG MEASURED FROM
 DAPD.F                 4:   FEET ABOVE PERMANENT DATUM
 DMF .                 KB:   DRILLING MEASURED FROM
 EKB .F              5207:   KELLING BUSHING
 EGL .F              5203:   GROUND LEVEL
 DATE.        25-JUL-1978:   RUN DATE
 RUN .                  1:   RUN NUMBER
 DD  .F               565:   DEPTH DRILLER
 DL  .F               573:   DEPTH LOGGER
 BLI .F               566:   BOTTOM LOG INTERVAL
 TLI .F                46:   TOP LOG INTERVAL
 CS  .IN            8.625:   CASING SIZE
 CBD .F                40:   CASING BOTTOM DRILLER
 CBL .F                48:   CASING BOTTOM LOGGER
 BS  .IN            7.875:   BIT SIZE
 BSD .F               565:   BIT SIZE AT DEPTH
 DFT .                KCL:   DRILLING FLUID TYPE
 DFD .                8.6:   DRILLING FLUID DENSITY
 DFV .                 30:   DRILLING FLUID VISCOSITY
 DFPH.                  9:   DRILLING FLUID PH
 MSS .           FLOWLINE:   MUD SAMPLE SOURCE
 LUN .               2958:   LOGGING UNIT NUMBER
 LUL .               CASP:   LOGGING UNIT LOCATION
 WITN.           MCGINLEY:   WITNESSED BY
 CLNT.            A2DTECH:   CLIENT CODE
 ORIG.           5" PRINT:   ORIGIN OF DATA
 UWI .       490251067100:   UNIQUE WELL ID
 DICO. A2D Technologies, Inc.:   DIGITIZING COMPANY
~OTHER INFORMATION
~A   DEPT     CALD       CORR       DPHI         GRD      RHOB        ILD         SN        SPR       NPHI   
# ...
  397.0000     7.5139     0.0630     0.1708    82.4835     2.3961    15.3841    12.0419   -33.6862     0.3144
  397.5000     7.4985     0.0553     0.1809    83.9865     2.3954    15.1812    12.0500   -34.1190     0.3192
  398.0000     7.4680     0.0540     0.1933    85.0393     2.3842    15.1939    11.9750   -34.0974     0.3260
  398.5000     7.4675     0.0540     0.1990    87.5933     2.3729    15.2041    11.9836   -34.0801     0.3263
  399.0000     7.4520     0.0525     0.2043    88.7960     2.3652    15.4255    12.0745   -34.0624     0.3257
  399.5000     7.4515     0.0510     0.2070    89.0978     2.3558    15.6524    12.0844   -34.1941     0.3144
  400.0000     7.4511     0.0526     0.2094    87.1471     2.3453    15.8801    11.9264   -34.4304     0.3135
  400.5000     7.5263     0.0526     0.2136    80.9860     2.3386    16.4513    12.0184   -34.6011     0.3144
  401.0000     7.5564     0.0480     0.2170    80.7083     2.3349    16.3490    12.0280   -35.0268     0.3144
  401.5000     7.5864     0.0360     0.2199    82.3709     2.3326    16.3666    12.0379   -35.1553     0.3147
  402.0000     7.6165     0.0345     0.2276    84.4819     2.3243    16.6079    12.0496   -35.1302     0.3144
  402.5000     7.6614     0.0285     0.2322    84.7910     2.3124    16.8533    12.0592   -35.1102     0.3084
  403.0000     7.6915     0.0285     0.2316    85.1001     2.3049    16.7516    11.9836   -34.9415     0.3069
  403.5000     7.7215     0.0270     0.2274    85.1089     2.3071    16.7696    11.9955   -35.0701     0.3066
  404.0000     7.7665     0.0239     0.2223    82.5651     2.3154    16.6653    12.0881   -35.1986     0.3069
  404.5000     7.8426     0.0243     0.2247    80.3217     2.3131    16.4514    11.9321   -35.3272     0.3066
  405.0000     7.9163     0.0255     0.2346    79.8799     2.3056    16.2438    11.8596   -35.5993     0.3046
  405.5000     7.9613     0.0360     0.2388    79.5885     2.3010    16.1462    11.8714   -36.0300     0.2994
  406.0000     7.9914     0.0556     0.2382    79.6156     2.2965    16.1636    11.8809   -36.0049     0.2952
  406.5000     8.0064     0.0556     0.2351    80.0588     2.2944    16.1775    11.8904   -35.8363     0.2904
  407.0000     8.0066     0.0556     0.2238    80.9685     2.3041    16.1915    11.8998   -35.8158     0.2859
  407.5000     8.0067     0.0556     0.2154    81.2776     2.3213    16.2054    11.9093   -35.7912     0.2835
  408.0000     8.0069     0.0495     0.2079    80.9861     2.3341    16.3315    11.9190   -35.9247     0.2775
  408.5000     7.9921     0.0450     0.2064    80.6924     2.3431    16.3456    11.9307   -35.8997     0.2701
  409.0000     7.9623     0.0435     0.2058    84.1569     2.3446    16.3603    11.9402   -36.1818     0.2680
  409.5000     7.9475     0.0359     0.2064    85.6672     2.3446    16.3773    11.9498   -36.1568     0.2692
  410.0000     7.9477     0.0330     0.2082    85.8459     2.3446    16.3915    11.9593   -35.8395     0.2796
  410.5000     7.9329     0.0360     0.2121    82.5316     2.3423    16.2930    11.9688   -36.1382     0.2856
  411.0000     7.9355     0.0450     0.2143    79.9720     2.3369    16.3070    11.9784   -36.5373     0.2886
  411.5000     7.9332     0.0465     0.2121    79.3744     2.3326    16.2088    12.0711   -36.8195     0.2955
  412.0000     7.9483     0.0450     0.1900    79.7074     2.3401    16.2233    11.9975   -37.0916     0.3114
  412.5000     7.9783     0.0420     0.1852    81.6681     2.3760    16.1255    12.0925   -37.5173     0.3126
  413.0000     7.9934     0.0405     0.1840    84.8301     2.3790    16.1429    12.1022   -37.4973     0.3062
  413.5000     8.0085     0.0360     0.1849    84.9890     2.3813    16.2685    12.1118   -37.6258     0.2962
  414.0000     8.0087     0.0375     0.1888    84.3972     2.3805    16.3951    12.0379   -37.9029     0.2868
  414.5000     8.0088     0.0375     0.1873    82.7544     2.3760    16.5226    11.9637   -38.0315     0.2820
  415.0000     8.0090     0.0373     0.1825    82.1626     2.3805    16.7664    11.8923   -38.3086     0.2740
  415.5000     7.9792     0.0360     0.1825    81.5706     2.3828    16.7844    11.9042   -38.5857     0.2677
  416.0000     7.9644     0.0360     0.1843    80.8268     2.3828    16.7989    11.8295   -38.7143     0.2629
  416.5000     7.9484     0.0375     0.1855    85.0901     2.3805    16.8133    11.8413   -38.6892     0.2754
  417.0000     7.8750     0.0375     0.1909    86.8529     2.3798    16.8278    11.8507   -38.5201     0.2829
  417.5000     7.8304     0.0405     0.1972    87.0136     2.3738    16.9588    11.9422   -38.4955     0.2884
  418.0000     7.8006     0.0420     0.2031    87.0224     2.3581    16.8568    11.8696   -38.4754     0.2922
  418.5000     7.7858     0.0420     0.2004    86.4306     2.3536    16.8719    11.9637   -38.4554     0.2949
  419.0000     7.7561     0.0405     0.1969    85.2382     2.3573    16.7700    11.8886   -38.5889     0.2973
  419.5000     7.7412     0.0375     0.1963    83.8957     2.3603    16.7881    11.9004   -38.8618     0.3000
  420.0000     7.7115     0.0345     0.1984    81.8024     2.3573    16.6836    11.9923   -38.9896     0.3006
  420.5000     7.6818     0.0315     0.1996    80.9103     2.3566    16.5834    12.0019   -38.9688     0.2988
  421.0000     7.6819     0.0300     0.1996    80.3183     2.3558    16.4873    12.0115   -39.2417     0.2958
  421.5000     7.6821     0.0285     0.1984    80.4795     2.3551    16.5015    12.1045   -39.5238     0.2892
  422.0000     7.6822     0.0270     0.1963    82.6847     2.3543    16.2897    11.9504   -39.4987     0.2771
  422.5000     7.6824     0.0300     0.1912    86.0528     2.3625    16.3073    11.8777   -39.4787     0.2754
  423.0000     7.6825     0.0270     0.1879    86.3619     2.3685    16.3213    11.8872   -39.4586     0.2749
  423.5000     7.6976     0.0240     0.1873    86.3707     2.3715    16.3354    11.8149   -39.4383     0.2751
  424.0000     7.6978     0.0195     0.1891    86.3795     2.3715    16.1258    11.7431   -39.2649     0.2760
  424.5000     7.6979     0.0194     0.1967    85.7877     2.3685    16.1397    11.6718   -39.2449     0.2781
  425.0000     7.6831     0.0210     0.1975    86.2470     2.3633    16.0249    11.6008   -39.3784     0.2820
  425.5000     7.6833     0.0225     0.1948    88.5080     2.3573    15.7281    11.6124   -39.3534     0.2829
  426.0000     7.6685     0.0210     0.1924    87.7661     2.3588    15.5263    11.6216   -39.4869     0.2881
  426.5000     7.6387     0.0195     0.1891    86.4235     2.3656    15.3270    11.5487   -40.2048     0.2949
  427.0000     7.6389     0.0180     0.1840    85.2311     2.3700    15.0297    11.3236   -40.6305     0.3003
  427.5000     7.6241     0.0120     0.1813    85.3904     2.3775    14.8368    11.3326   -41.6456     0.3030
  428.0000     7.5943     0.0075     0.1801    85.5513     2.3858    14.7372    11.1864   -41.7791     0.3057
  428.5000     7.5945     0.0060     0.1816    85.8604     2.3858    14.5584    11.0420   -41.4569     0.3102
  429.0000     7.5647     0.0045     0.1828    86.3196     2.3858    14.4710    11.0530   -40.9911     0.3120
  429.5000     7.6097     0.0045     0.1849    86.9290     2.3850    14.3871    11.0618   -40.9710     0.3117
  430.0000     7.6248     0.0045     0.1873    87.6886     2.3798    14.3006    10.9924   -40.9510     0.3018
  430.5000     7.6250     0.0045     0.1882    88.4481     2.3745    14.2144    11.0033   -41.1010     0.2988
  431.0000     7.6102     0.0045     0.1897    89.2077     2.3693    14.2271    11.0121   -41.2080     0.3000
  431.5000     7.6103     0.0045     0.1921    90.2675     2.3678    14.2423    11.0212   -40.8858     0.3003
  432.0000     7.6105     0.0045     0.1882    91.9280     2.3678    14.1537    11.0319   -40.8657     0.3000
  432.5000     7.5807     0.0060     0.1828    92.0869     2.3715    13.8791    10.9648   -40.7021     0.2991
  433.0000     7.5659     0.0075     0.1792    90.6967     2.3835    13.7927    10.9736   -40.8261     0.2991
