~VERSION INFORMATION
 VERS.                2.0:   CWLS LOG ASCII STANDARD - VERSION 2.0
 WRAP.                 NO:   ONE LINE PER DEPTH STEP
~WELL INFORMATION
#MNEM.UNIT      DATA TYPE    INFORMATION
#----------   ------------   ------------------------------
 STRT.F           16.5000:   START DEPTH
 STOP.F          475.0000:   STOP DEPTH
 STEP.F            0.5000:   STEP LENGTH
 NULL.          -999.2500:   NO VALUE
 COMP. BROWN JOHN E&C INC:   COMPANY
 WELL. NAVAL PETROLEUM RESERVE 3 SX-1 #71-1-10:   WELL
 FLD .             TEAPOT:   FIELD
 LOC .      S10 T38N R78W:   LOCATION
 CNTY.            NATRONA:   COUNTY
 STAT.            WYOMING:   STATE
 CTRY. UNITED STATES OF AMERICA:   COUNTRY
 SRVC.     Atlas Wireline:   SERVICE COMPANY
 DATE.        01-OCT-1991:   LOGDATE
 API .       490252244700:   API NUMBER
~CURVE INFORMATION
#MNEM.UNIT       API CODE    CURVE DESCRIPTION
#----------   ------------   ------------------------------
 DEPT.F                  :   
 GRR .GAPI   07 310 01 00:   GAMMA RAY
 RILD.OHMM   07 120 46 00:   INDUCTION LOG DEEP RESISTIVITY
 RILM.OHMM   07 120 44 00:   RESITIVITY LONG MEDIUM
~PARAMETER INFORMATION
#MNEM.UNIT          VALUE    DESCRIPTION
#----------   ------------   ------------------------------
 PD  .                 GL:   PERMANENT DATUM
 EPD .F              5142:   ELEVATION PERMANENT DATUM
 LMF .                 KB:   LOG MEASURED FROM
 DAPD.F                10:   FEET ABOVE PERMANENT DATUM
 DMF .                 KB:   DRILLING MEASURED FROM
 EKB .F              5152:   KELLING BUSHING
 EDF .F              5151:   DRILLING FLOOR
 EGL .F              5142:   GROUND LEVEL
 DATE.        01-OCT-1991:   RUN DATE
 RUN .                  1:   RUN NUMBER
 DD  .F               485:   DEPTH DRILLER
 DL  .F               483:   DEPTH LOGGER
 BLI .F               475:   BOTTOM LOG INTERVAL
 TLI .F                97:   TOP LOG INTERVAL
 CS  .IN            8.625:   CASING SIZE
 CBD .F                89:   CASING BOTTOM DRILLER
 CBL .F                91:   CASING BOTTOM LOGGER
 BS  .IN            7.875:   BIT SIZE
 BSD .F               485:   BIT SIZE AT DEPTH
 DFT . WEIGHTED DISPERSED:   DRILLING FLUID TYPE
 DFD .               16.5:   DRILLING FLUID DENSITY
 DFV .                 37:   DRILLING FLUID VISCOSITY
 DFPH.                9.8:   DRILLING FLUID PH
 DFL .               10.0:   DRILLING FLUID LOSS
 MSS .           FLOWLINE:   MUD SAMPLE SOURCE
 RMS .OHMM           1.67:   RESISTIVITY MUD SAMPLE
 MST .F                70:   MUD SAMPLE TEMPERATURE
 RMF .OHMM           1.44:   RESISTIVITY MUD FILTRATE SAMPLE
 MFST.F                70:   MUD FILTRATE SAMPLE TEMPERATURE
 RMC .OHMM           1.93:   RESISTIVITY MUD CAKE
 MCST.F                70:   MUD CAKE SAMPLE TEMPERATURE
 MFSS.               MEAS:   MUD FILTRATE SAMPLE SOURCE
 MCSS.               MEAS:   MUD CAKE SAMPLE SOURCE
 RMB .OHMM           1.30:   RESISTIVITY MUD AT BHT
 BHT .F                90:   BOTTOM HOLE TEMPERATURE
 TCS .HRS               2:   TIME CURCULATED STOPPED
 MRT .F                99:   MAXIMUM RECORDED TEMPERATURE
 LUN .            HL/6272:   LOGGING UNIT NUMBER
 LUL .             CASPER:   LOGGING UNIT LOCATION
 ENGI.             RAUTIO:   RECORDING ENGINEER
 WITN.             STRONG:   WITNESSED BY
 CLNT.            A2DTECH:   CLIENT CODE
 ORIG.           5" PRINT:   ORIGIN OF DATA
 UWI .       490252244700:   UNIQUE WELL ID
 DICO. A2D Technologies, Inc.:   DIGITIZING COMPANY
~OTHER INFORMATION
~A   DEPT       GRR      RILD       RILM   
# ...
  289.5000    59.7696    22.5829    19.9130
  290.0000    59.3147    21.6840    19.3697
  290.5000    60.4590    21.0909    18.9729
  291.0000    60.2329    20.6574    18.5842
  291.5000    58.8151    20.2322    18.3308
  292.0000    56.3566    19.9550    18.2038
  292.5000    56.5871    19.8197    18.0844
  293.0000    56.5894    19.6848    18.0890
  293.5000    54.7651    19.6876    18.2192
  294.0000    53.6258    19.6908    18.3503
  294.5000    55.9111    19.8312    18.4823
  295.0000    61.1645    20.1121    18.7455
  295.5000    61.8516    20.2555    19.1453
  296.0000    60.8980    20.9764    20.3921
  296.5000    55.6920    22.3368    22.1019
  297.0000    56.6075    24.1192    24.9646
  297.5000    59.5778    27.0307    27.5279
  298.0000    61.1782    30.7889    29.9343
  298.5000    59.5822    32.1076    31.8778
  299.0000    55.4018    32.5625    32.1056
  299.5000    53.4228    32.3408    30.3728
  300.0000    53.8816    31.6761    28.7321
  300.5000    54.3405    30.1725    25.4631
  301.0000    55.0276    27.9503    22.2133
  301.5000    58.4545    25.3470    20.8675
  302.0000    60.2832    23.2551    20.0172
  302.5000    60.0571    21.1616    19.6072
  303.0000    60.2998    20.4399    18.9398
  303.5000    63.7724    20.1591    18.4230
  304.0000    64.4022    19.7455    17.9203
  304.5000    65.5460    19.4743    17.6759
  305.0000    68.0597    19.2079    17.5567
  305.5000    69.6595    18.9448    17.4384
  306.0000    67.8358    18.6852    17.0820
  306.5000    66.9248    18.4297    16.9660
  307.0000    65.7854    18.4322    16.9703
  307.5000    63.7100    18.5636    17.2119
  308.0000    58.6724    18.6959    17.4570
  308.5000    55.5181    18.9608    17.4606
  309.0000    58.1560    19.0960    17.5870
  309.5000    59.0782    19.3665    17.5906
  310.0000    58.6301    19.5137    17.5942
  310.5000    58.8676    19.5647    17.4055
  311.0000    60.0381    19.2992    17.2891
  311.5000    61.6274    19.3045    17.0571
  312.0000    62.5495    19.1756    16.7099
  312.5000    61.6451    19.0476    16.5994
  313.0000    60.2842    18.9205    16.3716
  313.5000    61.4346    18.7942    16.1542
  314.0000    63.4983    18.6688    16.1611
  314.5000    64.4204    18.4167    16.0543
  315.0000    62.6028    18.2937    15.9469
  315.5000    62.8402    17.9202    15.8415
  316.0000    63.0794    17.6559    15.7369
  316.5000    61.7185    17.3161    15.5255
  317.0000    59.9009    16.9625    15.3160
  317.5000    58.0833    16.6173    14.8916
  318.0000    56.2664    16.3907    14.4968
  318.5000    56.9602    16.0560    14.3010
  319.0000    58.1107    15.8390    14.2065
  319.5000    61.5442    15.6242    14.1115
  320.0000    66.1193    15.6141    14.1175
  320.5000    69.0962    15.5241    14.1222
  321.0000    68.4202    15.4216    14.1270
  321.5000    61.5077    15.3186    14.1318
  322.0000    59.2664    15.2154    14.1367
  322.5000    58.8578    15.2205    14.0432
  323.0000    58.4123    15.0140    13.8547
  323.5000    59.3344    14.9137    13.7620
  324.0000    61.1698    14.7114    13.5762
  324.5000    60.7199    14.6132    13.3940
  325.0000    61.1876    14.4149    13.2131
  325.5000    63.4796    14.2202    12.9442
  326.0000    66.2647    14.1244    12.6808
  326.5000    64.6811    13.9327    12.5970
  327.0000    62.3647    13.6491    12.6023
  327.5000    63.2890    13.4639    12.4321
  328.0000    63.9829    13.2763    12.3490
  328.5000    62.3936    13.0100    12.1832
  329.0000    60.8043    12.8335    11.9353
  329.5000    63.3246    12.6602    11.7740
  330.0000    67.2148    12.5748    11.6151
  330.5000    69.2784    12.5791    11.7004
  331.0000    67.6194    12.5825    11.7871
  331.5000    66.7848    12.5859    11.8735
  332.0000    69.5356    12.5893    11.9606
  332.5000    69.7728    12.5928    12.0483
  333.0000    69.3229    12.6850    12.1366
  333.5000    67.2792    12.8665    12.2256
  334.0000    63.6351    12.9599    12.3152
  334.5000    60.9043    13.0541    12.3194
  335.0000    61.1567    13.1489    12.3237
  335.5000    63.2382    13.1525    12.3288
  336.0000    63.9012    13.1560    12.3330
  336.5000    61.3987    13.2517    12.3371
  337.0000    59.3528    13.1631    12.0860
  337.5000    60.2749    12.8944    11.9218
  338.0000    64.1651    12.6311    11.6802
  338.5000    67.5964    12.4597    11.5225
  339.0000    66.0093    12.2061    11.3591
  339.5000    64.6431    12.0404    11.1365
  340.0000    63.5157    11.7946    10.9089
  340.5000    62.8396    11.5495    10.5399
  341.0000    65.1339    11.2259    10.3254
  341.5000    67.4258    11.0098    10.2563
  342.0000    68.3480    10.8611    10.2606
  342.5000    68.8135    10.7879    10.3359
  343.0000    69.0507    10.7159    10.3394
  343.5000    69.5162    10.5705    10.3430
  344.0000    72.0487    10.4276    10.2032
  344.5000    74.5853    10.3581    10.1358
  345.0000    72.9697    10.4334    10.2823
  345.5000    66.3576    10.8824    10.7249
  346.0000    61.1154    11.4294    11.2647
  346.5000    57.9279    12.2574    12.0816
  347.0000    56.5669    13.1453    12.7784
  347.5000    55.2060    14.1962    13.7293
  348.0000    55.6715    15.2246    15.1156
  348.5000    55.6804    16.3276    16.0992
  349.0000    54.0396    17.5450    17.2667
  349.5000    52.5018    19.1769    18.5188
  350.0000    52.5129    20.4233    19.5869
  350.5000    52.7501    21.7508    20.8614
  351.0000    52.7590    23.1646    22.2189
  351.5000    52.7679    24.4990    23.3428
  352.0000    52.2801    25.0232    24.1729
  352.5000    50.5038    25.0300    24.0150
  353.0000    44.8049    24.8538    23.5242
  353.5000    43.4439    24.1861    22.5707
  354.0000    43.9094    23.6939    21.2061
  354.5000    47.5712    22.7300    19.6483
  355.0000    53.7444    21.2060    18.5894
  355.5000    56.0364    19.9226    17.7106
  356.0000    55.5886    18.9794    16.9835
  356.5000    55.8280    18.3346    16.7618
  357.0000    56.7501    18.2106    17.0042
  357.5000    61.3252    17.9651    17.1289
  358.0000    62.7017    17.8452    17.1347
  358.5000    60.2013    17.8513    17.1405
  359.0000    58.3837    17.8561    17.2662
  359.5000    57.7076    17.8609    16.7973
  360.0000    58.1753    17.8657    16.5705
  360.5000    58.6408    17.8706    16.3467
  361.0000    58.4213    17.7513    16.2387
  361.5000    57.2886    17.7562    16.0208
  362.0000    58.4390    17.7621    16.0262
  362.5000    60.9593    17.7669    16.1438
  363.0000    61.8814    17.8960    16.2621
  363.5000    61.4336    17.9008    16.4959
  364.0000    60.3031    18.0309    16.7330
  364.5000    59.1704    18.1618    16.8558
  365.0000    58.2660    18.1667    16.6091
  365.5000    58.5032    17.7958    16.1779
  366.0000    59.4253    17.6770    15.8487
  366.5000    59.6624    17.5602    15.6333
  367.0000    59.6713    17.4430    15.4222
  367.5000    61.0959    17.3266    15.4288
  368.0000    63.3442    17.0915    15.4340
  368.5000    65.6361    16.8584    15.2256
  369.0000    66.1016    16.6308    15.1250
  369.5000    65.4255    16.4036    15.1314
  370.0000    62.4663    16.1824    14.9843
  370.5000    62.1189    15.9639    14.5637
  371.0000    65.9087    15.8563    14.4685
  371.5000    66.6025    15.6422    14.2740
  372.0000    65.2437    15.6464    14.1793
  372.5000    61.3713    15.5409    14.2856
  373.0000    60.6930    15.5462    14.3913
  373.5000    60.4735    15.4424    14.3972
  374.0000    60.0257    15.4467    14.5039
  374.5000    59.8082    15.5599    14.6125
  375.0000    60.9589    15.6729    14.7207
  375.5000    62.3379    15.8971    14.7267
  376.0000    62.3487    15.9014    14.7326
  376.5000    62.3575    15.9057    14.8417
  377.0000    62.3664    15.9100    14.8477
  377.5000    61.9186    15.9143    14.8537
  378.0000    61.0142    15.8081    14.7566
  378.5000    58.7400    15.7026    14.6601
  379.0000    57.3759    15.5989    14.5642
  379.5000    56.9312    15.6031    14.3699
  380.0000    59.2254    15.6073    14.2745
