~VERSION INFORMATION
 VERS.                2.0:   CWLS LOG ASCII STANDARD - VERSION 2.0
 WRAP.                 NO:   ONE LINE PER DEPTH STEP
~WELL INFORMATION
#MNEM.UNIT      DATA TYPE    INFORMATION
#----------   ------------   ------------------------------
 STRT.F           90.5000:   START DEPTH
 STOP.F          836.0000:   STOP DEPTH
 STEP.F            0.5000:   STEP LENGTH
 NULL.          -999.2500:   NO VALUE
 COMP.          U.S. NAVY:   COMPANY
 WELL.    NPR #3 #38-S-35:   WELL
 FLD .           TEAPOT E:   FIELD
 LOC .      S35 T39N R78W:   LOCATION
 CNTY.            NATRONA:   COUNTY
 STAT.            WYOMING:   STATE
 CTRY. UNITED STATES OF AMERICA:   COUNTRY
 SRVC. Schlumberger Well Surveying Corp:   SERVICE COMPANY
 DATE.        21-JUL-1963:   LOGDATE
 API .       490250649100:   API NUMBER
~CURVE INFORMATION
#MNEM.UNIT       API CODE    CURVE DESCRIPTION
#----------   ------------   ------------------------------
 DEPT.F                  :   
 SPR .MV     05 010 01 00:   SPONTANEOUS POTENTIAL FROM RES.
 ASN .OHMM   05 041 16 00:   AMPLIFIED SHORT NORMAL 16"
 ILD .OHMM   05 120 46 00:   INDUCTION LOG DEEP
 CILD.MMHO   05 110 46 00:   CONDUCTIVITY INDUCTION LOG DEEP
 DT  .US/F   60 520 33 00:   INTERVAL TRANSIT TIME
 GR  .GAPI   30 310 01 00:   GAMMA RAY
~PARAMETER INFORMATION
#MNEM.UNIT          VALUE    DESCRIPTION
#----------   ------------   ------------------------------
 LMF .                 KB:   LOG MEASURED FROM
 DMF .                 KB:   DRILLING MEASURED FROM
 EKB .F              5119:   KELLING BUSHING
 EGL .F              5114:   GROUND LEVEL
 DATE.          7-21-1963:   RUN DATE
 RUN .                  1:   RUN NUMBER
 DD  .F               836:   DEPTH DRILLER
 DL  .F               837:   DEPTH LOGGER
 BLI .F               836:   BOTTOM LOG INTERVAL
 TLI .F                90:   TOP LOG INTERVAL
 CBD .F                12:   CASING BOTTOM DRILLER
 BS  .IN             6.75:   BIT SIZE
 BSD .F               836:   BIT SIZE AT DEPTH
 DFT .            GEL-OIL:   DRILLING FLUID TYPE
 DFD .                9.2:   DRILLING FLUID DENSITY
 DFV .                 85:   DRILLING FLUID VISCOSITY
 DFPH.                  8:   DRILLING FLUID PH
 DFL .                3.6:   DRILLING FLUID LOSS
 MSS .           FLOWLINE:   MUD SAMPLE SOURCE
 RMS .OHMM           2.95:   RESISTIVITY MUD SAMPLE
 MST .F                88:   MUD SAMPLE TEMPERATURE
 RMF .OHMM           2.31:   RESISTIVITY MUD FILTRATE SAMPLE
 MFST.F                88:   MUD FILTRATE SAMPLE TEMPERATURE
 RMC .OHMM           2.65:   RESISTIVITY MUD CAKE
 MCST.F                88:   MUD CAKE SAMPLE TEMPERATURE
 MFSS.                  M:   MUD FILTRATE SAMPLE SOURCE
 MCSS.                  M:   MUD CAKE SAMPLE SOURCE
 TCS .HRS               1:   TIME CURCULATED STOPPED
 LUN .               2523:   LOGGING UNIT NUMBER
 LUL .              CSPR.:   LOGGING UNIT LOCATION
 ENGI.             KNOBEL:   RECORDING ENGINEER
 WITN.          JORGENSON:   WITNESSED BY
 CLNT.            A2DTECH:   CLIENT CODE
 ORIG.      2" , 5" PRINT:   ORIGIN OF DATA
 UWI .       490250649100:   UNIQUE WELL ID
 DICO. A2D Technologies, Inc.:   DIGITIZING COMPANY
~OTHER INFORMATION
~A   DEPT      SPR        ASN        ILD       CILD         DT         GR   
# ...
  506.5000   -18.9788     9.9587     8.3518   108.1150    97.5549  -999.2500
  507.0000   -18.8092     9.8761     8.3153   108.5579    97.2028  -999.2500
  507.5000   -18.6368     9.7935     8.2761   109.0011    96.8531  -999.2500
  508.0000   -18.4646     9.7107     8.1505   109.4432    96.5035  -999.2500
  508.5000   -18.2917     9.6280     8.1458   109.6741    96.8853  -999.2500
  509.0000   -18.1164     9.5444     8.1295   109.7774    97.5596  -999.2500
  509.5000   -18.2283     9.5196     8.1114   109.8807    98.2018  -999.2500
  510.0000   -18.3764     9.5431     8.0936   109.9840    98.4016  -999.2500
  510.5000   -18.5243     9.5885     8.0758   110.0873    98.3901  -999.2500
  511.0000   -18.6715     9.6328     8.0580   110.1906    98.3094  -999.2500
  511.5000   -18.8220     9.6280     8.0402   110.2939    98.2287  -999.2500
  512.0000   -19.0731     9.5513     8.0224   110.3962    98.4815  -999.2500
  512.5000   -19.4561     9.4754     8.0047   110.4976    98.9011  -999.2500
  513.0000   -19.8377     9.3972     7.9870   110.6090    99.3207  -999.2500
  513.5000   -20.2218     9.3446     7.9682   111.8144    99.9101  -999.2500
  514.0000   -20.6033     9.2972     7.8930   113.1050   100.5395  -999.2500
  514.5000   -20.8451     9.2853     7.7196   114.3994   101.1988  -999.2500
  515.0000   -20.5109     9.2931     7.5477   115.6156   101.5556  -999.2500
  515.5000   -20.1908     9.2635     7.3754   119.2072   101.9302  -999.2500
  516.0000   -19.8711     9.1082     7.2032   122.6015   102.3048  -999.2500
  516.5000   -19.5517     8.9072     7.0310   125.9957   102.6973  -999.2500
  517.0000   -19.2323     8.6605     6.8588   129.3900   103.6463  -999.2500
  517.5000   -18.9124     8.4147     6.6864   132.7842   104.5979  -999.2500
  518.0000   -18.5921     8.1678     6.5137   136.1785   105.3166  -999.2500
  518.5000   -18.3015     7.9668     6.3579   138.9940   106.0089  -999.2500
  519.0000   -18.2777     7.8148     6.3550   140.2853   106.6933  -999.2500
  519.5000   -18.2593     7.6630     6.3077   140.3504   106.6683  -999.2500
  520.0000   -18.2400     7.6560     6.2616   139.4895   105.8109  -999.2500
  520.5000   -18.2205     7.6964     6.4132   138.6386   104.7869  -999.2500
  521.0000   -18.2011     7.9131     6.5757   135.9293   103.7629  -999.2500
  521.5000   -18.1816     8.1249     6.7374   133.2510   102.7389  -999.2500
  522.0000   -18.1621     8.3372     6.8988   130.5728   101.7937  -999.2500
  522.5000   -18.1426     8.4736     7.0604   127.8946   100.8867  -999.2500
  523.0000   -18.1230     8.5460     7.2267   125.2163    99.9807  -999.2500
  523.5000   -18.1011     8.6165     7.2193   124.6246    99.0795  -999.2500
  524.0000   -18.1833     8.6866     7.1703   124.6246    98.2625  -999.2500
  524.5000   -18.2865     8.7400     7.1206   124.6246    97.5507  -999.2500
  525.0000   -18.3900     8.7394     7.0714   124.8171    96.8389  -999.2500
  525.5000   -18.4935     8.7375     7.0222   125.2144    96.6647  -999.2500
  526.0000   -18.5987     8.6348     6.9729   125.6118    96.6170  -999.2500
  526.5000   -18.6907     8.5220     6.9239   126.0091    96.6502  -999.2500
  527.0000   -18.4556     8.4444     6.8738   126.4064    96.7243  -999.2500
  527.5000   -18.2059     8.3879     6.8892   126.8037    96.8347  -999.2500
  528.0000   -17.9567     8.3637     6.9381   127.2010    96.9452  -999.2500
  528.5000   -17.7084     8.3747     6.9879   127.6276    97.0556  -999.2500
  529.0000   -17.5293     8.4257     7.0376   126.6707    97.3145  -999.2500
  529.5000   -17.7855     8.4901     7.0873   125.6376    97.6847  -999.2500
  530.0000   -18.0357     8.5548     7.1369   124.6047    98.0549  -999.2500
  530.5000   -18.2852     8.6194     7.1866   123.5716    98.3683  -999.2500
  531.0000   -18.5337     8.6799     7.2363   122.5380    98.5681  -999.2500
  531.5000   -18.7833     8.7193     7.2860   121.5031    98.7679  -999.2500
  532.0000   -18.8808     8.7580     7.3356   120.4751    98.9677  -999.2500
  532.5000   -18.8511     8.8051     7.3454   119.7353    99.2408  -999.2500
  533.0000   -18.8186     8.8534     7.3133   120.4862    99.6603  -999.2500
  533.5000   -18.7862     8.9034     7.2810   121.2241   100.0799  -999.2500
  534.0000   -18.7542     8.8610     7.2486   121.9620   100.4995  -999.2500
  534.5000   -18.7214     8.7752     7.2163   122.6998   100.9191  -999.2500
  535.0000   -18.6361     8.6875     7.1841   123.4377   101.3387  -999.2500
  535.5000   -18.4345     8.6013     7.1518   124.1756   101.5295  -999.2500
  536.0000   -18.2348     8.5888     7.1195   124.8016   101.6019  -999.2500
  536.5000   -18.0348     8.5787     7.0872   125.2535   101.6742  -999.2500
  537.0000   -17.8345     8.6221     7.0549   125.7055   101.7465  -999.2500
  537.5000   -17.6376     8.6733     7.0226   126.1574   101.8189  -999.2500
  538.0000   -17.5161     8.6699     6.9904   126.6094   101.8979  -999.2500
  538.5000   -17.5775     8.6579     6.9581   127.0613   101.7932  -999.2500
  539.0000   -17.6354     8.5966     6.9258   127.5133   101.6761  -999.2500
  539.5000   -17.6940     8.5317     6.8935   127.9652   101.5595  -999.2500
  540.0000   -17.7525     8.4677     6.8612   128.4172   101.5484  -999.2500
  540.5000   -17.8109     8.4321     6.8289   128.8691   101.6534  -999.2500
  541.0000   -17.8693     8.4018     6.7967   129.3211   101.7574  -999.2500
  541.5000   -17.9277     8.3715     6.7635   129.7730   101.6698  -999.2500
  542.0000   -17.9862     8.3366     6.7523   130.2250   101.4595  -999.2500
  542.5000   -18.0450     8.2970     6.7466   130.6769   101.2487  -999.2500
  543.0000   -18.1006     8.2282     6.7409   131.1289   101.5984  -999.2500
  543.5000   -18.0493     8.1587     6.7351   131.5862   101.7636  -999.2500
  544.0000   -17.9891     8.1108     6.7294   131.3144   101.1988  -999.2500
  544.5000   -17.9291     8.0771     6.7237   130.9603   100.6340  -999.2500
  545.0000   -17.8693     8.0780     6.7179   130.6027   100.6993  -999.2500
  545.5000   -17.8095     8.0781     6.7122   130.2468   100.9615  -999.2500
  546.0000   -17.7496     8.0781     6.7064   129.8906   100.9532  -999.2500
  546.5000   -17.6898     8.0781     6.7007   129.8599   100.6473  -999.2500
  547.0000   -17.6300     8.0782     6.6950   130.7207   100.4995  -999.2500
  547.5000   -17.5701     8.0748     6.6892   131.5816   101.0240  -999.2500
  548.0000   -17.5103     8.0496     6.6835   132.4424   101.0458  -999.2500
  548.5000   -17.4503     8.0243     6.6777   133.3033   100.8164  -999.2500
  549.0000   -17.3903     7.9991     6.6719   133.4398   100.5869  -999.2500
  549.5000   -17.3326     7.9739     6.6660   133.1254   100.8047  -999.2500
  550.0000   -17.3958     7.9487     6.6609   132.8112   101.2976    57.2435
  550.5000   -17.5937     7.9230     6.6960   132.4971   101.7906    55.4326
  551.0000   -17.7908     7.8998     6.8224   132.1843   102.2835    56.3893
  551.5000   -17.9887     7.9540     6.9474   131.8624   102.6973    55.9844
  552.0000   -18.1863     8.0258     7.0721   131.1830   102.4368    55.4123
  552.5000   -18.3841     8.1522     7.1972   129.3054   101.9893    57.8765
  553.0000   -18.5822     8.2695     7.2461   127.4489   101.5417    58.7962
  553.5000   -18.7778     8.3293     7.2282   125.5899   101.3682    57.0800
  554.0000   -18.9028     8.3916     7.2088   123.7309   101.5203    58.6530
  554.5000   -18.7574     8.4454     7.1894   121.8586   101.6723    55.0610
  555.0000   -18.5319     8.4722     7.1701   122.1123   101.8244    50.9533
  555.5000   -18.3035     8.4992     7.1508   122.6739   101.9765    50.8310
  556.0000   -18.0755     8.5262     7.1316   123.2428   102.1285    54.5015
  556.5000   -17.8477     8.5538     7.1123   123.8086   102.2806    61.1607
  557.0000   -17.6197     8.5758     7.0931   124.3744   102.3976    58.4912
  557.5000   -17.3919     8.5163     7.0739   124.9402   102.5265    56.2659
  558.0000   -17.1527     8.4563     7.0476   125.5059   102.6797    55.5269
