~VERSION INFORMATION
 VERS.                2.0:   CWLS LOG ASCII STANDARD - VERSION 2.0
 WRAP.                 NO:   ONE LINE PER DEPTH STEP
~WELL INFORMATION
#MNEM.UNIT      DATA TYPE    INFORMATION
#----------   ------------   ------------------------------
 STRT.F           32.0000:   START DEPTH
 STOP.F          501.0000:   STOP DEPTH
 STEP.F            0.5000:   STEP LENGTH
 NULL.          -999.2500:   NO VALUE
 COMP.    FENIX & SCISSON:   COMPANY
 WELL.    NPR "SX" #75-10:   WELL
 FLD .             TEAPOT:   FIELD
 LOC .      S10 T38N R78W:   LOCATION
 CNTY.            NATRONA:   COUNTY
 STAT.            WYOMING:   STATE
 CTRY. UNITED STATES OF AMERICA:   COUNTRY
 SRVC.              Welex:   SERVICE COMPANY
 DATE.        08-MAR-1977:   LOGDATE
 API .       490251029200:   API NUMBER
~CURVE INFORMATION
#MNEM.UNIT       API CODE    CURVE DESCRIPTION
#----------   ------------   ------------------------------
 DEPT.F                  :   
 SPR .MV     07 010 01 00:   SPONTANEOUS POTENTIAL
 ILD .OHMM   07 120 46 00:   INDUCTION LOG DEEP
 ILM .OHMM   07 120 44 00:   INDUCTION LOG MEDIUM
 SGRD.OHMM   07 221 05 00:   SHALLOW SHORT GUARD RESISTIVITY
 GRD .GAPI   45 310 01 00:   GAMMA RAY FROM DENSITY LOG
 CALD.IN     45 280 60 00:   CALIPER FROM DENSITY LOG
 CORR.G/C3   45 356 01 00:   DENSITY CORRECTION
 RHOB.G/C3   45 350 01 00:   BULK DENSITY
 DPHI.DEC    45 890 12 00:   DENSITY POROSITY SANDSTONE
~PARAMETER INFORMATION
#MNEM.UNIT          VALUE    DESCRIPTION
#----------   ------------   ------------------------------
 PD  .                 GL:   PERMANENT DATUM
 EPD .F              5184:   ELEVATION PERMANENT DATUM
 LMF .                 GL:   LOG MEASURED FROM
 DAPD.F                GL:   FEET ABOVE PERMANENT DATUM
 EGL .F              5184:   GROUND LEVEL
 DATE.          03-8-1977:   RUN DATE
 RUN .                  1:   RUN NUMBER
 DD  .F               510:   DEPTH DRILLER
 DL  .F               505:   DEPTH LOGGER
 BLI .F               503:   BOTTOM LOG INTERVAL
 TLI .F                35:   TOP LOG INTERVAL
 CS  .IN            8.625:   CASING SIZE
 CBD .F                42:   CASING BOTTOM DRILLER
 CBL .F                43:   CASING BOTTOM LOGGER
 BS  .IN            7.875:   BIT SIZE
 BSD .F               510:   BIT SIZE AT DEPTH
 DFT .            KCL MUD:   DRILLING FLUID TYPE
 DFD .                8.6:   DRILLING FLUID DENSITY
 DFV .                 36:   DRILLING FLUID VISCOSITY
 DFPH.                9.5:   DRILLING FLUID PH
 DFL .                  2:   DRILLING FLUID LOSS
 MSS .           FLOWLINE:   MUD SAMPLE SOURCE
 RMS .OHMM            .49:   RESISTIVITY MUD SAMPLE
 MST .F                56:   MUD SAMPLE TEMPERATURE
 RMF .OHMM            .42:   RESISTIVITY MUD FILTRATE SAMPLE
 MFST.F                56:   MUD FILTRATE SAMPLE TEMPERATURE
 RMC .OHMM            .62:   RESISTIVITY MUD CAKE
 MCST.F                56:   MUD CAKE SAMPLE TEMPERATURE
 MFSS.               MEAS:   MUD FILTRATE SAMPLE SOURCE
 MCSS.               MEAS:   MUD CAKE SAMPLE SOURCE
 RMB .OHMM            .44:   RESISTIVITY MUD AT BHT
 BHT .F                62:   BOTTOM HOLE TEMPERATURE
 TCS .HRS               2:   TIME CURCULATED STOPPED
 MRT .F                62:   MAXIMUM RECORDED TEMPERATURE
 LUN .               8611:   LOGGING UNIT NUMBER
 LUL .           GILLETTE:   LOGGING UNIT LOCATION
 ENGI.            C. DOAK:   RECORDING ENGINEER
 WITN.           S. BURNE:   WITNESSED BY
 CLNT.            A2DTECH:   CLIENT CODE
 ORIG.        2" 5" PRINT:   ORIGIN OF DATA
 UWI .       490251029200:   UNIQUE WELL ID
 DICO. A2D Technologies, Inc.:   DIGITIZING COMPANY
~OTHER INFORMATION
~A   DEPT      SPR        ILD        ILM       SGRD         GRD        CALD      CORR        RHOB     DPHI   
# ...
  178.0000   -44.5324     4.8973     6.1667     8.1942   120.5823     8.0805     0.0655     2.4547     0.1128
  178.5000   -44.3896     4.9634     6.7804     8.1919   121.1932     8.0820     0.0686     2.4592     0.1089
  179.0000   -44.0998     5.0656     7.1140     8.2460   120.0157     8.0835     0.0718     2.4683     0.1043
  179.5000   -43.8121     5.1787     7.2114     8.6520   118.3911     8.0850     0.0764     2.4789     0.0989
  180.0000   -43.5222     5.4236     7.3602     9.0780   119.0020     8.1013     0.0810     2.4834     0.0974
  180.5000   -43.3838     5.6122     7.6688     9.3943   120.2090     8.1028     0.0827     2.4805     0.1001
  181.0000   -43.2410     5.8476     8.1579     9.6548   120.3728     8.0894     0.0828     2.4791     0.1004
  181.5000   -42.9534     6.0935     8.3906     9.2493   120.9837     8.0447     0.0829     2.4814     0.0991
  182.0000   -42.9620     6.2616     8.4397     8.4045   122.3418     7.9731     0.0830     2.4814     0.0988
  182.5000   -42.8192     6.3904     8.3213     9.3191   121.3040     7.9150     0.0814     2.4778     0.1018
  183.0000   -42.6808     6.5276     8.1486     9.7114   121.3264     7.9016     0.0682     2.4711     0.1060
  183.5000   -42.6895     6.6557     7.8702     9.8431   121.3413     7.9630     0.0578     2.4674     0.1074
  184.0000   -42.5489     6.7465     7.8610     9.6388   120.6886     8.0092     0.0534     2.4803     0.0996
  184.5000   -42.5597     6.8375     7.9763     9.8379   119.1349     8.0405     0.0520     2.4863     0.0957
  185.0000   -42.5683     6.8831     8.2721    10.1130   120.1966     8.0420     0.0566     2.4894     0.0942
  185.5000   -42.5770     6.9280     8.5990    10.3903   121.2546     8.0435     0.0583     2.4909     0.0924
  186.0000   -42.5856     6.9736     8.8984    10.4602   120.3751     8.0449     0.0584     2.4865     0.0938
  186.5000   -42.7435     6.9712     9.0203     9.8948   119.0486     8.0762     0.0540     2.4716     0.1016
  187.0000   -42.7522     6.9684     8.7718     9.8248   118.3182     8.0926     0.0526     2.4671     0.1067
  187.5000   -42.7612     6.9661     8.7092    10.4511   117.7332     8.0941     0.0542     2.4687     0.1076
  188.0000   -42.9209     7.0126     9.1461    10.3765   119.8381     8.1105     0.0543     2.4597     0.1118
  188.5000   -42.9296     7.0588     9.6530    10.0911   120.1509     8.1268     0.0529     2.4606     0.1120
  189.0000   -43.0875     7.0559     9.3878    10.3702   121.9541     8.1130     0.0501     2.4539     0.1158
  189.5000   -43.0961     7.0535     8.6396    10.6578   124.2006     8.1149     0.0442     2.4450     0.1202
  190.0000   -43.1048     7.0511     8.3444    10.6549   122.8778     8.1011     0.0458     2.4473     0.1207
  190.5000   -43.2627     7.0975     8.2854    10.5060   122.2964     8.1029     0.0504     2.4563     0.1149
  191.0000   -43.2716     7.0947     8.4558    10.3592   121.5660     8.0891     0.0536     2.4624     0.1107
  191.5000   -43.4314     7.0923     8.3243    10.1441   120.6866     8.0757     0.0552     2.4677     0.1080
  192.0000   -43.5893     7.0900     7.9420     9.8651   119.8072     8.0623     0.0583     2.4738     0.1044
  192.5000   -43.5979     7.0876     7.8853     9.7266   119.0768     8.0641     0.0584     2.4769     0.1005
  193.0000   -43.6066     7.0852     7.8832     9.8593   118.7928     8.0656     0.0570     2.4754     0.1019
  193.5000   -43.7645     7.0341     7.9362    10.0629   119.8515     8.0969     0.0555     2.4695     0.1052
  194.0000   -43.7732     7.0312     8.0995    10.1306   121.8037     8.1133     0.0526     2.4568     0.1094
  194.5000   -43.7821     6.9805     8.1534    10.1272   122.5636     8.1297     0.0499     2.4524     0.1133
  195.0000   -43.7926     6.9302     8.2076     9.8487   122.2802     8.1311     0.0560     2.4554     0.1145
  195.5000   -43.8013     6.8329     8.1485     9.5750   123.7864     8.1177     0.0577     2.4578     0.1120
  196.0000   -43.8099     6.7369     8.1463     9.5095   123.9492     8.1043     0.0563     2.4563     0.1147
  196.5000   -43.8186     6.5512     7.9773     9.7725   122.6227     8.0745     0.0549     2.4495     0.1210
  197.0000   -43.8272     6.3706     7.7581     9.7699   123.1355     8.0327     0.0505     2.4405     0.1249
  197.5000   -43.9851     6.1519     7.4931     9.5012   123.8450     8.0193     0.0491     2.4321     0.1306
  198.0000   -44.1433     5.9003     6.6960     8.9264   123.1804     8.0361     0.0492     2.4209     0.1350
  198.5000   -44.4524     5.6200     6.1307     8.1018   122.0893     8.0823     0.0524     2.4109     0.1374
  199.0000   -44.6103     5.2434     6.0035     7.6044   119.8686     8.0986     0.0555     2.4042     0.1395
  199.5000   -45.0667     4.8919     5.7585     6.8605   118.3931     8.0852     0.0586     2.3953     0.1422
  200.0000   -45.3190     4.4397     5.3137     6.4643   116.6158     8.0871     0.0591     2.3872     0.1512
  200.5000   -45.9188     3.9737     4.9409     6.1372   117.4893     8.0968     0.0619     2.3774     0.1619
  201.0000   -46.2841     3.6536     4.5501     5.8827   117.8384     8.1065     0.0575     2.3677     0.1649
  201.5000   -46.2912     3.3408     4.1014     5.4921   116.9576     8.1161     0.0532     2.3468     0.1757
  202.0000   -46.2985     3.0739     3.6645     5.0534   114.5832     8.1091     0.0473     2.3318     0.1895
  202.5000   -46.3072     2.8480     3.3093     4.3696   114.4510     8.0961     0.0429     2.3206     0.1960
  203.0000   -46.3143     2.6753     3.1522     3.6502   113.2722     8.0832     0.0401     2.3124     0.1999
  203.5000   -46.3215     2.5478     3.0234     3.2194   112.6861     8.0851     0.0387     2.3193     0.1927
  204.0000   -46.1791     2.4775     3.0016     3.0480   117.0249     8.0722     0.0419     2.3433     0.1783
  204.5000   -45.8771     2.4765     3.0441     3.5708   120.1680     8.0592     0.0450     2.3786     0.1659
  205.0000   -45.5983     2.5099     3.2136     4.1267   123.4601     8.0462     0.0467     2.3997     0.1507
  205.5000   -45.3052     2.6151     3.3715     4.3891   125.8581     8.0332     0.0469     2.3998     0.1485
  206.0000   -45.0155     2.8009     3.4647     5.7927   127.0637     8.0352     0.0410     2.4051     0.1448
  206.5000   -44.7239     3.0836     3.5605     3.9537   127.6733     8.0372     0.0396     2.4171     0.1344
  207.0000   -44.5761     3.3487     3.8135     3.7141   128.0109     8.0689     0.0413     2.4292     0.1292
  207.5000   -44.2906     3.6365     4.5296     5.3162   128.7681     8.1156     0.0444     2.4345     0.1280
  208.0000   -44.0010     3.8415     5.0218     7.3512   128.9025     8.1324     0.0476     2.4391     0.1244
  208.5000   -44.0081     4.1144     5.4912     8.7327   127.3775     8.1046     0.0493     2.4421     0.1231
  209.0000   -44.0153     4.4157     5.8815     8.4323   126.1561     8.0618     0.0509     2.4512     0.1199
  209.5000   -43.8731     4.7195     6.1280     8.0869   124.3229     8.0487     0.0511     2.4588     0.1168
  210.0000   -43.7310     4.9172     6.2111     7.8094   125.8867     8.0508     0.0497     2.4483     0.1214
  210.5000   -43.8891     5.0534     6.2521     7.5937   127.2371     8.0974     0.0483     2.4371     0.1259
  211.0000   -43.8963     5.1923     6.4243     7.5907   128.5534     8.1143     0.0455     2.4237     0.1311
  211.5000   -44.0526     5.3030     6.6476     7.7457   130.0866     8.1306     0.0426     2.4132     0.1323
  212.0000   -44.0597     5.2598     6.8315     7.9047   130.7985     8.0734     0.0383     2.3990     0.1374
  212.5000   -44.3672     5.1500     6.8252     8.2358   129.8806     8.0600     0.0369     2.3909     0.1500
  213.0000   -44.6728     5.0424     6.6405     8.6402   128.2812     8.0470     0.0371     2.3872     0.1535
  213.5000   -44.6799     4.9031     6.4133     8.7583   127.7092     8.0197     0.0387     2.4060     0.1502
  214.0000   -44.6870     4.7676     6.1089     7.7832   128.2017     8.0216     0.0419     2.4128     0.1394
