~VERSION INFORMATION
 VERS.                2.0:   CWLS LOG ASCII STANDARD - VERSION 2.0
 WRAP.                 NO:   ONE LINE PER DEPTH STEP
~WELL INFORMATION
#MNEM.UNIT      DATA TYPE    INFORMATION
#----------   ------------   ------------------------------
 STRT.F            0.0000:   START DEPTH
 STOP.F          752.0000:   STOP DEPTH
 STEP.F            0.1000:   STEP LENGTH
 NULL.          -999.2500:   NO VALUE
 COMP. BROWN JOHN E&C INC:   COMPANY
 WELL. N P R 3 STX-34 #53-1-34:   WELL
 FLD .             TEAPOT:   FIELD
 LOC .      S34 T39N R78W:   LOCATION
 CNTY.            NATRONA:   COUNTY
 STAT.            WYOMING:   STATE
 CTRY. UNITED STATES OF AMERICA:   COUNTRY
 SRVC.     Atlas Wireline:   SERVICE COMPANY
 DATE.        29-OCT-1991:   LOGDATE
 API .       490252248700:   API NUMBER
~CURVE INFORMATION
#MNEM.UNIT       API CODE    CURVE DESCRIPTION
#----------   ------------   ------------------------------
 DEPT.F                  :   
 GRR .GAPI   07 310 01 00:   GAMMA RAY
 RILD.OHMM   07 120 46 00:   INDUCTION LOG DEEP RESISTIVITY
 RILM.OHMM   07 120 44 00:   RESITIVITY LONG MEDIUM
~PARAMETER INFORMATION
#MNEM.UNIT          VALUE    DESCRIPTION
#----------   ------------   ------------------------------
 PD  .                 GL:   PERMANENT DATUM
 EPD .F              5067:   ELEVATION PERMANENT DATUM
 LMF .                 KB:   LOG MEASURED FROM
 DAPD.F                10:   FEET ABOVE PERMANENT DATUM
 DMF .                 KB:   DRILLING MEASURED FROM
 EKB .F              5077:   KELLING BUSHING
 EGL .F              5067:   GROUND LEVEL
 DATE.        29-OCT-1991:   RUN DATE
 RUN .                  1:   RUN NUMBER
 DD  .F               760:   DEPTH DRILLER
 DL  .F               760:   DEPTH LOGGER
 BLI .F               758:   BOTTOM LOG INTERVAL
 TLI .F                 0:   TOP LOG INTERVAL
 CS  .IN            9.625:   CASING SIZE
 CBD .F                52:   CASING BOTTOM DRILLER
 CBL .F                52:   CASING BOTTOM LOGGER
 BS  .IN             8.75:   BIT SIZE
 BSD .F               760:   BIT SIZE AT DEPTH
 DFT .        AIR DRILLED:   DRILLING FLUID TYPE
 MRT .F               154:   MAXIMUM RECORDED TEMPERATURE
 LUN .            HL 6307:   LOGGING UNIT NUMBER
 LUL .             CASPER:   LOGGING UNIT LOCATION
 ENGI.          RASMUSSEN:   RECORDING ENGINEER
 WITN.        GARY STRONG:   WITNESSED BY
 CLNT.            A2DTECH:   CLIENT CODE
 ORIG.           5" PRINT:   ORIGIN OF DATA
 UWI .       490252248700:   UNIQUE WELL ID
 DICO. A2D Technologies, Inc.:   DIGITIZING COMPANY
~OTHER INFORMATION
~A    DEPT      GRR      RILD       RILM   
# ...
  273.0000   153.9607     8.8820     9.0538
  273.1000   153.3049     8.8817     9.0538
  273.2000   152.0549     8.8815     9.0538
  273.3000   150.3648     8.9097     9.0538
  273.4000   149.0070     8.9431     9.0538
  273.5000   148.0918     8.9498     9.0832
  273.6000   146.9143     9.0052     9.1356
  273.7000   145.4142     9.0049     9.1811
  273.8000   143.9516     9.0047     9.1811
  273.9000   143.2412     9.0044     9.1811
  274.0000   142.9592     9.0193     9.1811
  274.1000   142.7417     9.0711     9.1811
  274.2000   142.6578     9.1301     9.1963
  274.3000   142.6584     9.1299     9.2454
  274.4000   142.5977     9.1643     9.2454
  274.5000   142.3570     9.1932     9.2914
  274.6000   142.3577     9.2056     9.3102
  274.7000   142.1511     9.2570     9.3102
  274.8000   142.0563     9.2567     9.3102
  274.9000   142.0569     9.2565     9.3102
  275.0000   142.0575     9.2562     9.3102
  275.1000   142.0581     9.2560     9.3102
  275.2000   142.3072     9.2557     9.3102
  275.3000   142.5582     9.2555     9.3102
  275.4000   142.8091     9.2552     9.3102
  275.5000   143.0600     9.2550     9.3102
  275.6000   143.3110     9.2842     9.3102
  275.7000   143.5746     9.3192     9.3102
  275.8000   143.5752     9.3189     9.3102
  275.9000   143.5758     9.3187     9.2937
  276.0000   143.5764     9.3184     9.2403
  276.1000   143.4961     9.3182     9.1811
  276.2000   143.2464     9.3179     9.1811
  276.3000   142.9731     9.3022     9.1811
  276.4000   142.2935     9.2526     9.1569
  276.5000   141.8921     9.2523     9.1043
  276.6000   141.5201     9.2521     9.0538
  276.7000   141.1601     9.2519     9.0538
  276.8000   141.1607     9.2516     9.0538
  276.9000   141.1614     9.2513     9.0538
  277.0000   141.1619     9.2498     9.0332
  277.1000   141.4896     9.1865     8.9908
  277.2000   141.8796     9.1434     8.9908
  277.3000   142.1305     9.0906     8.9908
  277.4000   142.3882     9.0382     8.9517
  277.5000   142.9804     8.9954     8.9282
  277.6000   143.8007     8.9951     8.9282
  277.7000   144.9552     8.8950     8.9282
  277.8000   146.6092     8.8701     8.9282
  277.9000   148.7666     8.8419     8.9282
  278.0000   150.5477     8.7908     8.9282
  278.1000   152.7652     8.7465     8.9282
  278.2000   153.8542     8.7463     8.9144
  278.3000   154.4639     8.7000     8.8632
  278.4000   155.0548     8.6498     8.8044
  278.5000   155.7691     8.6244     8.8044
  278.6000   156.3002     8.5960     8.8044
  278.7000   155.8300     8.5045     8.7832
  278.8000   154.9635     8.5043     8.7328
  278.9000   154.2247     8.4619     8.6823
  279.0000   153.6461     8.4131     8.6823
  279.1000   152.8956     8.3645     8.6047
  279.2000   152.0678     8.3162     8.5619
  279.3000   151.3949     8.2682     8.5444
  279.4000   150.8168     8.2115     8.4953
  279.5000   150.3167     8.1731     8.4431
  279.6000   149.8166     8.1260     8.4431
  279.7000   149.3165     8.0791     8.4083
  279.8000   148.7432     8.0324     8.3600
  279.9000   148.3165     7.9846     8.3260
  280.0000   147.8164     7.9400     8.3183
  280.1000   147.3164     7.8942     8.2106
  280.2000   146.8732     7.8486     8.1697
  280.3000   146.6235     7.7883     8.1228
  280.4000   146.3263     7.7100     8.0557
  280.5000   146.1240     7.7097     7.9634
  280.6000   146.0248     7.6288     7.8721
  280.7000   146.0254     7.6026     7.7645
  280.8000   146.0260     7.5594     7.6930
  280.9000   146.0266     7.4969     7.6049
  281.0000   146.0272     7.4904     7.5178
  281.1000   146.0278     7.3926     7.4388
  281.2000   146.1680     7.3924     7.3941
  281.3000   146.3316     7.3646     7.3536
  281.4000   146.3673     7.3221     7.2803
  281.5000   146.6354     7.2895     7.2408
  281.6000   146.6360     7.2877     7.2408
  281.7000   146.8175     7.1881     7.2365
  281.8000   147.0685     7.1546     7.1904
  281.9000   147.4724     7.1133     7.1536
  282.0000   148.1755     7.0566     7.1404
  282.1000   148.4545     6.9896     7.1404
  282.2000   149.5664     6.9894     7.1197
  282.3000   150.8187     6.9505     7.0414
  282.4000   151.7176     6.9104     7.0414
  282.5000   152.1533     6.8921     7.0414
  282.6000   152.3909     6.8919     7.0414
  282.7000   152.3916     6.8917     7.0414
  282.8000   152.3921     6.8915     7.0414
  282.9000   152.3927     6.8913     7.0414
  283.0000   152.5002     6.8911     7.0414
  283.1000   152.7512     6.9105     7.1039
  283.2000   152.9997     6.9502     7.1404
  283.3000   153.0004     6.9873     7.1404
  283.4000   153.2014     6.9871     7.1456
  283.5000   153.6006     7.0216     7.1904
  283.6000   153.9098     7.0620     7.2284
  283.7000   153.9979     7.1206     7.2408
  283.8000   154.5162     7.2029     7.2613
  283.9000   154.7587     7.2846     7.3032
  284.0000   155.0096     7.2843     7.3426
  284.1000   155.1232     7.3181     7.3426
  284.2000   154.9535     7.3349     7.3788
  284.3000   154.3877     7.3347     7.4214
  284.4000   153.3096     7.3272     7.4459
  284.5000   152.8482     7.2834     7.4644
  284.6000   152.1694     7.2832     7.5506
  284.7000   151.4190     7.3147     7.5506
  284.8000   150.5943     7.3337     7.5850
  284.9000   149.5939     7.3476     7.6288
  285.0000   148.4721     7.3950     7.6568
  285.1000   147.3720     7.4881     7.6702
  285.2000   146.2890     7.5273     7.7645
  285.3000   145.4040     7.5706     7.7645
  285.4000   144.8436     7.6141     7.7971
  285.5000   144.8553     7.6578     7.8421
  285.6000   145.1474     7.7018     7.8737
  285.7000   145.5663     7.7524     7.8777
  285.8000   146.0676     7.7906     7.9289
  285.9000   146.7781     7.8063     7.9690
  286.0000   147.5179     7.8257     8.0150
  286.1000   147.2682     7.8707     8.0613
  286.2000   147.0185     7.9152     8.0967
  286.3000   146.7688     7.9149     8.0967
  286.4000   146.3730     7.9148     8.0967
  286.5000   145.7791     7.9145     8.1347
  286.6000   145.0703     7.9143     8.1817
  286.7000   144.5489     7.9141     8.2106
  286.8000   143.8305     7.9139     8.2106
  286.9000   143.2676     7.9137     8.2106
  287.0000   142.2268     7.9134     8.2106
  287.1000   140.8084     7.9132     8.2106
  287.2000   139.5883     7.9130     8.2106
  287.3000   138.5011     7.9128     8.2106
  287.4000   137.8153     7.9125     8.2106
  287.5000   137.4181     7.9123     8.2106
  287.6000   137.1684     7.9121     8.2106
  287.7000   136.9906     7.9119     8.2106
  287.8000   137.0110     7.9117     8.2106
  287.9000   137.2945     7.9115     8.2106
  288.0000   137.2950     7.9112     8.2106
  288.1000   137.4613     7.9110     8.2106
  288.2000   137.5988     7.9108     8.2106
  288.3000   137.5994     7.9106     8.2106
  288.4000   137.6089     7.9104     8.2106
  288.5000   137.9033     7.9101     8.2106
  288.6000   138.1107     7.9099     8.2106
  288.7000   138.3617     7.9097     8.2106
  288.8000   138.6126     7.8827     8.2106
  288.9000   138.9137     7.8543     8.2106
  289.0000   139.4191     7.8541     8.2106
  289.1000   139.4197     7.8538     8.2042
  289.2000   139.6163     7.8536     8.1534
  289.3000   139.8673     7.8534     8.1534
  289.4000   140.1182     7.8532     8.1202
  289.5000   140.3691     7.8530     8.0967
  289.6000   140.6330     7.8528     8.0967
  289.7000   142.2953     7.8525     8.0967
  289.8000   144.0480     7.8523     8.0967
  289.9000   145.6681     7.8521     8.0967
  290.0000   146.9289     7.8519     8.0967
  290.1000   147.7091     7.8641     8.0967
  290.2000   148.8061     7.9064     8.0864
  290.3000   149.2597     7.9061     8.0404
  290.4000   149.4124     7.9059     8.0404
  290.5000   149.4130     7.9057     8.0404
  290.6000   149.2740     7.9055     8.0404
  290.7000   148.7740     7.9053     8.0232
  290.8000   148.2046     7.9051     7.9844
  290.9000   147.7739     7.9048     7.9844
  291.0000   147.2738     7.9046     7.9844
  291.1000   146.6627     7.9044     7.9844
