~VERSION INFORMATION
 VERS.                2.0:   CWLS LOG ASCII STANDARD - VERSION 2.0
 WRAP.                 NO:   ONE LINE PER DEPTH STEP
~WELL INFORMATION
#MNEM.UNIT      DATA TYPE    INFORMATION
#----------   ------------   ------------------------------
 STRT.F           80.0000:   START DEPTH
 STOP.F         1056.0000:   STOP DEPTH
 STEP.F            0.5000:   STEP LENGTH
 NULL.          -999.2500:   NO VALUE
 COMP. U S NAVY-INTEX OIL:   COMPANY
 WELL.      NPR 3 #68-S-2:   WELL
 FLD .        TEAPOT DOME:   FIELD
 LOC .       S2 T38N R78W:   LOCATION
 CNTY.            NATRONA:   COUNTY
 STAT.            WYOMING:   STATE
 CTRY. UNITED STATES OF AMERICA:   COUNTRY
 SRVC.       Schlumberger:   SERVICE COMPANY
 DATE.        21-JUL-1964:   LOGDATE
 API .       490250638800:   API NUMBER
~CURVE INFORMATION
#MNEM.UNIT       API CODE    CURVE DESCRIPTION
#----------   ------------   ------------------------------
 DEPT.F                  :   
 SPR .MV     05 010 01 00:   SPONTANEOUS POTENTIAL FROM RES.
 ASN .OHMM   05 041 16 00:   AMPLIFIED SHORT NORMAL 16"
 ILD .OHMM   05 120 46 00:   INDUCTION LOG DEEP
 CILD.MMHO   05 110 46 00:   CONDUCTIVITY INDUCTION LOG DEEP
 GR  .GAPI   30 310 01 00:   GAMMA RAY
 CALS.IN     60 280 50 00:   CALIPER FROM SONIC LOG
 DT  .US/F   60 520 00 00:   INTERVAL TRANSIT TIME
~PARAMETER INFORMATION
#MNEM.UNIT          VALUE    DESCRIPTION
#----------   ------------   ------------------------------
 PD  .                 GL:   PERMANENT DATUM
 EPD .F              5201:   ELEVATION PERMANENT DATUM
 LMF .                 KB:   LOG MEASURED FROM
 DAPD.F                 5:   FEET ABOVE PERMANENT DATUM
 DMF .                 KB:   DRILLING MEASURED FROM
 EKB .F              5206:   KELLING BUSHING
 EGL .F              5201:   GROUND LEVEL
 DATE.          8-12-1964:   RUN DATE
 RUN .                  1:   RUN NUMBER
 DD  .F              1055:   DEPTH DRILLER
 DL  .F              1057:   DEPTH LOGGER
 BLI .F              1055:   BOTTOM LOG INTERVAL
 TLI .F               450:   TOP LOG INTERVAL
 CS  .IN              4.5:   CASING SIZE
 BS  .IN             6.75:   BIT SIZE
 DFT .            GEL OIL:   DRILLING FLUID TYPE
 DFD .                9.3:   DRILLING FLUID DENSITY
 DFV .                 48:   DRILLING FLUID VISCOSITY
 DFPH.                 10:   DRILLING FLUID PH
 DFL .                 10:   DRILLING FLUID LOSS
 MSS .           FLOWLINE:   MUD SAMPLE SOURCE
 RMS .OHMM           1.07:   RESISTIVITY MUD SAMPLE
 MST .F                95:   MUD SAMPLE TEMPERATURE
 RMF .OHMM            .67:   RESISTIVITY MUD FILTRATE SAMPLE
 MFST.F                95:   MUD FILTRATE SAMPLE TEMPERATURE
 RMC .OHMM           1.44:   RESISTIVITY MUD CAKE
 MCST.F                95:   MUD CAKE SAMPLE TEMPERATURE
 MFSS.                 FP:   MUD FILTRATE SAMPLE SOURCE
 MCSS.                 FP:   MUD CAKE SAMPLE SOURCE
 TCS .HRS               1:   TIME CURCULATED STOPPED
 LUN .               4507:   LOGGING UNIT NUMBER
 LUL .               CSPR:   LOGGING UNIT LOCATION
 ENGI.             DANNER:   RECORDING ENGINEER
 WITN.         JORGENESEN:   WITNESSED BY
 CLNT.            A2DTECH:   CLIENT CODE
 ORIG.           2" PRINT:   ORIGIN OF DATA
 UWI .       490250638800:   UNIQUE WELL ID
 DICO. A2D Technologies, Inc.:   DIGITIZING COMPANY
~OTHER INFORMATION
~A   DEPT      SPR          ASN        ILD      CILD        GR       CALS         DT   
# ...
  307.5000   -39.3132     7.0371     5.4641   178.8380  -999.2500  -999.2500  -999.2500
  308.0000   -39.0462     6.9727     5.4641   179.4960  -999.2500  -999.2500  -999.2500
  308.5000   -38.8972     6.9089     5.4641   180.4773  -999.2500  -999.2500  -999.2500
  309.0000   -38.7481     6.8227     5.4641   181.7493  -999.2500  -999.2500  -999.2500
  309.5000   -38.5991     6.7899     5.4641   181.0453  -999.2500  -999.2500  -999.2500
  310.0000   -38.5991     6.7631     5.4641   179.5382  -999.2500  -999.2500  -999.2500
  310.5000   -38.5991     6.8082     5.4641   179.0636  -999.2500  -999.2500  -999.2500
  311.0000   -38.5991     6.8290     5.4641   177.8944  -999.2500  -999.2500  -999.2500
  311.5000   -38.5991     6.8383     5.4641   177.3400  -999.2500  -999.2500  -999.2500
  312.0000   -38.7481     6.8234     5.4641   177.3512  -999.2500  -999.2500  -999.2500
  312.5000   -38.7481     6.8310     5.4641   177.3624  -999.2500  -999.2500  -999.2500
  313.0000   -38.8972     6.9285     5.4678   177.3735  -999.2500  -999.2500  -999.2500
  313.5000   -38.8972     7.0441     5.5870   178.1287  -999.2500  -999.2500  -999.2500
  314.0000   -38.8972     7.0636     5.6313   177.3975  -999.2500  -999.2500  -999.2500
  314.5000   -38.8972     7.0475     5.7635   175.1449  -999.2500  -999.2500  -999.2500
  315.0000   -38.8972     7.0337     5.8259   171.4662  -999.2500  -999.2500  -999.2500
  315.5000   -38.8972     7.0488     5.9886   167.3401  -999.2500  -999.2500  -999.2500
  316.0000   -39.0462     7.1718     6.1527   162.2422  -999.2500  -999.2500  -999.2500
  316.5000   -39.0462     7.5137     6.3766   156.6205  -999.2500  -999.2500  -999.2500
  317.0000   -39.0462     7.8603     6.5868   151.8671  -999.2500  -999.2500  -999.2500
  317.5000   -39.0462     8.1855     6.6898   147.7130  -999.2500  -999.2500  -999.2500
  318.0000   -39.1406     8.3685     6.8114   146.9792  -999.2500  -999.2500  -999.2500
  318.5000   -39.1952     8.3836     6.8532   146.2165  -999.2500  -999.2500  -999.2500
  319.0000   -39.3443     8.3687     6.8002   145.5134  -999.2500  -999.2500  -999.2500
  319.5000   -39.4051     8.2378     6.6617   147.8060  -999.2500  -999.2500  -999.2500
  320.0000   -39.4933     8.0540     6.4122   152.9776  -999.2500  -999.2500  -999.2500
  320.5000   -39.4933     7.7848     6.2126   156.8263  -999.2500  -999.2500  -999.2500
  321.0000   -39.4933     7.7055     5.9855   161.9273  -999.2500  -999.2500  -999.2500
  321.5000   -39.4933     7.6794     5.8302   166.9088  -999.2500  -999.2500  -999.2500
  322.0000   -39.4933     7.6578     5.7635   168.6448  -999.2500  -999.2500  -999.2500
  322.5000   -39.4933     7.6036     5.7635   166.4267  -999.2500  -999.2500  -999.2500
  323.0000   -39.4933     7.5183     5.8383   164.2339  -999.2500  -999.2500  -999.2500
  323.5000   -39.4722     7.4248     5.9843   161.2395  -999.2500  -999.2500  -999.2500
  324.0000   -39.3443     7.5598     6.1477   158.2835  -999.2500  -999.2500  -999.2500
  324.5000   -39.3443     7.7736     6.3367   155.1302  -999.2500  -999.2500  -999.2500
  325.0000   -39.3443     8.0247     6.5495   151.5995  -999.2500  -999.2500  -999.2500
  325.5000   -39.3443     8.2248     6.7365   146.9484  -999.2500  -999.2500  -999.2500
  326.0000   -39.3443     8.4511     6.8438   141.2065  -999.2500  -999.2500  -999.2500
  326.5000   -39.3443     8.7596     6.9630   137.2878  -999.2500  -999.2500  -999.2500
  327.0000   -39.3865     8.9038     7.1282   133.7574  -999.2500  -999.2500  -999.2500
  327.5000   -39.4933     9.0296     7.3665   130.2271  -999.2500  -999.2500  -999.2500
  328.0000   -39.4933     9.1484     7.6347   128.3235  -999.2500  -999.2500  -999.2500
  328.5000   -39.4933     9.3434     7.8137   127.1243  -999.2500  -999.2500  -999.2500
  329.0000   -39.5901     9.4646     7.8593   127.4034  -999.2500  -999.2500  -999.2500
  329.5000   -39.4933     9.4899     7.8162   128.6350  -999.2500  -999.2500  -999.2500
  330.0000   -39.4933     9.5097     7.6222   130.5803  -999.2500  -999.2500  -999.2500
  330.5000   -39.4933     9.5011     7.4102   133.4784  -999.2500  -999.2500  -999.2500
  331.0000   -39.4908     9.3606     7.1070   141.3190  -999.2500  -999.2500  -999.2500
  331.5000   -39.3443     9.1801     6.6617   147.6275  -999.2500  -999.2500  -999.2500
  332.0000   -39.3443     8.8554     6.4322   152.5009  -999.2500  -999.2500  -999.2500
  332.5000   -39.1952     8.2508     6.3623   154.3465  -999.2500  -999.2500  -999.2500
  333.0000   -39.1381     7.9444     6.3623   154.7541  -999.2500  -999.2500  -999.2500
  333.5000   -39.0462     7.7822     6.3623   154.0216  -999.2500  -999.2500  -999.2500
  334.0000   -38.8972     7.7412     6.4371   153.2871  -999.2500  -999.2500  -999.2500
  334.5000   -38.8972     7.8983     6.4739   153.3012  -999.2500  -999.2500  -999.2500
  335.0000   -38.8972     8.2661     6.5120   152.2694  -999.2500  -999.2500  -999.2500
  335.5000   -38.7481     8.3180     6.5625   151.0901  -999.2500  -999.2500  -999.2500
  336.0000   -38.5991     8.3570     6.6068   149.9306  -999.2500  -999.2500  -999.2500
  336.5000   -38.5991     8.3810     6.6617   148.7612  -999.2500  -999.2500  -999.2500
  337.0000   -38.4501     8.4199     6.6280   150.3813  -999.2500  -999.2500  -999.2500
  337.5000   -38.4501     8.3864     6.5806   154.8545  -999.2500  -999.2500  -999.2500
  338.0000   -38.4054     8.2753     6.3897   162.3071  -999.2500  -999.2500  -999.2500
  338.5000   -38.3010     8.0795     6.1789   166.8019  -999.2500  -999.2500  -999.2500
  339.0000   -38.3010     7.6166     5.9880   171.3963  -999.2500  -999.2500  -999.2500
  339.5000   -38.3010     7.4567     5.8826   173.7687  -999.2500  -999.2500  -999.2500
  340.0000   -38.3010     7.3673     5.7635   175.7441  -999.2500  -999.2500  -999.2500
  340.5000   -38.1520     7.3047     5.7192   175.0122  -999.2500  -999.2500  -999.2500
  341.0000   -38.1520     7.2175     5.6749   174.2783  -999.2500  -999.2500  -999.2500
  341.5000   -38.0862     7.0668     5.5389   173.5452  -999.2500  -999.2500  -999.2500
  342.0000   -38.0030     7.0228     5.4641   174.0128  -999.2500  -999.2500  -999.2500
  342.5000   -38.0030     7.1878     5.4641   175.2045  -999.2500  -999.2500  -999.2500
  343.0000   -37.8540     7.2586     5.4641   176.5566  -999.2500  -999.2500  -999.2500
  343.5000   -37.8540     7.3079     5.4535   177.5879  -999.2500  -999.2500  -999.2500
  344.0000   -37.8540     7.2915     5.3892   178.0658  -999.2500  -999.2500  -999.2500
  344.5000   -37.8540     7.2268     5.4135   179.2274  -999.2500  -999.2500  -999.2500
  345.0000   -37.9409     7.0532     5.4641   179.6751  -999.2500  -999.2500  -999.2500
  345.5000   -38.0291     6.8590     5.4641   180.3331  -999.2500  -999.2500  -999.2500
  346.0000   -38.3010     6.7685     5.4716   179.5961  -999.2500  -999.2500  -999.2500
  346.5000   -38.3010     6.8067     5.5389   178.8661  -999.2500  -999.2500  -999.2500
  347.0000   -38.4501     6.8934     5.6138   177.7751  -999.2500  -999.2500  -999.2500
  347.5000   -38.5308     6.9637     5.6886   177.3004  -999.2500  -999.2500  -999.2500
  348.0000   -38.5991     6.9981     5.7236   175.4366  -999.2500  -999.2500  -999.2500
  348.5000   -38.5991     7.0238     5.7635   175.1880  -999.2500  -999.2500  -999.2500
  349.0000   -38.5991     7.0538     5.7148   181.1545  -999.2500  -999.2500  -999.2500
  349.5000   -38.5991     7.0689     5.5208   185.9851  -999.2500  -999.2500  -999.2500
  350.0000   -38.5991     6.9990     5.3144   192.3363  -999.2500  -999.2500  -999.2500
  350.5000   -38.4501     6.8390     5.0692   197.5068  -999.2500  -999.2500  -999.2500
  351.0000   -38.3010     6.5744     4.7879   202.5469  -999.2500  -999.2500  -999.2500
  351.5000   -38.2600     6.3524     4.5496   207.2524  -999.2500  -999.2500  -999.2500
  352.0000   -38.0030     6.1217     4.4012   210.7542  -999.2500  -999.2500  -999.2500
  352.5000   -37.8540     6.0119     4.2665   213.9700  -999.2500  -999.2500  -999.2500
