~VERSION INFORMATION
 VERS.                2.0:   CWLS LOG ASCII STANDARD - VERSION 2.0
 WRAP.                 NO:   ONE LINE PER DEPTH STEP
~WELL INFORMATION
#MNEM.UNIT      DATA TYPE    INFORMATION
#----------   ------------   ------------------------------
 STRT.F          142.0000:   START DEPTH
 STOP.F          940.5000:   STOP DEPTH
 STEP.F            0.5000:   STEP LENGTH
 NULL.          -999.2500:   NO VALUE
 COMP. U S NAVY-INTEX OIL:   COMPANY
 WELL.     RESERVE #44S-2:   WELL
 FLD .             TEAPOT:   FIELD
 LOC .       S2 T38N R78W:   LOCATION
 CNTY.            NATRONA:   COUNTY
 STAT.            WYOMING:   STATE
 CTRY. UNITED STATES OF AMERICA:   COUNTRY
 SRVC. Schlumberger Well Surveying Corp:   SERVICE COMPANY
 DATE.        06-AUG-1959:   LOGDATE
 API .       490250644200:   API NUMBER
~CURVE INFORMATION
#MNEM.UNIT       API CODE    CURVE DESCRIPTION
#----------   ------------   ------------------------------
 DEPT.F                  :   
 ASN .OHMM   05 041 16 00:   AMPLIFIER SHORT NORMAL 16"
 CILD.MMHO   05 110 46 00:   CONDUCTIVITY INDUCTION LOG DEEP
 ILD .OHMM   05 110 46 00:   INDUCTION LOG DEEP
 SPR .MV     05 010 01 00:   SPONTANEOUS POTENTIAL FROM RES.
~PARAMETER INFORMATION
#MNEM.UNIT          VALUE    DESCRIPTION
#----------   ------------   ------------------------------
 LMF .                 KB:   LOG MEASURED FROM
 DMF .                 KB:   DRILLING MEASURED FROM
 EDF .F              5146:   DRILLING FLOOR
 EGL .F              5142:   GROUND LEVEL
 DATE.        06-AUG-1959:   RUN DATE
 RUN .                  1:   RUN NUMBER
 DD  .F               948:   DEPTH DRILLER
 DL  .F               946:   DEPTH LOGGER
 BLI .F               940:   BOTTOM LOG INTERVAL
 TLI .F               143:   TOP LOG INTERVAL
 CBD .F                17:   CASING BOTTOM DRILLER
 BS  .IN             6.75:   BIT SIZE
 BSD .F               948:   BIT SIZE AT DEPTH
 DFT .                GEL:   DRILLING FLUID TYPE
 RMS .OHMM             75:   RESISTIVITY MUD SAMPLE
 MST .F                75:   MUD SAMPLE TEMPERATURE
 TCS .HRS               1:   TIME CURCULATED STOPPED
 LUN .               2754:   LOGGING UNIT NUMBER
 LUL .                 NC:   LOGGING UNIT LOCATION
 ENGI.             QUINBY:   RECORDING ENGINEER
 WITN.             MARTIN:   WITNESSED BY
 CLNT.            A2DTECH:   CLIENT CODE
 ORIG.        2" 5" PRINT:   ORIGIN OF DATA
 UWI .       490250644200:   UNIQUE WELL ID
 DICO. A2D Technologies, Inc.:   DIGITIZING COMPANY
~OTHER INFORMATION
~A   DEPT      ASN       CILD        ILD        SPR   
# ...
  872.0000    12.7152    88.2505    11.3152   -53.1800
  872.5000    12.5777    89.6126    11.1773   -52.7740
  873.0000    12.4402    89.6193    11.1069   -52.7740
  873.5000    12.3027    90.9813    10.9689   -52.6387
  874.0000    12.1566    92.3434    10.8917   -52.2327
  874.5000    12.0277    93.0561    10.7996   -52.0974
  875.0000    11.9579    93.8252    10.7573   -52.5034
  875.5000    11.8882    95.0758    10.6870   -52.3681
  876.0000    11.8532    95.0824    10.6167   -52.0974
  876.5000    11.8164    95.0891    10.6140   -52.0974
  877.0000    11.8144    95.7734    10.6114   -51.9621
  877.5000    11.7754    95.7801    10.6087   -51.9621
  878.0000    11.7422    95.7867    10.6060   -51.4208
  878.5000    11.7402    95.7933    10.6034   -50.8796
  879.0000    11.7382    95.7997    10.6684   -50.4736
  879.5000    11.7362    95.8066    10.6657   -50.3383
  880.0000    11.7342    95.8132    10.6631   -50.3383
  880.5000    11.6962    95.1422    10.7281   -50.3383
  881.0000    11.6626    95.0363    10.7931   -50.3383
  881.5000    11.5927    93.8017    10.9257   -50.3383
  882.0000    11.5229    93.8083    10.9900   -50.3383
  882.5000    11.4532    93.8150    10.9197   -50.2030
  883.0000    11.3834    93.1422    10.7821   -49.9242
  883.5000    11.3137    93.8283    10.6438   -49.7970
  884.0000    11.3117    93.8349    10.5734   -49.7970
  884.5000    11.2419    94.5192    10.4355   -49.7970
  885.0000    11.3077    95.2036    10.3651   -49.9323
  885.5000    11.3052    96.5657    10.3625   -50.0677
  886.0000    11.2355    97.2500    10.3599   -50.3383
  886.5000    11.2335    97.2568    10.3572   -50.6089
  887.0000    11.2315    97.2635    10.3545   -50.7442
  887.5000    11.2295    97.9493    10.3518   -50.3383
  888.0000    11.2275    97.9559    10.3491   -49.9323
  888.5000    11.1579    97.9626    10.3464   -49.5264
  889.0000    11.1557    97.9692    10.4115   -49.2558
  889.5000    11.0860    97.9758    10.4087   -48.9813
  890.0000    11.0840    97.9825    10.4055   -48.7145
  890.5000    11.0820    97.9891    10.4705   -48.5792
  891.0000    11.0750    97.9958    10.4678   -48.4438
  891.5000    11.0102    98.0024    10.5335   -48.4438
  892.0000    11.0077    97.3313    10.5302   -48.4438
  892.5000    11.0057    95.9825    10.5275   -48.4438
  893.0000    11.0041    95.3115    10.4572   -48.7145
  893.5000    11.0017    95.9975    10.4547   -49.1204
  894.0000    10.9320    96.6818    10.4519   -49.2558
  894.5000    10.9300    98.0439    10.3816   -49.2558
  895.0000    10.9282    98.7282    10.2774   -49.2558
  895.5000    10.8583    98.7349    10.2048   -49.1204
  896.0000    10.7885    99.4192    10.0961   -48.9851
  896.5000    10.7188    99.4259     9.9603   -48.8322
  897.0000    10.5813   100.1102     9.8940   -48.5792
  897.5000    10.5115   100.7946     9.8241   -48.4438
  898.0000    10.5059   101.4789     9.8214   -48.3085
  898.5000    10.3636   102.1634     9.8183   -48.1732
  899.0000    10.1663   102.8479     9.7480   -48.1732
  899.5000    10.1367   104.2113     9.6777   -48.1732
  900.0000    10.0999   105.5734     9.6074   -48.1732
  900.5000    10.0631   106.9355     9.4694   -48.1732
  901.0000    10.0262   108.2975     9.2637   -48.1732
  901.5000     9.9854   109.6596     9.0581   -48.0379
  902.0000     9.8225   111.0216     8.9201   -47.6319
  902.5000     9.6324   112.3837     8.7821   -47.0907
  903.0000     9.5237   113.1298     8.5765   -46.8029
  903.5000     9.3337   115.1796     8.4294   -46.5494
  904.0000     9.1572   117.2293     8.2322   -46.5494
  904.5000     8.9531   119.9568     7.9606   -46.5494
  905.0000     8.7172   121.3574     7.6198   -46.8200
  905.5000     8.5086   124.8107     7.2790   -46.9553
  906.0000     7.9905   132.0255     6.9383   -46.8200
  906.5000     7.6107   149.1691     6.5298   -46.5494
  907.0000     7.2174   161.3846     5.9861   -46.5494
  907.5000     6.5938   170.8892     5.6453   -46.2788
  908.0000     6.0921   178.3607     5.4353   -45.7375
  908.5000     5.9970   181.7659     5.3019   -45.4668
  909.0000     6.1050   185.8488     5.5019   -45.1962
  909.5000     6.1860   193.3202     5.7701   -45.4668
  910.0000     6.4431   198.7586     6.1735   -46.0081
  910.5000     7.6216   183.8656     6.8476   -46.2788
  911.0000     8.7324   160.8401     7.5894   -46.2788
  911.5000     9.0461   142.5585     8.3312   -46.0081
  912.0000     9.1689   129.6086     8.5317   -45.8728
  912.5000     9.3140   116.7685     8.7322   -45.8728
  913.0000     9.4085   114.8223     8.8650   -46.0081
  913.5000     9.5165   114.1654     9.0655   -46.0081
  914.0000     9.6246   114.1821     9.0629   -46.0081
  914.5000     9.7327   113.5168     9.0599   -46.0081
  915.0000     9.8130   112.8558     9.0574   -46.0081
  915.5000     9.9044   111.5212     9.1232   -46.1434
  916.0000     9.9957   110.1782     9.1884   -46.2788
  916.5000    10.0871   108.8436     9.3883   -46.2788
  917.0000    10.2402   106.8271     9.5211   -46.4141
  917.5000    10.3740   104.8106     9.6539   -46.5494
  918.0000    10.5760   102.7937     9.7868   -46.2788
  918.5000    10.8450   101.4552     9.9197   -46.0081
  919.0000    11.1821    99.4222    10.1201   -45.6022
  919.5000    11.3836    97.4224    10.2582   -45.7375
  920.0000    11.5852    96.0836    10.4534   -46.2788
  920.5000    11.7195    94.0713    10.6533   -46.5494
  921.0000    11.8530    92.7284    10.7861   -46.2585
  921.5000    11.9190    91.9404    10.9190   -45.7375
  922.0000    11.9173    90.7285    10.9848   -46.2788
  922.5000    11.9834    90.7494    10.9817   -46.1434
  923.0000    12.0495    90.0841    10.9792   -45.7375
  923.5000    12.0474    89.4231    10.9767   -45.6022
  924.0000    12.0458    88.7662    10.9742   -45.7375
  924.5000    12.1796    88.1009    10.9717   -45.8728
  925.0000    12.1779    88.1217    10.9692   -46.0081
  925.5000    12.2444    88.1384    10.9667   -46.1434
  926.0000    12.2424    88.1551    10.9637   -46.2788
  926.5000    12.1730    88.1721    11.0288   -46.2788
  927.0000    12.1035    88.1890    11.0263   -46.0510
  927.5000    12.0341    88.2836    11.0239   -45.7375
  928.0000    11.8970    88.9035    10.9537   -45.6022
  928.5000    11.8953    88.9202    10.9512   -45.4668
  929.0000    11.8936    89.6145    10.9488   -45.1962
  929.5000    11.8919    89.6312    10.9463   -44.9256
  930.0000    11.8902    89.6478    10.8761   -44.7903
  930.5000    11.9564    91.0199    10.8736   -44.6549
  931.0000    12.0225    91.0365    10.8035   -44.6549
  931.5000    11.7494    91.7309    10.7333   -44.5196
  932.0000    11.5289    93.1030    10.6626   -44.3843
  932.5000    11.3031    93.7973    10.5248   -44.3843
  933.0000    10.9992    95.1752    10.3870   -44.1137
  933.5000    10.8620    96.5418    10.1815   -43.9783
  934.0000    10.7248    98.3038    10.0437   -43.8430
  934.5000    10.6270    99.9675     9.9059   -43.7077
  935.0000    10.5183   101.3395     9.7005   -43.5724
  935.5000    10.3811   102.0339     9.4950   -43.5724
  936.0000    10.3117   103.4060     9.2896   -43.4371
  936.5000    10.2422   104.7780     9.1517   -43.4371
  937.0000    10.2402   105.8264     9.0139   -43.3018
  937.5000    10.1708   107.5222     8.8755   -43.1664
  938.0000    10.0976   108.8942     8.8054   -42.7605
  938.5000    10.0509   110.2663     8.7353   -42.6252
  939.0000    10.0043   111.6384     8.6651   -42.6252
  939.5000     9.9576   113.0105     8.6626   -42.6252
  940.0000     9.9110   113.7048     8.6604   -42.6252
  940.5000     9.8644  -999.2500  -999.2500  -999.2500
