~VERSION INFORMATION
 VERS.                2.0:   CWLS LOG ASCII STANDARD - VERSION 2.0
 WRAP.                 NO:   ONE LINE PER DEPTH STEP
~WELL INFORMATION
#MNEM.UNIT      DATA TYPE    INFORMATION
#----------   ------------   ------------------------------
 STRT.F           90.0000:   START DEPTH
 STOP.F         1312.0000:   STOP DEPTH
 STEP.F            0.5000:   STEP LENGTH
 NULL.          -999.2500:   NO VALUE
 COMP. US NAVY/ INTEX OIL CO:   COMPANY
 WELL. RES 3 TEAPOT DOME NPR "S' #42-2:   WELL
 FLD .             TEAPOT:   FIELD
 LOC .       S2 T38N R78W:   LOCATION
 CNTY.            NATRONA:   COUNTY
 STAT.            WYOMING:   STATE
 CTRY. UNITED STATES OF AMERICA:   COUNTRY
 SRVC. Schlumberger Well Surveying Corp:   SERVICE COMPANY
 DATE.        17-JUL-1964:   LOGDATE
 API .       490250646400:   API NUMBER
~CURVE INFORMATION
#MNEM.UNIT       API CODE    CURVE DESCRIPTION
#----------   ------------   ------------------------------
 DEPT.F                  :   
 GR  .GAPI   30 310 01 00:   GAMMA RAY
 CALS.IN     60 280 50 00:   CALIPER FROM SONIC LOG
 DT  .US/F   60 520 32 00:   INTERVAL TRANSIT TIME
 SPR .MV     05 010 01 00:   SPONTANEOUS POTENTIAL FROM RES.
 CILD.MMHO   05 110 46 00:   CONDUCTIVITY INDUCTION LOG DEEP
 ILD .OHMM   05 120 46 00:   INDUCTION LOG DEEP
 ASN .OHMM   05 040 16 00:   AMPLIFIED SHORT NORMAL 16"
~PARAMETER INFORMATION
#MNEM.UNIT          VALUE    DESCRIPTION
#----------   ------------   ------------------------------
 PD  .                 GL:   PERMANENT DATUM
 EPD .F              5142:   ELEVATION PERMANENT DATUM
 LMF .                 KB:   LOG MEASURED FROM
 DAPD.F                 8:   FEET ABOVE PERMANENT DATUM
 DMF .                 KB:   DRILLING MEASURED FROM
 EKB .F              5150:   KELLING BUSHING
 EGL .F              5142:   GROUND LEVEL
 DATE.          7-17-1964:   RUN DATE
 RUN .                  1:   RUN NUMBER
 DD  .F              1300:   DEPTH DRILLER
 DL  .F              1310:   DEPTH LOGGER
 BLI .F              1309:   BOTTOM LOG INTERVAL
 TLI .F               107:   TOP LOG INTERVAL
 CS  .IN            12.25:   CASING SIZE
 CBD .F                10:   CASING BOTTOM DRILLER
 BS  .IN               11:   BIT SIZE
 BSD .F              1300:   BIT SIZE AT DEPTH
 DFT .            GEL-OIL:   DRILLING FLUID TYPE
 DFD .                9.6:   DRILLING FLUID DENSITY
 DFV .                 63:   DRILLING FLUID VISCOSITY
 DFPH.                  8:   DRILLING FLUID PH
 DFL .                9.6:   DRILLING FLUID LOSS
 MSS .           FLOWLINE:   MUD SAMPLE SOURCE
 RMS .OHMM           2.07:   RESISTIVITY MUD SAMPLE
 MST .F                92:   MUD SAMPLE TEMPERATURE
 RMF .OHMM           1.42:   RESISTIVITY MUD FILTRATE SAMPLE
 MFST.F                92:   MUD FILTRATE SAMPLE TEMPERATURE
 RMC .OHMM           2.33:   RESISTIVITY MUD CAKE
 MCST.F                92:   MUD CAKE SAMPLE TEMPERATURE
 MFSS.                 FP:   MUD FILTRATE SAMPLE SOURCE
 MCSS.                 FP:   MUD CAKE SAMPLE SOURCE
 TCS .HRS               1:   TIME CURCULATED STOPPED
 LUN .               4507:   LOGGING UNIT NUMBER
 LUL .              CSPR.:   LOGGING UNIT LOCATION
 ENGI.             DANNER:   RECORDING ENGINEER
 WITN.          JORGENSEN:   WITNESSED BY
 CLNT.            A2DTECH:   CLIENT CODE
 ORIG.        2" 5" PRINT:   ORIGIN OF DATA
 UWI .       490250646400:   UNIQUE WELL ID
 DICO. A2D Technologies, Inc.:   DIGITIZING COMPANY
~OTHER INFORMATION
~A   DEPT       GR       CALS         DT        SPR        CILD         ILD        ASN 
# ...
  727.0000    77.6419    11.2197   108.4695   -37.2581   215.7157     4.5768     5.5837
  727.5000    77.0504    11.1629   110.8651   -37.2903   214.1141     4.6710     5.5678
  728.0000    74.5729    11.1061   111.8976   -37.3273   212.0921     4.7583     5.6415
  728.5000    74.2318    11.0497   110.7871   -37.3644   210.0701     4.8488     5.7173
  729.0000    78.7512    11.0203   110.4719   -37.4014   205.1223     4.9579     6.0005
  729.5000    79.2918    11.0408   109.5846   -37.4383   194.1456     5.2078     6.3802
  730.0000    75.0202    11.1106   106.7771   -37.4757   183.1689     5.5430     6.5198
  730.5000    73.1956    11.2125   104.0294   -37.5120   170.6707     5.8315     6.6259
  731.0000    72.6687    11.2665   103.6914   -37.5502   166.6066     6.2012     6.7561
  731.5000    73.1043    11.2796   103.3534   -37.5848   163.6637     6.2425     6.8272
  732.0000    73.5551    11.2631   103.0622   -37.6264   163.6637     5.8471     6.8423
  732.5000    74.0043    11.2380   103.6592   -37.6387   178.5929     5.4963     6.8288
  733.0000    74.3262    11.2250   102.8899   -37.5513   195.3468     5.1295     6.8170
  733.5000    71.4753    11.2368   102.5548   -37.4687   212.1007     4.7482     6.6360
  734.0000    70.1406    11.2411   103.2028   -37.3910   224.7347     4.5073     6.2029
  734.5000    71.6637    11.2259   106.2450   -37.2997   228.3512     4.4554     5.8098
  735.0000    70.2195    11.1689   108.9232   -37.2429   227.4846     4.4448     5.6504
  735.5000    70.4350    11.1027   110.1274   -37.2517   226.6181     4.4703     5.5433
  736.0000    76.0167    11.0360   110.6928   -37.2443   225.7257     4.6327     5.4324
  736.5000    81.4773    10.9689   109.2871   -37.2735   221.8018     4.9587     5.6367
  737.0000    81.5398    10.9238   107.8615   -37.3530   209.9099     5.4103     6.0770
  737.5000    77.7468    11.0682   104.0067   -37.4348   189.6897     5.8612     6.4834
  738.0000    77.7925    11.2133   100.4246   -37.5140   169.4695     6.3344     6.9127
  738.5000    78.6558    11.2825    98.7586   -37.6010   156.5365     6.8434     7.2993
  739.0000    79.4150    11.2818    98.5883   -37.6773   150.4705     7.1084     7.4859
  739.5000    77.4448    11.2782    98.4375   -37.7390   146.0260     7.1437     7.6450
  740.0000    80.6812    11.2741    97.8037   -37.8089   142.9930     7.2157     7.8065
  740.5000    85.0733    11.2700    97.9637   -37.8750   141.6416     7.2720     7.9711
  741.0000    82.4047    11.2658    98.2309   -37.9439   141.5354     7.3300     8.0687
  741.5000    81.6951    11.2619    98.1165   -38.0097   141.5547     7.4138     8.1154
  742.0000    79.8604    11.2694    97.9137   -38.0800   139.3874     7.5165     8.1673
  742.5000    76.7113    11.2781    97.7108   -38.1427   137.3726     7.6227     8.2181
  743.0000    72.9491    11.2834    97.5080   -38.2210   135.9697     7.6295     8.2676
  743.5000    68.5325    11.2022    97.3052   -38.2286   136.5833     7.5545     8.3198
  744.0000    67.6087    11.1508    97.1024   -38.1450   138.2130     7.4982     8.3357
  744.5000    67.6862    11.1108    96.8996   -38.0731   139.8170     7.4328     8.3242
  745.0000    67.9873    11.0837    96.7771   -37.9948   141.4815     7.3735     8.3119
  745.5000    66.9055    11.2174    96.9799   -37.9201   143.0991     7.3092     8.2516
  746.0000    67.3589    11.2387    97.1827   -37.8435   143.6436     7.2652     8.1912
  746.5000    68.8347    11.2322    97.3868   -37.7678   141.2813     7.3225     8.1373
  747.0000    70.1007    11.2255    97.5888   -37.6917   139.2593     7.3603     8.0710
  747.5000    68.8884    11.2443    97.6414   -37.6158   137.2372     7.4388     8.0828
  748.0000    68.8397    11.2615    97.0027   -37.5396   136.6366     7.3631     8.2745
  748.5000    69.1886    11.2620    95.6952   -37.4640   156.4476     6.5834     8.4500
  749.0000    70.2704    11.2614    94.3876   -37.3872   172.8484     5.8635     8.6042
  749.5000    68.5114    11.2326    93.0799   -37.3127   189.2493     5.1561     8.5934
  750.0000    65.0291    11.1125    92.1687   -37.2339   209.7097     4.8792     8.5222
  750.5000    64.2088    11.1001    93.1657   -37.1630   208.7588     4.8559     7.8888
  751.0000    65.0030    11.1004    98.1526   -37.0768   207.4950     4.8401     7.3571
  751.5000    61.7208    11.1006   105.0414   -37.0839   206.2312     4.9291     6.8244
  752.0000    56.5000    11.1006   108.5843   -37.1800   204.7047     5.0483     6.2236
  752.5000    45.2171    11.1011   109.3624   -37.2602   203.5035     5.3402     6.1380
  753.0000    42.8183    11.0652   108.4641   -37.3483   195.9050     5.7108     6.1466
  753.5000    41.9801    10.9941   106.9577   -37.4320   180.2803     6.1646     6.2360
  754.0000    44.1502    10.9809   100.8670   -37.5182   164.6556     7.0365     7.7222
  754.5000    47.8684    11.0491    93.9724   -37.6030   149.0309     8.3205     8.4607
  755.0000    46.5301    10.9075    89.0060   -37.6887   133.4061     9.0865     9.3385
  755.5000    39.7018     9.6158    89.9982   -37.7724   115.6156     9.1229     9.4319
  756.0000    35.3995     6.6314    89.8092   -37.8577   113.6136     9.1314     9.5554
  756.5000    29.5541     5.7533    90.8182   -37.9683   116.3804     8.9667     9.6345
  757.0000    25.5810     5.7805    92.7311   -38.0840   119.6584     8.8413     9.6378
  757.5000    20.5200     5.7828    94.1265   -38.1833   119.6033     8.7373     9.6784
  758.0000    18.4801     5.7896    94.1265   -38.3107   119.5904     8.8332     9.7168
  758.5000    12.8257     5.7959    95.2380   -38.3808   119.6073     8.9857     9.9204
  759.0000    12.1176     5.8015    96.2785   -38.7490   118.6264     9.1911    10.2661
  759.5000     9.9283     5.8128    96.9533   -39.2928   116.6446     9.2908    10.7636
  760.0000     9.7154     5.9557    97.0733   -39.6894   109.0373     9.8087    11.5672
  760.5000     9.4375     6.1483    96.0302   -40.1452   100.6298    10.9490    12.1841
  761.0000     9.1357     6.5483    94.0525   -40.9590    92.1410    12.0451    13.1638
  761.5000    10.1909     6.9455    92.0749   -41.8631    83.3002    13.2605    14.1826
  762.0000    13.4571     7.5172    90.0861   -43.8935    74.4463    14.4955    15.2119
  762.5000    17.0629     8.3540    89.4063   -45.8073    65.5755    15.7248    16.2531
  763.0000    18.4904     9.5484    91.4892   -47.7127    61.9100    16.9816    17.2870
  763.5000    19.6007    10.1711    92.3236   -49.6365    58.2432    18.0852    18.7249
  764.0000    18.9608    10.2905    95.4792   -51.5219    56.5566    18.1812    19.6081
  764.5000    17.0170    10.4008   101.6791   -53.4863    56.5566    18.0428    20.2703
  765.0000    15.9129    10.5152   107.1830   -54.9640    56.5566    17.9378    20.1235
  765.5000    17.5611    10.5373   107.6075   -55.6077    57.9070    17.7814    19.8538
  766.0000    19.0389    10.5376   107.4209   -55.9838    59.1937    17.6524    19.4695
  766.5000    19.7326    10.5373   112.4940   -55.8234    60.4805    17.2942    19.6824
  767.0000    20.4356    10.5359   109.4922   -55.1946    61.7672    16.7127    20.0530
  767.5000    20.5390    10.5275   104.6797   -54.5071    63.0540    16.2906    20.4238
  768.0000    20.5232    10.5192   101.5765   -54.0022    63.0495    16.2856    21.0788
  768.5000    21.2655    10.5110    99.4680   -53.7753    60.8461    16.7728    21.8984
  769.0000    22.1254    10.5033    99.6479   -53.8907    57.8787    17.1357    22.6634
  769.5000    22.6282    10.4787   101.6086   -54.4514    54.9001    18.2441    23.3114
  770.0000    19.6161    10.3118   106.0062   -55.4649    51.9221    20.2775    24.5701
  770.5000    18.5126     9.2817   109.7490   -56.5931    48.9555    22.3544    25.6622
  771.0000    21.3055     8.7569   113.0890   -56.8821    46.5000    24.0412    26.7622
  771.5000    21.4660     9.4173   116.0340   -56.9963    43.1930    25.3198    27.6749
  772.0000    21.2966     9.8743   118.8898   -57.3960    40.3694    26.4506    27.8977
