~VERSION INFORMATION
 VERS.                2.0:   CWLS LOG ASCII STANDARD - VERSION 2.0
 WRAP.                 NO:   ONE LINE PER DEPTH STEP
~WELL INFORMATION
#MNEM.UNIT      DATA TYPE    INFORMATION
#----------   ------------   ------------------------------
 STRT.F           34.5000:   START DEPTH
 STOP.F          880.5000:   STOP DEPTH
 STEP.F            0.5000:   STEP LENGTH
 NULL.          -999.2500:   NO VALUE
 COMP. FENIX & SCISSON INC:   COMPANY
 WELL. NAVAL PETROLEUM RESERVE 3 S-14 #35-14:   WELL
 FLD .             TEAPOT:   FIELD
 LOC .      S14 T38N R78W:   LOCATION
 CNTY.            NATRONA:   COUNTY
 STAT.            WYOMING:   STATE
 CTRY. UNITED STATES OF AMERICA:   COUNTRY
 SRVC.            Unknown:   SERVICE COMPANY
 DATE.        24-APR-1978:   LOGDATE
 API .       490251062000:   API NUMBER
~CURVE INFORMATION
#MNEM.UNIT       API CODE    CURVE DESCRIPTION
#----------   ------------   ------------------------------
 DEPT.F                  :   
 RHOB.G/C3   45 350 01 00:   BULK DENSITY
 DPHI.DEC    45 890 12 00:   DENSITY POROSITY SANDSTONE
 CORR.G/C3   45 356 01 00:   DENSITY CORRECTION
 GRD .GAPI   45 310 01 00:   GAMMA RAY FROM DENSITY LOG
 CALD.IN     45 280 60 00:   CALIPER FROM DENSITY LOG
 SPR .MV     05 010 01 00:   SPONTANEOUS POTENTIAL FROM RES.
 SN  .OHMM   05 040 16 00:   SHORT NORMAL 16"
 ILD .OHMM   05 120 46 00:   INDUCTION LOG DEEP
~PARAMETER INFORMATION
#MNEM.UNIT          VALUE    DESCRIPTION
#----------   ------------   ------------------------------
 PD  .                 GL:   PERMANENT DATUM
 EPD .F              5246:   ELEVATION PERMANENT DATUM
 LMF .                 KB:   LOG MEASURED FROM
 DMF .                 KB:   DRILLING MEASURED FROM
 EKB .F              5250:   KELLING BUSHING
 EGL .F              5246:   GROUND LEVEL
 DATE.          4-24-1978:   RUN DATE
 RUN .                  1:   RUN NUMBER
 DD  .F               880:   DEPTH DRILLER
 DL  .F               880:   DEPTH LOGGER
 BLI .F               884:   BOTTOM LOG INTERVAL
 TLI .F                50:   TOP LOG INTERVAL
 CS  .IN            8.625:   CASING SIZE
 CBD .F                40:   CASING BOTTOM DRILLER
 CBL .F                50:   CASING BOTTOM LOGGER
 BS  .IN            7.875:   BIT SIZE
 BSD .F               880:   BIT SIZE AT DEPTH
 DFT .                KCL:   DRILLING FLUID TYPE
 DFD .                8.6:   DRILLING FLUID DENSITY
 DFV .                 32:   DRILLING FLUID VISCOSITY
 DFPH.                 10:   DRILLING FLUID PH
 DFL .               12.8:   DRILLING FLUID LOSS
 MSS .            MUD PIT:   MUD SAMPLE SOURCE
 RMS .OHMM            .34:   RESISTIVITY MUD SAMPLE
 MST .F                62:   MUD SAMPLE TEMPERATURE
 RMF .OHMM             .3:   RESISTIVITY MUD FILTRATE SAMPLE
 MFST.F                70:   MUD FILTRATE SAMPLE TEMPERATURE
 RMC .OHMM            .58:   RESISTIVITY MUD CAKE
 MCST.F                70:   MUD CAKE SAMPLE TEMPERATURE
 MFSS.           MEASURED:   MUD FILTRATE SAMPLE SOURCE
 RMB .OHMM            .28:   RESISTIVITY MUD AT BHT
 BHT .F                74:   BOTTOM HOLE TEMPERATURE
 TCS .HRS               4:   TIME CURCULATED STOPPED
 MRT .F                74:   MAXIMUM RECORDED TEMPERATURE
 LUN .               2958:   LOGGING UNIT NUMBER
 LUL .              CASP.:   LOGGING UNIT LOCATION
 ENGI.             MILLER:   RECORDING ENGINEER
 WITN.           MCGINLEY:   WITNESSED BY
 CLNT.            A2DTECH:   CLIENT CODE
 ORIG.       2", 5" PRINT:   ORIGIN OF DATA
 UWI .       490251062000:   UNIQUE WELL ID
 DICO. A2D Technologies, Inc.:   DIGITIZING COMPANY
~OTHER INFORMATION
~A   DEPT     RHOB       DPHI       CORR         GRD      CALD        SPR         SN        ILD   
# ...
  804.0000     2.4953     0.0853     0.0790    84.0071     8.4155   -30.5032     8.5555     9.3050
  804.5000     2.4971     0.0834     0.0766    81.9112     8.3912   -30.5376     8.5658     9.2872
  805.0000     2.4990     0.0820     0.0754    81.3700     8.3632   -30.5722     8.5509     9.2694
  805.5000     2.5008     0.0836     0.0770    82.5324     8.3352   -30.5778     8.5254     9.2517
  806.0000     2.5014     0.0845     0.0798    83.5006     8.3076   -30.5778     8.5002     9.2339
  806.5000     2.4998     0.0839     0.0827    81.9872     8.2797   -30.5772     8.4750     9.2163
  807.0000     2.4962     0.0885     0.0857    80.4238     8.2489   -30.5749     8.4499     9.1986
  807.5000     2.4897     0.0928     0.0886    79.7646     8.1053   -30.5888     8.4248     9.1810
  808.0000     2.4832     0.0963     0.0914    79.7796     7.8295   -31.0228     8.3998     9.1634
  808.5000     2.4790     0.0977     0.0894    81.9444     7.6944   -31.4265     8.3748     9.1459
  809.0000     2.4769     0.0982     0.0824    82.6051     8.1039   -31.6397     8.3500     9.1283
  809.5000     2.4765     0.0986     0.0792    79.8612     8.3688   -31.8537     8.3252     9.1109
  810.0000     2.4797     0.0870     0.0757    78.6683     8.3928   -32.0674     8.3005     9.0934
  810.5000     2.4872     0.0905     0.0711    82.7340     8.4059   -32.2830     8.2759     9.0760
  811.0000     2.4859     0.0946     0.0607    83.6190     8.4203   -32.3580     8.2513     9.0586
  811.5000     2.4810     0.0931     0.0512    83.1154     8.4347   -32.3407     8.2268     9.0397
  812.0000     2.4830     0.0923     0.0506    83.1179     8.4342   -32.3215     8.2024     9.0133
  812.5000     2.4849     0.0925     0.0504    84.0942     8.4319   -32.3023     8.1755     8.9866
  813.0000     2.4841     0.0927     0.0501    85.8187     8.4295   -32.2832     8.1333     8.9599
  813.5000     2.4830     0.0929     0.0498    86.2765     8.4272   -32.2642     8.0914     8.9335
  814.0000     2.4820     0.0931     0.0496    84.5695     8.4249   -32.2452     8.0497     8.9077
  814.5000     2.4811     0.0934     0.0493    82.0671     8.4226   -32.2261     8.0082     8.8877
  815.0000     2.4835     0.0921     0.0490    79.9459     8.4203   -32.2068     7.9669     8.7317
  815.5000     2.4861     0.0900     0.0490    78.2180     8.4178   -32.1877     7.9258     8.5901
  816.0000     2.4887     0.0879     0.0490    77.4431     8.4068   -32.1814     7.8850     8.4509
  816.5000     2.4925     0.0858     0.0492    77.2388     8.3757   -32.2710     7.8443     8.3139
  817.0000     2.4976     0.0837     0.0530    79.4984     8.3451   -32.3608     7.7745     8.1791
  817.5000     2.5022     0.0816     0.0566    84.2446     8.3147   -32.4502     7.6177     8.0464
  818.0000     2.5030     0.0798     0.0583    87.3370     8.3052   -32.5396     7.4640     7.8440
  818.5000     2.5038     0.0798     0.0563    87.0692     8.3260   -32.6290     7.3134     7.6383
  819.0000     2.5046     0.0775     0.0566    87.0027     8.3463   -32.7183     7.1659     7.4380
  819.5000     2.5086     0.0730     0.0607    87.3892     8.3668   -32.8077     7.0213     7.2429
  820.0000     2.5145     0.0785     0.0600    87.6403     8.3872   -32.8971     6.8797     7.0530
  820.5000     2.5046     0.0829     0.0530    87.0829     8.4078   -32.9865     6.7409     6.8680
  821.0000     2.4983     0.0855     0.0514    87.4011     8.4162   -33.0759     6.6216     6.7187
  821.5000     2.4943     0.0879     0.0519    89.2415     8.4164   -33.1653     6.4000     6.5135
  822.0000     2.4905     0.0878     0.0525    88.9920     8.4164   -33.2548     6.1702     6.3146
  822.5000     2.4895     0.0855     0.0531    84.5556     8.4163   -33.3480     5.9485     6.1218
  823.0000     2.4940     0.0832     0.0537    81.3270     8.4163   -33.3260     5.7349     5.9349
  823.5000     2.4985     0.0810     0.0542    80.4299     8.4163   -33.2734     5.5289     5.6533
  824.0000     2.4966     0.0855     0.0548    81.6491     8.4163   -33.2238     5.0172     5.3398
  824.5000     2.4916     0.0934     0.0554    90.5808     8.4163   -33.1345     4.5227     5.0436
  825.0000     2.4870     0.0878     0.0560    94.0023     8.4151   -32.3706     4.3719     4.9508
  825.5000     2.4861     0.0910     0.0565    94.4085     8.4118   -31.6064     4.5091     4.9147
  826.0000     2.4856     0.0976     0.0561    94.7457     8.4085   -31.5097     4.9572     4.8881
  826.5000     2.4674     0.1125     0.0493    97.9551     8.4052   -31.4522     5.5005     5.0249
  827.0000     2.4440     0.1274     0.0445   100.5198     8.4019   -31.3909     6.1043     5.6508
  827.5000     2.4203     0.1420     0.0436   101.0668     8.3986   -31.3286     6.7744     6.4333
  828.0000     2.3945     0.1511     0.0258   101.6446     8.3974   -31.2664     7.1282     6.8826
  828.5000     2.3791     0.0657     0.0133    98.4133     8.4005   -31.2038     7.3870     7.2344
  829.0000     2.5252     0.0660     0.0476    93.0392     8.4036   -31.1827     7.5425     7.6036
  829.5000     2.5225     0.0672     0.0670    87.5779     8.4066   -31.1950     7.5665     7.9872
  830.0000     2.5222     0.0718     0.0657    84.4900     8.4097   -31.2079     7.5905     8.2087
  830.5000     2.5177     0.0590     0.0655    84.0970     8.4127   -31.2208     7.6012     8.2609
  831.0000     2.5245     0.0593     0.0690    87.8434     8.4158   -31.2336     7.8653     8.3135
  831.5000     2.5351     0.0624     0.0724    88.2553     8.4188   -31.2465     8.1458     8.3664
  832.0000     2.5286     0.0662     0.0739    86.7140     8.4219   -31.2593     8.4363     8.4196
  832.5000     2.5230     0.0662     0.0678    84.5763     8.4249   -31.2722     8.6721     8.4731
  833.0000     2.5223     0.0667     0.0655    83.0209     8.4280   -31.2850     8.9231     8.5672
  833.5000     2.5218     0.0686     0.0638    82.5003     8.4311   -31.2979     9.1813     8.7195
  834.0000     2.5212     0.0706     0.0644    83.9633     8.4341   -31.3107     9.4471     8.8744
  834.5000     2.5223     0.0674     0.0669    89.0871     8.4310   -31.3236     9.6657     9.0321
  835.0000     2.5226     0.0690     0.0670    90.8969     8.4081   -31.3364     9.7117     9.1926
  835.5000     2.5187     0.0746     0.0671    91.2093     8.3864   -31.3492     9.7610     9.3123
  836.0000     2.5156     0.0710     0.0708    89.1830     8.3366   -31.3617     9.8175     9.3331
  836.5000     2.5194     0.0675     0.0799    87.9854     8.2651   -31.3765     9.8742     9.3539
  837.0000     2.5229     0.0699     0.0890    88.2388     8.1936   -31.4390     9.9313     9.3748
  837.5000     2.5211     0.0730     0.0986    88.4748     8.1212   -31.5020     9.9887     9.3957
  838.0000     2.5172     0.0682     0.1202    88.5056     8.0979   -31.5647    10.0464     9.4166
  838.5000     2.5183     0.0740     0.1436    88.2750     8.0972   -31.6274    10.1091     9.4377
  839.0000     2.5120     0.0820     0.1634    87.3092     8.1503   -31.6901    10.1287     9.4587
  839.5000     2.4997     0.0890     0.1604    86.3821     8.2201   -31.7527    10.1494     9.4798
  840.0000     2.4896     0.0866     0.1362    85.4588     8.2650   -31.8154    10.1704     9.5010
  840.5000     2.4949     0.0826     0.1140    84.7019     8.3109   -31.8781    10.1916     9.5221
  841.0000     2.5011     0.0787     0.1068    84.7207     8.2916   -31.9408    10.2020     9.5437
  841.5000     2.5043     0.0773     0.1160    84.7334     8.1287   -32.0034    10.1605     9.5663
  842.0000     2.5049     0.0782     0.1413    84.2776     7.9636   -32.0661    10.1322     9.5311
  842.5000     2.4948     0.0917     0.1738    83.7522     7.8284   -32.1288    10.1039     9.4927
  843.0000     2.4662     0.1063     0.1866    83.8036     7.9616   -32.1915    10.0757     9.4546
  843.5000     2.4432     0.1129     0.1849    83.8887     8.0928   -32.2543    10.0476     9.4167
  844.0000     2.5218     0.1131     0.1959    84.6258     8.2229   -32.3170    10.0195     9.3789
