~VERSION INFORMATION
 VERS.                2.0:   CWLS LOG ASCII STANDARD - VERSION 2.0
 WRAP.                 NO:   ONE LINE PER DEPTH STEP
~WELL INFORMATION
#MNEM.UNIT      DATA TYPE    INFORMATION
#----------   ------------   ------------------------------
 STRT.F            2.0000:   START DEPTH
 STOP.F          518.0000:   STOP DEPTH
 STEP.F            0.5000:   STEP LENGTH
 NULL.          -999.2500:   NO VALUE
 COMP. LAWRENCE/ALLISON INC:   COMPANY
 WELL.    54-51 SX #10-10:   WELL
 FLD .             TEAPOT:   FIELD
 LOC .      S10 T38N R78W:   LOCATION
 CNTY.            NATRONA:   COUNTY
 STAT.            WYOMING:   STATE
 CTRY. UNITED STATES OF AMERICA:   COUNTRY
 SRVC.            Unknown:   SERVICE COMPANY
 DATE.        14-AUG-1984:   LOGDATE
 API .       490251098800:   API NUMBER
~CURVE INFORMATION
#MNEM.UNIT       API CODE    CURVE DESCRIPTION
#----------   ------------   ------------------------------
 DEPT.F                  :   
 CALD.IN     45 280 60 00:   CALIPER
 DEN .G/C3   45 350 01 00:   COMPENSATED BULK DENSTIY
 CORR.G/C3   45 356 01 00:   DENSITY CORRECTION
 CNC .DEC    42 890 03 00:   NEUTRON POROSITY SANDSTONE
 PORD.DEC    45 890 12 00:   POROSITY DENSITY SANDSTONE
 GRR .GAPI   07 310 01 00:   GAMMA RAY FROM RES. LOG.
 RFOC.OHMM   07 220 04 00:   RESISTIVITY FOCUSED LOG
 RILD.OHMM   07 120 46 00:   INDUCTION LOG DEEP RESISTIVITY
 RILM.OHMM   07 120 44 00:   INDUCTION LOG MEDIUM RESISTIVITY
 AC  .US/F   60 520 00 00:   ACOUSTIC SONIC
 SPR .MV     07 010 01 00:   SPONTANEOUS POTENTIAL
~PARAMETER INFORMATION
#MNEM.UNIT          VALUE    DESCRIPTION
#----------   ------------   ------------------------------
 PD  .                 GL:   PERMANENT DATUM
 EPD .F              5197:   ELEVATION PERMANENT DATUM
 LMF .                 GL:   LOG MEASURED FROM
 DMF .                 GL:   DRILLING MEASURED FROM
 EGL .F              5197:   GROUND LEVEL
 DATE.        14-AUG-1984:   RUN DATE
 RUN .                  1:   RUN NUMBER
 DD  .F               530:   DEPTH DRILLER
 DL  .F               520:   DEPTH LOGGER
 BLI .F               518:   BOTTOM LOG INTERVAL
 CS  .IN            9.625:   CASING SIZE
 CBD .F                40:   CASING BOTTOM DRILLER
 CBL .F                42:   CASING BOTTOM LOGGER
 BS  .IN            7.875:   BIT SIZE
 BSD .F               530:   BIT SIZE AT DEPTH
 DFT .          KCL WATER:   DRILLING FLUID TYPE
 MSS .           FLOWLINE:   MUD SAMPLE SOURCE
 RMS .OHMM            .19:   RESISTIVITY MUD SAMPLE
 MST .F                80:   MUD SAMPLE TEMPERATURE
 RMB .OHMM            .17:   RESISTIVITY MUD AT BHT
 BHT .F                90:   BOTTOM HOLE TEMPERATURE
 TCS .HRS               4:   TIME CURCULATED STOPPED
 MRT .F                90:   MAXIMUM RECORDED TEMPERATURE
 LUN .               6274:   LOGGING UNIT NUMBER
 LUL .               GLTE:   LOGGING UNIT LOCATION
 ENGI.             RAUTIO:   RECORDING ENGINEER
 WITN.              FIVAS:   WITNESSED BY
 CLNT.            A2DTECH:   CLIENT CODE
 ORIG.       2", 5" PRINT:   ORIGIN OF DATA
 UWI .       490251098800:   UNIQUE WELL ID
 DICO. A2D Technologies, Inc.:   DIGITIZING COMPANY
~OTHER INFORMATION
~A    DEPT    CALD        DEN       CORR        CNC       PORD         GRR      RFOC       RILD       RILM         AC        SPR   
# ...
  154.5000     8.4110     2.4325     0.0021     0.0702     0.1470   109.8573  -999.2500     8.9042     9.3116  -999.2500   -65.8708
  155.0000     8.4110     2.4337     0.0000     0.0701     0.1468   113.7554  -999.2500     8.9144     9.3545  -999.2500   -66.1659
  155.5000     8.4124     2.4342     0.0025     0.0706     0.1470   114.1444  -999.2500     8.8986     9.4191  -999.2500   -66.4818
  156.0000     8.4138     2.4313    -0.0021     0.0708     0.1476   111.4867  -999.2500     8.8673     9.3518  -999.2500   -66.6698
  156.5000     8.4153     2.4301    -0.0152     0.0701     0.1482   109.7634  -999.2500     8.8330     9.2182  -999.2500   -65.7142
  157.0000     8.4167     2.4299    -0.0233     0.0693     0.1489   109.0630  -999.2500     8.7723     9.0868  -999.2500   -64.7781
  157.5000     8.4181     2.4279    -0.0241     0.0686     0.1495   108.3677  -999.2500     8.7052     8.9959  -999.2500   -63.8890
  158.0000     8.4195     2.4269    -0.0251     0.0679     0.1487   107.6901  -999.2500     8.6387     8.9368  -999.2500   -62.2257
  158.5000     8.4209     2.4318    -0.0197     0.0672     0.1459   107.8778  -999.2500     8.5927     8.8717  -999.2500   -59.9932
  159.0000     8.4223     2.4355    -0.0133     0.0682     0.1447   110.2626  -999.2500     8.5927     8.8069  -999.2500   -56.6011
  159.5000     8.4237     2.4345    -0.0069     0.0704     0.1456   114.0203  -999.2500     8.5927     8.7425  -999.2500   -51.8895
  160.0000     8.4252     2.4336    -0.0004     0.0721     0.1465   116.7937  -999.2500     8.4568     8.6719  -999.2500   -46.9686
  160.5000     8.4266     2.4328     0.0030     0.0695     0.1475   114.5242  -999.2500     8.3350     8.5904  -999.2500   -34.7739
  161.0000     8.4280     2.4337     0.0030     0.0675     0.1464   112.4300  -999.2500     8.2150     8.4295  -999.2500   -22.8834
  161.5000     8.4294     2.4386     0.0031     0.0659     0.1436   110.8178  -999.2500     8.0150     8.2717  -999.2500   -19.8222
  162.0000     8.4306     2.4434    -0.0026     0.0668     0.1404   111.1855  -999.2500     7.6369     8.1290  -999.2500   -18.8619
  162.5000     8.4306     2.4459    -0.0106     0.0692     0.1419   110.8376  -999.2500     7.2766     7.6517  -999.2500   -18.9084
  163.0000     8.4306     2.4306    -0.0190     0.0686     0.1483   109.0165  -999.2500     6.9332     7.2417  -999.2500   -17.7689
  163.5000     8.4306     2.4153    -0.0137     0.0664     0.1570   107.2362  -999.2500     6.4049     6.8512  -999.2500   -16.4951
  164.0000     8.4306     2.4094     0.0003     0.0641     0.1618   109.9417  -999.2500     6.0477     6.5236  -999.2500   -15.4889
  164.5000     8.4306     2.4091     0.0145     0.0629     0.1621   112.7795  -999.2500     5.4918     5.7498  -999.2500   -15.6982
  165.0000     8.4306     2.4080     0.0155     0.0624     0.1610   114.5628  -999.2500     4.8997     5.1263  -999.2500   -16.4760
  165.5000     8.4306     2.4030     0.0055     0.0620     0.1645   110.1429  -999.2500     4.2948     4.6873  -999.2500   -17.1416
  166.0000     8.4306     2.3946    -0.0051     0.0603     0.1674   105.4189  -999.2500     3.7647     4.1910  -999.2500   -18.9074
  166.5000     8.4306     2.3852    -0.0016     0.0552     0.1765   106.2728  -999.2500     3.2999     3.4679  -999.2500   -21.7357
  167.0000     8.4306     2.3605     0.0071     0.0510     0.1897   107.6288  -999.2500     2.8547     3.0600  -999.2500   -24.5692
  167.5000     8.4306     2.3310     0.0065     0.0487     0.2034   107.5594  -999.2500     2.7392     2.7772  -999.2500   -26.2972
  168.0000     8.4306     2.2943     0.0025     0.0458     0.2260   106.5309  -999.2500     2.6283     2.7266  -999.2500   -27.4167
  168.5000     8.4306     2.2571     0.0123     0.0450     0.2611   104.7664  -999.2500     2.5335     2.6770  -999.2500   -26.1027
  169.0000     8.4306     2.2199     0.0219     0.0454     0.2771   102.3310  -999.2500     2.6404     2.8547  -999.2500   -24.1885
  169.5000     8.4306     2.2036     0.0314     0.0481     0.2836    99.0606  -999.2500     2.7645     2.9697  -999.2500   -19.1965
  170.0000     8.4306     2.2159     0.0303     0.0540     0.2767    99.6011  -999.2500     2.8943     3.3010  -999.2500   -12.1258
  170.5000     8.4306     2.2585     0.0059     0.0641     0.2405   103.1188  -999.2500     3.2697     3.7262  -999.2500    -4.0780
  171.0000     8.4306     2.3015    -0.0165     0.0646     0.2216   110.7378  -999.2500     3.7251     4.2049  -999.2500     0.5675
  171.5000     8.4306     2.3449    -0.0127     0.0656     0.2019   114.9403  -999.2500     4.2439     4.7432  -999.2500     2.7241
  172.0000     8.4306     2.3884     0.0091     0.0665     0.1793   118.4062  -999.2500     4.8350     5.3518  -999.2500     4.6484
  172.5000     8.4306     2.4243     0.0303     0.0675     0.1459   117.8983  -999.2500     5.5808     6.1175  -999.2500     5.6658
  173.0000     8.4306     2.4363     0.0262     0.0659     0.1424   117.6194  -999.2500     6.0975     6.5087  -999.2500     5.2834
  173.5000     8.4306     2.4443     0.0163     0.0636     0.1407   119.1051  -999.2500     6.4846     6.7677  -999.2500     4.9055
  174.0000     8.4306     2.4430     0.0098     0.0613     0.1406   120.6100  -999.2500     6.6454     6.8301  -999.2500     4.4985
  174.5000     8.4306     2.4455     0.0138     0.0623     0.1393   121.2902  -999.2500     6.8285     6.9289  -999.2500     4.8440
  175.0000     8.4306     2.4465     0.0177     0.0636     0.1397   120.6696  -999.2500     6.9550     7.0857  -999.2500     5.5020
  175.5000     8.4306     2.4444     0.0212     0.0648     0.1404   120.0610  -999.2500     6.8149     6.9436  -999.2500     5.6321
  176.0000     8.4306     2.4429     0.0098     0.0661     0.1411   119.3796  -999.2500     6.5436     6.6675  -999.2500     5.7593
  176.5000     8.4306     2.4460     0.0130     0.0673     0.1405   118.7734  -999.2500     6.2819     6.4021  -999.2500     6.1018
  177.0000     8.4306     2.4488     0.0147     0.0669     0.1395   120.0250  -999.2500     6.0307     6.1724  -999.2500     6.2574
  177.5000     8.4306     2.4448     0.0118     0.0656     0.1395   122.0455  -999.2500     5.7895     5.9432  -999.2500     5.1802
  178.0000     8.4306     2.4355     0.0122     0.0619     0.1426   124.1162  -999.2500     5.5808     5.7426  -999.2500     3.8737
  178.5000     8.4306     2.4063     0.0179     0.0571     0.1522   126.1779  -999.2500     5.3960     5.5483  -999.2500     2.5803
  179.0000     8.4306     2.3750     0.0237     0.0571     0.1782   127.4819  -999.2500     5.2333     5.3793  -999.2500     0.8967
  179.5000     8.4306     2.3630     0.0294     0.0599     0.1876   126.6905  -999.2500     5.1234     5.3254  -999.2500    -0.0678
  180.0000     8.4306     2.3754     0.0296     0.0626     0.1893   122.1946  -999.2500     5.0446     5.2816  -999.2500    -0.7382
  180.5000     8.4306     2.3871     0.0084     0.0642     0.1718   117.0054  -999.2500     5.1855     5.5262  -999.2500     1.0624
  181.0000     8.4306     2.3934    -0.0123     0.0645     0.1707   114.8185  -999.2500     5.3467     5.7585  -999.2500     2.3522
  181.5000     8.4306     2.4008    -0.0252     0.0647     0.1685   118.8135  -999.2500     5.5552     6.0005  -999.2500     3.8456
  182.0000     8.4306     2.4137    -0.0169     0.0643     0.1634   122.8781  -999.2500     5.8162     6.2526  -999.2500     5.7215
  182.5000     8.4306     2.4181    -0.0039     0.0629     0.1568   126.3144  -999.2500     6.0895     6.5154  -999.2500     4.8008
  183.0000     8.4306     2.4143     0.0030     0.0640     0.1585   124.8251  -999.2500     6.3756     6.7950  -999.2500     3.6843
  183.5000     8.4306     2.4180     0.0046     0.0653     0.1587   121.8399  -999.2500     6.6751     7.1006  -999.2500     3.4611
  184.0000     8.4306     2.4281     0.0037     0.0665     0.1520   119.5202  -999.2500     6.9888     7.4200   217.9602     4.3910
  184.5000     8.4306     2.4328     0.0023     0.0677     0.1488   119.0415  -999.2500     7.3171     7.7538   217.9602     8.9452
