~VERSION INFORMATION
 VERS.                2.0:   CWLS LOG ASCII STANDARD - VERSION 2.0
 WRAP.                 NO:   ONE LINE PER DEPTH STEP
~WELL INFORMATION
#MNEM.UNIT      DATA TYPE    INFORMATION
#----------   ------------   ------------------------------
 STRT.F           30.5000:   START DEPTH
 STOP.F          692.0000:   STOP DEPTH
 STEP.F            0.5000:   STEP LENGTH
 NULL.          -999.2500:   NO VALUE
 COMP. FENIX & SCISSON INC:   COMPANY
 WELL.   27-S-11-WP #3-11:   WELL
 FLD .  TEAPOT DOME NPR-3:   FIELD
 LOC .      S11 T38N R78W:   LOCATION
 CNTY.            NATRONA:   COUNTY
 STAT.            WYOMING:   STATE
 CTRY. UNITED STATES OF AMERICA:   COUNTRY
 SRVC.       Schlumberger:   SERVICE COMPANY
 DATE.        18-FEB-1978:   LOGDATE
 API .       490251058100:   API NUMBER
~CURVE INFORMATION
#MNEM.UNIT       API CODE    CURVE DESCRIPTION
#----------   ------------   ------------------------------
 DEPT.F                  :   
 CALD.IN     45 280 60 00:   CALIPER FROM DENSITY LOG
 CORR.G/C3   45 356 01 00:   DENSITY CORRECTION
 DPHI.DEC    45 890 12 00:   DENSITY POROSITY SANDSTONE
 GRD .GAPI   45 310 01 00:   GAMMA RAY FROM DENSITY LOG
 RHOB.G/C3   45 350 01 00:   BULK DENSITY
 ILD .OHMM   05 110 46 00:   INDUCTION LOG DEEP
 SN  .OHMM   05 040 16 00:   SHORT NORMAL 16"
 SPR .MV     05 010 01 00:   SPONTANEOUS POTENSIAL FROM RES.
~PARAMETER INFORMATION
#MNEM.UNIT          VALUE    DESCRIPTION
#----------   ------------   ------------------------------
 PD  .                 GL:   PERMANENT DATUM
 EPD .F              5195:   ELEVATION PERMANENT DATUM
 LMF .                 KB:   LOG MEASURED FROM
 DAPD.F                 4:   FEET ABOVE PERMANENT DATUM
 DMF .                 KB:   DRILLING MEASURED FROM
 EKB .F              5199:   KELLING BUSHING
 EGL .F              5195:   GROUND LEVEL
 DATE.        18-FEB-1978:   RUN DATE
 RUN .                  1:   RUN NUMBER
 DD  .F               690:   DEPTH DRILLER
 DL  .F               695:   DEPTH LOGGER
 BLI .F               688:   BOTTOM LOG INTERVAL
 TLI .F                40:   TOP LOG INTERVAL
 CS  .IN            8.625:   CASING SIZE
 CBD .F                40:   CASING BOTTOM DRILLER
 CBL .F                40:   CASING BOTTOM LOGGER
 BS  .IN            7.875:   BIT SIZE
 BSD .F               690:   BIT SIZE AT DEPTH
 DFT .       LIGNO/ SULF.:   DRILLING FLUID TYPE
 DFD .                8.8:   DRILLING FLUID DENSITY
 DFV .                 33:   DRILLING FLUID VISCOSITY
 DFPH.               10.0:   DRILLING FLUID PH
 DFL .                5.0:   DRILLING FLUID LOSS
 MSS .           FLOWLINE:   MUD SAMPLE SOURCE
 RMS .OHMM            1.7:   RESISTIVITY MUD SAMPLE
 MST .F                66:   MUD SAMPLE TEMPERATURE
 RMF .OHMM            2.0:   RESISTIVITY MUD FILTRATE SAMPLE
 MFST.F                58:   MUD FILTRATE SAMPLE TEMPERATURE
 RMC .OHMM            3.0:   RESISTIVITY MUD CAKE
 MCST.F                60:   MUD CAKE SAMPLE TEMPERATURE
 MFSS.               MEAS:   MUD FILTRATE SAMPLE SOURCE
 RMB .OHMM           1.65:   RESISTIVITY MUD AT BHT
 BHT .F                68:   BOTTOM HOLE TEMPERATURE
 TCS .HRS               2:   TIME CURCULATED STOPPED
 MRT .F                68:   MAXIMUM RECORDED TEMPERATURE
 LUN .               2958:   LOGGING UNIT NUMBER
 LUL .             CASPER:   LOGGING UNIT LOCATION
 ENGI.            POINTER:   RECORDING ENGINEER
 WITN.           MCGINLEY:   WITNESSED BY
 CLNT.            A2DTECH:   CLIENT CODE
 ORIG.           5" PRINT:   ORIGIN OF DATA
 UWI .       490251058100:   UNIQUE WELL ID
~OTHER INFORMATION
~A   DEPT     CALD       CORR       DPHI         GRD      RHOB        ILD         SN        SPR   
# ...
  273.5000     7.9080     0.0177     0.1126   100.1723     2.4623     8.3241     8.6932   -32.0767
  274.0000     7.9680     0.0174     0.1127   101.3683     2.4576     8.4538     8.6877   -33.7837
  274.5000     7.9661     0.0172     0.1127   102.4114     2.4568     8.5550     8.7424   -33.8138
  275.0000     7.9492     0.0169     0.1127   102.3842     2.4589     8.6707     8.7370   -33.2342
  275.5000     7.9477     0.0167     0.1125   101.8982     2.4604     8.7559     8.7941   -32.6471
  276.0000     7.9462     0.0164     0.1113   100.6478     2.4610     8.9195     8.7873   -32.8372
  276.5000     7.9446     0.0162     0.1062    98.7857     2.4632     9.0906     8.7819   -33.1722
  277.0000     7.9431     0.0159     0.1029    98.1468     2.4670     9.1856     8.8534   -33.3548
  277.5000     7.9416     0.0157     0.0996    97.6529     2.4770     9.3390     8.8958   -33.9947
  278.0000     7.9401     0.0154     0.0939    96.5484     2.4866     9.4644     9.0143   -34.0325
  278.5000     7.9539     0.0152     0.0890    95.4021     2.4940     9.5924     9.1354   -33.1403
  279.0000     7.9524     0.0164     0.0885    93.9083     2.4992     9.7224     9.3884   -32.7131
  279.5000     7.9508     0.0162     0.0898    94.7929     2.5006     9.8846     9.5822   -32.5908
  280.0000     7.9490     0.0159     0.0905    95.5302     2.4998     9.9870     9.7827   -32.7947
  280.5000     7.9475     0.0172     0.0902    96.2675     2.4981    10.1930     9.9181   -33.7744
  281.0000     7.9460     0.0169     0.0887    96.4000     2.4973    10.2603    10.1134   -34.2131
  281.5000     7.9445     0.0167     0.0888    96.0601     2.4995    10.4706    10.2478   -33.9384
  282.0000     7.9122     0.0164     0.0888    94.3509     2.5009    10.6122    10.3856   -33.0539
  282.5000     7.9107     0.0177     0.0880    93.8650     2.4993    10.6918    10.5990   -32.7716
  283.0000     7.9249     0.0174     0.0871    93.8378     2.4977    10.8237    10.8927   -33.2666
  283.5000     7.9384     0.0187     0.0889    93.1989     2.4983    10.8948    11.2730   -33.6016
  284.0000     7.9369     0.0184     0.0923    87.6671     2.5020    10.9655    11.5854   -33.7842
  284.5000     7.9354     0.0182     0.0975    83.9701     2.5019    11.0364    11.9083   -33.8143
  285.0000     7.9338     0.0179     0.1024    83.7900     2.4912    11.1077    12.3222   -33.5396
  285.5000     7.9481     0.0177     0.1037    83.9225     2.4857    11.1794    12.6636   -32.9524
  286.0000     7.9462     0.0205     0.1037    86.1820     2.4841    11.2517    12.8359   -33.2950
  286.5000     7.9447     0.0202     0.1038    88.1426     2.4848    11.2439    12.4724   -34.2398
  287.0000     7.9431     0.0230     0.1038    90.5618     2.4862    11.1593    12.2060   -34.8797
  287.5000     7.9416     0.0228     0.1019    90.8410     2.4869    11.0754    12.1135   -35.0622
  288.0000     7.9393     0.0225     0.0963    90.8132     2.4906    11.0693    11.8549   -35.0924
  288.5000     7.9232     0.0240     0.0952    90.4801     2.4966    10.9861    11.8474   -34.8176
  289.0000     7.9217     0.0280     0.0989    90.7587     2.4904    10.9035    11.7575   -34.5429
  289.5000     7.9198     0.0338     0.1028    90.1193     2.4812    10.8975    11.7384   -34.5732
  290.0000     7.9337     0.0435     0.0992    90.0917     2.4818    10.8155    11.5784   -34.6138
  290.5000     7.9322     0.0531     0.0987    90.0372     2.4870    10.7342    11.4919   -34.7866
  291.0000     7.9306     0.0574     0.1012    89.1140     2.4801    10.7283    11.4835   -34.8171
  291.5000     7.9291     0.0602     0.1006    88.6280     2.4793    10.5734    11.4764   -34.2438
  292.0000     7.9432     0.0584     0.1012    88.7537     2.4837    10.4208    11.4692   -33.3593
  292.5000     7.9415     0.0536     0.1104    89.0323     2.4821    10.2679    11.4621   -33.3894
  293.0000     7.9399     0.0442     0.1120    89.6167     2.4713    10.0515    11.5371   -33.5720
  293.5000     7.9384     0.0319     0.1081    91.5772     2.4614    10.1165    11.5282   -34.0594
  294.0000     7.9369     0.0301     0.1051    92.6271     2.4620    10.2533    11.6850   -34.5469
  294.5000     7.9354     0.0268     0.0990    92.5931     2.4673    10.3330    11.6760   -34.7295
  295.0000     7.9339     0.0250     0.0946    92.2600     2.4759    10.5325    11.7524   -34.7596
  295.5000     7.9324     0.0233     0.0796    90.7038     2.4880    10.6006    11.8259   -33.5702
  296.0000     7.9308     0.0215     0.0764    85.1720     2.5092    10.5932    11.9848   -33.1355
  296.5000     7.9293     0.0212     0.0810    82.5453     2.5242    10.5874    11.9772   -33.7830
  297.0000     7.9278     0.0210     0.0953    80.2245     2.5088    10.5078    11.9698   -34.7277
  297.5000     7.9263     0.0223     0.1018    80.0512     2.4859    10.4288    11.7141   -34.9103
  298.0000     7.9401     0.0220     0.1036    83.8398     2.4768    10.3504    11.6252   -34.9404
  298.5000     7.9359     0.0217     0.1043    85.6483     2.4744    10.2725    11.3769   -33.5986
  299.0000     7.7063     0.0230     0.1019    85.9266     2.4735    10.1953    11.1325   -33.3232
  299.5000     7.5665     0.0227     0.0983    86.2046     2.4735    10.1187    10.8948   -33.8113
  300.0000     7.5500     0.0225     0.0989    87.6639     2.4779     9.9726    10.6291   -34.6037
  300.5000     7.6403     0.0222     0.1044    91.6595     2.4854     9.8976    10.3456   -34.3195
  301.0000     7.7617     0.0240     0.1078    88.8765     2.4793     9.6868    10.4827   -34.6526
  301.5000     7.7295     0.0238     0.1070    86.8642     2.4647     9.5469    10.6187   -34.3647
  302.0000     7.6972     0.0236     0.1044    84.2403     2.4578     9.4091    10.6040   -34.0824
  302.5000     7.7268     0.0234     0.1012    81.6164     2.4577     9.3327    10.5184   -34.1107
  303.0000     7.8478     0.0232     0.1001    81.7448     2.4644     9.3210    10.4335   -33.5179
  303.5000     7.8927     0.0215     0.1030    82.9435     2.4742     9.1800    10.3493   -34.3083
  304.0000     7.9373     0.0198     0.1115    85.6713     2.4773     9.0411    10.2657   -34.7882
  304.5000     7.9354     0.0166     0.1133    86.8700     2.4649     9.0298    10.1118   -34.8108
  305.0000     7.9339     0.0149     0.1133    87.0045     2.4603     8.8931    10.1007   -34.2237
  305.5000     7.9324     0.0147     0.1134    85.9035     2.4594     8.8819    10.0895   -33.4841
  306.0000     7.9462     0.0145     0.1146    84.3499     2.4586     8.8707    10.0783   -33.3537
  306.5000     7.9447     0.0143     0.1199    83.8667     2.4547     8.8596     9.9272   -33.3769
  307.0000     7.9372     0.0157     0.1178    84.0591     2.4454     8.8484     9.8471   -33.8568
  307.5000     7.9298     0.0191     0.1154    85.3670     2.4370     8.8351     9.7675   -34.1845
  308.0000     7.9223     0.0259     0.1130    87.3680     2.4475     8.8241     9.6885   -34.2073
  308.5000     7.8745     0.0333     0.1103    88.8206     2.4589     8.8131     9.6102   -34.0770
  309.0000     7.7960     0.0423     0.1076    89.1019     2.4626     8.8021     9.5878   -33.4899
  309.5000     7.7021     0.0482     0.1071    88.7706     2.4655     8.7911     9.4534   -33.3600
  310.0000     7.5929     0.0496     0.1162    88.0938     2.4594     8.7801     9.3771   -33.6932
  310.5000     7.4990     0.0493     0.1202    87.0020     2.4471     8.7692     9.3014   -34.7828
  311.0000     7.4205     0.0491     0.1242    85.9103     2.4379     8.7583     9.2911   -35.4152
  311.5000     7.4034     0.0505     0.1297    84.6340     2.4377     8.6257     9.2808   -35.1329
  312.0000     7.4171     0.0534     0.1334    82.8385     2.4377     8.4360     9.1417   -34.5401
  312.5000     7.4461     0.0547     0.1340    84.3935     2.4323     8.3667     9.0679   -34.2578
  313.0000     7.5366     0.0576     0.1314    86.1753     2.4268     8.2401     8.9947   -34.7434
  313.5000     7.6578     0.0496     0.1287    86.8934     2.4260     8.0026     8.9220   -34.7660
