~VERSION INFORMATION
 VERS.                2.0:   CWLS LOG ASCII STANDARD - VERSION 2.0
 WRAP.                 NO:   ONE LINE PER DEPTH STEP
~WELL INFORMATION
#MNEM.UNIT      DATA TYPE    INFORMATION
#----------   ------------   ------------------------------
 STRT.F           20.0000:   START DEPTH
 STOP.F          478.0000:   STOP DEPTH
 STEP.F            0.5000:   STEP LENGTH
 NULL.          -999.2500:   NO VALUE
 COMP. FENIX & SCISSON INC:   COMPANY
 WELL.   56 31 SX #56-3FP:   WELL
 FLD .             TEAPOT:   FIELD
 LOC .       S3 T38N R78W:   LOCATION
 CNTY.            NATRONA:   COUNTY
 STAT.            WYOMING:   STATE
 CTRY. UNITED STATES OF AMERICA:   COUNTRY
 SRVC.              Welex:   SERVICE COMPANY
 DATE.        06-JUN-1980:   LOGDATE
 API .       490251082300:   API NUMBER
~CURVE INFORMATION
#MNEM.UNIT       API CODE    CURVE DESCRIPTION
#----------   ------------   ------------------------------
 DEPT.F                  :   
 RHOB.G/C3   45 350 01 00:   BULK DENSITY
 CORR.G/C3   45 356 01 00:   DENSITY CORRECTION
 GRD .GAPI   45 310 01 00:   GAMMA RAY FROM DENSITY LOG
 CALD.IN     45 280 60 00:   CALIPER
 DPHI.DEC    45 890 12 00:   DENSITY POROSITY SANDSTONE
 NPHI.DEC    42 890 03 00:   NEUTRON POROSITY SANDSTONE
 SPR .MV     07 010 01 00:   SPONTANEOUS POTENTIAL
 ILD .OHMM   07 120 46 00:   INDUCTION LOG DEEP
 ILM .OHMM   07 120 44 00:   INDUCTION LOG MEDIUM
 SGRD.OHMM   07 220 05 00:   SHALLOW GUARD RESISTIVITY
~PARAMETER INFORMATION
#MNEM.UNIT          VALUE    DESCRIPTION
#----------   ------------   ------------------------------
 PD  .                 GL:   PERMANENT DATUM
 EPD .F              5173:   ELEVATION PERMANENT DATUM
 LMF .                 KB:   LOG MEASURED FROM
 DAPD.F                 5:   FEET ABOVE PERMANENT DATUM
 DMF .                 KB:   DRILLING MEASURED FROM
 EKB .F              5178:   KELLING BUSHING
 EGL .F              5173:   GROUND LEVEL
 DATE.             6-6-80:   RUN DATE
 RUN .                  1:   RUN NUMBER
 DD  .F               450:   DEPTH DRILLER
 DL  .F               476:   DEPTH LOGGER
 BLI .F               474:   BOTTOM LOG INTERVAL
 TLI .F                30:   TOP LOG INTERVAL
 BS  .IN            9.875:   BIT SIZE
 BSD .F               450:   BIT SIZE AT DEPTH
 DFT .            KCL MUD:   DRILLING FLUID TYPE
 DFD .                9.5:   DRILLING FLUID DENSITY
 DFV .                 48:   DRILLING FLUID VISCOSITY
 DFPH.                7.5:   DRILLING FLUID PH
 DFL .                  7:   DRILLING FLUID LOSS
 MSS .           FLOWLINE:   MUD SAMPLE SOURCE
 RMS .OHMM           1.56:   RESISTIVITY MUD SAMPLE
 MST .F                62:   MUD SAMPLE TEMPERATURE
 RMF .OHMM           1.24:   RESISTIVITY MUD FILTRATE SAMPLE
 MFST.F                62:   MUD FILTRATE SAMPLE TEMPERATURE
 RMC .OHMM           1.87:   RESISTIVITY MUD CAKE
 MCST.F                62:   MUD CAKE SAMPLE TEMPERATURE
 MFSS.           MEASURED:   MUD FILTRATE SAMPLE SOURCE
 MCSS.           MEASURED:   MUD CAKE SAMPLE SOURCE
 RMB .OHMM           1.32:   RESISTIVITY MUD AT BHT
 BHT .F                73:   BOTTOM HOLE TEMPERATURE
 TCS .HRS               6:   TIME CURCULATED STOPPED
 MRT .F                73:   MAXIMUM RECORDED TEMPERATURE
 LUN .               1892:   LOGGING UNIT NUMBER
 LUL .             CASPER:   LOGGING UNIT LOCATION
 ENGI.               REIN:   RECORDING ENGINEER
 WITN.              AMEND:   WITNESSED BY
 CLNT.            A2DTECH:   CLIENT CODE
 ORIG.        2" 5" PRINT:   ORIGIN OF DATA
 UWI .       490251082300:   UNIQUE WELL ID
 DICO. A2D Technologies, Inc.:   DIGITIZING COMPANY
~OTHER INFORMATION
~A   DEPT     RHOB       CORR        GRD       CALD       DPHI       NPHI        SPR          ILD        ILM     SGRD   
# ...
  422.0000     2.4271     0.0425    82.8872     9.7273     0.1618     0.2703   -12.9716     3.3158     5.1198     4.3972
  422.5000     2.4197     0.0322    81.9353     9.7262     0.1618     0.2709   -12.5541     3.3158     5.1547     6.0622
  423.0000     2.4335     0.0372    80.9645     9.7250     0.1491     0.2708   -12.3046     3.4391     5.5411     6.6080
  423.5000     2.4473     0.0484    80.9327     9.7239     0.1406     0.2683   -12.0907     3.6058     5.9696     6.7706
  424.0000     2.4708     0.0599    81.1069     9.7228     0.1295     0.2707   -12.0366     3.7806     6.4313     6.9328
  424.5000     2.4748     0.0562    81.2865     9.7217     0.1395     0.2731   -11.9794     3.9639     6.8107     7.1014
  425.0000     2.4550     0.0430    81.4649     9.7205     0.1444     0.2692   -11.9240     4.1561     7.0247     7.2748
  425.5000     2.4450     0.0320    81.6411     9.7194     0.1483     0.2674   -11.7525     4.3575     7.1130     7.3227
  426.0000     2.4422     0.0317    81.7446     9.7183     0.1437     0.2680   -11.5147     4.5687     7.0878     7.3388
  426.5000     2.4391     0.0311    81.5118     9.7171     0.1402     0.2655   -11.2713     4.7902     7.0688     7.3550
  427.0000     2.4367     0.0304    81.2851     9.7160     0.1367     0.2704   -11.2197     4.9397     7.0443     7.3709
  427.5000     2.4459     0.0384    81.0598     9.7149     0.1335     0.2723   -11.4715     4.9790     7.0433     7.3755
  428.0000     2.4557     0.0439    80.8267     9.7138     0.1342     0.2647   -11.7031     5.0186     6.6513     7.3751
  428.5000     2.4541     0.0311    81.0888     9.7127     0.1343     0.2696   -11.6279     5.0585     6.1384     7.6780
  429.0000     2.4512     0.0374    81.5636     9.7117     0.1335     0.2751   -11.5406     5.0988     6.5504     7.9306
  429.5000     2.4647     0.0442    82.0430     9.7107     0.1391     0.2811   -11.4544     5.1394     7.0459     8.1915
  430.0000     2.4559     0.0421    82.5225     9.7098     0.1373     0.2790   -11.3673     5.1803     7.3266     8.3904
  430.5000     2.4638     0.0392    83.0027     9.7088     0.1394     0.2760   -11.2160     5.2215     7.8471     8.3904
  431.0000     2.4512     0.0363    83.4866     9.7079     0.1443     0.2753   -10.9683     5.2630     7.9595     8.5435
  431.5000     2.4493     0.0333    83.5817     9.7069     0.1427     0.2745   -10.7220     5.3049     8.0736     8.8790
  432.0000     2.4547     0.0422    83.6031     9.7059     0.1303     0.2711   -10.4754     5.3471     8.1205     9.1978
  432.5000     2.4864     0.0572    83.6229     9.7050     0.1211     0.2677   -10.2284     5.3897     8.1582     9.1166
  433.0000     2.4685     0.0530    83.6434     9.7040     0.1478     0.2670    -9.9806     5.4326     8.1959     9.0307
  433.5000     2.4400     0.0211    83.6641     9.7030     0.1580     0.2655    -9.7509     5.4758     8.2339     9.3266
  434.0000     2.4254     0.0233    83.6847     9.7021     0.1515     0.2700    -9.7887     5.5106     8.2720     9.6308
  434.5000     2.4406     0.0338    83.7050     9.7011     0.1426     0.2734    -9.8351     5.5541     8.3104     9.4059
  435.0000     2.4528     0.0442    83.7233     9.7001     0.1338     0.2696    -9.8799     5.5980     8.3489     9.1141
  435.5000     2.4730     0.0684    83.7481     9.6992     0.1255     0.2653    -9.9272     5.6422     8.3904     9.1509
  436.0000     2.4922     0.0886    83.9935     9.6982     0.1164     0.2629    -9.8218     5.6868     8.3755     9.2217
  436.5000     2.4932     0.0849    85.1117     9.6973     0.1216     0.2649    -9.6412     5.7318     8.3594     9.2930
  437.0000     2.4817     0.0771    86.1986     9.6963     0.1294     0.2635    -9.4584     5.7770     8.3433     9.3649
  437.5000     2.4695     0.0693    87.2770     9.6953     0.1355     0.2643    -9.2752     5.8227     8.3272     9.4554
  438.0000     2.4671     0.0720    88.3859     9.6944     0.1327     0.2651    -9.0933     5.8687     8.3112     9.3418
  438.5000     2.4731     0.0763    90.4595     9.6934     0.1295     0.2639    -8.9604     5.9168     8.2952     9.1928
  439.0000     2.4741     0.0809    92.5067     9.6924     0.1320     0.2603    -8.9950     5.8852     8.2792     9.0461
  439.5000     2.4689     0.0746    94.4734     9.6914     0.1362     0.2536    -9.0261     5.8525     8.2633     8.9018
  440.0000     2.4614     0.0668    98.4084     9.6904     0.1341     0.2462    -9.0570     5.8200     8.2474     8.7540
  440.5000     2.4674     0.0703   102.5500     9.6894     0.1268     0.2380    -9.0878     5.7877     8.2254     8.5461
  441.0000     2.4846     0.0735   106.7056     9.6884     0.1231     0.2296    -9.1200     5.7555     8.1938     8.6504
  441.5000     2.4745     0.0753   110.8372     9.6874     0.1366     0.2261    -9.1583     5.7235     8.1623     8.7848
  442.0000     2.4608     0.0590   116.7391     9.6864     0.1366     0.2260    -8.8528     5.6917     8.1309     8.8662
  442.5000     2.4681     0.0646   131.8856     9.6854     0.1299     0.2403    -8.5050     5.6601     8.0996     8.5480
  443.0000     2.4756     0.0707   129.0333     9.6844     0.1251     0.2554    -8.1564     5.6287     8.0684     8.6890
  443.5000     2.4806     0.0762   153.3130     9.6834     0.1287     0.2709    -7.9717     5.5974     8.0375     8.8345
  444.0000     2.4779     0.0765   157.9158     9.6824     0.1263     0.2816    -7.9719     5.5663     8.0139     8.9480
  444.5000     2.4752     0.0632   136.9037     9.6814     0.1423     0.2817    -7.9694     5.5354     8.0514     8.6600
  445.0000     2.4641     0.0442   116.2376     9.6804     0.1407  -999.2500    -7.9894     5.5046     8.0864     8.4321
  445.5000     2.4492     0.0381    89.9911     9.6794     0.1387  -999.2500    -8.3454     5.4741     7.8859     8.2101
  446.0000     2.4567     0.0502    85.4385     9.6784     0.1329  -999.2500    -8.6962     5.4436     7.6543     7.9940
  446.5000     2.4628     0.0554    83.5421     9.6774     0.1265  -999.2500    -9.0498     5.4134     7.4286     7.7956
  447.0000     2.4690     0.0597    81.5985     9.6764     0.1201  -999.2500    -9.1107     5.3680     7.2758     7.7323
  447.5000     2.4853     0.0858    80.7867     9.6754     0.1144  -999.2500    -9.0534     5.3051     7.2025     7.6729
  448.0000     2.5006     0.1048    80.1216     9.6744     0.1119  -999.2500    -8.9932     5.2430     7.1300     7.6140
  448.5000     2.4950     0.1055    79.8749     9.6734     0.1028  -999.2500    -8.9331     5.1817     7.0583     7.5556
  449.0000     2.5086     0.1057    79.7419     9.6724     0.1109  -999.2500    -8.8728     5.1210     6.9872     7.4976
  449.5000     2.5166     0.0971    79.6639     9.6714     0.1225  -999.2500    -8.8125     5.0611     6.9170     7.4454
  450.0000     2.4890     0.0886    79.7716     9.6704     0.1263  -999.2500    -8.7884     5.0018     6.8542     7.3704
  450.5000     2.4786     0.0802    80.4662     9.6693     0.1291  -999.2500    -9.0573     4.9433     6.8236     7.3025
  451.0000     2.4683     0.0718    81.1309     9.6683     0.1370  -999.2500    -9.3359     4.8854     6.7957     7.2353
  451.5000     2.4629     0.0633    81.7953     9.6673     0.1431  -999.2500    -9.3169     4.8282     6.7680     7.1733
  452.0000     2.4530     0.0651    82.4603     9.6663     0.1343  -999.2500    -9.2756     4.7455     6.7404     7.1457
  452.5000     2.4477     0.0723    83.1167     9.6653     0.1333  -999.2500    -9.2356     4.7483     6.7130     7.1110
  453.0000     2.4675     0.0763    83.5175     9.6643     0.1454  -999.2500    -9.1963     4.7537     6.6856     7.1332
  453.5000     2.4535     0.0633    83.0786     9.6633     0.1512  -999.2500    -9.1540     4.7591     6.6678     7.1746
  454.0000     2.4301     0.0516    82.6476     9.6623     0.1540  -999.2500    -9.0292     4.7644     6.8208     7.2162
  454.5000     2.4366     0.0489    82.2165     9.6613     0.1512  -999.2500    -8.8942     4.7698     6.9176     7.2581
  455.0000     2.4447     0.0458    81.7878     9.6603     0.1490  -999.2500    -8.7598     4.7752     6.8015     7.3095
