~VERSION INFORMATION
 VERS.                2.0:   CWLS LOG ASCII STANDARD - VERSION 2.0
 WRAP.                 NO:   ONE LINE PER DEPTH STEP
~WELL INFORMATION
#MNEM.UNIT      DATA TYPE    INFORMATION
#----------   ------------   ------------------------------
 STRT.F           53.0000:   START DEPTH
 STOP.F         4152.0000:   STOP DEPTH
 STEP.F            0.5000:   STEP LENGTH
 NULL.          -999.2500:   NO VALUE
 COMP. DEPARTMENT OF ENERGY:   COMPANY
 WELL. RES 3 TEAPOT #11-STX-11:   WELL
 FLD . TEAPOT NAVAL RESERVE:   FIELD
 LOC .      S11 T38N R78W:   LOCATION
 CNTY.            NATRONA:   COUNTY
 STAT.            WYOMING:   STATE
 CTRY. UNITED STATES OF AMERICA:   COUNTRY
 SRVC.       Schlumberger:   SERVICE COMPANY
 DATE.        24-JUL-1975:   LOGDATE
 API .       490251025200:   API NUMBER
~CURVE INFORMATION
#MNEM.UNIT       API CODE    CURVE DESCRIPTION
#----------   ------------   ------------------------------
 DEPT.F                  :   
 SPR .MV     07 010 01 00:   SPONTANEOUS POTENTIAL
 ILD .OHMM   07 120 46 00:   INDUCTION LOG DEEP
 ILM .OHMM   07 120 44 00:   INDUCTION LOG MEDIUM
 LL8 .OHMM   07 220 08 00:   LATEROLOG-8 RES.
 DPOR.DEC    45 890 12 00:   DENSITY POROSITY SANDSTONE
 NPOR.DEC    42 890 03 00:   NEUTRON POROSITY SANDSTONE
 RHOB.G/C3   45 350 01 00:   BULK DENSITY
 CORR.G/C3   45 356 01 00:   DENSITY CORRECTION
 GRD .GAPI   45 310 01 00:   GAMMA RAY FROM DENSITY LOG
 CALD.IN     45 280 60 00:   CALIPER FROM DENSITY LOG
~PARAMETER INFORMATION
#MNEM.UNIT          VALUE    DESCRIPTION
#----------   ------------   ------------------------------
 PD  .                 GL:   PERMANENT DATUM
 EPD .F              5165:   ELEVATION PERMANENT DATUM
 LMF .                 KB:   LOG MEASURED FROM
 DAPD.F                13:   FEET ABOVE PERMANENT DATUM
 DMF .                 KB:   DRILLING MEASURED FROM
 EKB .F              5178:   KELLING BUSHING
 EGL .F              5165:   GROUND LEVEL
 DATE.            7-24-75:   RUN DATE
 RUN .                  1:   RUN NUMBER
 DD  .F              4150:   DEPTH DRILLER
 DL  .F              4154:   DEPTH LOGGER
 BLI .F              4152:   BOTTOM LOG INTERVAL
 TLI .F              1800:   TOP LOG INTERVAL
 CS  .IN            8.625:   CASING SIZE
 CBD .F               625:   CASING BOTTOM DRILLER
 CBL .F               627:   CASING BOTTOM LOGGER
 BS  .IN            7.875:   BIT SIZE
 BSD .F              4150:   BIT SIZE AT DEPTH
 DFT .                FGM:   DRILLING FLUID TYPE
 DFD .                9.5:   DRILLING FLUID DENSITY
 DFV .                 85:   DRILLING FLUID VISCOSITY
 MSS .           FLOWLINE:   MUD SAMPLE SOURCE
 RMS .OHMM           1.34:   RESISTIVITY MUD SAMPLE
 MST .F                91:   MUD SAMPLE TEMPERATURE
 RMF .OHMM           1.17:   RESISTIVITY MUD FILTRATE SAMPLE
 MFST.F                91:   MUD FILTRATE SAMPLE TEMPERATURE
 MFSS.                  M:   MUD FILTRATE SAMPLE SOURCE
 RMB .OHMM            .94:   RESISTIVITY MUD AT BHT
 BHT .F               130:   BOTTOM HOLE TEMPERATURE
 TCS .HRS            1230:   TIME CURCULATED STOPPED
 TLAB.HRS            1900:   TIME LOGGER AT BOTTOM
 MRT .F               132:   MAXIMUM RECORDED TEMPERATURE
 LUN .               7680:   LOGGING UNIT NUMBER
 LUL .               CSPR:   LOGGING UNIT LOCATION
 ENGI.             FRENCH:   RECORDING ENGINEER
 WITN.             CARTER:   WITNESSED BY
 CLNT.            A2DTECH:   CLIENT CODE
 ORIG.       2", 5" PRINT:   ORIGIN OF DATA
 UWI .       490251025200:   UNIQUE WELL ID
 DICO. A2D Technologies, Inc.:   DIGITIZING COMPANY
~OTHER INFORMATION
~A   DEPT      SPR          ILD        ILM       LL8      DPOR       NPOR       RHOB       CORR        GRD       CALD   
# ...
 2867.0000  -999.2500  -999.2500  -999.2500  -999.2500     0.0404     0.1944     2.5946     0.0225   170.8575    10.0431
 2867.5000  -999.2500  -999.2500  -999.2500  -999.2500     0.0341     0.2002     2.5786     0.0022   168.3998    10.0431
 2868.0000  -999.2500  -999.2500  -999.2500  -999.2500     0.0404     0.2025     2.5604     0.0026   165.9905    10.0487
 2868.5000  -999.2500  -999.2500  -999.2500  -999.2500     0.0527     0.1974     2.5528     0.0002   163.7543    10.0541
 2869.0000  -999.2500  -999.2500  -999.2500  -999.2500     0.0581     0.1930     2.5738     0.0115   163.6180    10.0597
 2869.5000  -999.2500  -999.2500  -999.2500  -999.2500     0.0580     0.1947     2.5799     0.0184   167.1469    10.0668
 2870.0000  -999.2500  -999.2500  -999.2500  -999.2500     0.0417     0.1945     2.5773     0.0146   171.0962    10.0737
 2870.5000  -999.2500  -999.2500  -999.2500  -999.2500     0.0452     0.1936     2.5780     0.0219   175.1105    10.0807
 2871.0000  -999.2500  -999.2500  -999.2500  -999.2500     0.0429     0.2033     2.5684     0.0209   179.0284    10.0876
 2871.5000  -999.2500  -999.2500  -999.2500  -999.2500     0.0483     0.2163     2.5573     0.0442   182.9511    10.0938
 2872.0000  -999.2500  -999.2500  -999.2500  -999.2500     0.0549     0.2293     2.5438     0.0698   186.0202    10.0706
 2872.5000  -999.2500  -999.2500  -999.2500  -999.2500     0.0606     0.2411     2.5287     0.0131   180.0671    10.0441
 2873.0000  -999.2500  -999.2500  -999.2500  -999.2500     0.0725     0.2422     2.5567     0.0205   169.5712    10.0179
 2873.5000  -999.2500  -999.2500  -999.2500  -999.2500     0.0795     0.2233     2.6005     0.0284   161.6070     9.9915
 2874.0000  -999.2500  -999.2500  -999.2500  -999.2500     0.0367     0.2019     2.5914     0.0215   160.7294     9.9795
 2874.5000  -999.2500  -999.2500  -999.2500  -999.2500     0.0305     0.2061     2.5765     0.0147   167.6062     9.9863
 2875.0000  -999.2500  -999.2500  -999.2500  -999.2500     0.0394     0.2128     2.5728     0.0128   172.3674     9.9928
 2875.5000  -999.2500  -999.2500  -999.2500  -999.2500     0.0445     0.2194     2.5932     0.0196   177.1764     9.9993
 2876.0000  -999.2500  -999.2500  -999.2500  -999.2500     0.0360     0.2269     2.5831     0.0177   182.0327    10.0058
 2876.5000  -999.2500  -999.2500  -999.2500  -999.2500     0.0353     0.2245     2.5670     0.0139   178.9728    10.0124
 2877.0000  -999.2500  -999.2500  -999.2500  -999.2500     0.0438     0.2209     2.5689     0.0058   173.8343    10.0181
 2877.5000  -999.2500  -999.2500  -999.2500  -999.2500     0.0492     0.2172     2.5752     0.0069   168.8931    10.0066
 2878.0000  -999.2500  -999.2500  -999.2500  -999.2500     0.0492     0.2135     2.5813     0.0069   166.1662     9.9940
 2878.5000  -999.2500  -999.2500  -999.2500  -999.2500     0.0426     0.2083     2.5872     0.0066   167.9853     9.9813
 2879.0000  -999.2500  -999.2500  -999.2500  -999.2500     0.0382     0.2019     2.5930     0.0127   170.0005     9.9687
 2879.5000  -999.2500  -999.2500  -999.2500  -999.2500     0.0341     0.1971     2.5978     0.0184   171.9941     9.9582
 2880.0000  -999.2500  -999.2500  -999.2500  -999.2500     0.0328     0.1987     2.5928     0.0132   173.0122     9.9629
 2880.5000  -999.2500  -999.2500  -999.2500  -999.2500     0.0340     0.2061     2.5796     0.0063   172.7923     9.9675
 2881.0000  -999.2500  -999.2500  -999.2500  -999.2500     0.0425     0.2129     2.5654     0.0066   174.5481     9.9719
 2881.5000  -999.2500  -999.2500  -999.2500  -999.2500     0.0509     0.2149     2.5540     0.0066   176.3214     9.9764
 2882.0000  -999.2500  -999.2500  -999.2500  -999.2500     0.0554     0.2157     2.5483     0.0013   178.1836     9.9809
 2882.5000  -999.2500  -999.2500  -999.2500  -999.2500     0.0576     0.2180     2.5625    -0.0005   178.5680     9.9853
 2883.0000  -999.2500  -999.2500  -999.2500  -999.2500     0.0573     0.2242     2.5647     0.0084   179.0989     9.9898
 2883.5000  -999.2500  -999.2500  -999.2500  -999.2500     0.0541     0.2303     2.5354     0.0235   180.6649     9.9944
 2884.0000  -999.2500  -999.2500  -999.2500  -999.2500     0.0663     0.2351     2.5347     0.0260   179.1961     9.9979
 2884.5000  -999.2500  -999.2500  -999.2500  -999.2500     0.0479     0.2281     2.5430     0.0076   175.4813     9.9892
 2885.0000  -999.2500  -999.2500  -999.2500  -999.2500     0.0478     0.2224     2.5585     0.0025   171.8701     9.9800
 2885.5000  -999.2500  -999.2500  -999.2500  -999.2500     0.0649     0.2167     2.5785     0.0061   172.0609     9.9708
 2886.0000  -999.2500  -999.2500  -999.2500  -999.2500     0.0544     0.2141     2.5930     0.0116   174.1012     9.9616
 2886.5000  -999.2500  -999.2500  -999.2500  -999.2500     0.0405     0.2163     2.5997     0.0106   175.0141     9.9618
 2887.0000  -999.2500  -999.2500  -999.2500  -999.2500     0.0297     0.2128     2.5797     0.0066   172.9037     9.9682
 2887.5000  -999.2500  -999.2500  -999.2500  -999.2500     0.0328     0.2093     2.5711     0.0026   173.4821     9.9747
 2888.0000  -999.2500  -999.2500  -999.2500  -999.2500     0.0422     0.2098     2.5653    -0.0008   175.0285     9.9812
 2888.5000  -999.2500  -999.2500  -999.2500  -999.2500     0.0505     0.2127     2.5739     0.0069   176.5734     9.9877
 2889.0000  -999.2500  -999.2500  -999.2500  -999.2500     0.0516     0.2155     2.5944     0.0158   174.1207     9.9942
 2889.5000  -999.2500  -999.2500  -999.2500  -999.2500     0.0440     0.2126     2.6077     0.0237   171.0852     9.9985
 2890.0000  -999.2500  -999.2500  -999.2500  -999.2500     0.0285     0.2091     2.6088     0.0306   169.3791     9.9804
 2890.5000  -999.2500  -999.2500  -999.2500  -999.2500     0.0237     0.2056     2.5926     0.0377   167.9534     9.9588
 2891.0000  -999.2500  -999.2500  -999.2500  -999.2500     0.0353     0.2030     2.6127     0.0304   166.5325     9.9382
 2891.5000  -999.2500  -999.2500  -999.2500  -999.2500     0.0268     0.2047     2.5980     0.0184   165.7928     9.9449
 2892.0000  -999.2500  -999.2500  -999.2500  -999.2500     0.0213     0.1992     2.5766     0.0075   167.6127     9.9561
 2892.5000  -999.2500  -999.2500  -999.2500  -999.2500     0.0367     0.1972     2.5572     0.0039   169.4620     9.9674
 2893.0000  -999.2500  -999.2500  -999.2500  -999.2500     0.0500     0.2086     2.5677     0.0142   169.3957     9.9774
 2893.5000  -999.2500  -999.2500  -999.2500  -999.2500     0.0538     0.2104     2.5842     0.0244   168.5528     9.9693
 2894.0000  -999.2500  -999.2500  -999.2500  -999.2500     0.0536     0.2058     2.5945     0.0262   166.1157     9.9608
 2894.5000  -999.2500  -999.2500  -999.2500  -999.2500     0.0347     0.2000     2.5922     0.0168   160.7992     9.9524
 2895.0000  -999.2500  -999.2500  -999.2500  -999.2500     0.0277     0.1955     2.5877     0.0077   154.3486     9.9440
 2895.5000  -999.2500  -999.2500  -999.2500  -999.2500     0.0356     0.1943     2.5919     0.0021   149.9419     9.9357
 2896.0000  -999.2500  -999.2500  -999.2500  -999.2500     0.0397     0.1913     2.5982    -0.0016   148.1230     9.9272
 2896.5000  -999.2500  -999.2500  -999.2500  -999.2500     0.0343     0.1852     2.6017     0.0016   148.7420     9.9189
 2897.0000  -999.2500  -999.2500  -999.2500  -999.2500     0.0293     0.1790     2.5958     0.0057   151.6524     9.9213
 2897.5000  -999.2500  -999.2500  -999.2500  -999.2500     0.0302     0.1771     2.5897     0.0054   153.7990     9.9288
 2898.0000  -999.2500  -999.2500  -999.2500  -999.2500     0.0336     0.1865     2.5754     0.0009   155.4093     9.9363
 2898.5000  -999.2500  -999.2500  -999.2500  -999.2500     0.0407     0.1950     2.5563    -0.0063   159.1391     9.9438
 2899.0000  -999.2500  -999.2500  -999.2500  -999.2500     0.0533     0.2035     2.5301    -0.0134   163.0331     9.9513
 2899.5000  -999.2500  -999.2500  -999.2500  -999.2500     0.0689     0.2087     2.5385    -0.0110   166.6861     9.9575
 2900.0000  -999.2500  -999.2500  -999.2500  -999.2500     0.0744     0.2070     2.5513    -0.0006   164.4373     9.9501
