~VERSION INFORMATION
 VERS.                2.0:   CWLS LOG ASCII STANDARD - VERSION 2.0
 WRAP.                 NO:   ONE LINE PER DEPTH STEP
~WELL INFORMATION
#MNEM.UNIT      DATA TYPE    INFORMATION
#----------   ------------   ------------------------------
 STRT.F            8.0000:   START DEPTH
 STOP.F          551.0000:   STOP DEPTH
 STEP.F            0.5000:   STEP LENGTH
 NULL.          -999.2500:   NO VALUE
 COMP.   FLUOR DANIEL INC:   COMPANY
 WELL. NAVAL PETROLEUM RESERVE 3 S-10 #31-10:   WELL
 FLD .        TEAPOT DOME:   FIELD
 LOC .      S10 T38N R78W:   LOCATION
 CNTY.            NATRONA:   COUNTY
 STAT.            WYOMING:   STATE
 CTRY. UNITED STATES OF AMERICA:   COUNTRY
 SRVC.       Schlumberger:   SERVICE COMPANY
 DATE.        21-JUN-1970:   LOGDATE
 API .       490251039400:   API NUMBER
~CURVE INFORMATION
#MNEM.UNIT       API CODE    CURVE DESCRIPTION
#----------   ------------   ------------------------------
 DEPT.F                  :   
 SPR .MV     05 010 01 00:   SPONTANEOUS POTENTIAL FROM RES.
 ASN .OHMM   05 041 16 00:   AMPLIFIED SHORT NORMAL 16"
 ILD .OHMM   05 120 46 00:   INDUCTION LOG DEEP
 CILD.MMHO   05 110 46 00:   CONDUCTIVITY INDUCTION LOG DEEP
 CALD.IN     45 280 60 00:   CALIPER FROM DENSITY LOG
 CORR.G/C3   45 356 01 00:   DENSITY CORRECTION
 RHOB.G/C3   45 350 01 00:   BULK DENSITY
 DPHI.DEC    45 890 12 00:   DENSITY POROSITY SANDSTONE
~PARAMETER INFORMATION
#MNEM.UNIT          VALUE    DESCRIPTION
#----------   ------------   ------------------------------
 PD  .                 GL:   PERMANENT DATUM
 EPD .F              5256:   ELEVATION PERMANENT DATUM
 LMF .                 KB:   LOG MEASURED FROM
 DAPD.F                10:   FEET ABOVE PERMANENT DATUM
 DMF .                 KB:   DRILLING MEASURED FROM
 EKB .F              5266:   KELLING BUSHING
 EGL .F              5256:   GROUND LEVEL
 DATE.        27-JUN-1970:   RUN DATE
 RUN .                  1:   RUN NUMBER
 DD  .F               553:   DEPTH DRILLER
 DL  .F               552:   DEPTH LOGGER
 BLI .F               551:   BOTTOM LOG INTERVAL
 TLI .F                44:   TOP LOG INTERVAL
 CS  .IN             9.75:   CASING SIZE
 BS  .IN                9:   BIT SIZE
 BSD .F               553:   BIT SIZE AT DEPTH
 DFT .        FRESHGELMUD:   DRILLING FLUID TYPE
 DFD .                9.2:   DRILLING FLUID DENSITY
 BHT .F               100:   BOTTOM HOLE TEMPERATURE
 TCS .HRS               1:   TIME CURCULATED STOPPED
 MRT .F               100:   MAXIMUM RECORDED TEMPERATURE
 ENGI.             TUSNES:   RECORDING ENGINEER
 WITN.                HAZ:   WITNESSED BY
 CLNT.            A2DTECH:   CLIENT CODE
 ORIG.           5" PRINT:   ORIGIN OF DATA
 UWI .       490251039400:   UNIQUE WELL ID
 DICO. A2D Technologies, Inc.:   DIGITIZING COMPANY
~OTHER INFORMATION
~A    DEPT     SPR        ASN        ILD       CILD         CALD     CORR       RHOB       DPHI   
# ...
  129.5000   -32.8276     9.3153     9.5401   102.0427     8.7403    -0.0029     2.4703     0.1042
  130.0000   -32.8261     9.3158     9.3978   101.9970     8.7401     0.0122     2.4989     0.1117
  130.5000   -32.8245     9.2388     9.3963   101.9513     8.7400     0.0205     2.5155     0.0946
  131.0000   -32.8230     9.1620     9.3176   101.9056     8.7399     0.0220     2.5043     0.0982
  131.5000   -32.8214     9.1624     9.2389   101.8599     8.7398     0.0206     2.4728     0.1072
  132.0000   -32.8199     9.1629     9.2374   101.8142     8.7397     0.0176     2.4549     0.1132
  132.5000   -32.9736     9.1633     9.1587   102.5504     8.7395     0.0109     2.4490     0.1192
  133.0000   -33.1429     9.1638     9.1571   103.2751     8.7394     0.0057     2.4626     0.1195
  133.5000   -33.4364     9.0868     9.1556   103.9998     8.7393     0.0148     2.4739     0.1122
  134.0000   -33.5901     9.0873     9.0769   103.9427     8.7392     0.0231     2.4792     0.1074
  134.5000   -33.6119     9.0878     9.0754   104.6687     8.7390     0.0224     2.4673     0.1068
  135.0000   -33.8976     9.0109     9.0738   104.6217     8.7389     0.0141     2.4681     0.1134
  135.5000   -33.8959     9.0113     9.0723   105.3467     8.7388     0.0036     2.4735     0.1133
  136.0000   -33.8941     8.9344     9.0708   106.8416     8.7387     0.0109     2.4758     0.1099
  136.5000   -33.8926     8.8574     8.9921   106.7951     8.7386     0.0167     2.4741     0.1082
  137.0000   -33.8910     8.8579     8.9905   106.7488     8.7384     0.0039     2.4647     0.1124
  137.5000   -33.7342     8.8584     8.9118   106.7026     8.7388    -0.0006     2.4543     0.1187
  138.0000   -33.5774    10.0044     8.9103   106.6474     8.7243     0.0190     2.4633     0.1100
  138.5000   -33.5758     9.9120     8.8316   107.3836     8.7250     0.0228     2.4837     0.1009
  139.0000   -33.4190     9.8351     8.7529   108.1083     8.7256     0.0056     2.4957     0.1000
  139.5000   -33.2622     9.7581     8.7514   108.8330     8.7262    -0.0011     2.4988     0.1015
  140.0000   -32.9501     9.6967     8.5955   109.5577     8.7116     0.0125     2.4794     0.1045
  140.5000   -32.7932     9.6352     8.5940   111.0414     8.7274     0.0170     2.4524     0.1156
  141.0000   -32.7917     9.5737     8.5153   112.5366     8.7280     0.0178     2.4773     0.1174
  141.5000   -32.6349     9.5123     8.2823   113.2727     8.7286     0.0149     2.4864     0.1072
  142.0000   -32.6333     9.4199     8.1264   113.9975     8.7292     0.0179     2.4834     0.1042
  142.5000   -32.4765     9.2346     7.9706   116.2630     8.7298     0.0210     2.4707     0.1120
  143.0000   -32.3197     8.9873     7.8147   119.2876     8.7304     0.0225     2.4498     0.1219
  143.5000   -32.1628     8.7092     7.6589   122.3235     8.7310     0.0226     2.4394     0.1258
  144.0000   -32.1613     8.4929     7.5030   124.6005     8.7316     0.0264     2.4389     0.1194
  144.5000   -32.1597     8.3386     7.3471   128.3955     8.7322     0.0385     2.4665     0.1137
  145.0000   -32.1582     8.2616     7.2684   131.4314     8.7328     0.0205     2.4636     0.1143
  145.5000   -32.1566     8.2465     7.2669   134.4674     8.7334     0.0326     2.4434     0.1224
  146.0000   -32.3108     8.2780     7.2654   135.1926     8.7340     0.0386     2.4600     0.1170
  146.5000   -32.3088     8.3249     7.2638   135.1415     8.7346     0.0159     2.4608     0.1133
  147.0000   -32.6178     8.4338     7.3395   132.0185     8.7352     0.0041     2.4361     0.1281
  147.5000   -32.7720     8.6509     7.4922   128.8132     8.7358     0.0186     2.4390     0.1238
  148.0000   -33.0810     8.8372     7.6450   125.6498     8.7364     0.0471     2.4765     0.1064
  148.5000   -33.3896     8.9769     7.8750   121.0848     8.7369     0.0599     2.5092     0.0931
  149.0000   -33.3881     9.1012     8.1049   117.9574     8.7375     0.0577     2.5227     0.0898
  149.5000   -33.5422     9.1946     8.1805   115.6005     8.7381     0.0135     2.4561     0.1141
  150.0000   -33.5402     9.2724     8.3333   112.4731     8.7387     0.0167     2.4486     0.1208
  150.5000   -33.0745     9.3409     8.4114   111.7103     8.7044     0.0211     2.5057     0.1042
  151.0000   -33.0745     9.4149     8.4121   112.4807     8.6799     0.0459     2.5455     0.0900
  151.5000   -32.9193     9.4607     8.4901   112.4807     8.6806     0.0542     2.5703     0.0783
  152.0000   -32.9193     9.4272     8.5680   113.2512     8.6812     0.0445     2.5546     0.0747
  152.5000   -32.9193     9.4110     8.6459   113.2512     8.6968     0.0296     2.5119     0.0885
  153.0000   -32.7640     9.5048     8.7238   113.2512     8.6974     0.0184     2.4744     0.1032
  153.5000   -32.6087     9.5356     8.7246   112.4807     8.6980     0.0102     2.4587     0.1140
  154.0000   -32.4534     9.5201     8.7253   112.4807     8.7136     0.0042     2.4528     0.1194
  154.5000   -32.2981     9.5511     8.7261   111.7103     8.7142     0.0028     2.4566     0.1194
  155.0000   -32.2981     9.5975     8.7269   111.7103     8.7148     0.0134     2.4701     0.1164
  155.5000   -32.2981     9.5975     8.7276   110.1695     8.7154     0.0187     2.4784     0.1114
  156.0000   -32.1429     9.5975     8.7284   110.1695     8.7310     0.0188     2.4552     0.1072
  156.5000   -32.2981     9.6440     8.7292   109.3991     8.7316     0.0180     2.4736     0.1052
  157.0000   -32.2981     9.6749     8.7299   109.3991     8.7321     0.0181     2.4855     0.1088
  157.5000   -32.2981     9.6904     8.7307   109.3991     8.7327     0.0174     2.4676     0.1124
  158.0000   -32.2981     9.6904     8.7316   110.1695     8.7333     0.0076     2.4615     0.1054
  158.5000   -32.4534     9.6749     8.7324   110.1695     8.7489     0.0032     2.4885     0.1033
  159.0000   -32.6087     9.6440     8.7331   110.9399     8.7497     0.0010     2.4848     0.1087
  159.5000   -32.7640     9.5820     8.6566   111.7103     8.7503    -0.0004     2.4706     0.1183
  160.0000   -33.2298     9.4892     8.5802   111.7103     8.7508     0.0177     2.4579     0.1198
  160.5000   -33.3851     9.4272     8.5811   112.4807     8.7514     0.0313     2.4565     0.1098
  161.0000   -33.5404     9.3963     8.5819   112.4807     8.7520     0.0359     2.4513     0.1143
  161.5000   -33.5404     9.4118     8.5053   112.4807     8.7526     0.0217     2.4468     0.1209
  162.0000   -33.5404     9.4272     8.5062   112.4807     8.7382     0.0255     2.4439     0.1190
  162.5000   -33.5404     9.4595     8.4298   112.4807     8.7388     0.0390     2.4694     0.1073
  163.0000   -33.5404     9.4892     8.4306   112.4807     8.7394     0.0278     2.4860     0.1043
  163.5000   -33.3851     9.5046     8.4314   112.4807     8.7400     0.0211     2.4680     0.1082
  164.0000   -33.2298     9.4272     8.4321   112.4807     8.7406     0.0340     2.4576     0.1157
  164.5000   -33.0745     9.3498     8.3557   112.4807     8.7412     0.0280     2.4704     0.1136
  165.0000   -32.9193     9.2879     8.2793   112.4807     8.7417     0.0176     2.4863     0.1070
  165.5000   -32.7640     9.2105     8.2801   113.2512     8.7423     0.0116     2.4985     0.1018
  166.0000   -32.4534     9.1486     8.2037   113.2512     8.7429     0.0094     2.4938     0.0991
  166.5000   -32.2981     9.1022     8.2044   113.2512     8.7437     0.0110     2.4646     0.1096
  167.0000   -32.1367     9.0557     8.1280   114.0216     8.7291     0.0148     2.4744     0.1117
  167.5000   -31.9876     9.0402     8.1290   114.7920     8.7298     0.0171     2.5045     0.1003
  168.0000   -31.9876     9.0402     8.1297   115.5624     8.7304     0.0067     2.5248     0.0960
  168.5000   -31.9876     9.0557     8.0533   116.3328     8.7310    -0.0099     2.5406     0.0750
  169.0000   -32.1429     9.0867     8.0541   116.3328     8.7164    -0.0084     2.5631     0.0602
  169.5000   -32.1429     9.0867     7.9775   117.8736     8.7172     0.0359     2.5609     0.0539
