~VERSION INFORMATION
 VERS.                2.0:   CWLS LOG ASCII STANDARD - VERSION 2.0
 WRAP.                 NO:   ONE LINE PER DEPTH STEP
~WELL INFORMATION
#MNEM.UNIT      DATA TYPE    INFORMATION
#----------   ------------   ------------------------------
 STRT.F           71.5000:   START DEPTH
 STOP.F          820.0000:   STOP DEPTH
 STEP.F            0.5000:   STEP LENGTH
 NULL.          -999.2500:   NO VALUE
 COMP. U S NAVY/INTEX OIL CO:   COMPANY
 WELL. RES 3 TEAPOT DOME #72-S-34:   WELL
 FLD .             TEAPOT:   FIELD
 LOC .      S34 T39N R78W:   LOCATION
 CNTY.            NATRONA:   COUNTY
 STAT.            WYOMING:   STATE
 CTRY. UNITED STATES OF AMERICA:   COUNTRY
 SRVC.       Schlumberger:   SERVICE COMPANY
 DATE.        20-FEB-1961:   LOGDATE
 API .       490250655700:   API NUMBER
~CURVE INFORMATION
#MNEM.UNIT       API CODE    CURVE DESCRIPTION
#----------   ------------   ------------------------------
 DEPT.F                  :   
 GR  .GAPI   30 310 01 00:   GAMMA RAY
 SPR .MV     05 010 01 00:   SPONTANEOUS POTENTIAL FROM RES.
 ILD .OHMM   05 120 46 00:   INDUCTION LOG DEEP
 ASN .OHMM   05 041 16 00:   AMPLIFIED SHORT NORMAL 16"
 CILD.MMHO   05 110 46 00:   CONDUCTIVITY INDUCTION LOG DEEP
~PARAMETER INFORMATION
#MNEM.UNIT          VALUE    DESCRIPTION
#----------   ------------   ------------------------------
 LMF .                 KB:   LOG MEASURED FROM
 DMF .                 KB:   DRILLING MEASURED FROM
 EKB .F              5071:   KELLING BUSHING
 EGL .F              5057:   GROUND LEVEL
 DATE.          2-20-1961:   RUN DATE
 RUN .                  1:   RUN NUMBER
 DD  .F               820:   DEPTH DRILLER
 DL  .F               820:   DEPTH LOGGER
 BLI .F               819:   BOTTOM LOG INTERVAL
 TLI .F                80:   TOP LOG INTERVAL
 CBD .F                12:   CASING BOTTOM DRILLER
 BS  .IN            7.875:   BIT SIZE
 BSD .F               820:   BIT SIZE AT DEPTH
 DFT .       GEL-OIL EMUL:   DRILLING FLUID TYPE
 DFD .                9.3:   DRILLING FLUID DENSITY
 DFV .                 48:   DRILLING FLUID VISCOSITY
 DFPH.                8.5:   DRILLING FLUID PH
 DFL .                 16:   DRILLING FLUID LOSS
 MSS .           FLOWLINE:   MUD SAMPLE SOURCE
 RMS .OHMM            .82:   RESISTIVITY MUD SAMPLE
 MST .F                70:   MUD SAMPLE TEMPERATURE
 RMF .OHMM            .45:   RESISTIVITY MUD FILTRATE SAMPLE
 MFST.F                72:   MUD FILTRATE SAMPLE TEMPERATURE
 RMC .OHMM            1.4:   RESISTIVITY MUD CAKE
 MCST.F                78:   MUD CAKE SAMPLE TEMPERATURE
 RMB .OHMM            .73:   RESISTIVITY MUD AT BHT
 BHT .F                78:   BOTTOM HOLE TEMPERATURE
 TCS .HRS               1:   TIME CURCULATED STOPPED
 MRT .F                78:   MAXIMUM RECORDED TEMPERATURE
 LUN .               2523:   LOGGING UNIT NUMBER
 LUL .              CSPR.:   LOGGING UNIT LOCATION
 ENGI.             KNOBEL:   RECORDING ENGINEER
 WITN.          JORGENSEN:   WITNESSED BY
 CLNT.            A2DTECH:   CLIENT CODE
 ORIG.      2" & 5" PRINT:   ORIGIN OF DATA
 UWI .       490250655700:   UNIQUE WELL ID
 DICO. A2D Technologies, Inc.:   DIGITIZING COMPANY
~OTHER INFORMATION
~A   DEPT       GR        SPR          ILD      ASN       CILD   
# ...
  742.5000    56.4840   -19.8902    12.1551    13.1202    88.0640
  743.0000    57.4691   -20.0140    12.0185    13.0631    89.1849
  743.5000    58.3695   -20.1398    11.8647    13.0062    90.1384
  744.0000    55.4604   -20.2637    11.7062    12.9490    91.1316
  744.5000    49.1467   -20.3894    11.7042    12.9004    90.9785
  745.0000    48.6092   -20.5135    11.7878    12.9327    90.5243
  745.5000    53.3886   -20.6390    11.8035    12.9923    90.0767
  746.0000    54.2190   -20.7631    11.8063    13.0514    89.6223
  746.5000    53.2510   -20.8884    11.9716    13.1111    89.1429
  747.0000    49.1564   -21.0128    12.1235    13.1701    89.1388
  747.5000    44.9434   -21.0465    12.2688    13.3888    87.3109
  748.0000    45.4525   -21.0459    12.4036    13.7514    85.1554
  748.5000    44.5829   -20.9680    13.1282    14.1159    81.5898
  749.0000    41.3934   -20.7220    13.7838    14.5863    77.6861
  749.5000    42.8428   -20.4775    14.4327    15.1630    73.7916
  750.0000    42.4443   -20.2561    15.0592    15.7377    69.8881
  750.5000    42.1331   -20.0039    15.6123    16.3146    65.9934
  751.0000    44.1824   -19.7731    16.1712    16.8890    64.2426
  751.5000    43.9658   -19.5441    16.7248    17.4271    61.3794
  752.0000    41.0035   -19.3133    17.2835    17.9223    58.7603
  752.5000    37.8291   -19.0842    17.7754    18.4209    56.1481
  753.0000    40.9229   -18.8738    17.7996    18.8721    54.2842
  753.5000    45.7140   -18.3793    17.6391    18.6269    54.2870
  754.0000    48.1235   -17.9241    17.4825    18.3469    55.3639
  754.5000    44.5016   -17.7127    17.3223    18.0705    56.3602
  755.0000    43.7273   -17.7622    17.1655    17.7906    57.3518
  755.5000    41.4108   -17.8108    17.0053    17.4800    58.3477
  756.0000    39.8954   -17.8610    16.8486    17.3465    59.3395
  756.5000    40.1562   -18.1195    16.6886    17.1973    60.3349
  757.0000    37.9333   -18.6140    16.5319    17.0457    61.3270
  757.5000    37.4386   -19.0701    16.3830    16.8962    62.2524
  758.0000    35.2645   -19.1066    16.1013    16.7449    63.6901
  758.5000    34.2126   -19.1770    15.8350    16.5951    64.3539
  759.0000    35.7124   -19.2528    15.5887    16.4866    65.0152
  759.5000    34.1366   -19.3230    15.6590    16.4970    65.2089
  760.0000    31.9313   -19.3989    15.7431    16.5068    65.1424
  760.5000    33.1842   -19.4648    15.8249    16.5170    65.0778
  761.0000    35.0985   -19.0658    15.9085    16.5268    65.0117
  761.5000    36.7697   -18.8252    15.9904    16.5367    64.9470
  762.0000    35.5067   -18.5894    16.0861    16.5466    64.8813
  762.5000    33.5747   -18.3496    16.0671    16.5565    64.8162
  763.0000    35.0425   -18.1133    16.0458    16.5663    64.7509
  763.5000    40.1077   -17.8851    16.0239    16.5763    64.6855
  764.0000    41.0101   -17.9193    16.0023    16.5836    64.6205
  764.5000    45.9323   -17.9583    15.9806    16.5575    64.5548
  765.0000    48.3150   -17.9981    15.9589    16.5358    64.4894
  765.5000    43.0816   -18.0376    15.9373    16.5152    64.4240
  766.0000    40.2273   -18.0832    15.9156    16.4933    64.3586
  766.5000    41.2413   -18.3582    15.8939    16.4729    64.2932
  767.0000    38.5698   -18.6861    15.8172    16.4510    64.2430
  767.5000    35.9393   -19.0154    15.7086    16.4307    65.0879
  768.0000    34.0628   -19.2681    15.6001    16.4087    65.7735
  768.5000    36.9033   -19.1736    15.4913    16.3848    66.4590
  769.0000    39.0347   -19.0951    15.3829    16.4450    67.1445
  769.5000    41.0342   -19.0184    15.2739    16.3556    67.8301
  770.0000    42.7593   -18.9400    15.1657    16.2645    68.5156
  770.5000    39.3771   -18.8631    15.0565    16.1749    69.2011
  771.0000    40.4455   -18.7849    14.9483    16.0839    69.8867
  771.5000    43.7186   -18.7079    14.8391    15.9941    70.5722
  772.0000    48.1311   -18.6299    14.7309    15.9033    71.2577
  772.5000    46.9364   -18.5529    14.6217    15.8133    71.9433
  773.0000    47.0587   -18.4750    14.4926    15.7227    72.0429
  773.5000    48.3795   -18.3978    14.5217    15.6873    71.7668
  774.0000    44.2507   -18.3201    14.5952    15.6872    71.4907
  774.5000    42.8542   -18.2428    14.6677    15.6870    71.2146
  775.0000    40.9810   -18.1653    14.7411    15.6872    70.9385
  775.5000    45.2425   -18.0879    14.8137    15.6868    70.6624
  776.0000    50.6484   -18.0105    14.8871    15.6872    70.3862
  776.5000    49.1699   -17.9329    14.9598    15.6867    70.1101
  777.0000    48.3974   -17.8933    14.9571    15.6872    69.8340
  777.5000    53.7170   -17.9122    14.8741    15.6866    69.5579
  778.0000    47.9994   -17.9312    14.7914    15.6872    69.2231
  778.5000    42.3700   -17.9500    14.7085    15.6865    69.2231
  779.0000    43.5487   -17.9691    14.6257    15.5271    69.2231
  779.5000    46.3638   -17.9879    14.4815    15.3643    70.2480
  780.0000    49.3879   -18.0070    14.2936    15.2026    71.5559
  780.5000    50.3405   -18.0258    14.1055    15.0399    72.8638
  781.0000    43.8034   -18.0447    13.9177    14.8781    74.1717
  781.5000    44.2216   -18.0636    13.7295    14.7155    75.4797
  782.0000    45.6052   -18.0830    13.5418    14.5536    76.7876
  782.5000  -999.2500   -18.1154    13.3536    14.3912    78.0955
  783.0000  -999.2500   -18.1487    13.1976    14.2291    79.1833
  783.5000  -999.2500   -18.1823    13.1973    14.0938    80.1793
  784.0000  -999.2500   -18.2154    13.1977    14.0214    80.3795
  784.5000  -999.2500   -18.2492    13.1016    13.9593    80.6411
  785.0000  -999.2500   -18.2822    13.0026    13.8972    80.9027
  785.5000  -999.2500   -18.3161    12.9028    13.8352    81.1643
  786.0000  -999.2500   -18.3490    12.7994    13.7730    81.4259
  786.5000  -999.2500   -18.3830    12.7723    13.7110    81.6875
  787.0000  -999.2500   -18.4158    12.7446    13.6487    81.9491
  787.5000  -999.2500   -18.4499    12.7162    13.5868    82.2106
  788.0000  -999.2500   -18.4778    12.6884    13.5244    82.4722
  788.5000  -999.2500   -18.2726    12.6601    13.4624    82.7338
  789.0000  -999.2500   -18.0928    12.6323    13.4000    82.9954
  789.5000  -999.2500   -17.9141    12.6041    13.3381    83.1673
  790.0000  -999.2500   -17.7344    12.5761    13.2756    84.1634
  790.5000  -999.2500   -17.7252    12.5480    13.2139    84.1634
  791.0000  -999.2500   -17.7749    12.5200    13.1513    84.2743
  791.5000  -999.2500   -17.8254    12.4920    13.0980    84.3927
  792.0000  -999.2500   -17.8751    12.4640    13.1307    84.5110
  792.5000  -999.2500   -17.9256    12.4360    13.1604    84.6293
  793.0000  -999.2500   -17.9753    12.4080    13.1891    84.7477
  793.5000  -999.2500   -18.0258    12.3543    13.2188    84.8660
  794.0000  -999.2500   -18.0755    12.2908    13.2474    84.9844
  794.5000  -999.2500   -18.1260    12.2275    13.2771    85.1027
  795.0000  -999.2500   -18.1757    12.1639    13.2566    85.4582
  795.5000  -999.2500   -18.2263    12.1006    13.1328    86.3901
  796.0000  -999.2500   -18.2801    12.0369    13.0082    87.3220
  796.5000  -999.2500   -18.2103    11.9738    12.8843    88.2539
  797.0000  -999.2500   -18.1332    11.9100    12.7598    89.1858
  797.5000  -999.2500   -18.0569    11.8470    12.6358    90.1177
  798.0000  -999.2500   -17.9799    11.8025    12.6373    91.1355
  798.5000  -999.2500   -17.9036    11.8031    12.6905    90.7121
  799.0000  -999.2500   -17.8267    11.8023    12.7438    90.2458
  799.5000  -999.2500   -17.7504    11.8031    12.7968    89.7795
  800.0000  -999.2500   -17.6736    11.8022    12.8503    89.3132
  800.5000  -999.2500   -17.5972    11.8527    12.8979    88.8469
  801.0000  -999.2500   -17.5205    12.0011    12.7902    88.3806
  801.5000  -999.2500   -17.4440    11.9335    12.6914    88.1474
  802.0000  -999.2500   -17.3673    11.8704    12.5936    88.9691
  802.5000  -999.2500   -17.2908    11.8089    12.4948    89.7161
  803.0000  -999.2500   -17.2142    11.7459    12.3969    90.4632
