~VERSION INFORMATION
 VERS.                2.0:   CWLS LOG ASCII STANDARD - VERSION 2.0
 WRAP.                 NO:   ONE LINE PER DEPTH STEP
~WELL INFORMATION
#MNEM.UNIT      DATA TYPE    INFORMATION
#----------   ------------   ------------------------------
 STRT.F           37.5000:   START DEPTH
 STOP.F          525.5000:   STOP DEPTH
 STEP.F            0.5000:   STEP LENGTH
 NULL.          -999.2500:   NO VALUE
 COMP. LAWRENCE/ALLISON INC:   COMPANY
 WELL.    74-11 SX #10-10:   WELL
 FLD .             TEAPOT:   FIELD
 LOC .      S10 T38N R78W:   LOCATION
 CNTY.            NATRONA:   COUNTY
 STAT.            WYOMING:   STATE
 CTRY. UNITED STATES OF AMERICA:   COUNTRY
 SRVC.            Unknown:   SERVICE COMPANY
 DATE.        08-AUG-1984:   LOGDATE
 API .       490251097800:   API NUMBER
~CURVE INFORMATION
#MNEM.UNIT       API CODE    CURVE DESCRIPTION
#----------   ------------   ------------------------------
 DEPT.F                  :   
 CNC .DEC    42 890 03 00:   NEUTRON POROSITY SANDSTONE
 AC  .US/F   60 520 00 00:   ACCOUSTIC
 GRD .GAPI   45 310 01 00:   GAMMA RAY FROM DENSITY LOG
 CALD.IN     45 280 60 00:   CALIPER FROM DENSITY LOG
 CORR.G/C3   45 356 01 00:   DENSITY CORRECTION
 DPHI.DEC    45 890 12 00:   DENSITY POROSITY SANDSTONE
 DEN .G/C3   45 350 01 00:   COMPENSATED BULK DENSTIY
 RILD.OHMM   07 120 46 00:   RESISTIVITY INDUCTION LOG DEEP
 RILM.OHMM   07 120 44 00:   RESISTIVITY INDUCTION LOG MEDIUM
 RFOC.OHMM   07 220 04 00:   RESISTIVITY FOCUSED LOG
 SPR .MV     07 010 01 00:   SPONTANEOUS POTENTIAL FROM RES.
~PARAMETER INFORMATION
#MNEM.UNIT          VALUE    DESCRIPTION
#----------   ------------   ------------------------------
 PD  .                 GL:   PERMANENT DATUM
 EPD .F              5180:   ELEVATION PERMANENT DATUM
 LMF .                 GL:   LOG MEASURED FROM
 DMF .                 GL:   DRILLING MEASURED FROM
 EGL .F              5180:   GROUND LEVEL
 DATE.             8-8-84:   RUN DATE
 RUN .                  1:   RUN NUMBER
 DD  .F               525:   DEPTH DRILLER
 DL  .F               526:   DEPTH LOGGER
 BLI .F               525:   BOTTOM LOG INTERVAL
 TLI .F                42:   TOP LOG INTERVAL
 CS  .IN            9.625:   CASING SIZE
 CBD .F                42:   CASING BOTTOM DRILLER
 CBL .F                42:   CASING BOTTOM LOGGER
 BS  .IN            7.875:   BIT SIZE
 BSD .F               525:   BIT SIZE AT DEPTH
 DFT .          KCL WATER:   DRILLING FLUID TYPE
 MSS .           FLOWLINE:   MUD SAMPLE SOURCE
 RMS .OHMM           .141:   RESISTIVITY MUD SAMPLE
 MST .F                78:   MUD SAMPLE TEMPERATURE
 RMF .OHMM            .12:   RESISTIVITY MUD FILTRATE SAMPLE
 MFST.F                78:   MUD FILTRATE SAMPLE TEMPERATURE
 RMC .OHMM             .2:   RESISTIVITY MUD CAKE
 MCST.F                78:   MUD CAKE SAMPLE TEMPERATURE
 MFSS.               MEAS:   MUD FILTRATE SAMPLE SOURCE
 MCSS.               MEAS:   MUD CAKE SAMPLE SOURCE
 RMB .OHMM            .13:   RESISTIVITY MUD AT BHT
 BHT .F                89:   BOTTOM HOLE TEMPERATURE
 MRT .F                89:   MAXIMUM RECORDED TEMPERATURE
 LUN .               6307:   LOGGING UNIT NUMBER
 LUL .               GLTE:   LOGGING UNIT LOCATION
 ENGI.            JOHNSON:   RECORDING ENGINEER
 WITN.              FIVAS:   WITNESSED BY
 CLNT.            A2DTECH:   CLIENT CODE
 ORIG.           5" PRINT:   ORIGIN OF DATA
 UWI .       490251097800:   UNIQUE WELL ID
 DICO. A2D Technologies, Inc.:   DIGITIZING COMPANY
~OTHER INFORMATION
~A   DEPT      CNC         AC        GRD       CALD       CORR       DPHI        DEN       RILD       RILM       RFOC        SPR   
   37.5000  -999.2500  -999.2500   152.0870  -999.2500  -999.2500  -999.2500  -999.2500  -999.2500  -999.2500  -999.2500  -999.2500
   38.0000     0.0282  -999.2500   152.5530  -999.2500  -999.2500  -999.2500  -999.2500  -999.2500  -999.2500  -999.2500  -999.2500
   38.5000     0.0288  -999.2500   153.5420  -999.2500  -999.2500  -999.2500  -999.2500  -999.2500  -999.2500  -999.2500  -999.2500
   39.0000     0.0288  -999.2500   153.7720  -999.2500  -999.2500  -999.2500  -999.2500  -999.2500  -999.2500  -999.2500  -999.2500
   39.5000     0.0287  -999.2500   150.9760  -999.2500  -999.2500  -999.2500  -999.2500  -999.2500  -999.2500  -999.2500  -999.2500
   40.0000     0.0265  -999.2500   146.6270  -999.2500  -999.2500  -999.2500  -999.2500  -999.2500  -999.2500  -999.2500  -999.2500
   40.5000     0.0234  -999.2500   142.2840  -999.2500  -999.2500  -999.2500  -999.2500  -999.2500  -999.2500  -999.2500  -999.2500
   41.0000     0.0211  -999.2500   137.9340  -999.2500  -999.2500  -999.2500  -999.2500  -999.2500  -999.2500  -999.2500  -999.2500
   41.5000     0.0199  -999.2500   133.5590  -999.2500  -999.2500  -999.2500  -999.2500  -999.2500  -999.2500  -999.2500  -999.2500
   42.0000     0.0192  -999.2500   129.1580     8.2930    -0.4970  -999.2500  -999.2500  -999.2500  -999.2500  -999.2500  -999.2500
   42.5000     0.0213  -999.2500   128.2220     8.1970    -0.2760     0.3890  -999.2500  9605.0781  9934.6836 10333.3994   -19.8430
   43.0000     0.0358  -999.2500   139.5090     8.1650    -0.0540     0.3240     2.0810  9612.9531  9934.6836 10333.3994   -12.3450
   43.5000     0.0398  -999.2500   151.4830     8.1340     0.1050     0.2890     2.1930  9622.1484  9934.6836 10333.3994    -2.1190
   44.0000     0.0407  -999.2500   163.4830     8.1100     0.1070     0.2520     2.2980  9630.0371  9934.6836 10328.5127    -8.7990
   44.5000     0.0394  -999.2500   175.3910     8.0790     0.0640     0.2110     2.3110  9637.9326  9934.6836 10291.9189   -24.1310
   45.0000     0.0391  -999.2500   175.5410     8.0880     0.0540     0.2090     2.3270  9645.8350  9742.1533 10255.3262   -37.4430
   45.5000     0.0406  -999.2500   174.0130     8.0990     0.0680     0.2110     2.3300  4450.2974  1524.8879 10218.7334   -49.2740
   46.0000     0.0418  -999.2500   172.3840     8.1100     0.0830     0.2130     2.3250     2.6517     3.1811 10182.1396   -53.0700
   46.5000     0.0421  -999.2500   170.7780     8.1170     0.0920     0.2130     2.3210     1.9308     3.3442 10145.5469   -53.8210
   47.0000     0.0417  -999.2500   170.6510     8.1160     0.0700     0.2010     2.3370     2.0567     3.6957 10108.9531   -54.5350
   47.5000     0.0407  -999.2500   173.1310     8.1160     0.0650     0.1900     2.3570     2.5329     3.8300 10072.3604   -55.2300
   48.0000     0.0394  -999.2500   177.9590     8.1150     0.0650     0.1750     2.3760     3.8651     3.9410 10035.7676   -55.9440
   48.5000     0.0409  -999.2500   182.0010     8.1140     0.0520     0.1720     2.3910     5.2432     5.0412  9999.1738   -56.6770
   49.0000     0.0418  -999.2500   182.0390     8.1130     0.0270     0.1700     2.3970     4.4457     6.2309  9962.5811   -56.9990
   49.5000     0.0427  -999.2500   181.7050     8.1130     0.0180     0.1680     2.3990     4.0956     6.3133  9925.9883   -57.4530
   50.0000     0.0430  -999.2500   181.3710     8.1120     0.0330     0.1650     2.4030     4.0142     6.1810  9844.9453   -57.9130
   50.5000     0.0429  -999.2500   181.0300     8.1110     0.0500     0.1610     2.4110     4.0114     6.5780  9844.9590   -58.5280
   51.0000     0.0423  -999.2500   180.5520     8.1100     0.0670     0.1570     2.4180     4.0443     6.9030  9844.9717   -59.6380
   51.5000     0.0416  -999.2500   177.5080     8.1100     0.0720     0.1530     2.4260     4.2210     6.1370  9844.9854   -60.6090
   52.0000     0.0406  -999.2500   174.5840     8.1090     0.0690     0.1510     2.4290     4.4659     5.4420  9844.9980   -60.3980
   52.5000     0.0403  -999.2500   172.2710     8.1080     0.0660     0.1510     2.4280     4.7577     5.0940  9845.0107   -60.3260
   53.0000     0.0409  -999.2500   177.7410     8.1070     0.0660     0.1540     2.4240     5.3200     5.4150  9845.0234   -59.6740
   53.5000     0.0436  -999.2500   182.3230     8.1070     0.0780     0.1570     2.4200     5.3990     5.6370  9845.0361   -59.0150
   54.0000     0.0460  -999.2500   183.4780     8.1060     0.0890     0.1590     2.4170     5.2938     5.5450  9845.0488   -58.5100
   54.5000     0.0454  -999.2500   184.6500     8.1050     0.0980     0.1480     2.4230     5.1926     5.4620  9845.0625   -59.0350
   55.0000     0.0466  -999.2500   185.8010     8.1050     0.0980     0.1340     2.4470     5.1982     5.3790  9845.0752   -59.5760
   55.5000     0.0475  -999.2500   185.5600     8.1040     0.1260     0.1200     2.4700     5.1670     5.2960  9845.0879   -59.7890
   56.0000     0.0484  -999.2500   181.4250     8.1030     0.1070     0.1010     2.4920     5.2104     5.1880  9845.1006   -59.7340
   56.5000     0.0449  -999.2500   177.3630     8.1020     0.0770     0.1000     2.5150     5.3253     5.4500  9845.1133   -59.6840
   57.0000     0.0433  -999.2500   177.1150     8.1020     0.0530     0.1150     2.5050     5.4805     5.6770  9845.1270   -59.6700
   57.5000     0.0436  -999.2500   179.6670     8.1010     0.0420     0.1310     2.4750     5.6805     5.7570  9845.1396   -60.3070
   58.0000     0.0445  -999.2500   182.1530     8.1000     0.0310     0.1430     2.4450     5.8058     5.8370  9845.1523   -61.2120
   58.5000     0.0457  -999.2500   180.7920     8.0990     0.0200     0.1530     2.4290     5.8524     5.9170  9845.1650   -61.6480
   59.0000     0.0459  -999.2500   178.4350     8.0990     0.0290     0.1500     2.4290     5.8587     5.9630  9845.1777   -61.9660
   59.5000     0.0462  -999.2500   176.0990     8.0980     0.0390     0.1470     2.4340     5.8661     5.9830  9845.1904   -62.2820
   60.0000     0.0458  -999.2500   177.6900     8.0970     0.0500     0.1440     2.4380     5.8724     6.0020  9845.2041   -62.5970
   60.5000     0.0458  -999.2500   179.5480     8.0980     0.0650     0.1420     2.4430     5.9195     6.1010  9845.2168   -62.6650
   61.0000     0.0458  -999.2500   181.4030     8.0990     0.0810     0.1430     2.4450     5.9670     6.2770  9845.2295   -62.2990
   61.5000     0.0457  -999.2500   181.1940     8.0990     0.0770     0.1430     2.4420     6.0160     6.4720  9845.2422   -61.9400
   62.0000     0.0457  -999.2500   179.6560     8.1000     0.0700     0.1440     2.4400     6.0224     6.4130  9845.2549   -61.5810
   62.5000     0.0450  -999.2500   176.9940     8.1000     0.0670     0.1400     2.4420     6.1980     6.5130  9845.2686   -61.2220
   63.0000     0.0443  -999.2500   176.4550     8.1010     0.0690     0.1370     2.4480     6.2489     6.6580  9845.2812   -60.8640
   63.5000     0.0434  -999.2500   179.6870     8.1010     0.0710     0.1330     2.4540     6.3867     6.8020  9845.2939   -60.5100
   64.0000     0.0424  -999.2500   182.9290     8.1020     0.0730     0.1310     2.4600     6.5729     6.9560  9845.3066   -60.2150
   64.5000     0.0414  -999.2500   186.1620     8.1030     0.0670     0.1320     2.4600     6.7179     7.1320  9845.3193   -60.5950
   65.0000     0.0426  -999.2500   188.3090     8.1030     0.0550     0.1360     2.4540     6.9630     7.3080  9845.3320   -61.5270
   65.5000     0.0460  -999.2500   188.3470     8.1040     0.0430     0.1390     2.4470     7.1660     7.4310  9845.3457   -62.4600
   66.0000     0.0472  -999.2500   185.1850     8.1040     0.0360     0.1430     2.4410     7.3749     7.7150  9845.3584   -62.7420
   66.5000     0.0478  -999.2500   181.1610     8.1050     0.0510     0.1430     2.4440     7.5899     7.9740  9845.3711   -62.6280
   67.0000     0.0480  -999.2500   176.5760     8.1050     0.0660     0.1360     2.4520     7.7587     8.2320  9845.3838   -62.5120
   67.5000     0.0480  -999.2500   173.9120     8.1060     0.0770     0.1310     2.4610     7.8753     8.4910  9845.3965   -62.3990
