~VERSION INFORMATION
 VERS.                2.0:   CWLS LOG ASCII STANDARD - VERSION 2.0
 WRAP.                 NO:   ONE LINE PER DEPTH STEP
~WELL INFORMATION
#MNEM.UNIT      DATA TYPE    INFORMATION
#----------   ------------   ------------------------------
 STRT.F           88.0000:   START DEPTH
 STOP.F          919.0000:   STOP DEPTH
 STEP.F            0.5000:   STEP LENGTH
 NULL.          -999.2500:   NO VALUE
 COMP. U S NAVY-INTEX OIL:   COMPANY
 WELL. RES 3 TEAPOT DOM #51S-11:   WELL
 FLD .             TEAPOT:   FIELD
 LOC .      S11 T38N R78W:   LOCATION
 CNTY.            NATRONA:   COUNTY
 STAT.            WYOMING:   STATE
 CTRY. UNITED STATES OF AMERICA:   COUNTRY
 SRVC.      NL McCullough:   SERVICE COMPANY
 DATE.        08-AUG-1961:   LOGDATE
 API .       490250638400:   API NUMBER
~CURVE INFORMATION
#MNEM.UNIT       API CODE    CURVE DESCRIPTION
#----------   ------------   ------------------------------
 DEPT.F                  :   
 NEUT.CPS    35 330 30 00:   NEUTRON
 GRN .MG/TON 35 310 01 00:   GAMMA RAY
~PARAMETER INFORMATION
#MNEM.UNIT          VALUE    DESCRIPTION
#----------   ------------   ------------------------------
 PD  .                 GL:   PERMANENT DATUM
 EPD .F              5176:   ELEVATION PERMANENT DATUM
 LMF .                 KB:   LOG MEASURED FROM
 DAPD.F                 6:   FEET ABOVE PERMANENT DATUM
 DMF .                 KB:   DRILLING MEASURED FROM
 EKB .F              5182:   KELLING BUSHING
 EGL .F              5176:   GROUND LEVEL
 DATE.           8-8-1961:   RUN DATE
 RUN .                  1:   RUN NUMBER
 DD  .F               920:   DEPTH DRILLER
 DL  .F             920.5:   DEPTH LOGGER
 BLI .F               919:   BOTTOM LOG INTERVAL
 TLI .F                90:   TOP LOG INTERVAL
 BSD .F               920:   BIT SIZE AT DEPTH
 DFT .       OIL EMULSION:   DRILLING FLUID TYPE
 DFD .                  9:   DRILLING FLUID DENSITY
 TCS .HRS               2:   TIME CURCULATED STOPPED
 ENGI.            JACKSON:   RECORDING ENGINEER
 WITN.          JORGENSEN:   WITNESSED BY
 CLNT.            A2DTECH:   CLIENT CODE
 ORIG.      2" & 5" PRINT:   ORIGIN OF DATA
 UWI .       490250638400:   UNIQUE WELL ID
 DICO. A2D Technologies, Inc.:   DIGITIZING COMPANY
~OTHER INFORMATION
~A   DEPT     NEUT          GRN 
# ...
  331.0000   415.4205     6.1306
  331.5000   407.3957     6.0557
  332.0000   379.4539     5.8528
  332.5000   382.0172     5.6760
  333.0000   400.7931     5.7524
  333.5000   408.8181     5.8609
  334.0000   409.5952     5.6224
  334.5000   387.6686     5.6459
  335.0000   358.9475     5.6985
  335.5000   351.3798     5.7033
  336.0000   363.4410     5.5873
  336.5000   365.4644     5.4623
  337.0000   369.4482     5.4578
  337.5000   380.5067     5.5480
  338.0000   387.0847     5.5833
  338.5000   386.7615     5.6029
  339.0000   351.1445     5.6285
  339.5000   301.8271     5.7869
  340.0000   242.1942     6.0855
  340.5000   204.2617     6.3261
  341.0000   189.5381     6.5921
  341.5000   191.1315     7.0238
  342.0000   212.8635     7.1386
  342.5000   240.8392     7.2217
  343.0000   289.9257     7.3723
  343.5000   343.5750     6.6939
  344.0000   392.5974     6.2889
  344.5000   467.3001     5.8840
  345.0000   493.0116     5.4791
  345.5000   503.7956     5.0347
  346.0000   530.6389     4.6678
  346.5000   547.3339     4.5308
  347.0000   548.8328     4.4216
  347.5000   538.2354     4.3254
  348.0000   504.9855     4.2222
  348.5000   473.9240     4.1878
  349.0000   455.8507     4.1679
  349.5000   437.1402     4.1534
  350.0000   417.2961     4.5782
  350.5000   373.7760     4.8128
  351.0000   351.1960     4.9425
  351.5000   353.7935     5.0860
  352.0000   378.2986     5.1305
  352.5000   413.4882     5.1286
  353.0000   414.1616     4.9779
  353.5000   443.1943     4.8798
  354.0000   494.9388     4.7754
  354.5000   508.7423     4.4250
  355.0000   516.3003     4.2102
  355.5000   531.8895     4.1895
  356.0000   539.5772     4.2518
  356.5000   536.0947     4.2955
  357.0000   515.1686     4.1207
  357.5000   511.4237     4.0683
  358.0000   542.3701     4.0446
  358.5000   566.8870     4.1658
  359.0000   563.7847     4.1908
  359.5000   524.1848     4.2035
  360.0000   496.7274     4.3814
  360.5000   489.4065     4.4839
  361.0000   496.0602     4.4913
  361.5000   499.9455     4.6381
  362.0000   494.6351     4.7262
  362.5000   485.8066     4.6812
  363.0000   487.0219     4.6232
  363.5000   517.5050     4.5058
  364.0000   532.1753     4.4145
  364.5000   535.3272     4.4227
  365.0000   534.9320     4.5401
  365.5000   531.0735     4.7635
  366.0000   513.3655     4.9660
  366.5000   478.5314     5.3560
  367.0000   473.3002     5.4096
  367.5000   470.1349     5.2132
  368.0000   465.1054     5.2070
  368.5000   461.9125     5.4480
  369.0000   462.2230     5.5663
  369.5000   476.3050     5.2551
  370.0000   494.5872     5.1123
  370.5000   495.8304     4.9964
  371.0000   492.0305     4.9417
  371.5000   489.7218     5.0459
  372.0000   488.2191     5.3757
  372.5000   490.4616     5.3896
  373.0000   494.3730     4.9351
  373.5000   504.7770     4.6111
  374.0000   515.6343     4.4628
  374.5000   511.4741     4.3279
  375.0000   506.9845     4.1912
  375.5000   517.9194     4.0715
  376.0000   530.3618     3.7660
  376.5000   564.3278     3.7858
  377.0000   601.3984     3.9478
  377.5000   633.0239     4.3145
  378.0000   650.8308     4.4950
  378.5000   648.6973     4.4784
  379.0000   614.4877     4.2865
  379.5000   578.5939     4.3037
  380.0000   537.2842     4.5235
  380.5000   494.6935     4.6024
  381.0000   457.4406     4.5991
  381.5000   440.2757     4.5817
  382.0000   441.7650     4.6452
  382.5000   452.0700     4.6719
  383.0000   467.5856     4.7352
  383.5000   475.1325     4.9398
  384.0000   474.0683     4.9396
  384.5000   467.3513     4.9650
  385.0000   465.0679     5.0758
  385.5000   461.9398     5.1160
  386.0000   457.4742     5.0832
  386.5000   445.5630     4.9875
  387.0000   443.0887     5.1324
  387.5000   441.8743     5.2723
  388.0000   440.6344     5.3349
  388.5000   433.2116     5.5813
  389.0000   415.8499     5.8410
  389.5000   389.8596     6.1273
  390.0000   380.2868     6.4249
  390.5000   371.4315     6.9756
  391.0000   365.8976     7.0695
  391.5000   364.3694     7.0227
  392.0000   363.5952     6.7885
  392.5000   364.3286     6.6782
  393.0000   366.2512     6.6401
  393.5000   377.1335     6.4769
  394.0000   402.0412     6.4719
  394.5000   411.0864     6.4994
  395.0000   389.9149     6.6108
  395.5000   367.2015     6.5870
  396.0000   363.4449     6.5368
  396.5000   371.7297     6.6119
  397.0000   362.8015     6.8101
  397.5000   351.3019     6.8861
  398.0000   351.2840     6.9377
  398.5000   359.0065     6.9762
  399.0000   370.1257     6.8175
  399.5000   366.7479     6.9426
  400.0000   354.2296     7.0125
  400.5000   376.5925     6.9907
  401.0000   373.2762     6.9236
  401.5000   351.1507     6.7519
  402.0000   349.7229     6.3377
  402.5000   368.4847     6.3187
  403.0000   390.3678     6.3407
  403.5000   393.6996     6.3070
  404.0000   394.1095     6.0818
  404.5000   392.5758     6.0487
  405.0000   390.2946     6.0485
  405.5000   394.8070     6.0087
  406.0000   397.8097     5.9344
  406.5000   398.3194     6.2766
  407.0000   405.3232     6.4577
  407.5000   419.6548     6.1009
  408.0000   429.4577     6.0780
  408.5000   394.6914     6.2759
  409.0000   388.7845     6.5429
  409.5000   375.6988     6.7287
  410.0000   373.9928     7.1320
  410.5000   408.1372     7.1648
  411.0000   410.0576     7.0786
  411.5000   408.1760     6.8596
  412.0000   403.4751     6.7526
  412.5000   394.5411     6.5622
  413.0000   399.7112     6.2752
  413.5000   414.8979     6.0893
  414.0000   431.4924     6.0686
  414.5000   443.5102     6.0949
  415.0000   451.8505     6.1692
  415.5000   453.3421     6.3261
  416.0000   442.9012     6.3633
  416.5000   426.1129     6.4623
  417.0000   416.4278     6.4702
  417.5000   395.4889     6.1931
  418.0000   362.6110     6.1963
  418.5000   352.2217     6.2377
  419.0000   349.7364     6.3534
  419.5000   353.4897     6.6359
  420.0000   357.7538     6.6222
  420.5000   367.0502     6.2806
  421.0000   375.3402     6.0916
  421.5000   380.9604     6.0739
  422.0000   385.1193     6.0738
  422.5000   386.6125     6.0975
  423.0000   386.9964     6.1453
  423.5000   403.9437     6.2402
  424.0000   416.9189     6.3041
  424.5000   423.6467     6.2210
  425.0000   428.0586     6.1449
  425.5000   427.3605     6.1876
  426.0000   424.9992     6.2718
  426.5000   423.4706     6.3732
  427.0000   424.5089     6.1785
  427.5000   427.9626     6.3148
  428.0000   422.6565     6.7265
  428.5000   415.0869     6.9774
  429.0000   415.0649     7.0655
  429.5000   414.0170     7.0366
  430.0000   403.7009     7.0122
  430.5000   393.4602     7.0575
  431.0000   389.8666     7.0282
  431.5000   388.5374     6.8516
  432.0000   372.4574     6.6886
  432.5000   368.1081     6.6776
  433.0000   370.3527     6.6470
  433.5000   385.2160     6.4994
  434.0000   407.4269     6.2502
  434.5000   408.8180     6.1989
  435.0000   404.0143     6.2269
  435.5000   385.3659     6.3428
  436.0000   387.0096     6.1605
  436.5000   392.8309     6.0510
  437.0000   397.3927     6.0161
  437.5000   397.7531     6.1279
  438.0000   399.6239     6.1791
  438.5000   367.1234     6.1902
  439.0000   364.8414     6.2525
  439.5000   367.3147     6.3049
  440.0000   377.3910     6.3111
  440.5000   385.1017     6.2934
  441.0000   388.1790     6.2485
  441.5000   387.7329     6.2196
  442.0000   388.2930     6.2348
  442.5000   390.3871     6.2876
  443.0000   353.7124     6.5579
  443.5000   341.2587     6.6931
  444.0000   359.3625     6.7044
  444.5000   366.9749     6.6578
  445.0000   368.3912     6.4916
  445.5000   334.2581     6.2638
  446.0000   332.1028     6.2182
  446.5000   359.2700     6.2382
  447.0000   372.7967     6.5062
  447.5000   383.1506     6.6097
  448.0000   385.0452     6.2479
  448.5000   378.4814     6.1721
  449.0000   371.2621     6.3583
  449.5000   375.0154     6.6117
  450.0000   377.2655     6.4940
  450.5000   381.0230     6.3741
  451.0000   386.1403     6.4291
  451.5000   390.9301     6.5778
  452.0000   397.5815     6.6112
