~VERSION INFORMATION
 VERS.                2.0:   CWLS LOG ASCII STANDARD - VERSION 2.0
 WRAP.                 NO:   ONE LINE PER DEPTH STEP
~WELL INFORMATION
#MNEM.UNIT      DATA TYPE    INFORMATION
#----------   ------------   ------------------------------
 STRT.F            2.0000:   START DEPTH
 STOP.F          484.0000:   STOP DEPTH
 STEP.F            0.5000:   STEP LENGTH
 NULL.          -999.2500:   NO VALUE
 COMP. LAWRENCE/ALLISON INC:   COMPANY
 WELL. NPR 3 #68-52-1-SX-3:   WELL
 FLD .             NPR #3:   FIELD
 LOC .       S3 T38N R78W:   LOCATION
 CNTY.            NATRONA:   COUNTY
 STAT.            WYOMING:   STATE
 CTRY. UNITED STATES OF AMERICA:   COUNTRY
 SRVC.           Gearhart:   SERVICE COMPANY
 DATE.        14-JUN-1988:   LOGDATE
 API .       490251122200:   API NUMBER
~CURVE INFORMATION
#MNEM.UNIT       API CODE    CURVE DESCRIPTION
#----------   ------------   ------------------------------
 DEPT.F                  :   
 GRR .GAPI   07 310 01 00:   GAMMA RAY FROM RES. LOG.
 RILD.OHMM   07 120 46 00:   INDUCTION LOG DEEP RESISTIVITY
 RILM.OHMM   07 120 44 00:   INDUCTION LOG MEDIUM RESISTIVITY
~PARAMETER INFORMATION
#MNEM.UNIT          VALUE    DESCRIPTION
#----------   ------------   ------------------------------
 PD  .                 GL:   PERMANENT DATUM
 EPD .F              5168:   ELEVATION PERMANENT DATUM
 LMF .                 KB:   LOG MEASURED FROM
 DAPD.F                 5:   FEET ABOVE PERMANENT DATUM
 DMF .                 KB:   DRILLING MEASURED FROM
 EKB .F              5173:   KELLING BUSHING
 EGL .F              5168:   GROUND LEVEL
 DATE.          6-14-1988:   RUN DATE
 RUN .                  1:   RUN NUMBER
 DD  .F               490:   DEPTH DRILLER
 DL  .F               491:   DEPTH LOGGER
 BLI .F               484:   BOTTOM LOG INTERVAL
 TLI .F                40:   TOP LOG INTERVAL
 CS  .IN            8.625:   CASING SIZE
 CBD .F                40:   CASING BOTTOM DRILLER
 CBL .F                40:   CASING BOTTOM LOGGER
 BS  .IN            7.875:   BIT SIZE
 BSD .F               490:   BIT SIZE AT DEPTH
 DFT .                AIR:   DRILLING FLUID TYPE
 TLAB.HRS            2248:   TIME LOGGER AT BOTTOM
 MRT .F                75:   MAXIMUM RECORDED TEMPERATURE
 LUN .               7597:   LOGGING UNIT NUMBER
 LUL .           GILLETTE:   LOGGING UNIT LOCATION
 ENGI.              BENCK:   RECORDING ENGINEER
 WITN.             STRONG:   WITNESSED BY
 CLNT.            A2DTECH:   CLIENT CODE
 ORIG.           5" PRINT:   ORIGIN OF DATA
 UWI .       490251122200:   UNIQUE WELL ID
 DICO. A2D Technologies, Inc.:   DIGITIZING COMPANY
~OTHER INFORMATION
~A    DEPT      GRR      RILD       RILM   
    2.0000    47.1660  -999.2500  -999.2500
    2.5000    49.4851  -999.2500  -999.2500
    3.0000    52.5949  -999.2500  -999.2500
    3.5000    54.0327  -999.2500  -999.2500
    4.0000    56.7722  -999.2500  -999.2500
    4.5000    59.6931  -999.2500  -999.2500
    5.0000    61.5559  -999.2500  -999.2500
    5.5000    60.8003  -999.2500  -999.2500
    6.0000    60.0992  -999.2500  -999.2500
    6.5000    59.3856  -999.2500  -999.2500
    7.0000    58.6867  -999.2500  -999.2500
    7.5000    58.0679  -999.2500  -999.2500
    8.0000    58.6923  -999.2500  -999.2500
    8.5000    59.8167  -999.2500  -999.2500
    9.0000    60.9671  -999.2500  -999.2500
    9.5000    62.1017  -999.2500  -999.2500
   10.0000    62.1538  -999.2500  -999.2500
   10.5000    62.1472  -999.2500  -999.2500
   11.0000    62.1456  -999.2500  -999.2500
   11.5000    62.1642  -999.2500  -999.2500
   12.0000    62.2778  -999.2500  -999.2500
   12.5000    62.3933  -999.2500  -999.2500
   13.0000    62.4984  -999.2500  -999.2500
   13.5000    63.4199  -999.2500  -999.2500
   14.0000    64.6803  -999.2500  -999.2500
   14.5000    65.0976  -999.2500  -999.2500
   15.0000    65.5445  -999.2500  -999.2500
   15.5000    66.6700  -999.2500  -999.2500
   16.0000    68.8516  -999.2500  -999.2500
   16.5000    71.0171  -999.2500  -999.2500
   17.0000    72.7047  -999.2500  -999.2500
   17.5000    73.4826  -999.2500  -999.2500
   18.0000    72.3995  -999.2500  -999.2500
   18.5000    69.8359  -999.2500  -999.2500
   19.0000    67.3074  -999.2500  -999.2500
   19.5000    65.3042  -999.2500  -999.2500
   20.0000    65.1722  -999.2500  -999.2500
   20.5000    65.0251  -999.2500  -999.2500
   21.0000    64.3264  -999.2500  -999.2500
   21.5000    63.2880  -999.2500  -999.2500
   22.0000    61.1941  -999.2500  -999.2500
   22.5000    60.9190  -999.2500  -999.2500
   23.0000    61.2910  -999.2500  -999.2500
   23.5000    60.9417  -999.2500  -999.2500
   24.0000    60.5175  -999.2500  -999.2500
   24.5000    61.4249  -999.2500  -999.2500
   25.0000    62.6977  -999.2500  -999.2500
   25.5000    63.0292  -999.2500  -999.2500
   26.0000    62.2892  -999.2500  -999.2500
   26.5000    62.5782  -999.2500  -999.2500
   27.0000    62.8843  -999.2500  -999.2500
   27.5000    63.7926  -999.2500  -999.2500
   28.0000    65.2250  -999.2500  -999.2500
   28.5000    66.6538  -999.2500  -999.2500
   29.0000    68.0527  -999.2500  -999.2500
   29.5000    68.8923  -999.2500  -999.2500
   30.0000    66.3099  -999.2500  -999.2500
   30.5000    62.3177  -999.2500  -999.2500
   31.0000    59.3225  -999.2500  -999.2500
   31.5000    57.2243  -999.2500  -999.2500
   32.0000    58.6885  -999.2500  -999.2500
   32.5000    60.5214  -999.2500  -999.2500
   33.0000    61.7636  -999.2500  -999.2500
   33.5000    61.5173  -999.2500  -999.2500
   34.0000    61.2286  -999.2500  -999.2500
   34.5000    60.9354  -999.2500  -999.2500
   35.0000    60.8723  -999.2500  -999.2500
   35.5000    63.3064  -999.2500  -999.2500
   36.0000    66.4252  -999.2500  -999.2500
   36.5000    66.4736  -999.2500  -999.2500
   37.0000    65.8472  -999.2500  -999.2500
   37.5000    65.3952  -999.2500  -999.2500
   38.0000    65.4391  -999.2500  -999.2500
   38.5000    65.5722  -999.2500  -999.2500
   39.0000    65.7084  -999.2500  -999.2500
   39.5000    66.2644  -999.2500  -999.2500
   40.0000    69.4938    46.0079   486.6236
   40.5000    74.5507    57.0448   309.9549
   41.0000    86.1841    21.4502   281.2330
   41.5000    97.6467     5.8720   294.5827
   42.0000   106.4934     3.0082    34.1960
   42.5000   110.5739     1.8102     8.6558
   43.0000   110.0671     2.0998     3.6467
   43.5000   110.3757     3.9503     2.7370
   44.0000   113.6753     7.1509     3.1956
   44.5000   115.8922    12.9449     4.0348
   45.0000   115.5436    15.7144     5.0794
   45.5000   113.4273    12.0229     6.3946
   46.0000   112.2429     8.4299     7.6508
   46.5000   111.5521     7.0120     8.4413
   47.0000   111.6798     7.2738     8.5199
   47.5000   111.8261     7.6974     8.1216
   48.0000   111.8954     8.1456     7.3320
   48.5000   110.9486     8.6200     6.7566
   49.0000   110.0178     9.1762     6.6946
   49.5000   109.4704     8.8202     6.6325
   50.0000   112.6657     8.2979     6.8549
   50.5000   115.6820     7.7652     7.0640
   51.0000   113.8736     7.7908     7.2771
   51.5000   111.4624     7.8268     7.4133
   52.0000   110.4384     7.8629     7.4711
   52.5000   110.5859     7.8991     7.5332
   53.0000   110.5508     7.9355     7.5958
   53.5000   109.2547     7.9721     7.6590
   54.0000   107.9609     8.0089     7.7227
   54.5000   106.6857     8.0458     7.7869
   55.0000   106.0474     8.0830     7.8376
   55.5000   106.5747     8.1202     7.8376
   56.0000   107.0820     8.1337     7.8376
   56.5000   107.5936     8.1141     7.8376
   57.0000   108.0973     8.0982     7.8376
   57.5000   108.7543     8.0824     7.8378
   58.0000   109.6234     8.0666     7.8379
   58.5000   113.1170     8.0509     7.8275
   59.0000   114.6293     7.9738     7.7279
   59.5000   114.2435     7.8973     7.6295
   60.0000   113.4377     7.8216     7.5324
   60.5000   112.6094     7.7466     7.4366
   61.0000   112.5455     7.6724     7.3420
   61.5000   112.4253     7.5989     7.2487
   62.0000   110.9976     7.5261     7.1565
   62.5000   110.4025     7.4824     7.0654
   63.0000   111.9521     7.5089     7.0034
   63.5000   113.5245     7.5745     6.9473
   64.0000   114.1530     7.6406     6.9558
   64.5000   111.8914     7.7073     6.9694
   65.0000   109.1375     7.7746     6.9830
   65.5000   107.9217     7.8376     6.9964
   66.0000   107.9324     7.9168     7.0105
   66.5000   105.8482     7.9914     7.1221
   67.0000   102.8686     8.0668     7.2486
   67.5000   101.4441     8.1364     7.3773
   68.0000   102.2654     8.2130     7.5083
   68.5000   106.4405     8.2153     7.6416
   69.0000   110.7885     8.2257     7.7773
   69.5000   111.5582     8.2333     7.8644
   70.0000   110.8038     8.2409     7.9843
   70.5000   109.9438     8.2485     7.9843
   71.0000   110.1497     8.2561     7.9581
   71.5000   111.3347     8.2637     7.9390
   72.0000   112.4911     8.2712     7.9201
   72.5000   113.5316     8.2789     7.9012
   73.0000   113.2087     8.2858     7.8823
   73.5000   112.8728     8.2453     7.8636
   74.0000   111.8700     8.2068     7.8448
   74.5000   110.7381     8.1683     7.8261
   75.0000   110.7181     8.1299     7.8074
   75.5000   110.7205     8.0920     7.7889
   76.0000   111.0505     8.0587     7.7697
   76.5000   113.8669     8.1120     7.7651
   77.0000   115.6016     8.1597     7.7650
   77.5000   115.5602     8.2096     7.7642
   78.0000   113.3413     8.3339     7.7587
   78.5000   110.9351     8.4653     7.8720
   79.0000   108.5225     8.5988     7.9526
   79.5000   107.0321     8.7344     8.0377
   80.0000   107.1030     8.9002     8.1234
   80.5000   107.8178     9.0760     8.2099
   81.0000   108.5346     9.2677     8.2974
   81.5000   108.8649     9.4796     8.4108
   82.0000   107.4078     9.6967     8.6008
   82.5000   104.3146     9.9187     8.7952
   83.0000   101.0251    10.1457     8.9940
   83.5000    99.0839    10.3779     9.2205
   84.0000    97.2023    10.6154     9.6636
   84.5000    96.4062    10.8584    10.0997
   85.0000    96.1102    11.1069    10.3538
   85.5000    95.0779    11.3611    10.6143
   86.0000    94.0434    11.6191    10.8813
   86.5000    93.7094    11.9023    10.9445
   87.0000    94.7592    11.9016    10.9810
   87.5000    96.2249    11.7442    11.0465
   88.0000    97.7141    11.6342    10.9445
   88.5000    99.1884    11.5709    10.7913
   89.0000   100.7298    11.6054    10.5848
   89.5000   101.4666    11.6469    10.3822
   90.0000    99.8974    11.6780    10.2565
   90.5000    97.8595    11.5206    10.2565
   91.0000    97.7640    11.3967    10.2565
   91.5000    98.1010    11.2738    10.2564
   92.0000    99.4340    11.1532    10.2472
   92.5000   100.7612    11.0465    10.2335
