~VERSION INFORMATION
 VERS.                2.0:   CWLS LOG ASCII STANDARD - VERSION 2.0
 WRAP.                 NO:   ONE LINE PER DEPTH STEP
~WELL INFORMATION
#MNEM.UNIT      DATA TYPE    INFORMATION
#----------   ------------   ------------------------------
 STRT.F           16.0000:   START DEPTH
 STOP.F          900.0000:   STOP DEPTH
 STEP.F            0.5000:   STEP LENGTH
 NULL.          -999.2500:   NO VALUE
 COMP. FENIX & SCISSON INC:   COMPANY
 WELL.    NPR-3 #65S15-15:   WELL
 FLD .             TEAPOT:   FIELD
 LOC .      S15 T38N R78W:   LOCATION
 CNTY.            NATRONA:   COUNTY
 STAT.            WYOMING:   STATE
 CTRY. UNITED STATES OF AMERICA:   COUNTRY
 SRVC.            Unknown:   SERVICE COMPANY
 DATE.        11-MAY-1978:   LOGDATE
 API .       490251062400:   API NUMBER
~CURVE INFORMATION
#MNEM.UNIT       API CODE    CURVE DESCRIPTION
#----------   ------------   ------------------------------
 DEPT.F                  :   
 RHOB.G/C3   45 350 01 00:   BULK DENSITY
 DPHI.DEC    45 890 12 00:   DENSITY POROSITY SANDSTONE
 CORR.G/C3   45 356 01 00:   DENSITY CORRECTION
 GRD .GAPI   45 310 01 00:   GAMMA RAY FROM DENSITY LOG
 CALD.IN     45 280 60 00:   CALIPER FROM DENSITY LOG
 SPR .MV     05 010 01 00:   SPONTANEOUS POTENTIAL FROM RES.
 SN  .OHMM   05 040 16 00:   SHORT NORMAL 16"
 IL  .OHMM   05 120 00 00:   INDUCTION LOG
~PARAMETER INFORMATION
#MNEM.UNIT          VALUE    DESCRIPTION
#----------   ------------   ------------------------------
 PD  .                 GL:   PERMANENT DATUM
 EPD .F              5289:   ELEVATION PERMANENT DATUM
 LMF .                 KB:   LOG MEASURED FROM
 DAPD.F                 4:   FEET ABOVE PERMANENT DATUM
 DMF .                 KB:   DRILLING MEASURED FROM
 EKB .F              5293:   KELLING BUSHING
 EDF .F                  :   DRILLING FLOOR
 EGL .F              5289:   GROUND LEVEL
 DATE.          5-11-1978:   RUN DATE
 RUN .                  1:   RUN NUMBER
 DD  .F               887:   DEPTH DRILLER
 DL  .F               889:   DEPTH LOGGER
 BLI .F               883:   BOTTOM LOG INTERVAL
 TLI .F                40:   TOP LOG INTERVAL
 CS  .IN            8.625:   CASING SIZE
 CBD .F                40:   CASING BOTTOM DRILLER
 CBL .F                40:   CASING BOTTOM LOGGER
 BS  .IN            7.875:   BIT SIZE
 BSD .F               887:   BIT SIZE AT DEPTH
 DFT .                KCL:   DRILLING FLUID TYPE
 DFD .                8.6:   DRILLING FLUID DENSITY
 DFV .                 30:   DRILLING FLUID VISCOSITY
 DFPH.                9.5:   DRILLING FLUID PH
 DFL .                  8:   DRILLING FLUID LOSS
 MSS .                   :   MUD SAMPLE SOURCE
 RMS .OHMM            .42:   RESISTIVITY MUD SAMPLE
 MST .F                68:   MUD SAMPLE TEMPERATURE
 RMF .OHMM            .38:   RESISTIVITY MUD FILTRATE SAMPLE
 MFST.F                68:   MUD FILTRATE SAMPLE TEMPERATURE
 RMC .OHMM            .68:   RESISTIVITY MUD CAKE
 MCST.F                66:   MUD CAKE SAMPLE TEMPERATURE
 MFSS.           MEASURED:   MUD FILTRATE SAMPLE SOURCE
 MCSS.                   :   MUD CAKE SAMPLE SOURCE
 RMB .OHMM               :   RESISTIVITY MUD AT BHT
 BHT .F                72:   BOTTOM HOLE TEMPERATURE
 TCS .HRS               2:   TIME CURCULATED STOPPED
 TLAB.HRS                :   TIME LOGGER AT BOTTOM
 MRT .F                72:   MAXIMUM RECORDED TEMPERATURE
 LUN .              CASP.:   LOGGING UNIT NUMBER
 LUL .               2958:   LOGGING UNIT LOCATION
 ENGI.             MILLER:   RECORDING ENGINEER
 WITN.           MCGINLEY:   WITNESSED BY
 CLNT.            A2DTECH:   CLIENT CODE
 ORIG.      2" & 5" PRINT:   ORIGIN OF DATA
 UWI .       490251062400:   UNIQUE WELL ID
 DICO. A2D Technologies, Inc.:   DIGITIZING COMPANY
 OS  .                   :   OTHER SERVICES
 PWI .                   :   PRIMARY WELL IDENTIFIER
 R1  .                   :   REMARKS 1
 R2  .                   :   REMARKS 2
~OTHER INFORMATION
~A   DEPT     RHOB       DPHI       CORR         GRD      CALD        SPR         SN         IL   
# ...
   97.0000     2.4670     0.1216     0.0687    74.6443     7.6975   -42.4451     7.3044     6.7219
   97.5000     2.4758     0.1268     0.0662    74.1298     7.6930   -42.4523     7.5689     6.7769
   98.0000     2.4754     0.1349     0.0508    73.4771     7.6883   -42.4595     7.5565     6.7769
   98.5000     2.4617     0.1429     0.0351    73.2302     7.6737   -42.4668     7.5356     6.7769
   99.0000     2.4468     0.1472     0.0270    72.8461     7.6022   -42.4740     7.5147     6.7769
   99.5000     2.4389     0.1439     0.0283    71.9943     7.5059   -42.4812     7.4786     6.7768
  100.0000     2.4390     0.1404     0.0243    71.2319     7.4103   -42.4885     7.4018     6.7776
  100.5000     2.4389     0.1483     0.0182    72.7853     7.3163   -42.4957     7.3258     6.7038
  101.0000     2.4343     0.1493     0.0119    73.9619     7.2593   -42.5029     7.2505     6.6019
  101.5000     2.4291     0.1518     0.0128    74.4848     7.2365   -42.5101     7.1761     6.5015
  102.0000     2.4284     0.1503     0.0159    73.9371     7.2078   -42.5165     7.1024     6.4027
  102.5000     2.4279     0.1501     0.0150    68.9825     7.0906   -42.5247     7.0294     6.3054
  103.0000     2.4274     0.1509     0.0123    70.9407     7.0850   -42.5940     6.9572     6.2096
  103.5000     2.4268     0.1517     0.0096    73.5413     7.0858   -42.8780     6.8856     6.1239
  104.0000     2.4238     0.1588     0.0068    74.0349     7.0854   -43.1496     6.8146     6.2198
  104.5000     2.4206     0.1525     0.0104    74.0488     7.0715   -43.3682     6.7151     6.3087
  105.0000     2.4195     0.1461     0.0151    73.9996     7.0570   -43.4780     6.7796     6.3988
  105.5000     2.4273     0.1418     0.0185    72.7813     7.0425   -43.5899     6.8962     6.4716
  106.0000     2.4358     0.1385     0.0154    70.9377     7.0277   -43.7013     7.0147     6.4369
  106.5000     2.4436     0.1383     0.0090    68.6317     7.0384   -43.8128     7.1353     6.4082
  107.0000     2.4486     0.1408     0.0044    67.3549     7.0532   -43.9243     7.2827     6.3791
  107.5000     2.4462     0.1327     0.0045    66.0926     7.0680   -44.0360     7.1407     6.3345
  108.0000     2.4480     0.1280     0.0025    64.8030     7.0828   -44.1477     6.9259     6.1722
  108.5000     2.4606     0.1430    -0.0032    64.5504     7.0976   -44.2574     6.7175     6.0140
  109.0000     2.4617     0.1437     0.0002    66.1634     7.1123   -44.2583     6.5155     5.8599
  109.5000     2.4427     0.1453     0.0042    75.4138     7.1272   -44.1027     6.3195     5.7097
  110.0000     2.4372     0.1485     0.0081    80.1959     7.1425   -43.9496     6.1294     5.5620
  110.5000     2.4328     0.1401     0.0121    79.2990     7.1433   -43.7948     6.0544     5.4349
  111.0000     2.4355     0.1344     0.0160    75.9015     7.1401   -43.7451     6.0344     5.4884
  111.5000     2.4424     0.1440     0.0165    75.8654     7.1368   -43.7783     6.0145     5.5039
  112.0000     2.4492     0.1394     0.0166    76.4241     7.1335   -43.8129     5.9947     5.5149
  112.5000     2.4501     0.1356     0.0130    77.0055     7.1303   -43.8476     5.9749     5.5260
  113.0000     2.4458     0.1513     0.0077    77.0667     7.1269   -43.8822     5.9552     5.5371
  113.5000     2.4366     0.1504     0.0097    76.8214     7.1354   -43.9168     5.9355     5.5481
  114.0000     2.4272     0.1446     0.0140    76.6833     7.1508   -43.9514     5.9156     5.5592
  114.5000     2.4335     0.1420     0.0184    76.9924     7.1664   -43.9860     5.9024     5.5704
  115.0000     2.4423     0.1410     0.0202    77.2918     7.1819   -44.0205     5.9968     5.5815
  115.5000     2.4451     0.1392     0.0219    77.5981     7.1975   -44.0551     6.0703     5.5927
  116.0000     2.4451     0.1315     0.0235    77.3238     7.2130   -44.0897     6.1446     5.6039
  116.5000     2.4520     0.1270     0.0242    77.6248     7.2286   -44.1243     6.2200     5.6150
  117.0000     2.4649     0.1254     0.0234    78.0265     7.2441   -44.1589     6.2962     5.6258
  117.5000     2.4690     0.1238     0.0228    77.4220     7.2596   -44.1935     6.3732     5.6368
  118.0000     2.4704     0.1271     0.0176    76.4033     7.2752   -44.2281     6.4125     5.5476
  118.5000     2.4689     0.1324     0.0119    76.8959     7.2907   -44.2627     6.2567     5.4661
  119.0000     2.4647     0.1398     0.0059    78.3473     7.3062   -44.2972     6.1545     5.3858
  119.5000     2.4535     0.1461     0.0034    79.7947     7.3215   -44.3233     6.0540     5.3067
  120.0000     2.4423     0.1500     0.0018    80.1066     7.3528   -44.3228     5.9551     5.2281
  120.5000     2.4318     0.1548     0.0015    79.9176     7.3884   -44.3227     5.8579     5.0937
  121.0000     2.4267     0.1462     0.0091    79.7236     7.4241   -44.3227     5.7621     5.1004
  121.5000     2.4329     0.1379     0.0166    79.5414     7.4598   -44.3227     5.6677     5.1106
  122.0000     2.4430     0.1349     0.0242    79.9663     7.4955   -44.3227     5.5339     5.1208
  122.5000     2.4514     0.1351     0.0240    81.2859     7.5312   -44.3227     5.5593     5.1311
  123.0000     2.4526     0.1349     0.0235    82.6018     7.5645   -44.3227     5.6063     5.1413
  123.5000     2.4539     0.1333     0.0229    83.7837     7.5690   -44.3227     5.6537     5.1516
  124.0000     2.4553     0.1336     0.0216    83.0754     7.5726   -44.3227     5.7015     5.1620
  124.5000     2.4554     0.1361     0.0173    81.1406     7.5763   -44.3227     5.7497     5.1723
  125.0000     2.4530     0.1366     0.0131    79.7306     7.5800   -44.3227     5.7983     5.1826
  125.5000     2.4507     0.1386     0.0089    78.3083     7.5841   -44.3227     5.8472     5.1930
  126.0000     2.4483     0.1432     0.0047    76.9203     7.5750   -44.3227     5.8967     5.2034
  126.5000     2.4460     0.1366     0.0045    79.2565     7.5612   -44.3227     5.9570     5.2137
  127.0000     2.4466     0.1360     0.0045    81.6706     7.5474   -44.3227     5.9390     5.2242
  127.5000     2.4515     0.1284     0.0045    80.1077     7.5339   -44.3227     5.9163     5.2361
  128.0000     2.4573     0.1282     0.0044    77.5066     7.5332   -44.3227     5.8936     5.1850
  128.5000     2.4623     0.1280     0.0097    76.9861     7.5570   -44.3227     5.8710     5.1254
  129.0000     2.4636     0.1221     0.0163    77.8842     7.5817   -44.3227     5.8485     5.0660
  129.5000     2.4678     0.1200     0.0222    78.5899     7.5413   -44.3227     5.8261     5.0075
  130.0000     2.4720     0.1265     0.0167    78.3037     7.4872   -44.3227     5.8038     4.9496
  130.5000     2.4668     0.1328     0.0124    78.0292     7.4454   -44.3227     5.7335     4.8923
  131.0000     2.4608     0.1384     0.0125    77.5645     7.4530   -44.3227     5.5821     4.8358
  131.5000     2.4547     0.1403     0.0125    76.3168     7.4596   -44.3227     5.4347     4.7799
  132.0000     2.4487     0.1420     0.0125    75.1647     7.4661   -44.3227     5.2903     4.7246
  132.5000     2.4427     0.1437     0.0125    75.3906     7.4727   -44.3227     5.1417     4.6700
  133.0000     2.4386     0.1454     0.0095    75.8130     7.4793   -44.3226     5.1261     4.6160
  133.5000     2.4360     0.1489     0.0042    76.0316     7.4838   -44.3228     5.1059     4.5945
  134.0000     2.4326     0.1556    -0.0012    76.0314     7.4702   -44.3413     5.0858     4.5795
  134.5000     2.4249     0.1599    -0.0053    75.2054     7.4567   -44.3619     5.0658     4.5645
  135.0000     2.4183     0.1583    -0.0033    75.1705     7.4441   -44.3825     5.0458     4.5497
  135.5000     2.4162     0.1540    -0.0014    75.1176     7.4392   -44.4030     5.0259     4.5349
  136.0000     2.4173     0.1496     0.0004    75.0701     7.4340   -44.4235     5.0061     4.5201
  136.5000     2.4227     0.1461     0.0021    74.9886     7.4289   -44.4440     4.9864     4.5053
  137.0000     2.4281     0.1446     0.0051    74.7344     7.4237   -44.4646     4.9668     4.4907
