~VERSION INFORMATION
 VERS.                2.0:   CWLS LOG ASCII STANDARD - VERSION 2.0
 WRAP.                 NO:   ONE LINE PER DEPTH STEP
~WELL INFORMATION
#MNEM.UNIT      DATA TYPE    INFORMATION
#----------   ------------   ------------------------------
 STRT.F            8.0000:   START DEPTH
 STOP.F          508.0000:   STOP DEPTH
 STEP.F            0.1000:   STEP LENGTH
 NULL.          -999.2500:   NO VALUE
 COMP. LAWRENCE/ALLISON INC:   COMPANY
 WELL. NPR 3 47-12 SX #3-3:   WELL
 FLD .             TEAPOT:   FIELD
 LOC .       S3 T38N R78W:   LOCATION
 CNTY.            NATRONA:   COUNTY
 STAT.            WYOMING:   STATE
 CTRY. UNITED STATES OF AMERICA:   COUNTRY
 SRVC.           Gearhart:   SERVICE COMPANY
 DATE.        12-AUG-1988:   LOGDATE
 API .       490251124100:   API NUMBER
~CURVE INFORMATION
#MNEM.UNIT       API CODE    CURVE DESCRIPTION
#----------   ------------   ------------------------------
 DEPT.F                  :   
 GRR .GAPI   07 310 01 00:   GAMMA RAY
 RILD.OHMM   07 120 46 00:   INDUCTION LOG DEEP RESISTIVITY
 RILM.OHMM   07 120 44 00:   INDUCTION LOG MEDIUM RESISTIVITY
~PARAMETER INFORMATION
#MNEM.UNIT          VALUE    DESCRIPTION
#----------   ------------   ------------------------------
 PD  .                 GL:   PERMANENT DATUM
 EPD .F              5208:   ELEVATION PERMANENT DATUM
 LMF .                 KB:   LOG MEASURED FROM
 DAPD.F                10:   FEET ABOVE PERMANENT DATUM
 DMF .                 KB:   DRILLING MEASURED FROM
 EKB .F              5218:   KELLING BUSHING
 EDF .F              5216:   DRILLING FLOOR
 EGL .F              5208:   GROUND LEVEL
 DATE.        12-AUG-1988:   RUN DATE
 RUN .                  1:   RUN NUMBER
 DD  .F               515:   DEPTH DRILLER
 DL  .F               516:   DEPTH LOGGER
 BLI .F               508:   BOTTOM LOG INTERVAL
 TLI .F                50:   TOP LOG INTERVAL
 CS  .IN            9.625:   CASING SIZE
 CBD .F                50:   CASING BOTTOM DRILLER
 CBL .F                50:   CASING BOTTOM LOGGER
 BS  .IN             8.75:   BIT SIZE
 BSD .F               515:   BIT SIZE AT DEPTH
 DFT .                AIR:   DRILLING FLUID TYPE
 TCS .HRS            1500:   TIME CURCULATED STOPPED
 TLAB.HRS            1640:   TIME LOGGER AT BOTTOM
 MRT .F                70:   MAXIMUM RECORDED TEMPERATURE
 LUN .               7597:   LOGGING UNIT NUMBER
 LUL .           GILLETTE:   LOGGING UNIT LOCATION
 ENGI.         WEATHERMON:   RECORDING ENGINEER
 WITN.             STRONG:   WITNESSED BY
 CLNT.            A2DTECH:   CLIENT CODE
 ORIG.       2", 5" PRINT:   ORIGIN OF DATA
 UWI .       490251124100:   UNIQUE WELL ID
 DICO. A2D Technologies, Inc.:   DIGITIZING COMPANY
~OTHER INFORMATION
~A    DEPT      GRR      RILD       RILM   
# ...
  335.6000    88.5664    24.7819    23.6435
  335.7000    88.5670    24.7808    23.6429
  335.8000    88.5676    24.7797    23.7759
  335.9000    88.5683    24.7787    23.8065
  336.0000    88.7867    24.7777    23.8058
  336.1000    89.2082    24.7767    23.8051
  336.2000    89.5961    24.7756    23.8293
  336.3000    89.9180    24.7746    23.9698
  336.4000    90.4053    24.7736    23.9691
  336.5000    90.6899    24.7726    23.9685
  336.6000    90.6905    24.7715    24.0495
  336.7000    90.6911    24.7705    24.1343
  336.8000    90.5698    24.7695    24.1602
  336.9000    90.3176    24.7684    24.3014
  337.0000    90.0655    24.7674    24.3007
  337.1000    89.7858    24.7664    24.3000
  337.2000    89.5611    24.8791    24.2993
  337.3000    89.3091    24.9369    24.3547
  337.4000    89.0570    24.9934    24.4676
  337.5000    88.8049    25.1378    24.4668
  337.6000    88.5785    25.2830    24.4660
  337.7000    88.5792    25.4576    24.4655
  337.8000    88.5797    25.6970    24.4648
  337.9000    88.5803    25.9036    24.4641
  338.0000    88.5809    26.0534    24.4634
  338.1000    88.7402    26.1707    24.4627
  338.2000    89.2460    26.1696    24.4619
  338.3000    89.7931    26.1683    24.4614
  338.4000    90.2583    26.1674    24.5480
  338.5000    90.9470    26.1663    24.6306
  338.6000    91.5732    26.1652    24.6300
  338.7000    91.9964    26.1641    24.6293
  338.8000    92.2829    26.1630    24.6284
  338.9000    92.8224    26.1617    24.7456
  339.0000    93.0591    26.1608    24.7990
  339.1000    93.1262    26.1597    24.8597
  339.2000    93.2632    26.1586    24.9705
  339.3000    93.4299    26.1575    24.9741
  339.4000    93.4306    26.1656    25.1432
  339.5000    93.4312    26.3375    25.1426
  339.6000    93.1921    26.3366    25.2345
  339.7000    92.9400    26.3355    25.3807
  339.8000    92.6878    26.3344    25.4925
  339.9000    92.4356    26.3333    25.4976
  340.0000    92.2238    26.3322    25.6688
  340.1000    92.2245    26.3310    25.6682
  340.2000    91.7382    26.3300    25.6675
  340.3000    91.4271    26.3289    25.6668
  340.4000    91.1750    26.3278    25.6660
  340.5000    90.9229    26.3267    25.6654
  340.6000    90.6268    26.3256    25.6645
  340.7000    90.1102    26.3244    25.6639
  340.8000    89.8640    26.3234    25.6632
  340.9000    89.6118    26.2147    25.5952
  341.0000    89.5068    26.1390    25.4840
  341.1000    89.5074    26.1380    25.4749
  341.2000    89.5080    26.1369    25.3060
  341.3000    89.5086    26.1357    25.3054
  341.4000    89.5093    26.1347    25.2079
  341.5000    89.5099    26.1336    25.1287
  341.6000    89.5105    26.1325    25.0895
  341.7000    89.5110    26.0810    24.9533
  341.8000    89.5116    25.9495    24.9524
  341.9000    89.5123    25.9483    24.9518
  342.0000    89.5130    25.9473    24.9512
  342.1000    89.3092    25.9462    24.8822
  342.2000    89.2115    25.9451    24.7375
  342.3000    89.1074    25.8912    24.6046
  342.4000    88.8553    25.7633    24.6038
  342.5000    88.6082    25.7623    24.4783
  342.6000    88.6089    25.7613    24.4321
  342.7000    88.6094    25.6463    24.3633
  342.8000    88.4517    25.5808    24.2615
  342.9000    88.3081    25.5797    24.2608
  343.0000    88.3086    25.5786    24.2601
  343.1000    88.3092    25.5776    24.1350
  343.2000    88.3099    25.4317    24.0908
  343.3000    88.5220    25.3984    24.0216
  343.4000    88.6136    25.3974    23.9226
  343.5000    88.8382    25.3389    23.9219
  343.6000    89.3443    25.2195    23.9212
  343.7000    89.8381    25.2184    23.9206
  343.8000    90.1290    25.0426    23.9199
  343.9000    90.3447    25.0418    23.9193
  344.0000    90.7634    24.9529    23.8767
  344.1000    91.2695    24.8073    23.7522
  344.2000    91.7756    24.6932    23.7515
  344.3000    92.2659    24.6922    23.7509
  344.4000    92.5532    24.6910    23.7502
  344.5000    92.7726    24.5728    23.7496
  344.6000    93.1951    24.5182    23.7060
  344.7000    93.7010    24.4563    23.5838
  344.8000    94.1376    24.3136    23.5831
  344.9000    94.3912    24.1718    23.5825
  345.0000    94.6748    24.0084    23.4838
  345.1000    94.6753    24.0076    23.4178
  345.2000    95.0212    23.9171    23.3734
  345.3000    95.2817    23.8394    23.2543
  345.4000    95.2823    23.8037    23.2536
  345.5000    95.2829    23.6724    23.0048
  345.6000    95.2836    23.6713    22.9313
  345.7000    95.2841    23.5528    22.8603
  345.8000    95.1083    23.4154    22.7712
  345.9000    94.8563    23.3419    22.7530
  346.0000    94.6808    23.3043    22.6122
  346.1000    94.6545    23.1784    22.4892
  346.2000    94.3795    23.1774    22.3585
  346.3000    94.1502    23.0587    22.2982
  346.4000    93.7180    22.9243    22.2976
  346.5000    93.4735    22.8549    22.2783
  346.6000    93.3135    22.8156    22.1418
  346.7000    92.8392    22.6948    22.1412
  346.8000    92.5677    22.6937    22.0450
  346.9000    92.3349    22.6929    21.9169
  347.0000    92.0827    22.6920    21.7895
  347.1000    91.8306    22.6910    21.6819
  347.2000    91.5784    22.6900    21.6813
  347.3000    91.3262    22.6891    21.6807
  347.4000    91.0584    22.6881    21.6801
  347.5000    91.0590    22.6872    21.6094
  347.6000    91.0596    22.6862    21.5287
  347.7000    91.0602    22.6853    21.5281
  347.8000    91.1482    22.6844    21.5275
  347.9000    91.4016    22.6835    21.5269
  348.0000    91.6672    22.6824    21.6225
  348.1000    91.6678    22.6815    21.6759
  348.2000    91.8592    22.7784    21.6753
  348.3000    92.1126    22.8377    21.6965
  348.4000    92.2747    22.8830    21.8252
  348.5000    92.3167    22.9951    21.9484
  348.6000    92.5785    22.9940    22.0755
  348.7000    92.8233    22.9930    22.2034
  348.8000    92.8823    22.9921    22.3320
  348.9000    93.0275    22.9912    22.4613
  349.0000    93.2809    22.9902    22.5934
  349.1000    93.5342    22.9892    22.5927
  349.2000    93.7924    22.9883    22.6955
  349.3000    94.2886    22.9873    22.7491
  349.4000    94.5969    23.0906    22.7484
  349.5000    94.9985    23.1456    22.7478
  349.6000    95.5044    23.1446    22.7472
  349.7000    95.9620    23.1437    22.7465
  349.8000    96.2166    23.1427    22.7459
  349.9000    96.7203    23.1418    22.7453
  350.0000    96.9571    23.1141    22.7056
  350.1000    97.1257    23.0796    22.6070
  350.2000    97.2943    23.0451    22.5085
  350.3000    97.4793    23.0107    22.4099
  350.4000    97.7331    22.9762    22.3113
  350.5000    97.9839    22.9417    22.2706
  350.6000    98.2360    22.9072    22.2696
  350.7000    98.3401    22.8727    22.2445
  350.8000    98.3407    22.8382    22.1135
  350.9000    98.2945    22.8102    22.1126
  351.0000    98.0393    22.8089    22.1117
  351.1000    97.7922    22.8076    22.0365
  351.2000    97.5412    22.8063    21.9568
  351.3000    97.2900    22.8051    21.9331
  351.4000    96.9438    22.8038    21.8028
  351.5000    96.4409    22.8026    21.8019
  351.6000    95.9250    22.8013    21.7035
  351.7000    95.6801    22.8000    21.6491
  351.8000    95.2347    22.6954    21.6482
  351.9000    94.7318    22.6397    21.6472
  352.0000    94.2288    22.6384    21.6463
  352.1000    93.7680    22.6372    21.6454
  352.2000    93.5080    22.6359    21.5490
  352.3000    93.0228    22.6347    21.4937
  352.4000    92.7120    22.6334    21.4928
  352.5000    92.4609    22.6321    21.4920
  352.6000    92.3001    22.5813    21.4910
  352.7000    92.3008    22.4730    21.3714
  352.8000    92.3014    22.4717    21.3404
  352.9000    92.3020    22.3438    21.3395
  353.0000    92.6817    22.3137    21.2953
  353.1000    93.0471    22.2384    21.1899
  353.2000    93.2996    22.1568    21.1890
  353.3000    93.5520    22.1334    21.0722
  353.4000    93.8179    22.0009    21.0405
  353.5000    94.0564    21.9998    20.9735
  353.6000    94.1216    21.9985    20.8930
  353.7000    94.1222    21.9973    20.8751
