~VERSION INFORMATION
 VERS.                2.0:   CWLS LOG ASCII STANDARD - VERSION 2.0
 WRAP.                 NO:   ONE LINE PER DEPTH STEP
~WELL INFORMATION
#MNEM.UNIT      DATA TYPE    INFORMATION
#----------   ------------   ------------------------------
 STRT.F           20.0000:   START DEPTH
 STOP.F          805.5000:   STOP DEPTH
 STEP.F            0.5000:   STEP LENGTH
 NULL.          -999.2500:   NO VALUE
 COMP. FENIX & SCISSON INC:   COMPANY
 WELL.    16-SX-14 #16-14:   WELL
 FLD .             TEAPOT:   FIELD
 LOC .      S14 T38N R78W:   LOCATION
 CNTY.            NATRONA:   COUNTY
 STAT.            WYOMING:   STATE
 CTRY. UNITED STATES OF AMERICA:   COUNTRY
 SRVC.            Unknown:   SERVICE COMPANY
 DATE.        23-MAY-1978:   LOGDATE
 API .       490251063200:   API NUMBER
~CURVE INFORMATION
#MNEM.UNIT       API CODE    CURVE DESCRIPTION
#----------   ------------   ------------------------------
 DEPT.F                  :   
 SN  .OHMM   05 040 16 00:   SHORT NORMAL 16"
 ILD .OHMM   05 120 46 00:   INDUCTION LOG DEEP
 SPR .MV     05 010 01 00:   SPONTANEOUS POTENTIAL FROM RES.
 RHOB.G/C3   45 350 01 00:   BULK DENSITY
 DPOR.DEC    45 890 12 00:   DENSITY POROSITY SANDSTONE
 CORR.G/C3   45 356 01 00:   DENSITY CORRECTION
 GRD .GAPI   45 310 01 00:   GAMMA RAY FROM DENSITY LOG
 CALD.IN     45 280 60 00:   CALIPER FROM DENSITY LOG
~PARAMETER INFORMATION
#MNEM.UNIT          VALUE    DESCRIPTION
#----------   ------------   ------------------------------
 PD  .                 GL:   PERMANENT DATUM
 EPD .F              5246:   ELEVATION PERMANENT DATUM
 LMF .                 KB:   LOG MEASURED FROM
 DAPD.F                 4:   FEET ABOVE PERMANENT DATUM
 DMF .                 KB:   DRILLING MEASURED FROM
 EKB .F              5250:   KELLING BUSHING
 EGL .F              5246:   GROUND LEVEL
 DATE.          5-23-1978:   RUN DATE
 RUN .                  1:   RUN NUMBER
 DD  .F               825:   DEPTH DRILLER
 DL  .F               812:   DEPTH LOGGER
 BLI .F               805:   BOTTOM LOG INTERVAL
 TLI .F                40:   TOP LOG INTERVAL
 CS  .IN            8.625:   CASING SIZE
 CBD .F                40:   CASING BOTTOM DRILLER
 BS  .IN            7.875:   BIT SIZE
 BSD .F               825:   BIT SIZE AT DEPTH
 DFT .                KCL:   DRILLING FLUID TYPE
 DFD .                8.6:   DRILLING FLUID DENSITY
 DFV .                 30:   DRILLING FLUID VISCOSITY
 DFPH.                 11:   DRILLING FLUID PH
 DFL .                 14:   DRILLING FLUID LOSS
 MSS .            MUD PIT:   MUD SAMPLE SOURCE
 RMS .OHMM            .32:   RESISTIVITY MUD SAMPLE
 MST .F                72:   MUD SAMPLE TEMPERATURE
 RMF .OHMM            .28:   RESISTIVITY MUD FILTRATE SAMPLE
 MFST.F                72:   MUD FILTRATE SAMPLE TEMPERATURE
 RMC .OHMM            .50:   RESISTIVITY MUD CAKE
 MCST.F                82:   MUD CAKE SAMPLE TEMPERATURE
 MFSS.               MEAS:   MUD FILTRATE SAMPLE SOURCE
 RMB .OHMM            .31:   RESISTIVITY MUD AT BHT
 BHT .F                75:   BOTTOM HOLE TEMPERATURE
 TCS .HRS               2:   TIME CURCULATED STOPPED
 MRT .F                75:   MAXIMUM RECORDED TEMPERATURE
 LUN .               2958:   LOGGING UNIT NUMBER
 LUL .              CSPR.:   LOGGING UNIT LOCATION
 ENGI.             MILLER:   RECORDING ENGINEER
 WITN.            RHOADES:   WITNESSED BY
 CLNT.            A2DTECH:   CLIENT CODE
 ORIG.    1" , 2.5" PRINT:   ORIGIN OF DATA
 UWI .       490251063200:   UNIQUE WELL ID
 DICO. A2D Technologies, Inc.:   DIGITIZING COMPANY
~OTHER INFORMATION
~A   DEPT       SN        ILD        SPR       RHOB       DPOR       CORR         GRD      CALD   
# ...
  101.0000     3.2517     3.5768   -31.9075     2.3784     0.1793     0.0695    67.0453     5.5213
  101.5000     3.6447     3.6907   -31.7964     2.3787     0.1825     0.0720    64.7636     5.6349
  102.0000     4.1403     3.8082   -31.6692     2.3808     0.1860     0.0750    62.5036     5.7443
  102.5000     4.2350     3.9295   -31.5586     2.3871     0.1709     0.0773    65.4941     6.1589
  103.0000     4.3449     4.0546   -31.2535     2.3934     0.1636     0.0799    67.9286     6.6309
  103.5000     4.4576     4.1837   -30.8487     2.4031     0.1638     0.0861    70.3843     6.8732
  104.0000     4.6241     4.2618   -30.4563     2.4037     0.1649     0.1034    70.6219     6.9356
  104.5000     4.6087     4.3222   -30.0687     2.4046     0.1660     0.1211    69.0192     7.0224
  105.0000     4.5817     4.3836   -29.6505     2.4051     0.1601     0.1394    67.6065     7.3138
  105.5000     4.5549     4.4569   -29.5740     2.4075     0.1524     0.1502    66.1516     7.5390
  106.0000     4.5283     4.3809   -29.7241     2.4133     0.1516     0.1272    64.5282     7.5297
  106.5000     4.5017     4.2904   -29.8276     2.4249     0.1729     0.1036    64.7870     7.5215
  107.0000     4.4754     4.2017   -30.2446     2.4007     0.1988     0.0802    67.6433     7.5119
  107.5000     4.4092     4.0484   -31.0162     2.3593     0.2247     0.0593    70.2513     7.5136
  108.0000     4.2510     3.7508   -31.7612     2.3193     0.2506     0.0686    71.2149     7.3985
  108.5000     4.0985     3.4752   -32.5091     2.2819     0.2628     0.0759    72.1960     7.2162
  109.0000     3.9515     3.2198   -33.1408     2.2403     0.2544     0.0846    73.0532     7.0291
  109.5000     3.6649     2.9832   -33.4090     2.2506     0.2356     0.0674    72.9292     6.9938
  110.0000     3.3587     2.7640   -33.6448     2.2741     0.2168     0.0486    70.0874     6.9550
  110.5000     3.0834     2.5662   -33.8960     2.3080     0.1980     0.0411    66.3504     6.9254
  111.0000     2.9797     2.6281   -34.1111     2.3427     0.1876     0.0453    62.5220     6.8921
  111.5000     2.8814     2.6901   -34.2957     2.3665     0.1899     0.0529    60.5102     6.8586
  112.0000     2.8242     2.7535   -33.6416     2.3647     0.1916     0.0598    61.1764     6.8262
  112.5000     2.8644     2.8122   -33.0191     2.3661     0.1858     0.0677    62.0928     6.7933
  113.0000     3.1575     2.9514   -32.3578     2.3698     0.1784     0.0659    62.9804     6.7612
  113.5000     3.4504     3.1609   -31.7062     2.3798     0.1710     0.0575    68.2367     6.6723
  114.0000     3.7706     3.3855   -31.0638     2.3888     0.1628     0.0496    73.2616     6.4712
  114.5000     3.9219     3.7732   -30.4234     2.3955     0.1628     0.0423    76.2707     6.5590
  115.0000     3.9293     3.7658   -29.7372     2.3999     0.1665     0.0344    74.8737     6.7427
  115.5000     3.9366     3.7301   -29.6507     2.4004     0.1705     0.0341    70.8978     6.9272
  116.0000     3.9441     3.6943   -29.9976     2.3933     0.1745     0.0339    66.6055     7.1063
  116.5000     3.9515     3.6587   -30.3229     2.3870     0.1784     0.0340    66.7920     7.2898
  117.0000     3.9589     3.6236   -31.4926     2.3807     0.1824     0.0340    67.5695     7.4732
  117.5000     3.9663     3.5892   -31.9860     2.3708     0.1856     0.0340    68.5365     7.6162
  118.0000     3.9738     3.5725   -32.0240     2.3615     0.1919     0.0331    67.8231     7.6151
  118.5000     3.9813     3.5419   -32.0702     2.3523     0.1983     0.0311    66.6489     7.5355
  119.0000     3.9888     3.5142   -32.1337     2.3416     0.2047     0.0293    65.4907     7.4481
  119.5000     3.9195     3.4868   -32.1786     2.3314     0.2110     0.0275    64.3537     7.4285
  120.0000     3.8285     3.4596   -32.2407     2.3191     0.2216     0.0256    63.1773     7.4437
  120.5000     3.7396     3.4327   -32.2929     2.3068     0.2344     0.0240    62.0449     7.4563
  121.0000     3.6528     3.4059   -32.1254     2.2895     0.2472     0.0225    61.1461     7.3752
  121.5000     3.5680     3.3809   -31.2391     2.2631     0.2599     0.0320    61.7687     7.2876
  122.0000     3.4852     3.0608   -30.3057     2.2373     0.2727     0.0451    62.3066     7.2005
  122.5000     3.4043     2.7863   -30.2865     2.2178     0.2855     0.0634    62.8363     7.1133
  123.0000     3.2418     2.5404   -31.4548     2.1981     0.2929     0.0815    63.4091     7.0135
  123.5000     3.0546     2.3186   -32.4630     2.1937     0.2580     0.0931    62.1243     7.0501
  124.0000     2.8781     2.0741   -32.4095     2.1967     0.2064     0.0587    60.6804     7.2119
  124.5000     2.7119     2.1163   -31.9440     2.2965     0.1532     0.0364    59.1419     7.3644
  125.0000     2.5552     3.2768   -31.4639     2.4016     0.1524     0.0383    57.5705     7.5589
  125.5000     2.3825     2.3550   -31.2285     2.4165     0.1524     0.0366    57.7972     7.4284
  126.0000     2.3825     2.4231   -31.6456     2.4226     0.1564     0.0344    61.1806     7.1337
  126.5000     2.5262     2.5198   -31.8136     2.4114     0.1657     0.0328    64.3862     6.8387
  127.0000     2.6609     2.6123   -31.4098     2.4008     0.1756     0.0305    67.8104     6.7505
  127.5000     3.4628     3.0692   -31.0063     2.3896     0.1792     0.0322    67.6891     6.6319
  128.0000     4.2957     3.8818   -30.5655     2.3799     0.1831     0.0373    65.9147     6.1826
  128.5000     4.2173     4.2957   -30.3025     2.3730     0.1869     0.0419    65.9231     5.7298
  129.0000     4.3015     4.2834   -30.5081     2.3658     0.1908     0.0466    67.6459     5.8734
  129.5000     4.3658     4.2611   -30.6919     2.3593     0.1946     0.0524    66.2924     6.0933
  130.0000     4.4310     4.2389   -30.8839     2.3533     0.1985     0.0612    65.0515     6.3877
  130.5000     4.4972     4.2168   -31.0787     2.3476     0.2023     0.0710    63.9604     6.6899
  131.0000     4.5644     4.1949   -31.2669     2.3408     0.2062     0.0698    64.9639     6.8855
  131.5000     4.6327     4.1730   -31.4688     2.3330     0.2100     0.0602    66.8782     6.8941
  132.0000     4.7101     4.1513   -31.4874     2.3225     0.2236     0.0573    68.8604     6.8482
  132.5000     4.5659     3.9844   -31.4044     2.3056     0.2412     0.0689    70.8646     6.8045
  133.0000     4.4569     3.6844   -31.3319     2.2880     0.2308     0.0808    73.0210     6.7938
  133.5000     4.1559     3.4069   -31.2579     2.2795     0.2156     0.0723    75.8940     6.8472
  134.0000     3.8522     3.1504   -31.1865     2.2980     0.2005     0.0626    77.2762     6.7875
  134.5000     3.5707     2.8644   -31.1368     2.3239     0.1854     0.0518    78.2424     6.6094
  135.0000     3.3098     2.8697   -31.2468     2.3499     0.1708     0.0416    77.3667     6.4320
  135.5000     3.0271     2.8832   -31.3480     2.3769     0.1740     0.0378    74.6706     6.3437
  136.0000     3.0271     2.8967   -31.4617     2.3899     0.1771     0.0383    72.2108     6.4510
  136.5000     3.1415     2.9104   -31.3869     2.3891     0.1737     0.0444    69.7510     6.6001
  137.0000     3.2557     2.9176   -30.8889     2.3895     0.1677     0.0498    67.6249     6.7753
  137.5000     3.3740     3.0834   -30.3566     2.3963     0.1617     0.0556    68.7419     6.9500
  138.0000     3.4967     3.2455   -30.2819     2.4090     0.1557     0.0614    69.4241     7.1223
  138.5000     3.6237     3.4162   -30.2155     2.4265     0.1500     0.0669    70.1484     7.2945
  139.0000     3.7555     3.5958   -30.1739     2.4262     0.1535     0.0726    70.8818     7.4786
  139.5000     3.8919     3.6722   -30.1193     2.4253     0.1564     0.0792    70.8967     7.5044
  140.0000     4.0334     3.7071   -30.0675     2.4261     0.1436     0.0762    70.3722     7.4101
  140.5000     4.1800     3.7148   -30.0124     2.4299     0.1535     0.0559    69.9589     7.3335
  141.0000     4.2957     3.7246   -29.9693     2.4232     0.1638     0.0422    69.5990     7.2771
