~VERSION INFORMATION
 VERS.                2.0:   CWLS LOG ASCII STANDARD - VERSION 2.0
 WRAP.                 NO:   ONE LINE PER DEPTH STEP
~WELL INFORMATION
#MNEM.UNIT      DATA TYPE    INFORMATION
#----------   ------------   ------------------------------
 STRT.F           80.0000:   START DEPTH
 STOP.F          718.0000:   STOP DEPTH
 STEP.F            0.5000:   STEP LENGTH
 NULL.          -999.2500:   NO VALUE
 COMP. U S NAVY-INTEX OIL:   COMPANY
 WELL. RES 3 TEAPOT DOM #11SX-2:   WELL
 FLD .             TEAPOT:   FIELD
 LOC .       S2 T38N R78W:   LOCATION
 CNTY.            NATRONA:   COUNTY
 STAT.            WYOMING:   STATE
 CTRY. UNITED STATES OF AMERICA:   COUNTRY
 SRVC.       Schlumberger:   SERVICE COMPANY
 DATE.        05-AUG-1961:   LOGDATE
 API .       490250647900:   API NUMBER
~CURVE INFORMATION
#MNEM.UNIT       API CODE    CURVE DESCRIPTION
#----------   ------------   ------------------------------
 DEPT.F                  :   
 ILD .OHMM   05 120 46 00:   INDUCTION LOG DEEP
 ASN .OHMM   05 041 16 00:   AMPLIFIED SHORT NORMAL 16"
 SPR .MV     05 010 01 00:   SPONTANEOUS POTENTIAL FROM RES.
 CILD.MMHO   05 110 46 00:   CONDUCTIVITY INDUCTION LOG DEEP
 GR  .GAPI   30 310 01 00:   GAMMA RAY
~PARAMETER INFORMATION
#MNEM.UNIT          VALUE    DESCRIPTION
#----------   ------------   ------------------------------
 LMF .                 KB:   LOG MEASURED FROM
 DMF .                 KB:   DRILLING MEASURED FROM
 EKB .F              5105:   KELLING BUSHING
 EGL .F              5100:   GROUND LEVEL
 DATE.           8-5-1961:   RUN DATE
 RUN .                  1:   RUN NUMBER
 DD  .F               715:   DEPTH DRILLER
 DL  .F               719:   DEPTH LOGGER
 BLI .F               718:   BOTTOM LOG INTERVAL
 TLI .F               120:   TOP LOG INTERVAL
 BS  .IN             6.75:   BIT SIZE
 BSD .F               715:   BIT SIZE AT DEPTH
 DFT .       OIL EMULSION:   DRILLING FLUID TYPE
 DFV .                 40:   DRILLING FLUID VISCOSITY
 RMS .OHMM           1.11:   RESISTIVITY MUD SAMPLE
 MST .F                68:   MUD SAMPLE TEMPERATURE
 TCS .HRS               2:   TIME CURCULATED STOPPED
 LUN .               2544:   LOGGING UNIT NUMBER
 LUL .                 NC:   LOGGING UNIT LOCATION
 ENGI.            EARNEST:   RECORDING ENGINEER
 WITN.          JORGENSEN:   WITNESSED BY
 CLNT.            A2DTECH:   CLIENT CODE
 ORIG.      2" & 5" PRINT:   ORIGIN OF DATA
 UWI .       490250647900:   UNIQUE WELL ID
 DICO. A2D Technologies, Inc.:   DIGITIZING COMPANY
~OTHER INFORMATION
~A   DEPT        ILD        ASN      SPR        CILD        GR   
# ...
  446.0000     3.6736     8.4168   -49.0268   133.2475  -999.2500
  446.5000     3.6830     8.5474   -49.0626   132.2122  -999.2500
  447.0000     3.6913     8.6636   -49.0985   132.2237  -999.2500
  447.5000     3.6997     8.5361   -49.1351   132.2277  -999.2500
  448.0000     3.7084     8.2949   -49.1719   132.2355  -999.2500
  448.5000     3.7180     8.1784   -49.2332   132.7196  -999.2500
  449.0000     3.6878     8.2312   -49.4791   134.2326  -999.2500
  449.5000     3.6465     8.4818   -49.7375   135.7456  -999.2500
  450.0000     3.6050     8.7233   -49.7018   137.2586  -999.2500
  450.5000     3.5637     8.5048   -49.5661   138.7716  -999.2500
  451.0000     3.5185     8.0596   -49.4268   143.0273  -999.2500
  451.5000     3.3644     7.7664   -49.2878   148.4440  -999.2500
  452.0000     3.1946     7.6814   -49.1491   155.9377  -999.2500
  452.5000     3.0243     7.6185   -49.0104   168.1116  -999.2500
  453.0000     2.8534     7.4179   -48.8718   180.2855  -999.2500
  453.5000     2.6750     7.1518   -48.7338   192.4594  -999.2500
  454.0000     2.4819     6.8628   -48.6043   204.6333  -999.2500
  454.5000     2.2724     6.4054   -48.4873   210.0798  -999.2500
  455.0000     2.2203     5.9355   -48.3768   207.3671  -999.2500
  455.5000     2.2650     5.7641   -48.2668   204.4125  -999.2500
  456.0000     2.3417     5.7938   -48.2654   201.4580  -999.2500
  456.5000     2.5150     5.8508   -48.3723   198.5034  -999.2500
  457.0000     2.6890     6.0539   -48.4792   189.2016  -999.2500
  457.5000     2.8627     6.8066   -48.5868   174.2016  -999.2500
  458.0000     3.0363     7.2128   -48.6944   159.2012  -999.2500
  458.5000     3.2100     7.5185   -48.8021   147.5352  -999.2500
  459.0000     3.3850     7.8253   -48.9097   142.5306  -999.2500
  459.5000     3.5619     7.9580   -49.0049   138.7493  -999.2500
  460.0000     3.6012     8.1031   -49.0057   137.3493  -999.2500
  460.5000     3.6342     8.3478   -48.9128   135.9493  -999.2500
  461.0000     3.6678     8.6454   -48.7282   134.5493  -999.2500
  461.5000     3.7021     8.6265   -48.5438   133.1493  -999.2500
  462.0000     3.7274     8.5955   -48.3587   131.3162  -999.2500
  462.5000     3.7960     8.7119   -48.1738   128.6691  -999.2500
  463.0000     3.8655     8.9739   -47.9888   126.0221  -999.2500
  463.5000     3.9025     9.2481   -47.8036   123.2535  -999.2500
  464.0000     3.9387     9.3299   -47.6172   123.0024  -999.2500
  464.5000     3.9753     9.2810   -47.4245   122.7393  -999.2500
  465.0000     4.0118     9.3625   -47.5049   122.4761  -999.2500
  465.5000     4.0484     9.4409   -47.6865   121.9668  -999.2500
  466.0000     4.0849     9.4972   -47.8672   120.1811  -999.2500
  466.5000     4.1216     9.5119   -48.0480   118.3953  -999.2500
  467.0000     4.1592     9.5268   -48.2290   116.6507  -999.2500
  467.5000     4.1924     9.5876   -48.4119   112.9683  -999.2500
  468.0000     4.2642     9.6874   -48.6017   109.2784  -999.2500
  468.5000     4.3358     9.7479   -48.6039   106.9182  -999.2500
  469.0000     4.3136     9.7369   -48.4530   110.8255  -999.2500
  469.5000     4.2253     9.7065   -48.2706   114.7405  -999.2500
  470.0000     4.1352     9.5248   -48.0715   118.6294  -999.2500
  470.5000     4.1286     9.4047   -47.8727   119.5334  -999.2500
  471.0000     4.1476     9.3899   -47.6742   118.2834  -999.2500
  471.5000     4.1642     9.2821   -47.4753   117.0334  -999.2500
  472.0000     4.0895     9.1322   -47.2667   116.8600  -999.2500
  472.5000     4.0102     8.9454   -47.3636   120.0179  -999.2500
  473.0000     3.9310     8.7347   -47.5677   123.1758  -999.2500
  473.5000     3.8302     8.5347   -47.7756   126.3336  -999.2500
  474.0000     3.6391     8.4674   -47.9852   131.7565  -999.2500
  474.5000     3.4479     8.3615   -48.2015   140.6454  -999.2500
  475.0000     3.2622     8.0099   -48.2127   149.5343  -999.2500
  475.5000     2.9855     7.4577   -48.2113   158.4232  -999.2500
  476.0000     2.6965     6.9426   -48.2111   176.8007  -999.2500
  476.5000     2.4056     6.6457   -48.2101   200.4092  -999.2500
  477.0000     2.1151     6.2201   -48.1799   228.0439  -999.2500
  477.5000     1.8250     5.6210   -48.0616   282.5667  -999.2500
  478.0000     1.5339     5.0290   -47.9468   336.6576  -999.2500
  478.5000     1.3196     4.4695   -47.8325   371.9900  -999.2500
  479.0000     1.2053     4.0993   -47.7191   402.9900  -999.2500
  479.5000     1.1207     3.7278   -47.6062   425.0100  -999.2500
  480.0000     1.0368     3.5056   -47.3973   436.8264  -999.2500
  480.5000     1.0231     3.4612   -47.1964   436.1660  -999.2500
  481.0000     1.0238     3.3805   -46.9969   426.8862  -999.2500
  481.5000     1.1336     3.2686   -46.8226   404.5734  -999.2500
  482.0000     1.3973     3.3479   -46.8724   353.7924  -999.2500
  482.5000     1.6594     3.7781   -46.9229   310.1048  -999.2500
  483.0000     1.9220     4.3976   -46.9711   267.6048  -999.2500
  483.5000     2.1846     4.9181   -47.0279   230.6412  -999.2500
  484.0000     2.4473     5.4865   -47.2707   198.1038  -999.2500
  484.5000     2.7091     6.2416   -47.5048   179.5875  -999.2500
  485.0000     2.9699     6.7256   -47.7371   167.4005  -999.2500
  485.5000     3.1614     6.8771   -47.9693   161.5181  -999.2500
  486.0000     3.2613     7.0382   -48.2020   155.6358  -999.2500
  486.5000     3.3140     7.2147   -48.4109   151.5753  -999.2500
  487.0000     3.2941     7.2322   -48.3971   153.1138  -999.2500
  487.5000     3.2737     7.1022   -48.0802   154.6522  -999.2500
  488.0000     3.1852     6.9744   -47.7742   156.8164  -999.2500
  488.5000     2.9990     7.0245   -47.4721   159.3164  -999.2500
  489.0000     2.8139     7.2162   -47.1703   168.0040  -999.2500
  489.5000     2.6283     7.3904   -47.0013   182.8967  -999.2500
  490.0000     2.4426     7.3399   -46.9651   197.4800  -999.2500
  490.5000     2.2578     7.0913   -46.9289   212.0634  -999.2500
  491.0000     2.1020     6.4520   -46.8934   220.9309  -999.2500
  491.5000     2.0417     5.7541   -46.8572   228.8854  -999.2500
  492.0000     1.9793     5.4030   -46.8215   236.8400  -999.2500
  492.5000     1.9165     5.3542   -46.9351   244.7945  -999.2500
  493.0000     1.8531     5.1736   -47.0653   249.0020  -999.2500
  493.5000     1.8289     5.0967   -47.1954   249.0020  -999.2500
  494.0000     2.0185     5.3152   -47.3241   240.2659  -999.2500
  494.5000     2.2052     5.5592   -47.4081   226.6659  -999.2500
  495.0000     2.3906     5.7691   -47.3693   213.0659  -999.2500
  495.5000     2.5758     5.9202   -47.3339   199.4659  -999.2500
  496.0000     2.7610     6.3011   -47.2984   185.8659  -999.2500
  496.5000     2.9461     6.6618   -47.2629   173.0739  -999.2500
  497.0000     3.1313     6.9594   -47.2310   162.3046  -999.2500
  497.5000     3.3168     7.2499   -46.9819   151.5354  -999.2500
  498.0000     3.5022     7.6683   -46.6574   144.7505  -999.2500
  498.5000     3.6859     8.0423   -46.5203   139.7505  -999.2500
  499.0000     3.8054     8.3836   -46.9239   134.7505  -999.2500
  499.5000     3.7435     8.6934   -47.3106   129.7505  -999.2500
  500.0000     3.6864     8.7866   -47.7085   132.1141    58.1325
  500.5000     3.6295     8.7994   -47.8111   135.3122    59.3764
  501.0000     3.5724     8.6812   -47.8145   138.5103    62.3494
  501.5000     3.5154     8.5505   -47.8000   141.7084    60.5422
  502.0000     3.4584     8.3932   -48.4315   144.9065    54.4145
  502.5000     3.4014     8.1997   -49.3032   147.4052    48.0251
  503.0000     3.3443     7.9660   -49.2947   148.1152    58.2953
  503.5000     3.2880     7.7805   -49.1374   153.6427    55.6764
  504.0000     3.1252     7.7436   -48.9774   159.8553    58.1994
  504.5000     2.9127     7.6842   -48.8181   170.1198    61.7511
  505.0000     2.6997     7.4967   -48.6583   185.0299    65.3559
  505.5000     2.4861     7.1218   -48.3916   199.9401    68.8857
  506.0000     2.2719     6.6349   -48.0728   214.8503    70.6939
  506.5000     2.0771     6.1080   -47.7540   227.2854    67.2784
