~VERSION INFORMATION
 VERS.                2.0:   CWLS LOG ASCII STANDARD - VERSION 2.0
 WRAP.                 NO:   ONE LINE PER DEPTH STEP
~WELL INFORMATION
#MNEM.UNIT      DATA TYPE    INFORMATION
#----------   ------------   ------------------------------
 STRT.F           97.0000:   START DEPTH
 STOP.F          756.0000:   STOP DEPTH
 STEP.F            0.5000:   STEP LENGTH
 NULL.          -999.2500:   NO VALUE
 COMP.   FLUOR DANIEL INC:   COMPANY
 WELL. NAVAL PETROLEUM RESERVE 3 61-1 #1-34:   WELL
 FLD .             TEAPOT:   FIELD
 LOC .      S34 T39N R78W:   LOCATION
 CNTY.            NATRONA:   COUNTY
 STAT.            WYOMING:   STATE
 CTRY. UNITED STATES OF AMERICA:   COUNTRY
 SRVC.            Unknown:   SERVICE COMPANY
 DATE.        25-OCT-1994:   LOGDATE
 API .       490252266500:   API NUMBER
~CURVE INFORMATION
#MNEM.UNIT       API CODE    CURVE DESCRIPTION
#----------   ------------   ------------------------------
 DEPT.F                  :   
 GR  .GAPI   35 310 01 00:   GAMMA RAY
 NEUT.NAPI   35 330 01 00:   NEUTRON
~PARAMETER INFORMATION
#MNEM.UNIT          VALUE    DESCRIPTION
#----------   ------------   ------------------------------
 PD  .                 GL:   PERMANENT DATUM
 EPD .F              5031:   ELEVATION PERMANENT DATUM
 LMF .                 KB:   LOG MEASURED FROM
 DAPD.F                10:   FEET ABOVE PERMANENT DATUM
 DMF .                 KB:   DRILLING MEASURED FROM
 EKB .F              5041:   KELLING BUSHING
 EGL .F              5031:   GROUND LEVEL
 DATE.           10-25-94:   RUN DATE
 RUN .                  1:   RUN NUMBER
 DD  .F              2440:   DEPTH DRILLER
 DL  .F               764:   DEPTH LOGGER
 BLI .F               756:   BOTTOM LOG INTERVAL
 DFT .              WATER:   DRILLING FLUID TYPE
 TCS .HRS            1000:   TIME CURCULATED STOPPED
 TLAB.HRS            1030:   TIME LOGGER AT BOTTOM
 LUN .                509:   LOGGING UNIT NUMBER
 LUL .           GILLETTE:   LOGGING UNIT LOCATION
 ENGI.            T. FINK:   RECORDING ENGINEER
 WITN.           S. HARDY:   WITNESSED BY
 CLNT.            A2DTECH:   CLIENT CODE
 ORIG.           5" PRINT:   ORIGIN OF DATA
 UWI .       490252266500:   UNIQUE WELL ID
 DICO. A2D Technologies, Inc.:   DIGITIZING COMPANY
~OTHER INFORMATION
~A   DEPT        GR       NEUT  
# ...
  583.0000   105.2134   320.1364
  583.5000   103.0731   324.7082
  584.0000    97.1693   311.0690
  584.5000    94.3808   309.4622
  585.0000    95.2582   317.7751
  585.5000    90.5719   313.2927
  586.0000    89.7880   309.2668
  586.5000    93.3915   307.0897
  587.0000    97.6914   304.9119
  587.5000   102.0813   302.7370
  588.0000   100.2827   300.5541
  588.5000   103.6849   298.3882
  589.0000   101.5343   295.3057
  589.5000    99.2995   292.2176
  590.0000    98.9843   293.8937
  590.5000    98.9721   295.6610
  591.0000    99.7392   297.4101
  591.5000   101.3509   297.6834
  592.0000   102.9091   295.9980
  592.5000   104.4598   294.0690
  593.0000   105.9808   291.1478
  593.5000   104.8948   287.0160
  594.0000   102.1211   283.8788
  594.5000   101.6815   283.5784
  595.0000   105.8806   283.2374
  595.5000   106.7532   282.8975
  596.0000   101.1104   282.6255
  596.5000   100.3897   280.0267
  597.0000   105.8534   281.7791
  597.5000   111.1835   288.5936
  598.0000   113.6363   294.1334
  598.5000   110.2665   286.1488
  599.0000   106.2358   278.9520
  599.5000   103.4064   277.1976
  600.0000   103.7123   275.6058
  600.5000   104.7913   273.9987
  601.0000   106.2159   272.3054
  601.5000   108.5892   273.0647
  602.0000   109.2893   274.7587
  602.5000   107.0484   270.8638
  603.0000   109.6198   265.1226
  603.5000   103.6057   262.5093
  604.0000   108.1799   259.9719
  604.5000   103.2260   262.0451
  605.0000   100.2102   267.9911
  605.5000   104.1373   273.9565
  606.0000   105.8481   279.9382
  606.5000   103.1764   287.1332
  607.0000   101.2840   300.8617
  607.5000   105.1329   318.4173
  608.0000    96.9871   343.0843
  608.5000   100.7077   367.6651
  609.0000    96.6213   392.3775
  609.5000    93.5557   407.1351
  610.0000    94.7901   391.7351
  610.5000    93.6548   371.9873
  611.0000    91.4428   338.5942
  611.5000    92.6940   305.3426
  612.0000    98.0222   282.6217
  612.5000   103.5999   276.3031
  613.0000   103.9655   282.4093
  613.5000   103.0499   288.4537
  614.0000   104.5101   291.9800
  614.5000   105.4035   296.0862
  615.0000   104.9585   298.0932
  615.5000   102.7188   300.1995
  616.0000   101.5004   307.6910
  616.5000   104.1805   315.0367
  617.0000   105.5313   323.1877
  617.5000   106.8407   338.0136
  618.0000   105.8029   353.7066
  618.5000   105.2269   356.0514
  619.0000   108.8713   362.6857
  619.5000   107.6227   350.6817
  620.0000   109.5245   342.1314
  620.5000   111.7043   333.5798
  621.0000   110.7080   330.6570
  621.5000   111.8222   329.7672
  622.0000   111.5092   329.0720
  622.5000   112.2563   328.3730
  623.0000   116.1229   328.1168
  623.5000   115.2279   333.2965
  624.0000   112.2412   335.8067
  624.5000   109.6150   332.3485
  625.0000   114.4838   334.0668
  625.5000   113.2398   332.9529
  626.0000   116.6325   326.2194
  626.5000   116.4741   320.2236
  627.0000   111.6355   324.5699
  627.5000   104.8356   319.3674
  628.0000   108.8449   309.8062
  628.5000   109.7572   302.9357
  629.0000   103.7100   302.0984
  629.5000    99.3843   295.4131
  630.0000    95.0740   297.4805
  630.5000    91.1071   300.7422
  631.0000    90.5551   309.8911
  631.5000    93.3674   320.9545
  632.0000    94.3270   325.2751
  632.5000    93.8841   317.4164
  633.0000    94.5715   326.5481
  633.5000    95.0560   343.5384
  634.0000    92.7053   360.7160
  634.5000    90.3887   378.4346
  635.0000    90.9088   368.5088
  635.5000    95.0082   342.8281
  636.0000    96.9163   323.8263
  636.5000    97.8149   309.7561
  637.0000    97.4292   298.4281
  637.5000    95.4098   301.7651
  638.0000    97.6512   307.0394
  638.5000    98.4805   311.4330
  639.0000    96.2461   311.6743
  639.5000    95.9252   309.5851
  640.0000    95.6704   307.4163
  640.5000    95.4097   305.2633
  641.0000    95.1495   303.2471
  641.5000    95.0129   302.6028
  642.0000    95.7678   305.4280
  642.5000    97.4464   308.7997
  643.0000    98.9914   306.0602
  643.5000    97.7633   304.3669
  644.0000    96.2458   307.5548
  644.5000    98.5050   289.8590
  645.0000   100.5775   280.4156
  645.5000    99.9987   282.2237
  646.0000    96.2270   277.3590
  646.5000    94.7143   275.4000
  647.0000    98.8495   295.0865
  647.5000    99.0311   293.4051
  648.0000    98.2176   296.4243
  648.5000    99.5535   304.4149
  649.0000    94.9469   303.4599
  649.5000    93.3971   319.1280
  650.0000    95.0642   326.3783
  650.5000    97.5069   307.3038
  651.0000   102.7768   299.1258
  651.5000   107.4316   302.6040
  652.0000   109.1926   302.0146
  652.5000   112.5490   296.6669
  653.0000   114.5521   299.5875
  653.5000   104.4685   303.7942
  654.0000   102.7978   307.7669
  654.5000   102.2112   309.1998
  655.0000   103.1320   309.9263
  655.5000   105.4579   316.4521
  656.0000   107.7180   323.5159
  656.5000   109.9818   322.1198
  657.0000   112.2455   321.0824
  657.5000   114.5091   326.9850
  658.0000   116.7742   330.7236
  658.5000   119.0389   328.6284
  659.0000   121.2851   322.6840
  659.5000   122.6449   318.5072
  660.0000   120.1751   319.9202
  660.5000   116.3698   314.7924
  661.0000   112.4734   313.0448
  661.5000   112.5111   326.1663
  662.0000   114.2693   325.1923
  662.5000   116.0447   322.7039
  663.0000   117.7977   330.0008
  663.5000   115.7400   338.4807
  664.0000   112.1075   346.2200
  664.5000   113.1366   343.6834
  665.0000   110.3426   344.5692
  665.5000   112.2213   341.0496
  666.0000   111.0157   336.9654
  666.5000   112.8314   331.4079
  667.0000   117.2956   325.1114
  667.5000   119.1579   321.8827
  668.0000   116.8227   321.7459
  668.5000   120.6830   322.3939
  669.0000   121.4867   323.0562
  669.5000   118.1244   323.6674
  670.0000   117.7483   325.9376
  670.5000   120.1619   324.8843
  671.0000   122.7832   324.8676
  671.5000   121.6938   322.2044
  672.0000   118.5065   317.9931
  672.5000   120.5039   313.7592
  673.0000   121.5653   311.0871
  673.5000   117.9210   316.1188
  674.0000   117.3509   322.1525
  674.5000   115.9771   328.3192
  675.0000   115.2079   328.6924
  675.5000   119.7044   327.9248
  676.0000   122.9518   329.0886
  676.5000   123.0930   335.7955
  677.0000   117.6640   332.2541
  677.5000   112.8736   328.9810
  678.0000   116.3002   332.7769
  678.5000   113.3512   336.2316
  679.0000   111.8509   333.2739
  679.5000   119.5330   329.9905
  680.0000   125.2643   326.7111
  680.5000   122.6656   324.6659
  681.0000   120.0015   323.4344
  681.5000   117.3800   322.2197
  682.0000   115.2762   321.0075
  682.5000   116.4752   319.7944
  683.0000   121.6312   318.5807
  683.5000   121.9143   316.7477
  684.0000   120.7225   314.6843
  684.5000   123.5922   314.1654
  685.0000   126.3806   314.0244
  685.5000   129.0691   313.8901
  686.0000   137.6074   313.7875
  686.5000   130.7100   314.8878
  687.0000   134.4530   316.0677
  687.5000   139.5374   317.2754
  688.0000   138.0872   315.1609
  688.5000   133.0587   310.3534
  689.0000   128.7664   308.8834
  689.5000   129.6623   314.3003
  690.0000   131.4910   305.7763
  690.5000   134.1159   297.3841
  691.0000   140.8147   288.8261
  691.5000   147.6597   281.0717
  692.0000   147.9470   275.4368
  692.5000   146.7481   269.5641
  693.0000   149.5446   279.2710
  693.5000   144.8678   297.9867
  694.0000   140.3312   317.3688
  694.5000   144.0053   322.4279
  695.0000   133.6815   319.4917
  695.5000   133.8211   317.5949
  696.0000   133.3322   318.7108
  696.5000   132.7570   319.7883
  697.0000   134.2062   317.1722
  697.5000   137.2810   311.0792
  698.0000   140.5620   313.4893
  698.5000   139.1735   314.7614
  699.0000   128.1738   311.2193
  699.5000   130.9202   309.0123
  700.0000   133.3638   310.2326
  700.5000   134.9880   311.5210
  701.0000   136.5831   307.8727
  701.5000   138.1783   305.2844
  702.0000   139.8289   323.6030
  702.5000   139.9327   321.5168
  703.0000   137.9351   319.0037
  703.5000   136.3542   316.4460
  704.0000   137.9209   314.2450
