~VERSION INFORMATION
 VERS.                2.0:   CWLS LOG ASCII STANDARD - VERSION 2.0
 WRAP.                 NO:   ONE LINE PER DEPTH STEP
~WELL INFORMATION
#MNEM.UNIT      DATA TYPE    INFORMATION
#----------   ------------   ------------------------------
 STRT.F           70.0000:   START DEPTH
 STOP.F          865.0000:   STOP DEPTH
 STEP.F            0.5000:   STEP LENGTH
 NULL.          -999.2500:   NO VALUE
 COMP. U S NAVY/INTEX OIL CO:   COMPANY
 WELL.   54S 11 NPR #3-11:   WELL
 FLD .             TEAPOT:   FIELD
 LOC .      S11 T38N R78W:   LOCATION
 CNTY.            NATRONA:   COUNTY
 STAT.            WYOMING:   STATE
 CTRY. UNITED STATES OF AMERICA:   COUNTRY
 SRVC.         Lane Wells:   SERVICE COMPANY
 DATE.        11-MAR-1960:   LOGDATE
 API .       490250634900:   API NUMBER
~CURVE INFORMATION
#MNEM.UNIT       API CODE    CURVE DESCRIPTION
#----------   ------------   ------------------------------
 DEPT.F                  :   
 SPR .MV     05 010 01 00:   SPONTANEOUS POTENTIAL FROM RES.
 ASN .OHMM   05 041 16 00:   AMPLIFIED SHORT NORMAL 16"
 ILD .OHMM   05 120 46 00:   INDUCTION LOG DEEP
 CILD.MMHO   05 110 46 00:   CONDUCTIVITY INDUCTION LOG DEEP
~PARAMETER INFORMATION
#MNEM.UNIT          VALUE    DESCRIPTION
#----------   ------------   ------------------------------
 PD  .                 GL:   PERMANENT DATUM
 EPD .F              5198:   ELEVATION PERMANENT DATUM
 LMF .                 KB:   LOG MEASURED FROM
 DAPD.F                 5:   FEET ABOVE PERMANENT DATUM
 DMF .                 KB:   DRILLING MEASURED FROM
 EKB .F              5203:   KELLING BUSHING
 EGL .F              5198:   GROUND LEVEL
 DATE.            3-11-60:   RUN DATE
 RUN .                  1:   RUN NUMBER
 DD  .F               870:   DEPTH DRILLER
 DL  .F               867:   DEPTH LOGGER
 BLI .F               865:   BOTTOM LOG INTERVAL
 TLI .F                70:   TOP LOG INTERVAL
 CS  .IN            8.625:   CASING SIZE
 CBD .F                12:   CASING BOTTOM DRILLER
 BS  .IN            7.875:   BIT SIZE
 BSD .F               870:   BIT SIZE AT DEPTH
 DFT .   GEL/OIL EMULSION:   DRILLING FLUID TYPE
 DFD .                9.2:   DRILLING FLUID DENSITY
 DFV .                 36:   DRILLING FLUID VISCOSITY
 DFPH.                7.5:   DRILLING FLUID PH
 DFL .                4.4:   DRILLING FLUID LOSS
 MSS .                PIT:   MUD SAMPLE SOURCE
 RMS .OHMM            6.8:   RESISTIVITY MUD SAMPLE
 MST .F                54:   MUD SAMPLE TEMPERATURE
 RMF .OHMM            4.2:   RESISTIVITY MUD FILTRATE SAMPLE
 MFST.F                69:   MUD FILTRATE SAMPLE TEMPERATURE
 RMC .OHMM            5.1:   RESISTIVITY MUD CAKE
 MCST.F                69:   MUD CAKE SAMPLE TEMPERATURE
 MFSS.              PRESS:   MUD FILTRATE SAMPLE SOURCE
 MCSS.              PRESS:   MUD CAKE SAMPLE SOURCE
 RMB .OHMM            5.2:   RESISTIVITY MUD AT BHT
 BHT .F                70:   BOTTOM HOLE TEMPERATURE
 TCS .HRS              .5:   TIME CURCULATED STOPPED
 MRT .F                70:   MAXIMUM RECORDED TEMPERATURE
 LUN .             L-4474:   LOGGING UNIT NUMBER
 LUL .             CASPER:   LOGGING UNIT LOCATION
 ENGI.      GRIGGS/NELSON:   RECORDING ENGINEER
 WITN.   JORGENSEN/HUDSON:   WITNESSED BY
 CLNT.            A2DTECH:   CLIENT CODE
 ORIG.       2", 5" PRINT:   ORIGIN OF DATA
 UWI .       490250634900:   UNIQUE WELL ID
 DICO. A2D Technologies, Inc.:   DIGITIZING COMPANY
~OTHER INFORMATION
~A   DEPT       SPR         ASN        ILD      CILD  
# ...
  216.0000    -8.8435     2.3764     2.9470   451.7566
  216.5000    -8.7432     2.4555     2.9449   467.4118
  217.0000    -8.6896     2.5374     3.0048   460.0763
  217.5000    -8.8005     2.5371     3.0908   452.7407
  218.0000    -8.9066     2.5584     3.1779   435.4735
  218.5000    -9.0125     2.8484     3.2649   413.7724
  219.0000    -9.1184     3.1338     3.3519   392.0714
  219.5000    -9.2242     3.4172     3.4388   370.3704
  220.0000    -9.3300     3.6360     3.5258   348.6694
  220.5000    -9.4359     3.6533     3.6127   326.9684
  221.0000    -9.5417     3.6811     3.6996   318.6695
  221.5000    -9.6475     3.7092     3.7744   314.4777
  222.0000    -9.7534     3.7375     3.8210   310.2860
  222.5000    -9.8595     3.7659     3.8670   307.1050
  223.0000    -9.9653     3.7933     3.9120   306.1880
  223.5000   -10.0687     3.7820     3.9290   306.1880
  224.0000   -10.0086     3.6843     3.8820   306.1201
  224.5000    -9.7479     3.5881     3.8202   310.5758
  225.0000    -9.4891     3.4917     3.7280   316.4442
  225.5000    -9.2302     3.3830     3.6362   323.8100
  226.0000    -8.9698     3.2534     3.5444   333.5907
  226.5000    -8.8524     3.1239     3.4526   343.3109
  227.0000    -8.8502     2.9944     3.3608   355.8842
  227.5000    -8.8501     2.8650     3.2690   372.0240
  228.0000    -8.8504     2.7355     3.1772   388.2401
  228.5000    -8.8504     2.6059     3.0853   404.4577
  229.0000    -8.8503     2.4754     2.9936   420.6761
  229.5000    -8.8506     2.3502     2.9027   437.0567
  230.0000    -8.8485     2.3684     2.9006   435.6470
  230.5000    -8.9681     2.5383     2.9926   416.6205
  231.0000    -9.1433     2.8488     3.0839   397.5938
  231.5000    -9.3206     3.1588     3.2341   378.5672
  232.0000    -9.4979     3.4695     3.4365   359.5406
  232.5000    -9.6751     3.7801     3.6385   340.5140
  233.0000    -9.8523     4.0653     3.8402   321.4874
  233.5000   -10.0294     4.1186     4.0436   302.4608
  234.0000   -10.2066     4.1654     4.1233   292.5357
  234.5000   -10.3840     4.2132     4.1248   288.8728
  235.0000   -10.5615     4.2610     4.1249   285.7152
  235.5000   -10.7358     4.2898     4.1248   286.6653
  236.0000   -10.8176     4.1922     4.1098   287.4643
  236.5000   -10.6789     4.0206     4.0045   290.8683
  237.0000   -10.5447     3.8163     3.8993   300.7929
  237.5000   -10.4096     3.6102     3.7943   310.7175
  238.0000   -10.2737     3.4041     3.6894   320.6421
  238.5000   -10.1348     3.1977     3.5845   330.5667
  239.0000   -10.1505     2.9922     3.4792   340.4912
  239.5000   -10.1779     2.8302     3.3786   350.4158
  240.0000   -10.2046     2.8614     3.3218   360.3404
  240.5000   -10.2311     2.8983     3.3942   370.2650
  241.0000   -10.2576     2.9351     3.4633   363.1904
  241.5000   -10.2840     2.9716     3.5322   355.6391
  242.0000   -10.3106     3.0084     3.6010   348.0878
  242.5000   -10.3442     3.0752     3.6699   340.5365
  243.0000   -10.3779     3.2146     3.7387   332.9852
  243.5000   -10.4116     3.3530     3.8075   325.4339
  244.0000   -10.4448     3.4913     3.8764   317.8826
  244.5000   -10.4769     3.6296     3.9453   310.3313
  245.0000   -10.5065     3.7681     4.0142   304.2183
  245.5000   -10.7811     3.9047     4.0821   302.6938
  246.0000   -11.0480     3.9901     4.0973   301.9543
  246.5000   -11.3155     3.9617     4.0248   303.2765
  247.0000   -11.3914     3.9234     3.9536   304.7436
  247.5000   -11.3068     3.8414     3.8822   307.1616
  248.0000   -11.2209     3.6965     3.8108   310.8293
  248.5000   -11.1352     3.5524     3.7394   317.0103
  249.0000   -11.0497     3.4081     3.6680   326.1797
  249.5000   -10.9640     3.2638     3.5968   335.3492
  250.0000   -10.8748     3.1194     3.5252   344.5186
  250.5000   -10.9070     2.9746     3.4692   353.6880
  251.0000   -10.9719     2.8371     3.4262   362.8575
  251.5000   -11.0376     2.8113     3.3838   372.0269
  252.0000   -11.1031     2.7901     3.3414   381.1964
  252.5000   -11.1684     2.7394     3.2991   388.6678
  253.0000   -11.2337     2.6663     3.2565   394.7807
  253.5000   -11.2991     2.5925     3.2189   400.8937
  254.0000   -11.3648     2.5711     3.1672   407.0067
  254.5000   -11.4606     2.5695     3.0832   413.9075
  255.0000   -11.6095     2.4650     2.9985   427.1115
  255.5000   -11.7578     2.3599     2.9137   440.3156
  256.0000   -11.9060     2.2550     2.8289   453.5195
  256.5000   -12.0530     2.1502     2.7442   466.7235
  257.0000   -12.0971     2.0450     2.6572   479.9276
  257.5000   -12.0106     1.9404     2.5664   493.1316
  258.0000   -11.9255     1.8673     2.5031   506.3356
  258.5000   -11.8398     1.9439     2.5749   500.9561
  259.0000   -11.7541     2.0176     2.6438   487.7521
  259.5000   -11.6685     2.0907     2.7130   473.6878
  260.0000   -11.5884     2.1617     2.7946   456.8160
  260.5000   -11.6669     2.4038     2.9312   439.9442
  261.0000   -11.8092     2.6969     3.0648   423.0724
  261.5000   -11.9517     2.9898     3.1983   406.2007
  262.0000   -12.0944     3.2173     3.3321   389.3175
  262.5000   -12.2376     3.2795     3.4670   372.4571
  263.0000   -12.3800     3.3132     3.5088   355.5853
  263.5000   -12.4820     3.2752     3.5319   352.6692
  264.0000   -12.3302     3.2387     3.5550   352.6692
  264.5000   -12.1782     3.2015     3.5796   356.4185
  265.0000   -12.1911     3.1331     3.5129   360.8198
  265.5000   -12.2687     3.0070     3.4343   366.5781
  266.0000   -12.3484     2.8818     3.3553   374.5249
  266.5000   -12.4279     2.7564     3.2766   382.4718
  267.0000   -12.5073     2.6311     3.1978   390.4186
  267.5000   -12.5871     2.5051     3.1184   398.3655
  268.0000   -12.6701     2.3859     3.0407   406.3123
  268.5000   -12.5922     2.2785     3.0799   408.3953
  269.0000   -12.4786     2.3374     3.1254   403.5049
  269.5000   -12.3642     2.4064     3.1260   398.6146
  270.0000   -12.2500     2.4747     3.1326   388.8942
  270.5000   -12.1359     2.6606     3.2960   374.2231
  271.0000   -12.0234     2.9628     3.4583   359.5519
  271.5000   -11.9889     3.2645     3.6181   344.8808
  272.0000   -12.0881     3.5664     3.7777   330.2041
  272.5000   -12.1853     3.8507     3.9373   315.5154
  273.0000   -12.2829     3.9905     4.0969   300.8675
  273.5000   -12.3804     4.1231     4.2565   290.4528
  274.0000   -12.4779     4.2563     4.4162   283.1172
  274.5000   -12.5754     4.4098     4.5758   275.7817
  275.0000   -12.6731     4.6507     4.7355   268.4461
  275.5000   -12.7713     4.7657     4.8951   261.1106
  276.0000   -12.8610     4.9499     5.0621   253.7750
  276.5000   -12.8115     5.1368     5.1540   246.4395
  277.0000   -12.7577     5.3241     5.2046   242.8532
  277.5000   -12.7046     5.5105     5.2546   236.2512
  278.0000   -12.6517     5.6619     5.3047   229.6492
  278.5000   -12.5985     5.6460     5.3547   227.6930
  279.0000   -12.5456     5.6333     5.3937   227.6930
  279.5000   -12.5052     5.6192     5.3885   227.6897
  280.0000   -12.5569     5.5968     5.3841   227.6930
  280.5000   -12.6077     5.5747     5.3798   227.6930
  281.0000   -12.6583     5.5528     5.3756   227.6930
  281.5000   -12.7088     5.5307     5.3713   227.6930
  282.0000   -12.7593     5.5087     5.3670   227.6930
  282.5000   -12.8098     5.4866     5.3628   227.6930
  283.0000   -12.8603     5.4645     5.3585   227.6930
  283.5000   -12.9108     5.4650     5.3542   227.6930
  284.0000   -12.9614     5.4785     5.3500   227.6930
  284.5000   -13.0119     5.4354     5.3457   227.6930
  285.0000   -13.0624     5.3841     5.3414   227.6930
  285.5000   -13.1129     5.3326     5.3372   227.6930
  286.0000   -13.1634     5.2808     5.3329   227.6930
  286.5000   -13.2139     5.2279     5.3286   227.6930
  287.0000   -13.2644     5.2243     5.3244   227.6938
  287.5000   -13.3149     5.2272     5.3201   227.6944
  288.0000   -13.3655     5.3538     5.3158   227.7146
  288.5000   -13.4160     5.4919     5.3116   226.4746
