~VERSION INFORMATION
 VERS.                2.0:   CWLS LOG ASCII STANDARD - VERSION 2.0
 WRAP.                 NO:   ONE LINE PER DEPTH STEP
~WELL INFORMATION
#MNEM.UNIT      DATA TYPE    INFORMATION
#----------   ------------   ------------------------------
 STRT.F           38.0000:   START DEPTH
 STOP.F         1202.0000:   STOP DEPTH
 STEP.F            0.5000:   STEP LENGTH
 NULL.          -999.2500:   NO VALUE
 COMP.       INTEX OIL CO:   COMPANY
 WELL.     72 S 14 #72-14:   WELL
 FLD .            WILDCAT:   FIELD
 LOC .      S14 T38N R78W:   LOCATION
 CNTY.            NATRONA:   COUNTY
 STAT.            WYOMING:   STATE
 CTRY. UNITED STATES OF AMERICA:   COUNTRY
 SRVC.       Schlumberger:   SERVICE COMPANY
 DATE.        26-AUG-1966:   LOGDATE
 API .       490250970800:   API NUMBER
~CURVE INFORMATION
#MNEM.UNIT       API CODE    CURVE DESCRIPTION
#----------   ------------   ------------------------------
 DEPT.F                  :   
 SPR .MV     05 010 01 00:   SPONTANEOUS POTENTIAL FROM RES.
 ASN .OHMM   05 041 16 00:   AMPLIFIED SHORT NORMAL 16"
 ILD .OHMM   05 120 46 00:   INDUCTION LOG DEEP
 CILD.MMHO   05 110 46 00:   CONDUCTIVITY INDUCTION LOG DEEP
 CORR.G/C3   45 356 01 00:   DENSITY CORRECTION
 GRD .GAPI   45 310 01 00:   GAMMA RAY FROM DENSITY LOG
 CALD.IN     45 280 60 00:   CALIPER FROM DENSITY LOG
 DPHI.DEC    45 890 12 00:   DENSITY POROSITY SANDSTONE
 RHOB.G/C3   45 350 01 00:   BULK DENSITY
~PARAMETER INFORMATION
#MNEM.UNIT          VALUE    DESCRIPTION
#----------   ------------   ------------------------------
 PD  .                 GL:   PERMANENT DATUM
 EPD .F              5265:   ELEVATION PERMANENT DATUM
 LMF .                 KB:   LOG MEASURED FROM
 DAPD.F                 5:   FEET ABOVE PERMANENT DATUM
 DMF .                 KB:   DRILLING MEASURED FROM
 EKB .F              5270:   KELLING BUSHING
 DATE.        26-AUG-1966:   RUN DATE
 RUN .                  1:   RUN NUMBER
 DD  .F              1201:   DEPTH DRILLER
 DL  .F              1203:   DEPTH LOGGER
 BLI .F              1202:   BOTTOM LOG INTERVAL
 TLI .F                46:   TOP LOG INTERVAL
 CS  .IN            8.625:   CASING SIZE
 BS  .IN             6.75:   BIT SIZE
 BSD .F              1201:   BIT SIZE AT DEPTH
 DFT .     CHEM- GEL- OIL:   DRILLING FLUID TYPE
 DFD .                9.4:   DRILLING FLUID DENSITY
 MRT .F                94:   MAXIMUM RECORDED TEMPERATURE
 LUN .               3527:   LOGGING UNIT NUMBER
 LUL .             CASPER:   LOGGING UNIT LOCATION
 ENGI.             KNOBEL:   RECORDING ENGINEER
 WITN.                MAY:   WITNESSED BY
 CLNT.            A2DTECH:   CLIENT CODE
 ORIG.       2", 5" PRINT:   ORIGIN OF DATA
 UWI .       490250970800:   UNIQUE WELL ID
 DICO. A2D Technologies, Inc.:   DIGITIZING COMPANY
~OTHER INFORMATION
~A   DEPT      SPR        ASN        ILD       CILD       CORR        GRD       CALD       DPHI       RHOB   
# ...
  403.0000   -27.0903     6.5015     6.6817   189.8043     0.0499    86.5674     6.9294     0.1123     2.4729
  403.5000   -27.0873     6.3363     6.7568   187.4926     0.0472    89.2588     6.9601     0.1110     2.4685
  404.0000   -27.0838     6.5315     6.8318   184.5002     0.0403    92.8444     6.9610     0.1258     2.4341
  404.5000   -27.0809     6.7267     6.9069   182.9769     0.0207    95.5358     6.9619     0.1389     2.4162
  405.0000   -27.2293     6.7868     6.9069   182.2045     0.0182    97.1073     6.9478     0.1533     2.4020
  405.5000   -27.2257     6.6967     6.8318   182.1828     0.0222    95.3300     6.9487     0.1556     2.4006
  406.0000   -27.2228     6.6517     6.7568   182.1611     0.0393    94.8896     6.9496     0.1428     2.4193
  406.5000   -27.2199     6.6517     6.7568   182.1394     0.0522    95.1220     6.9348     0.1469     2.4148
  407.0000   -27.1948     6.6667     6.6817   182.9431     0.0410    94.0154     6.9054     0.1451     2.4283
  407.5000   -27.0627     6.6517     6.6066   184.3482     0.0397    93.9866     6.8480     0.1301     2.4516
  408.0000   -27.0598     6.5766     6.5215   186.5788     0.0462    97.3863     6.8339     0.1178     2.4576
  408.5000   -26.9063     6.5165     6.4565   188.8039     0.0429   100.7484     6.8945     0.1250     2.4516
  409.0000   -26.7528     6.4560     6.3814   191.0344     0.0394    97.4040     6.9254     0.1271     2.4494
  409.5000   -26.7499     6.3664     6.3063   193.2650     0.0500    96.5186     6.8815     0.1184     2.4577
  410.0000   -26.4458     6.3213     6.3063   195.4955     0.0570    97.4218     6.8079     0.1184     2.4585
  410.5000   -26.4422     6.2462     6.2312   197.8380     0.0530    99.2415     6.7492     0.1256     2.4453
  411.0000   -26.4393     6.1862     6.1562   199.9566     0.0467   101.9255     6.7501     0.1257     2.4342
  411.5000   -26.2858     6.1111     6.0811   201.4364     0.0372   102.5899     6.7808     0.1420     2.4279
  412.0000   -26.2829     6.0511     6.0060   201.4092     0.0253    98.5455     6.7668     0.1257     2.4549
  412.5000   -26.2800     6.0686     5.9309   202.1437     0.0326    99.0686     6.7376     0.1226     2.4572
  413.0000   -26.2771     6.1862     5.9309   202.1166     0.0373    99.2633     6.7834     0.1192     2.4647
  413.5000   -26.2741     6.2763     5.9309   201.3438     0.0415    97.2625     6.9184     0.1225     2.4558
  414.0000   -26.2706     6.3514     5.9309   199.8155     0.0456    98.1656     6.9789     0.1311     2.4401
  414.5000   -26.2677     6.3363     6.0060   197.5415     0.0373   100.4099     6.9798     0.1338     2.4244
  415.0000   -26.2648     6.3213     6.0060   196.0183     0.0481    99.3010     6.9807     0.1434     2.4200
  415.5000   -26.2619     6.3514     6.0811   196.7528     0.0516    97.2980     6.9816     0.1395     2.4282
  416.0000   -26.2590     6.3834     6.1562   197.4818     0.0464    95.0714     6.9674     0.1478     2.4171
  416.5000   -26.2561     6.4414     6.2312   197.4547     0.0441    93.0683     6.9685     0.1550     2.4051
  417.0000   -26.2524     6.4565     6.3063   195.1054     0.0561    91.0653     6.9694     0.1562     2.4022
  417.5000   -26.4009     6.4565     6.3063   189.8983     0.0614    90.1777     6.9703     0.1475     2.4142
  418.0000   -26.3972     6.4715     6.4565   184.6214     0.0756    94.6598     6.9711     0.1397     2.4374
  418.5000   -26.6955     6.6366     6.4565   178.5937     0.0666    95.7864     6.7634     0.1250     2.4509
  419.0000   -26.6924     6.9244     6.6066   172.5659     0.0569    96.6894     6.7047     0.1319     2.4420
  419.5000   -26.6897     7.3273     6.6817   167.2890     0.0674    96.6983     6.7354     0.1208     2.4525
  420.0000   -26.6867     7.6577     6.7568   162.7628     0.0731    92.2362     6.7959     0.1166     2.4622
  420.5000   -26.6832     7.9129     6.8318   158.7610     0.0802    90.9016     6.8266     0.1151     2.4623
  421.0000   -26.5297     8.0781     6.7568   154.4557     0.0871    95.6071     6.8572     0.1163     2.4601
  421.5000   -26.5268     8.1081     6.7568   152.9324     0.0877   101.4282     6.8283     0.1216     2.4534
  422.0000   -26.5239     7.7778     6.6817   158.1660     0.0869   103.0019     6.7547     0.1279     2.4525
  422.5000   -26.5210     7.4750     6.6066   163.3995     0.0831   103.9050     6.6811     0.1198     2.4602
  423.0000   -26.6687     7.2973     6.4565   168.6331     0.0748   102.1255     6.6969     0.1159     2.4647
  423.5000   -26.6651     7.2072     6.3063   173.9038     0.0567    99.6753     6.7436     0.1309     2.4533
  424.0000   -26.8128     7.1021     6.2312   177.5933     0.0487    97.6723     6.8509     0.1228     2.4538
  424.5000   -26.8099     7.0420     6.1562   179.8292     0.0622    96.1163     6.9380     0.1189     2.4650
  425.0000   -26.9583     6.9970     6.0811   180.5583     0.0638    95.6781     6.9215     0.1165     2.4686
  425.5000   -26.9547     6.9670     6.0060   179.7804     0.0547    97.2816     6.8801     0.1258     2.4410
  426.0000   -27.1024     6.9349     6.0060   179.0079     0.0585   101.0909     6.8812     0.1359     2.4298
  426.5000   -27.2501     6.9069     6.0811   177.4847     0.0718   103.0820     6.8374     0.1362     2.4358
  427.0000   -27.3971     7.1171     6.2312   175.8857     0.0780   103.5678     6.6744     0.1404     2.4246
  427.5000   -27.5448     7.2523     6.3063   172.1806     0.0823   103.7705     6.6753     0.1430     2.4209
  428.0000   -27.5419     7.3273     6.5315   168.4052     0.0864   104.0048     6.6610     0.1322     2.4419
  428.5000   -27.5390     7.3874     6.6817   164.6297     0.0919   110.9436     6.6470     0.1262     2.4539
  429.0000   -27.0843     7.5390     6.8318   160.8542     0.0859   112.2937     6.6481     0.1130     2.4719
  429.5000   -26.9308     7.7928     6.9820   157.0788     0.0750   111.1849     6.6490     0.1082     2.4861
  430.0000   -26.9271     8.0480     7.1321   153.3033     0.0693   108.5112     6.6797     0.1055     2.4809
  430.5000   -26.9242     8.2733     7.2923   149.4142     0.0614   108.0729     6.7104     0.1187     2.4623
  431.0000   -27.2233     8.4835     7.5075   144.9962     0.0549   106.9641     6.8156     0.1249     2.4488
  431.5000   -27.3710     8.6486     7.5826   142.7222     0.0507   105.8552     6.8910     0.1300     2.4407
  432.0000   -27.2167     8.8138     7.6577   140.4483     0.0511   104.7463     6.9364     0.1354     2.4444
  432.5000   -27.2138     8.9514     7.7327   139.6758     0.0522   103.1904     6.9075     0.1261     2.4482
  433.0000   -27.0602     9.0691     7.7327   138.9034     0.0526   101.4087     6.8934     0.1294     2.4445
  433.5000   -26.9061     8.9940     7.6577   138.8817     0.0487   102.0904     6.9095     0.1186     2.4752
  434.0000   -26.9032     8.6486     7.5075   141.8575     0.0386   108.1350     6.9402     0.1069     2.4805
  434.5000   -26.9003     8.4985     7.3574   146.3403     0.0309   112.1677     6.9410     0.1105     2.4693
  435.0000   -26.8974     8.4234     7.1321   151.5739     0.0319   111.2824     6.9568     0.1254     2.4521
  435.5000   -26.8945     8.2883     6.9820   156.8074     0.0421   108.6087     6.9577     0.1197     2.4664
  436.0000   -27.0422     8.0551     6.7568   161.2902     0.0342   103.6996     6.8990     0.1134     2.4657
  436.5000   -27.0386     7.7628     6.5315   164.2718     0.0257   101.4729     6.8828     0.1191     2.4515
  437.0000   -27.0357     7.5976     6.3814   162.7478     0.0392   101.4818     6.8859     0.1161     2.4609
  437.5000   -27.1841     7.5375     6.6066   159.7182     0.0451   102.8320     6.9017     0.1053     2.4902
  438.0000   -27.1805     7.6426     6.7668   158.1949     0.0385   106.8647     6.9771     0.0981     2.5025
  438.5000   -27.1776     7.8378     6.8318   157.4225     0.0235   103.9674     7.0230     0.1068     2.4845
  439.0000   -27.1747     8.0495     6.6817   157.4008     0.0169   100.6231     6.9487     0.1095     2.4756
