~VERSION INFORMATION
 VERS.                2.0:   CWLS LOG ASCII STANDARD - VERSION 2.0
 WRAP.                 NO:   ONE LINE PER DEPTH STEP
~WELL INFORMATION
#MNEM.UNIT      DATA TYPE    INFORMATION
#----------   ------------   ------------------------------
 STRT.F           20.5000:   START DEPTH
 STOP.F          725.0000:   STOP DEPTH
 STEP.F            0.5000:   STEP LENGTH
 NULL.          -999.2500:   NO VALUE
 COMP. FENIX & SCISSON INC:   COMPANY
 WELL.       NPR 3 #67-27:   WELL
 FLD .             TEAPOT:   FIELD
 LOC .      S27 T39N R78W:   LOCATION
 CNTY.            NATRONA:   COUNTY
 STAT.            WYOMING:   STATE
 CTRY. UNITED STATES OF AMERICA:   COUNTRY
 SRVC.           BIRDWELL:   SERVICE COMPANY
 DATE.        15-SEP-1978:   LOGDATE
 API .       490251069400:   API NUMBER
~CURVE INFORMATION
#MNEM.UNIT       API CODE    CURVE DESCRIPTION
#----------   ------------   ------------------------------
 DEPT.F                  :   
 CALD.IN     45 280 60 00:   CALIPER
 GRD .GAPI   45 310 01 00:   GAMMA RAY FROM DENSITY LOG
 RHOB.G/C3   45 350 01 00:   BULK DENSITY
 DPHI.DEC    45 890 12 00:   DENSITY POROSITY SANDSTONE
 CORR.G/C3   45 356 01 00:   DENSITY CORRECTION
 SPR .MV     05 010 01 00:   SPONTANEOUS POTENTIAL FROM RES.
 ILD .OHMM   05 120 46 00:   INDUCTION LOG DEEP
 SN  .OHMM   05 040 16 00:   SHORT NORMAL 16"
~PARAMETER INFORMATION
#MNEM.UNIT          VALUE    DESCRIPTION
#----------   ------------   ------------------------------
 PD  .                 GL:   PERMANENT DATUM
 EPD .F              5027:   ELEVATION PERMANENT DATUM
 LMF .                 KB:   LOG MEASURED FROM
 DAPD.F                 4:   FEET ABOVE PERMANENT DATUM
 DMF .                 KB:   DRILLING MEASURED FROM
 EKB .F              5031:   KELLING BUSHING
 EGL .F              5027:   GROUND LEVEL
 DATE.            9-15-78:   RUN DATE
 RUN .                  1:   RUN NUMBER
 DD  .F               728:   DEPTH DRILLER
 DL  .F               719:   DEPTH LOGGER
 BLI .F               713:   BOTTOM LOG INTERVAL
 TLI .F                30:   TOP LOG INTERVAL
 CS  .IN            8.625:   CASING SIZE
 CBD .F                34:   CASING BOTTOM DRILLER
 CBL .F                34:   CASING BOTTOM LOGGER
 BS  .IN            7.875:   BIT SIZE
 BSD .F               728:   BIT SIZE AT DEPTH
 DFT .            KCL MUD:   DRILLING FLUID TYPE
 DFD .                  9:   DRILLING FLUID DENSITY
 DFV .                 46:   DRILLING FLUID VISCOSITY
 DFPH.                  9:   DRILLING FLUID PH
 DFL .                7.6:   DRILLING FLUID LOSS
 MSS .          FLOW LINE:   MUD SAMPLE SOURCE
 RMS .OHMM            .34:   RESISTIVITY MUD SAMPLE
 MST .F                68:   MUD SAMPLE TEMPERATURE
 RMF .OHMM             .3:   RESISTIVITY MUD FILTRATE SAMPLE
 MFST.F                68:   MUD FILTRATE SAMPLE TEMPERATURE
 RMC .OHMM            .38:   RESISTIVITY MUD CAKE
 MCST.F                70:   MUD CAKE SAMPLE TEMPERATURE
 MFSS.               MEAS:   MUD FILTRATE SAMPLE SOURCE
 MCSS.               MEAS:   MUD CAKE SAMPLE SOURCE
 RMB .OHMM            .32:   RESISTIVITY MUD AT BHT
 BHT .F                72:   BOTTOM HOLE TEMPERATURE
 TCS .HRS               2:   TIME CURCULATED STOPPED
 MRT .F                72:   MAXIMUM RECORDED TEMPERATURE
 LUN .               2958:   LOGGING UNIT NUMBER
 LUL .               CASP:   LOGGING UNIT LOCATION
 ENGI.           REYNOLDS:   RECORDING ENGINEER
 WITN.           DINSMORE:   WITNESSED BY
 CLNT.            A2DTECH:   CLIENT CODE
 ORIG.           5" PRINT:   ORIGIN OF DATA
 UWI .       490251069400:   UNIQUE WELL ID
 DICO. A2D Technologies, Inc.:   DIGITIZING COMPANY
~OTHER INFORMATION
~A   DEPT     CALD        GRD       RHOB       DPHI       CORR        SPR        ILD         SN   
# ...
  101.5000     7.7583   117.0179     2.4893     0.1532     0.0258   -53.7133     5.9225     6.3753
  102.0000     7.7657   116.9088     2.4335     0.1783     0.0201   -53.8663     5.8729     6.2965
  102.5000     7.7963   117.5190     2.3911     0.1820     0.0124   -53.4076     5.8024     6.1803
  103.0000     7.8288   118.3283     2.3820     0.1873     0.0049   -52.7110     5.7325     6.0675
  103.5000     7.8980   119.2146     2.3830     0.1867     0.0001   -52.4858     5.6635     5.9568
  104.0000     7.9642   120.0849     2.3914     0.1747     0.0024   -52.4575     5.5953     5.8481
  104.5000     8.5164   120.5947     2.4169     0.1539     0.0046   -52.4334     5.5280     5.7413
  105.0000     8.0584   120.1957     2.4355     0.1512     0.0068   -52.4091     5.4615     5.6038
  105.5000     8.9335   119.8146     2.4351     0.1535     0.0090   -52.3845     5.4008     5.6234
  106.0000     7.9402   119.4329     2.4321     0.1560     0.0112   -52.3599     5.3513     5.6538
  106.5000     8.0408   119.0896     2.4291     0.1585     0.0134   -52.3352     5.3513     5.6840
  107.0000     8.0806   119.2669     2.4261     0.1607     0.0156   -52.3106     5.3513     5.7143
  107.5000     8.1032   119.5868     2.4231     0.1610     0.0178   -52.2859     5.3624     5.7447
  108.0000     8.1216   119.9067     2.4208     0.1612     0.0200   -52.2613     5.4008     5.7896
  108.5000     8.1398   120.2267     2.4201     0.1615     0.0203   -52.2366     5.5523     5.8514
  109.0000     8.1575   120.5038     2.4211     0.1573     0.0167   -52.2120     5.5382     5.9139
  109.5000     8.1548   120.2211     2.4243     0.1493     0.0131   -52.1874     5.5170     6.0251
  110.0000     8.1069   119.9171     2.4413     0.1445     0.0095   -52.1627     5.5013     6.1462
  110.5000     8.0597   119.6112     2.4467     0.1460     0.0059   -52.1381     5.7185     6.2697
  111.0000     8.0113   119.3632     2.4429     0.1476     0.0040   -52.1137     5.8967     6.3956
  111.5000     7.9626   119.5201     2.4389     0.1468     0.0059   -52.1087     6.0696     6.5241
  112.0000     7.9107   119.6158     2.4379     0.1460     0.0076   -52.1285     6.2198     6.6552
  112.5000     7.8293   119.6902     2.4405     0.1492     0.0093   -52.1480     6.3732     6.7890
  113.0000     7.7441   119.3315     2.4382     0.1536     0.0111   -52.1676     6.5546     6.8796
  113.5000     7.6583   118.9396     2.4296     0.1579     0.0129   -52.1872     6.4699     6.9274
  114.0000     7.5729   118.5572     2.4211     0.1630     0.0146   -52.2067     6.3715     6.8864
  114.5000     7.5490   118.5371     2.4126     0.1693     0.0163   -52.2263     6.2745     6.8156
  115.0000     7.5554   119.2422     2.4039     0.1759     0.0167   -52.2459     6.1783     6.7414
  115.5000     7.5616   119.9350     2.4020     0.1730     0.0143   -52.2654     6.0181     6.6679
  116.0000     7.5672   120.6308     2.4078     0.1699     0.0119   -52.2850     5.8226     6.5953
  116.5000     7.6041   121.3235     2.4142     0.1682     0.0096   -52.3066     5.6027     6.4859
  117.0000     7.6641   121.9153     2.4132     0.1688     0.0110   -52.3373     5.6039     6.3308
  117.5000     7.7242   121.9370     2.4122     0.1694     0.0126   -52.3676     5.6037     6.1793
  118.0000     7.7843   121.9954     2.4108     0.1655     0.0142   -52.3978     5.6190     6.0315
  118.5000     7.8444   122.0560     2.4326     0.1548     0.0159   -52.4281     5.6375     5.9773
  119.0000     7.9048   122.1167     2.4422     0.1512     0.0174   -52.4582     5.6561     5.9773
  119.5000     7.9374   122.1776     2.4478     0.1456     0.0175   -52.4890     5.6747     5.9773
  120.0000     7.9511   122.2392     2.4507     0.1426     0.0175   -52.4819     5.6933     5.9773
  120.5000     7.9645   122.3033     2.4518     0.1404     0.0175   -52.4538     5.7079     5.9773
  121.0000     7.9770   122.0808     2.4529     0.1395     0.0175   -52.4253     5.6835     5.9773
  121.5000     7.9890   121.8007     2.4540     0.1388     0.0175   -52.3967     5.6634     5.9773
  122.0000     8.0011   121.5194     2.4551     0.1389     0.0175   -52.3682     5.6434     5.9774
  122.5000     8.0131   121.2380     2.4560     0.1390     0.0179   -52.3397     5.6240     5.9776
  123.0000     8.0253   120.9510     2.4555     0.1390     0.0185   -52.3110     5.6033     5.9777
  123.5000     8.0235   120.9378     2.4552     0.1391     0.0191   -52.3002     5.4643     5.9315
  124.0000     8.0129   120.9847     2.4506     0.1413     0.0196   -52.3000     5.3026     5.8860
  124.5000     8.0022   121.0331     2.4433     0.1507     0.0202   -52.3000     5.3127     5.8410
  125.0000     7.9914   121.0809     2.4359     0.1575     0.0208   -52.3000     5.3253     5.7964
  125.5000     7.9806   121.1287     2.4314     0.1543     0.0214   -52.2999     5.3388     5.7568
  126.0000     7.9706   121.1763     2.4397     0.1511     0.0213   -52.3003     5.3513     5.7365
  126.5000     7.9793   121.2234     2.4485     0.1489     0.0210   -52.3119     5.2053     5.7162
  127.0000     7.9888   121.2716     2.4487     0.1485     0.0206   -52.3240     5.2013     5.7038
  127.5000     7.9982   121.3580     2.4471     0.1463     0.0203   -52.3360     5.1971     5.6967
  128.0000     8.0076   121.6719     2.4462     0.1448     0.0200   -52.3480     5.1932     5.6896
  128.5000     8.0170   121.9837     2.4467     0.1451     0.0197   -52.3601     5.1891     5.6826
  129.0000     8.0264   122.0982     2.4472     0.1454     0.0199   -52.3721     5.1851     5.6755
  129.5000     8.0358   122.1004     2.4478     0.1458     0.0208   -52.3841     5.1810     5.6685
  130.0000     8.0452   122.0992     2.4490     0.1447     0.0217   -52.3961     5.1770     5.6613
  130.5000     8.0546   122.1755     2.4513     0.1417     0.0227   -52.4082     5.1729     5.6566
  131.0000     8.0640   122.2948     2.4536     0.1400     0.0236   -52.4202     5.1689     5.6996
  131.5000     8.0734   122.4151     2.4547     0.1402     0.0246   -52.4322     5.1649     5.7372
  132.0000     8.0828   122.5354     2.4541     0.1411     0.0255   -52.4442     5.1609     5.7750
  132.5000     8.0876   122.6586     2.4534     0.1420     0.0255   -52.4563     5.1552     5.8142
  133.0000     8.0742   122.7131     2.4527     0.1429     0.0255   -52.4683     5.1412     5.7970
  133.5000     8.0612   122.1945     2.4520     0.1439     0.0255   -52.4803     5.1273     5.7792
  134.0000     8.0482   121.5870     2.4513     0.1448     0.0244   -52.4922     5.1135     5.7609
  134.5000     8.0354   120.9765     2.4478     0.1457     0.0190   -52.5001     5.0923     5.7083
  135.0000     8.0226   120.3661     2.4429     0.1466     0.0137   -52.5000     5.0689     5.6542
  135.5000     8.0084   119.7666     2.4400     0.1499     0.0084   -52.5001     5.0083     5.6006
  136.0000     7.9624   119.4368     2.4403     0.1589     0.0053   -52.5009     4.9368     5.5475
  136.5000     7.9163   119.6017     2.4222     0.1704     0.0049   -52.5082     4.8666     5.4952
  137.0000     7.8705   119.7179     2.4074     0.1733     0.0046   -52.1228     4.8041     5.4509
  137.5000     7.8234   119.8381     2.4045     0.1707     0.0042   -51.6307     4.7498     5.4509
  138.0000     7.7581   120.0851     2.4129     0.1680     0.0038   -51.2917     4.7035     5.4509
  138.5000     7.7230   120.5000     2.4148     0.1669     0.0037   -51.2876     4.7377     5.4509
  139.0000     7.6981   120.9127     2.4132     0.1676     0.0045   -51.2768     4.7678     5.4509
  139.5000     7.6911   121.2955     2.4130     0.1682     0.0053   -51.2672     4.7982     5.4508
  140.0000     7.6925   121.3426     2.4176     0.1644     0.0061   -51.2575     4.8287     5.4577
  140.5000     7.6940   121.3797     2.4219     0.1599     0.0069   -51.2477     4.8597     5.4703
  141.0000     7.6955   121.4179     2.4249     0.1587     0.0078   -51.2379     4.8803     5.4830
  141.5000     7.6971   121.4560     2.4207     0.1679     0.0086   -51.2281     4.8799     5.4955
