~VERSION INFORMATION
 VERS.                2.0:   CWLS LOG ASCII STANDARD - VERSION 2.0
 WRAP.                 NO:   ONE LINE PER DEPTH STEP
~WELL INFORMATION
#MNEM.UNIT      DATA TYPE    INFORMATION
#----------   ------------   ------------------------------
 STRT.F          100.0000:   START DEPTH
 STOP.F          874.0000:   STOP DEPTH
 STEP.F            0.5000:   STEP LENGTH
 NULL.          -999.2500:   NO VALUE
 COMP. U S NAVY-INTEX OIL:   COMPANY
 WELL.     NPR #3 #45-S-2:   WELL
 FLD .             TEAPOT:   FIELD
 LOC .       S2 T38N R78W:   LOCATION
 CNTY.            NATRONA:   COUNTY
 STAT.            WYOMING:   STATE
 CTRY. UNITED STATES OF AMERICA:   COUNTRY
 SRVC.       Schlumberger:   SERVICE COMPANY
 DATE.        15-JUL-1962:   LOGDATE
 API .       490250642400:   API NUMBER
~CURVE INFORMATION
#MNEM.UNIT       API CODE    CURVE DESCRIPTION
#----------   ------------   ------------------------------
 DEPT.F                  :   
 ASN .OHMM   05 041 16 00:   AMPLIFIED SHORT NORMAL 16"
 CILD.MMHO   05 110 46 00:   CONDUCTIVITY INDUCTION LOG DEEP
 ILD .OHMM   05 120 46 00:   INDUCTION LOG DEEP
 SPR .MV     05 010 01 00:   SPONTANEOUS POTENTIAL FROM RES.
 GR  .GAPI   30 310 01 00:   GAMMA RAY
~PARAMETER INFORMATION
#MNEM.UNIT          VALUE    DESCRIPTION
#----------   ------------   ------------------------------
 LMF .                 KB:   LOG MEASURED FROM
 DMF .                 KB:   DRILLING MEASURED FROM
 EKB .F              5149:   KELLING BUSHING
 EGL .F              5144:   GROUND LEVEL
 DATE.        15-JUL-1962:   RUN DATE
 RUN .                  1:   RUN NUMBER
 DD  .F               875:   DEPTH DRILLER
 DL  .F               875:   DEPTH LOGGER
 BLI .F               874:   BOTTOM LOG INTERVAL
 TLI .F               100:   TOP LOG INTERVAL
 BS  .IN             6.75:   BIT SIZE
 BSD .F               875:   BIT SIZE AT DEPTH
 DFT .           OIL EMUL:   DRILLING FLUID TYPE
 DFD .               10.2:   DRILLING FLUID DENSITY
 DFV .                 42:   DRILLING FLUID VISCOSITY
 DFL .                4.6:   DRILLING FLUID LOSS
 RMS .OHMM            6.0:   RESISTIVITY MUD SAMPLE
 MST .F                64:   MUD SAMPLE TEMPERATURE
 RMF .OHMM            5.8:   RESISTIVITY MUD FILTRATE SAMPLE
 MFST.F                64:   MUD FILTRATE SAMPLE TEMPERATURE
 RMC .OHMM            5.2:   RESISTIVITY MUD CAKE
 MCST.F                66:   MUD CAKE SAMPLE TEMPERATURE
 TCS .HRS             0.5:   TIME CURCULATED STOPPED
 LUN .               2503:   LOGGING UNIT NUMBER
 LUL .               CSPR:   LOGGING UNIT LOCATION
 ENGI.           ELLERMAN:   RECORDING ENGINEER
 WITN.          JORGENSON:   WITNESSED BY
 CLNT.            A2DTECH:   CLIENT CODE
 ORIG.           5" PRINT:   ORIGIN OF DATA
 UWI .       490250642400:   UNIQUE WELL ID
 DICO. A2D Technologies, Inc.:   DIGITIZING COMPANY
~OTHER INFORMATION
~A   DEPT        ASN      CILD       ILD        SPR         GR   
# ...
  222.0000     4.4603   213.5758     5.2543   -39.8797  -999.2500
  222.5000     4.4619   215.8586     5.0343   -39.8724  -999.2500
  223.0000     4.4034   222.0557     4.8883   -39.8655  -999.2500
  223.5000     4.2999   236.8918     4.7422   -40.0073  -999.2500
  224.0000     4.1665   250.4762     4.5961   -40.0000  -999.2500
  224.5000     4.0460   270.1212     4.1507   -39.9925  -999.2500
  225.0000     3.8922   300.3723     3.9298   -40.1348  -999.2500
  225.5000     3.5570   335.1688     3.7089   -40.2752  -999.2500
  226.0000     3.3038   366.1775     3.4131   -40.2679  -999.2500
  226.5000     3.0955   422.1862     3.2671   -40.2606  -999.2500
  227.0000     2.9771   442.5887     3.1210   -40.2541  -999.2500
  227.5000     2.9036   458.4459     2.9750   -40.2459  -999.2500
  228.0000     2.8896   453.8485     2.9795   -40.2386  -999.2500
  228.5000     2.9810   438.2650     2.9083   -40.2313  -999.2500
  229.0000     3.0871   418.8937     2.9868   -40.3735  -999.2500
  229.5000     3.0580   391.5584     3.1402   -40.3662  -999.2500
  230.0000     3.0000   353.6277     3.3684   -40.3587  -999.2500
  230.5000     3.3609   302.0606     3.8960   -40.3513  -999.2500
  231.0000     4.0658   267.9178     4.5843   -40.6414  -999.2500
  231.5000     4.6958   222.4113     5.2640   -40.4846  -999.2500
  232.0000     4.8618   184.4805     5.8540   -40.4773  -999.2500
  232.5000     4.9530   175.3377     6.2318   -40.4700  -999.2500
  233.0000     5.0142   173.7706     6.3094   -40.6140  -999.2500
  233.5000     5.0305   174.4762     6.0894   -41.2027  -999.2500
  234.0000     5.0318   179.7273     5.7937   -41.7933  -999.2500
  234.5000     5.0031   190.5329     5.4979   -42.0852  -999.2500
  235.0000     4.9102   205.0001     5.2770   -41.6292  -999.2500
  235.5000     4.5720   225.0130     4.9810   -41.4723  -999.2500
  236.0000     4.2290   256.0216     4.6028   -41.4649  -999.2500
  236.5000     3.9159   299.9091     4.0164   -41.3065  -999.2500
  237.0000     3.5430   344.5541     3.6458   -41.2992  -999.2500
  237.5000     3.3347   370.2597     3.4249   -41.4432  -999.2500
  238.0000     3.2312   380.0563     3.2789   -41.7349  -999.2500
  238.5000     3.2924   383.8052     3.2825   -42.0265  -999.2500
  239.0000     3.4285   379.1948     3.3610   -42.0174  -999.2500
  239.5000     3.3699   365.5065     3.5892   -41.8606  -999.2500
  240.0000     3.3114   349.5454     3.8923   -41.4048  -999.2500
  240.5000     3.3998   333.2044     4.2730   -40.7996  -999.2500
  241.0000     3.7634   294.7668     4.5838   -40.3438  -999.2500
  241.5000     4.0043   248.6190     5.0269   -40.3363  -999.2500
  242.0000     4.1852   228.8701     5.1802   -40.4787  -999.2500
  242.5000     4.3063   214.4242     5.4084   -40.4709  -999.2500
  243.0000     4.4573   209.8268     5.4869   -40.4623  -999.2500
  243.5000     4.5933   209.0173     5.4906   -40.4550  -999.2500
  244.0000     4.6695   209.7359     5.4942   -40.5990  -999.2500
  244.5000     4.6708   211.1861     5.4230   -40.6905  -999.2500
  245.0000     4.6118   212.6515     5.3518   -40.7338  -999.2500
  245.5000     4.5329   215.6277     5.2058   -40.7247  -999.2500
  246.0000     4.3458   218.6061     5.0469   -40.5679  -999.2500
  246.5000     4.1974   223.2877     4.8397   -40.5605  -999.2500
  247.0000     4.0789   236.8084     4.6188   -40.4036  -999.2500
  247.5000     3.9605   263.1342     4.4728   -40.2452  -999.2500
  248.0000     3.8720   278.9913     4.3267   -40.0897  -999.2500
  248.5000     3.7685   294.8485     4.2546   -39.9031  -999.2500
  249.0000     3.7099   301.6147     4.1095   -39.7748  -999.2500
  249.5000     3.6663   306.1082     4.0382   -39.6181  -999.2500
  250.0000     3.6078   306.8268     3.7429   -39.4624  -999.2500
  250.5000     3.5619   311.2999     3.6697   -39.9035  -999.2500
  251.0000     3.4448   320.3320     3.5970   -40.4956  -999.2500
  251.5000     3.3107   327.8889     3.5243   -40.6407  -999.2500
  252.0000     3.2217   332.4444     3.4517   -41.2313  -999.2500
  252.5000     3.2823   333.7918     3.3795   -41.5247  -999.2500
  253.0000     3.2978   335.9910     3.3069   -42.2660  -999.2500
  253.5000     3.1939   344.2655     3.2342   -43.0075  -999.2500
  254.0000     3.1198   354.0551     3.1615   -42.9816  -999.2500
  254.5000     3.0142   382.7841     3.1643   -42.2470  -999.2500
  255.0000     2.9092   414.5435     3.0910   -41.6433  -999.2500
  255.5000     2.8078   444.0301     2.9441   -41.1251  -999.2500
  256.0000     2.7187   463.8282     2.8709   -40.4358  -999.2500
  256.5000     2.6893   470.4276     2.8736   -39.9815  -999.2500
  257.0000     2.7501   449.1419     2.8758   -39.5273  -999.2500
  257.5000     2.8406   430.1437     2.8780   -39.0730  -999.2500
  258.0000     2.9611   401.2970     3.1052   -39.0672  -999.2500
  258.5000     2.9918   375.4805     3.2571   -39.2158  -999.2500
  259.0000     2.9955   352.6944     3.4838   -39.5237  -999.2500
  259.5000     3.2928   329.9083     3.7854   -39.9465  -999.2500
  260.0000     3.6528   281.4650     4.0870   -40.5371  -999.2500
  260.5000     3.9080   248.7153     4.3886   -40.8317  -999.2500
  261.0000     3.9537   238.0504     4.8399   -41.2729  -999.2500
  261.5000     3.9245   239.5067     4.9918   -41.8649  -999.2500
  262.0000     3.8952   250.8115     4.8343   -41.7096  -999.2500
  262.5000     3.8511   259.8436     4.5470   -40.5080  -999.2500
  263.0000     3.7914   270.3908     4.2503   -39.7548  -999.2500
  263.5000     3.7156   286.2411     4.0280   -39.3004  -999.2500
  264.0000     3.5989   302.9697     3.8056   -39.2945  -999.2500
  264.5000     3.4799   317.8483     3.5832   -39.4383  -999.2500
  265.0000     3.3758   347.4135     3.5105   -39.4310  -999.2500
  265.5000     3.2418   377.6576     3.3630   -39.4252  -999.2500
  266.0000     3.1357   414.7200     3.2854   -39.4193  -999.2500
  266.5000     3.0338   430.5703     3.2177   -39.5645  -999.2500
  267.0000     2.9747   433.5564     3.2204   -39.5572  -999.2500
  267.5000     2.9754   419.8465     3.2975   -39.6429  -999.2500
  268.0000     3.2007   397.0604     3.3745   -39.7648  -999.2500
  268.5000     3.3062   373.7881     3.5264   -39.8386  -999.2500
  269.0000     3.3219   346.9280     3.7531   -39.9823  -999.2500
  269.5000     3.3975   306.7177     3.9799   -40.1244  -999.2500
  270.0000     3.6976   279.3861     4.2066   -40.1196  -999.2500
  270.5000     4.2310   255.0848     4.4508   -40.1136  -999.2500
  271.0000     4.5076   221.6927     4.8851   -40.1069  -999.2500
  271.5000     4.6431   196.6338     5.3364   -40.1011  -999.2500
  272.0000     4.7785   189.7568     5.6380   -40.0953  -999.2500
  272.5000     4.9589   187.3233     5.9396   -40.0894  -999.2500
  273.0000     5.1243   183.5638     6.0915   -40.3831  -999.2500
  273.5000     5.2448   180.4746     6.0937   -40.8242  -999.2500
  274.0000     5.3803   175.1128     6.2455   -41.1188  -999.2500
  274.5000     5.5936   168.9933     6.4723   -41.8589  -999.2500
  275.0000     5.8558   162.8739     6.6367   -42.1534  -999.2500
  275.5000     6.2060   156.7544     6.8514   -41.5482  -999.2500
  276.0000     6.4462   152.9077     6.8536   -41.6919  -999.2500
  276.5000     6.5966   149.7980     6.8558   -42.2840  -999.2500
  277.0000     6.6722   148.2424     6.8580   -42.1186  -999.2500
  277.5000     6.7029   148.1710     6.8602   -41.1759  -999.2500
  278.0000     6.7336   148.8845     6.8623   -40.6208  -999.2500
  278.5000     6.7043   149.5685     6.8645   -40.6149  -999.2500
  279.0000     6.6138   150.2819     6.8668   -40.6091  -999.2500
  279.5000     6.5561   151.7383     6.8694   -40.6033  -999.2500
  280.0000     6.5570   153.1799     6.8716   -40.4479  -999.2500
  280.5000     6.6026   154.6264     6.8738   -40.4425  -999.2500
  281.0000     6.6333   155.3251     6.8006   -40.3717  -999.2500
  281.5000     6.6490   156.0385     6.8033   -40.2810  -999.2500
  282.0000     6.6497   156.7373     6.7301   -40.2751  -999.2500
  282.5000     6.6355   157.4360     6.7328   -40.4185  -999.2500
