~VERSION INFORMATION
 VERS.                2.0:   CWLS LOG ASCII STANDARD - VERSION 2.0
 WRAP.                 NO:   ONE LINE PER DEPTH STEP
~WELL INFORMATION
#MNEM.UNIT      DATA TYPE    INFORMATION
#----------   ------------   ------------------------------
 STRT.F           29.0000:   START DEPTH
 STOP.F          882.0000:   STOP DEPTH
 STEP.F            0.5000:   STEP LENGTH
 NULL.          -999.2500:   NO VALUE
 COMP. FENIX & SCISSON INC:   COMPANY
 WELL. NAVAL PETROLEUM RESERVE 3 S-14 #42-14:   WELL
 FLD .             TEAPOT:   FIELD
 LOC .      S14 T38N R78W:   LOCATION
 CNTY.            NATRONA:   COUNTY
 STAT.            WYOMING:   STATE
 CTRY. UNITED STATES OF AMERICA:   COUNTRY
 SRVC.              Welex:   SERVICE COMPANY
 DATE.        03-MAY-1977:   LOGDATE
 API .       490251035400:   API NUMBER
~CURVE INFORMATION
#MNEM.UNIT       API CODE    CURVE DESCRIPTION
#----------   ------------   ------------------------------
 DEPT.F                  :   
 CALD.IN     45 280 60 00:   CALIPER FROM DENSITY LOG
 GRD .GAPI   45 310 01 00:   GAMMA RAY FROM DENSITY LOG
 CORR.G/C3   45 356 01 00:   DENSITY CORRECTION
 DPHI.DEC    45 890 12 00:   DENSITY POROSITY SANDSTONE
 RHOB.G/C3   45 350 01 00:   BULK DENSITY
 SPR .MV     07 010 01 00:   SPONTANEOUS POTENTIAL
 ILD .OHMM   07 120 46 00:   INDUCTION LOG DEEP
 ILM .OHMM   07 120 44 00:   INDUCTION LOG MEDIUM
 SGRD.OHMM   07 221 05 00:   SHALLOW SHORT GUARD RESISTIVITY
~PARAMETER INFORMATION
#MNEM.UNIT          VALUE    DESCRIPTION
#----------   ------------   ------------------------------
 PD  .                 GL:   PERMANENT DATUM
 EPD .F              5206:   ELEVATION PERMANENT DATUM
 LMF .                 GL:   LOG MEASURED FROM
 DMF .                 GL:   DRILLING MEASURED FROM
 EGL .F              5206:   GROUND LEVEL
 DATE.        03-MAY-1977:   RUN DATE
 RUN .                  1:   RUN NUMBER
 DD  .F               855:   DEPTH DRILLER
 DL  .F               884:   DEPTH LOGGER
 BLI .F               882:   BOTTOM LOG INTERVAL
 TLI .F                28:   TOP LOG INTERVAL
 CS  .IN            8.625:   CASING SIZE
 BS  .IN               12:   BIT SIZE
 BSD .F               855:   BIT SIZE AT DEPTH
 DFT .            KCL MUD:   DRILLING FLUID TYPE
 DFD .                8.7:   DRILLING FLUID DENSITY
 BHT .F                75:   BOTTOM HOLE TEMPERATURE
 TCS .HRS            0130:   TIME CURCULATED STOPPED
 MRT .F                75:   MAXIMUM RECORDED TEMPERATURE
 ENGI.            C. DOAK:   RECORDING ENGINEER
 WITN.            R. LYON:   WITNESSED BY
 CLNT.            A2DTECH:   CLIENT CODE
 ORIG.           5" PRINT:   ORIGIN OF DATA
 UWI .       490251035400:   UNIQUE WELL ID
 DICO. A2D Technologies, Inc.:   DIGITIZING COMPANY
~OTHER INFORMATION
~A   DEPT       CALD      GRD       CORR       DPHI         RHOB      SPR        ILD        ILM       SGRD   
# ...
  394.0000     7.9917   131.4729     0.0195     0.1190     2.4768   -37.0181     8.0416     7.0458    10.8923
  394.5000     7.9913   131.6197     0.0210     0.1193     2.4761   -37.0272     8.1525     7.0453    10.7420
  395.0000     7.9910   134.5059     0.0210     0.1145     2.4761   -37.0345     8.2082     7.0449    10.5938
  395.5000     7.9907   135.6559     0.0240     0.1100     2.4858   -37.1922     8.3789     7.0444    10.3041
  396.0000     7.9904   134.4547     0.0329     0.1040     2.4993   -37.3472     8.4362     7.0439    10.1619
  396.5000     7.9901   132.2063     0.0328     0.0984     2.5090   -37.6542     8.4436     7.0924    10.0912
  397.0000     7.9898   130.5568     0.0434     0.0923     2.5120   -37.6614     8.3755     7.0918    10.3020
  397.5000     7.9895   127.3800     0.0434     0.0927     2.5250   -37.6687     8.3167     7.1406    10.5975
  398.0000     8.0041   125.6102     0.0434     0.0912     2.5224   -37.5251     8.3153     7.1896    11.1145
  398.5000     8.0038   124.1104     0.0449     0.0918     2.5172   -37.3833     8.3142     7.2893    11.5047
  399.0000     8.0036   123.0596     0.0419     0.0957     2.5202   -37.0943     8.3710     7.3902    11.6643
  399.5000     8.0033   121.7094     0.0329     0.0974     2.5142   -37.1015     8.7242     7.4926    11.7445
  400.0000     8.0179   117.2153     0.0331     0.1034     2.4992   -36.9598     9.1834     7.5585    11.6627
  400.5000     8.0179   118.2604     0.0349     0.1058     2.4910   -37.0118     9.4109     7.6473    11.6627
  401.0000     8.0179   121.8562     0.0359     0.1044     2.4940   -37.0638     9.5410     7.7534    11.7435
  401.5000     8.0179   122.2965     0.0419     0.1032     2.5081   -37.1178     9.6059     7.8062    11.8250
  402.0000     8.0179   121.3948     0.0374     0.1050     2.4917   -37.1207     9.6713     7.9138    11.5791
  402.5000     8.0179   123.0386     0.0299     0.1166     2.4804   -36.9745     9.7368     8.0230    11.7435
  403.0000     8.0179   123.7842     0.0313     0.1160     2.4819   -36.8291     9.8030     8.1334    11.9897
  403.5000     8.0179   123.6317     0.0238     0.1175     2.4781   -36.8319     9.8014     8.2455    12.2410
  404.0000     8.0179   120.8941     0.0134     0.1277     2.4646   -36.8348     9.8001     8.2444    12.3259
  404.5000     8.0179   115.0923     0.0083     0.1379     2.4482   -36.9867     9.7313     8.3005    12.4115
  405.0000     8.0179   114.6410    -0.0001     0.1422     2.4338   -37.4366     9.6630     8.2994    12.9462
  405.5000     8.0179   120.3260     0.0163     0.1364     2.4481   -37.4402     9.5290     8.2411    13.5788
  406.0000     8.0179   126.3112     0.0193     0.1301     2.4578   -37.4431     9.3968     8.2398    13.2084
  406.5000     8.0179   127.0568     0.0208     0.1286     2.4615   -37.4459     9.3306     8.1819    12.6716
  407.0000     8.0179   129.9262     0.0267     0.1254     2.4704   -37.4488     9.2650     8.1808    12.4976
  407.5000     8.0179   129.4456     0.0312     0.1203     2.4779   -37.4516     9.3284     8.1797    12.4115
  408.0000     8.0030   125.4008     0.0327     0.1107     2.4883   -37.6035     9.3268     8.1787    12.3259
  408.5000     8.0179   124.2003     0.0312     0.1101     2.4898   -37.7561     9.4555     8.1775    12.1566
  409.0000     8.0179   122.1016     0.0327     0.1110     2.4882   -37.9080     9.5198     8.1762    11.8250
  409.5000     8.0179   119.1048     0.0341     0.1116     2.4882   -38.0599     9.5846     8.1751    11.7435
  410.0000     8.0179   115.8084     0.0371     0.1110     2.4874   -38.6589     9.4514     8.2308    11.9897
  410.5000     8.0179   118.2001     0.0386     0.1084     2.4897   -39.2579     9.2561     8.2297    11.9897
  411.0000     8.0179   120.7421     0.0401     0.1035     2.5047   -39.7188     9.2549     8.1719    11.7435
  411.5000     8.0179   124.3321     0.0416     0.1024     2.5075   -40.1585     9.2537     8.1705    11.6626
  412.0000     8.0179   128.9699     0.0416     0.1018     2.5023   -40.3104     9.3218     8.1131    11.6626
  412.5000     8.0179   129.4162     0.0430     0.0979     2.5052   -40.4623     9.5103     8.1121    11.8250
  413.0000     8.0179   129.8617     0.0415     0.0964     2.5172   -40.4652     9.5754     8.1110    11.9071
  413.5000     8.0179   131.2061     0.0400     0.1009     2.5074   -40.4680     9.7074     7.9434    11.7352
  414.0000     8.0179   131.9518     0.0385     0.1049     2.4938   -40.4710     9.8413     7.8876    11.3445
  414.5000     8.0179   134.1944     0.0370     0.1099     2.4909   -40.4744     9.9080     7.9964    11.4232
  415.0000     8.0179   135.0897     0.0370     0.1084     2.5021   -40.4773     9.9066     8.1067    11.8250
  415.5000     8.0030   134.9311     0.0370     0.1057     2.4998   -40.4802     9.9050     8.1618    12.4115
  416.0000     8.0030   132.9875     0.0354     0.1126     2.4796   -40.4830     9.7677     8.1605    12.5843
  416.5000     8.0030   131.3379     0.0354     0.1078     2.4923   -40.4859     9.4999     8.1032    11.6106
  417.0000     8.0030   130.4368     0.0339     0.1069     2.4912   -40.4888     9.2396     8.0463    10.6600
  417.5000     8.0179   129.5357     0.0279     0.1129     2.4758   -40.4923     9.0487     7.9897    11.0350
  418.0000     8.0179   131.1796     0.0219     0.1210     2.4713   -40.6442     8.7934     7.8787    11.9071
  418.5000     8.0179   132.2246     0.0249     0.1198     2.4690   -40.9451     8.5592     7.8777    12.3259
  419.0000     8.0030   132.8198     0.0324     0.1231     2.4682   -41.0970     8.5580     7.9315    12.0690
  419.5000     8.0030   135.0625     0.0338     0.1222     2.4704   -41.3979     8.7362     8.0407    11.5822
  420.0000     8.0030   135.3597     0.0338     0.1186     2.4773   -41.6990     8.7957     8.0396    11.5024
  420.5000     8.0030   131.7633     0.0338     0.1180     2.4801   -42.0005     8.7945     7.9831    11.7435
  421.0000     8.0030   132.6485     0.0323     0.1184     2.4771   -42.3014     8.7327     7.8722    11.5024
  421.5000     8.0030   135.9008     0.0323     0.1166     2.4756   -42.3043     8.5521     7.6564    11.1116
  422.0000     8.0030   137.2934     0.0308     0.1118     2.4875   -42.6052     8.4335     7.4466    10.9589
  422.5000     8.0030   134.6056     0.0260     0.1133     2.4845   -42.6081     8.3166     7.3433    11.2663
  423.0000     8.0030   131.5983     0.0218     0.1154     2.4829   -42.7830     8.1447     7.2415    11.3445
  423.5000     8.0030   127.4038     0.0217     0.1103     2.4874   -42.9126     7.9765     7.2322    11.3445
  424.0000     8.0030   124.2572     0.0247     0.1061     2.4971   -43.0644     7.8572     7.1399    11.3445
  424.5000     8.0030   121.5598     0.0307     0.1019     2.5075   -43.2163     7.6500     7.0898    11.1116
  425.0000     8.0030   120.2096     0.0337     0.1001     2.5052   -43.2192     7.4404     6.9433    10.0168
  425.5000     8.0030   122.7509     0.0352     0.1046     2.4977   -43.3711     7.3372     6.7998     9.7436
  426.0000     8.0030   123.1979     0.0396     0.1082     2.4940   -43.5237     7.3871     6.6594     9.6097
  426.5000     8.0179   122.2961     0.0426     0.1053     2.5014   -43.5266     7.4374     6.6583     9.4124
  427.0000     8.0179   120.6465     0.0426     0.1047     2.5051   -43.5294     7.5400     6.7501     9.3476
  427.5000     8.0179   118.8472     0.0518     0.1121     2.4916   -43.6813     7.6437     6.7962     9.3476
  428.0000     8.0179   116.8922     0.0396     0.1113     2.4938   -43.6842     7.6427     6.8425     9.8112
  428.5000     8.0179   119.1402     0.0348     0.1095     2.4938   -43.6870     7.6417     6.9366    10.6600
  429.0000     8.0329   120.7840     0.0336     0.1092     2.4900   -43.6906     7.5880     6.9838    11.4232
  429.5000     8.0329   121.3806     0.0365     0.1158     2.4810   -43.6935     7.5870     7.0801    11.5822
  430.0000     8.0329   119.2812     0.0410     0.1197     2.4780   -43.6963     7.5335     7.1283    11.3445
