~VERSION INFORMATION
 VERS.                2.0:   CWLS LOG ASCII STANDARD - VERSION 2.0
 WRAP.                 NO:   ONE LINE PER DEPTH STEP
~WELL INFORMATION
#MNEM.UNIT      DATA TYPE    INFORMATION
#----------   ------------   ------------------------------
 STRT.F           36.0000:   START DEPTH
 STOP.F         3160.0000:   STOP DEPTH
 STEP.F            0.5000:   STEP LENGTH
 NULL.          -999.2500:   NO VALUE
 COMP.    FENIX & SCISSON:   COMPANY
 WELL.        NPR-3 #28-3:   WELL
 FLD .             TEAPOT:   FIELD
 LOC .       S3 T38N R78W:   LOCATION
 CNTY.            NATRONA:   COUNTY
 STAT.            WYOMING:   STATE
 CTRY. UNITED STATES OF AMERICA:   COUNTRY
 SRVC.            Unknown:   SERVICE COMPANY
 DATE.        01-JUL-1978:   LOGDATE
 API .       490251066500:   API NUMBER
~CURVE INFORMATION
#MNEM.UNIT       API CODE    CURVE DESCRIPTION
#----------   ------------   ------------------------------
 DEPT.F                  :   
 ILD .OHMM   05 120 46 00:   INDUCTION LOG DEEP
 SN  .OHMM   05 040 16 00:   SHORT NORMAL 16"
 SPR .MV     05 010 01 00:   SPONTANEOUS POTENTIAL FROM RES.
 CALD.IN     45 280 60 00:   CALIPER FROM DENSITY LOG
 CORR.G/C3   45 356 01 00:   DENSITY CORRECTION
 DPHI.DEC    45 890 12 00:   DENSITY POROSITY SANDSTONE
 GRD .GAPI   45 310 01 00:   GAMMA RAY FROM DENSITY LOG
 RHOB.G/C3   45 350 01 00:   BULK DENSITY
 GR  .GAPI   30 310 01 00:   GAMMA RAY
~PARAMETER INFORMATION
#MNEM.UNIT          VALUE    DESCRIPTION
#----------   ------------   ------------------------------
 PD  .                 GL:   PERMANENT DATUM
 EPD .F              5264:   ELEVATION PERMANENT DATUM
 LMF .                 KB:   LOG MEASURED FROM
 DAPD.F                 4:   FEET ABOVE PERMANENT DATUM
 DMF .                 KB:   DRILLING MEASURED FROM
 EKB .F              5268:   KELLING BUSHING
 EGL .F              5264:   GROUND LEVEL
 DATE.        01-JUL-1978:   RUN DATE
 RUN .                  1:   RUN NUMBER
 DD  .F               630:   DEPTH DRILLER
 DL  .F               636:   DEPTH LOGGER
 BLI .F               630:   BOTTOM LOG INTERVAL
 TLI .F                50:   TOP LOG INTERVAL
 CS  .IN            8.625:   CASING SIZE
 CBD .F                40:   CASING BOTTOM DRILLER
 BS  .IN            7.875:   BIT SIZE
 BSD .F               630:   BIT SIZE AT DEPTH
 DFT .                KCL:   DRILLING FLUID TYPE
 DFD .                8.6:   DRILLING FLUID DENSITY
 DFV .                 32:   DRILLING FLUID VISCOSITY
 DFPH.                9.5:   DRILLING FLUID PH
 MSS .           FLOWLINE:   MUD SAMPLE SOURCE
 BHT .F                74:   BOTTOM HOLE TEMPERATURE
 TCS .HRS               1:   TIME CURCULATED STOPPED
 MRT .F                74:   MAXIMUM RECORDED TEMPERATURE
 LUN .               2958:   LOGGING UNIT NUMBER
 LUL .               CASP:   LOGGING UNIT LOCATION
 ENGI.             MILLER:   RECORDING ENGINEER
 WITN.           MCGINLEY:   WITNESSED BY
 CLNT.            A2DTECH:   CLIENT CODE
 ORIG.        2" 5" PRINT:   ORIGIN OF DATA
 UWI .       490251066500:   UNIQUE WELL ID
 DICO. A2D Technologies, Inc.:   DIGITIZING COMPANY
~OTHER INFORMATION
~A   DEPT      ILD         SN        SPR       CALD       CORR       DPHI         GRD      RHOB         GR   
# ...
  401.0000     7.5712     7.5160   -40.3997     7.4395     0.0032     0.1313    93.6982     2.4643  -999.2500
  401.5000     7.4654     7.4138   -40.4040     7.4559     0.0049     0.1331    94.6352     2.4643  -999.2500
  402.0000     7.3610     7.3101   -40.2581     7.4726     0.0082     0.1375    97.0095     2.4604  -999.2500
  402.5000     7.2580     7.2079   -40.2635     7.5040     0.0126     0.1426    94.9269     2.4539  -999.2500
  403.0000     7.1561     7.1071   -40.2678     7.5353     0.0157     0.1455    93.4423     2.4488  -999.2500
  403.5000     7.0560     7.0077   -40.2721     7.5667     0.0158     0.1407    93.0015     2.4451  -999.2500
  404.0000     7.0056     6.9093   -40.2764     7.5831     0.0159     0.1398    95.7047     2.4466  -999.2500
  404.5000     6.9076     6.8127   -40.2808     7.6144     0.0160     0.1422    97.5086     2.4526  -999.2500
  405.0000     6.8583     6.6712   -40.2861     7.6159     0.0146     0.1440   100.3587     2.4527  -999.2500
  405.5000     6.7619     6.5779   -40.4405     7.6173     0.0147     0.1466   102.0131     2.4504  -999.2500
  406.0000     6.6674     6.3939   -40.4448     7.5593     0.0149     0.1478    97.8404     2.4407  -999.2500
  406.5000     6.4839     6.2636   -40.4491     7.5455     0.0150     0.1463    98.5979     2.4408  -999.2500
  407.0000     6.3055     6.1760   -40.4534     7.5921     0.0151     0.1427    98.9070     2.4431  -999.2500
  407.5000     6.0396     6.0896   -40.3086     7.6235     0.0137     0.1424    99.0666     2.4446  -999.2500
  408.0000     5.5265     5.9631   -40.3129     7.6249     0.0139     0.1438    98.9247     2.4462  -999.2500
  408.5000     5.3374     5.8797   -40.3172     7.6114     0.0140     0.1465    98.6383     2.4455  -999.2500
  409.0000     5.2993     5.8373   -40.3215     7.6129     0.0156     0.1528    98.4991     2.4440  -999.2500
  409.5000     5.2252     5.7956   -40.4760     7.6143     0.0202     0.1577    98.9602     2.4394  -999.2500
  410.0000     5.2238     5.8343   -40.6315     7.6161     0.0281     0.1560   100.3156     2.4217  -999.2500
  410.5000     5.2586     5.9139   -40.7859     7.6624     0.0413     0.1506   100.4752     2.4225  -999.2500
  411.0000     5.4042     5.9974   -40.9404     8.0674     0.0489     0.1425    97.0474     2.4263  -999.2500
  411.5000     5.5552     6.1606   -40.9447     8.3525     0.0505     0.1303    91.0784     2.4420  -999.2500
  412.0000     5.8279     6.2884   -40.7988     7.5322     0.0477     0.1204    87.8000     2.4644  -999.2500
  412.5000     6.1646     6.4625   -40.6530     7.4888     0.0254     0.1156    89.3049     2.4771  -999.2500
  413.0000     6.4605     6.5507   -40.6583     7.4305     0.0106     0.1198    94.6068     2.4861  -999.2500
  413.5000     6.6398     6.6861   -40.6626     7.3725     0.0062     0.1437    94.2605     2.4907  -999.2500
  414.0000     6.6845     6.7307   -40.6669     7.3142     0.0048     0.1373    92.3274     2.4433  -999.2500
  414.5000     6.7287     6.7285   -40.6712     7.2554     0.0050     0.1361    93.0849     2.4490  -999.2500
  415.0000     6.6300     6.6805   -40.6757     7.2124     0.0036     0.1331    93.9919     2.4580  -999.2500
  415.5000     6.1896     6.4516   -40.6809     7.1989     0.0037     0.1391    94.2984     2.4625  -999.2500
  416.0000     5.8552     6.3175   -40.6852     7.2004     0.0038     0.1435    92.6668     2.4453  -999.2500
  416.5000     5.6549     6.1863   -40.6895     7.2018     0.0040     0.1507    92.9860     2.4446  -999.2500
  417.0000     5.4993     6.1421   -40.5436     7.2033     0.0071     0.1593    93.1355     2.4387  -999.2500
  417.5000     5.3436     6.0562   -40.5480     7.2051     0.0116     0.1685    91.5039     2.4236  -999.2500
  418.0000     5.3094     5.9711   -40.5533     7.2065     0.0222     0.1785    90.1688     2.3989  -999.2500
  418.5000     5.3080     5.8876   -40.4064     7.2229     0.0283     0.1795    89.7279     2.3851  -999.2500
  419.0000     5.3066     5.8861   -40.2616     7.2244     0.0225     0.1711    91.8333     2.3904  -999.2500
  419.5000     5.3791     5.9664   -39.9656     7.2408     0.0166     0.1613    95.7298     2.4083  -999.2500
  420.0000     5.5385     6.1535   -39.6596     7.2721     0.0093     0.1490    97.8326     2.4315  -999.2500
  420.5000     5.9219     6.4784   -39.2234     7.3184     0.0019     0.1445    96.2787     2.4494  -999.2500
  421.0000     6.3002     6.7976   -39.0776     7.3666    -0.0054     0.1499    88.4383     2.4450  -999.2500
  421.5000     6.6565     7.0835   -38.9317     7.4113    -0.0128     0.1501    87.9975     2.4353  -999.2500
  422.0000     6.9364     7.3305   -38.6366     7.4427    -0.0141     0.1504    93.0924     2.4324  -999.2500
  422.5000     7.1857     7.5340   -38.4910     7.4441    -0.0109     0.1523    93.1025     2.4309  -999.2500
  423.0000     7.4797     7.7962   -38.4963     7.4303    -0.0049     0.1513    93.4116     2.4302  -999.2500
  423.5000     7.6344     7.9026   -38.5006     7.4168    -0.0018     0.1504    93.7206     2.4325  -999.2500
  424.0000     7.7922     8.0110   -38.5049     7.4036    -0.0017     0.1438    91.7479     2.4385  -999.2500
  424.5000     7.8442     8.0644   -38.3580     7.4051    -0.0001     0.1390    87.6149     2.4446  -999.2500
  425.0000     7.8965     8.0618   -38.3634     7.4066     0.0000     0.1390    86.4267     2.4498  -999.2500
  425.5000     7.9491     8.0596   -38.2186     7.4233    -0.0014     0.1386    88.8309     2.4536  -999.2500
  426.0000     8.0022     8.0570   -38.2229     7.4397     0.0002     0.1371    89.4365     2.4582  -999.2500
  426.5000     7.9995     7.9994   -38.2272     7.4561    -0.0011     0.1323    87.8049     2.4611  -999.2500
  427.0000     8.0529     7.9973   -38.3816     7.4575    -0.0010     0.1317    86.7686     2.4627  -999.2500
  427.5000     7.9948     7.9952   -38.3859     7.4440    -0.0009     0.1335    86.0314     2.4627  -999.2500
  428.0000     7.9930     7.9376   -38.3904     7.4604     0.0007     0.1347    87.2276     2.4620  -999.2500
  428.5000     7.9906     7.8808   -38.3956     7.4619     0.0009     0.1352    90.0900     2.4606  -999.2500
  429.0000     7.9885     7.8788   -38.3999     7.4637     0.0010     0.1349    89.0538     2.4591  -999.2500
  429.5000     7.9864     7.8767   -38.5543     7.4801     0.0026     0.1340    88.9120     2.4576  -999.2500
  430.0000     7.9842     7.8746   -38.5586     7.4815     0.0057     0.1328    90.2699     2.4578  -999.2500
  430.5000     8.0375     7.8720   -38.5631     7.4381     0.0088     0.1339    91.1769     2.4615  -999.2500
  431.0000     8.0349     7.8158   -38.5683     7.3947     0.0119     0.1351    91.1870     2.4615  -999.2500
  431.5000     8.1451     7.8137   -38.5726     7.3513     0.0135     0.1329    90.7389     2.4608  -999.2500
  432.0000     8.3137     7.8116   -38.5769     7.3827     0.0121     0.1273    89.2666     2.4623  -999.2500
  432.5000     8.6620     7.7558   -38.5812     7.4756     0.0092     0.1228    87.6325     2.4683  -999.2500
  433.0000     8.9030     7.7533   -38.4214     7.5802     0.0094     0.1270    86.4468     2.4751  -999.2500
  433.5000     9.2129     7.7512   -38.1393     7.6714     0.0110     0.1329    88.9980     2.4766  -999.2500
  434.0000     9.2749     7.7492   -38.1447     7.6280     0.0126     0.1410    94.5388     2.4625  -999.2500
  434.5000     9.0154     7.7471   -38.1490     7.6444     0.0142     0.1383    95.4458     2.4521  -999.2500
  435.0000     8.0725     7.6918   -38.1533     7.6907     0.0174     0.1361    93.0643     2.4536  -999.2500
  435.5000     7.1266     7.6363   -38.1577     7.7071     0.0309     0.1407    89.7663     2.4552  -999.2500
  436.0000     6.6033     7.4262   -38.1630     7.6334     0.0489     0.1490    90.3965     2.4507  -999.2500
  436.5000     6.3774     7.0737   -37.8670     7.5881     0.0595     0.1582    90.4066     2.4351  -999.2500
  437.0000     6.2449     6.7379   -37.7200     7.5769     0.0656     0.1632    90.2647     2.4284  -999.2500
