~VERSION INFORMATION
 VERS.                2.0:   CWLS LOG ASCII STANDARD - VERSION 2.0
 WRAP.                 NO:   ONE LINE PER DEPTH STEP
~WELL INFORMATION
#MNEM.UNIT      DATA TYPE    INFORMATION
#----------   ------------   ------------------------------
 STRT.F           25.0000:   START DEPTH
 STOP.F          867.0000:   STOP DEPTH
 STEP.F            0.5000:   STEP LENGTH
 NULL.          -999.2500:   NO VALUE
 COMP. LAWRENCE/ALLISON INC:   COMPANY
 WELL.    38-11 SX #35-35:   WELL
 FLD .             TEAPOT:   FIELD
 LOC .      S35 T39N R78W:   LOCATION
 CNTY.            NATRONA:   COUNTY
 STAT.            WYOMING:   STATE
 CTRY. UNITED STATES OF AMERICA:   COUNTRY
 SRVC.      Dresser Atlas:   SERVICE COMPANY
 DATE.        07-AUG-1985:   LOGDATE
 API .       490251104100:   API NUMBER
~CURVE INFORMATION
#MNEM.UNIT       API CODE    CURVE DESCRIPTION
#----------   ------------   ------------------------------
 DEPT.F                  :   
 SPR .MV     07 010 01 00:   SPONTANEOUS POTENTIAL
 RILD.OHMM   07 120 46 00:   INDUCTION LOG DEEP RESISTIVITY
 RILM.OHMM   07 120 44 00:   INDUCTION LOG MEDIUM RESISTIVITY
 RFOC.OHMM   07 220 04 00:   RESISTIVITY FOCUSED LOG
 PORD.DEC    45 890 12 00:   POROSITY DENSITY SANDSTONE
 CNC .DEC    42 890 03 00:   NEUTRON POROSITY SANDSTONE
 GRD .GAPI   45 310 01 00:   GAMMA RAY FROM DENSITY LOG
 CALD.IN     45 280 60 00:   CALIPER FROM DENSITY LOG
 CORR.G/C3   45 356 01 00:   DENSITY CORRECTION
 DEN .G/C3   45 350 01 00:   COMPENSATED BULK DENSTIY
~PARAMETER INFORMATION
#MNEM.UNIT          VALUE    DESCRIPTION
#----------   ------------   ------------------------------
 PD  .                 GL:   PERMANENT DATUM
 EPD .F              5110:   ELEVATION PERMANENT DATUM
 LMF .                 GL:   LOG MEASURED FROM
 DMF .                 GL:   DRILLING MEASURED FROM
 EGL .F              5110:   GROUND LEVEL
 DATE.             8-7-85:   RUN DATE
 RUN .                  1:   RUN NUMBER
 DD  .F               900:   DEPTH DRILLER
 DL  .F               869:   DEPTH LOGGER
 BLI .F               867:   BOTTOM LOG INTERVAL
 TLI .F                40:   TOP LOG INTERVAL
 CS  .IN            8.625:   CASING SIZE
 CBD .F                40:   CASING BOTTOM DRILLER
 CBL .F                40:   CASING BOTTOM LOGGER
 BS  .IN            7.875:   BIT SIZE
 BSD .F               900:   BIT SIZE AT DEPTH
 DFT .             4% KCL:   DRILLING FLUID TYPE
 MSS .           FLOWLINE:   MUD SAMPLE SOURCE
 RMS .OHMM           .222:   RESISTIVITY MUD SAMPLE
 MST .F                71:   MUD SAMPLE TEMPERATURE
 TCS .HRS               2:   TIME CURCULATED STOPPED
 MRT .F               100:   MAXIMUM RECORDED TEMPERATURE
 LUN .               6264:   LOGGING UNIT NUMBER
 LUL .               GLTE:   LOGGING UNIT LOCATION
 ENGI.           FAHLSING:   RECORDING ENGINEER
 WITN.              FIVAS:   WITNESSED BY
 CLNT.            A2DTECH:   CLIENT CODE
 ORIG.       2", 5" PRINT:   ORIGIN OF DATA
 UWI .       490251104100:   UNIQUE WELL ID
 DICO. A2D Technologies, Inc.:   DIGITIZING COMPANY
~OTHER INFORMATION
~A   DEPT      SPR       RILD       RILM       RFOC       PORD          CNC      GRD       CALD       CORR        DEN   
# ...
  762.0000   -12.0482    10.7504    11.3417    10.5441     0.1708     0.2764    76.6639     8.1279     0.0478     2.3960
  762.5000   -12.0482    10.6017    11.1835    10.5415     0.1824     0.2668    75.4858     8.1591     0.0434     2.3744
  763.0000   -12.1988    10.5274    11.0280    10.4669     0.1809     0.2701    73.9848     8.1753     0.0465     2.3759
  763.5000   -12.5000    10.4535    10.9500    10.3212     0.1758     0.2761    72.2093     8.1765     0.0480     2.3827
  764.0000   -12.6506    10.3799    10.8725    10.1776     0.1720     0.2722    70.1225     8.1624     0.0301     2.3917
  764.5000   -12.8012    10.3072    10.7956    10.1055     0.1690     0.2718    71.2165     8.1339     0.0197     2.3970
  765.0000   -13.1024    10.3058    10.7934    10.0340     0.1648     0.2707    75.5790     8.1198     0.0602     2.4060
  765.5000   -13.2530    10.3044    10.7912     9.8944     0.1597     0.2644    77.0916     8.1213     0.0827     2.4173
  766.0000   -13.4036    10.2322    10.7149     9.8243     0.1528     0.2614    77.1093     8.1225     0.0723     2.4248
  766.5000   -13.7048    10.2308    10.6390     9.8223     0.1501     0.2622    75.6323     8.1236     0.0604     2.4286
  767.0000   -13.8554    10.3006    10.6369     9.8884     0.1498     0.2700    72.3616     8.1248     0.0709     2.4301
  767.5000   -14.0060    10.2988    10.6346     9.8863     0.1498     0.2713    69.9833     8.1260     0.0904     2.4309
  768.0000   -14.3072    10.2974    10.5589     9.8839     0.1507     0.2692    71.5002     8.1422     0.0965     2.4220
  768.5000   -14.3072    10.2960    10.5568     9.8819     0.1534     0.2752    73.3117     8.1434     0.0816     2.4190
  769.0000   -14.4578    10.2946    10.5547     9.8799     0.1537     0.2797    73.6284     8.1446     0.0938     2.4221
  769.5000   -14.4578    10.2932    10.5528     9.8778     0.1519     0.2803    72.4504     8.1458     0.1013     2.4251
  770.0000   -14.4578    10.2915    10.5504     9.8758     0.1522     0.2756    71.2723     8.1469     0.1087     2.4244
  770.5000   -14.4578    10.2194    10.5483     9.9428     0.1540     0.2702    73.9807     8.1331     0.0968     2.4192
  771.0000   -14.4578    10.2180    10.5461     9.9402     0.1564     0.2678    76.3901     8.1343     0.0759     2.4133
  771.5000   -14.4578    10.2166    10.5440     9.9382     0.1576     0.2633    77.3047     8.1205     0.0520     2.4111
  772.0000   -14.4578    10.2152    10.5418     9.9362     0.1549     0.2606    74.9308     8.1367     0.0565     2.4156
  772.5000   -14.6084    10.2138    10.4672     9.9342     0.1468     0.2612    71.6601     8.1379     0.0746     2.4306
  773.0000   -14.7590    10.2125    10.4650    10.0010     0.1414     0.2666    69.8841     8.1392     0.0971     2.4434
  773.5000   -14.9096    10.2111    10.4625     9.9985     0.1396     0.2735    71.6956     8.1556     0.0852     2.4464
  774.0000   -14.9096    10.2097    10.4604     9.9964     0.1465     0.2741    76.1977     8.1567     0.0538     2.4287
  774.5000   -14.9096    10.2083    10.4582     9.9944     0.1561     0.2695    78.9060     8.1879     0.0179     2.4173
  775.0000   -14.9096    10.1368    10.4561     9.9924     0.1565     0.2656    78.6248     8.1891     0.0240     2.4203
  775.5000   -14.9096    10.1354    10.4538     9.9904     0.1561     0.2675    74.7446     8.1600     0.0255     2.4148
  776.0000   -14.9096    10.1340    10.4519     9.9883     0.1618     0.2702    75.4439     8.1615     0.0091     2.3988
  776.5000   -14.9096    10.1323    10.4498     9.9863     0.1681     0.2714    79.6469     8.1474     0.0196     2.3943
  777.0000   -15.0602    10.1309    10.4477     9.9156     0.1655     0.2681    81.7339     8.1489     0.0317     2.4086
  777.5000   -15.3614    10.1296    10.4456     9.9136     0.1570     0.2654    86.1919     8.1348     0.0322     2.4258
  778.0000   -15.6627    10.1282    10.4434     9.8434     0.1471     0.2621    92.7866     8.1210     0.0272     2.4326
  778.5000   -15.9639    10.1973    10.4412     9.8413     0.1453     0.2591    93.6968     8.0925     0.0393     2.4349
  779.0000   -16.2651    10.1955    10.4387     9.8389     0.1444     0.2621    90.7295     8.0937     0.0500     2.4387
  779.5000   -16.5663    10.1942    10.4366     9.8369     0.1420     0.2702    84.7682     8.0948     0.0619     2.4439
  780.0000   -16.7169    10.1928    10.4345     9.8349     0.1399     0.2750    77.3121     8.0960     0.0699     2.4500
  780.5000   -16.5663    10.2620    10.5051     9.8329     0.1393     0.2762    78.5257     8.0972     0.0690     2.4410
  781.0000   -16.2651    10.2606    10.5024     9.8309     0.1432     0.2684    79.1413     8.0984     0.0516     2.4306
  781.5000   -16.2651    10.2592    10.5734     9.8289     0.1495     0.2555    78.8557     8.0996     0.0382     2.4172
  782.0000   -16.1145    10.1873    10.5709     9.8270     0.1576     0.2511    77.6776     8.1008     0.0293     2.4030
  782.5000   -16.1145    10.1856    10.6420     9.8250     0.1642     0.2526    77.3964     8.1020     0.0114     2.3933
  783.0000   -16.2651    10.1842    10.6397     9.8230     0.1699     0.2620    77.4186     8.1032     0.0084     2.3904
  783.5000   -16.4157    10.1828    10.6376     9.8210     0.1726     0.2672    77.1374     8.1043     0.0265     2.3964
  784.0000   -16.5663    10.1814    10.6353     9.8189     0.1699     0.2708    75.0625     8.1205     0.0400     2.4017
  784.5000   -16.7169    10.1800    10.5596     9.8165     0.1675     0.2702    74.1790     8.1217     0.0475     2.3995
  785.0000   -16.8675    10.1787    10.4849     9.8145     0.1684     0.2690    74.7991     8.1229     0.0311     2.3988
  785.5000   -16.8675    10.1773    10.4828     9.8042     0.1680     0.2723    75.7137     8.1242     0.0222     2.4003
  786.0000   -17.1687    10.1759    10.4086     9.7919     0.1615     0.2709    77.2262     8.1256     0.0238     2.4139
  786.5000   -17.3193    10.1046    10.3350     9.7795     0.1513     0.2676    78.4398     8.1268     0.0373     2.4266
  787.0000   -17.4699    10.0337    10.2618     9.7671     0.1429     0.2688    83.2408     8.1279     0.0568     2.4386
  787.5000   -17.4699     9.9634    10.1892     9.7547     0.1417     0.2694    88.6398     8.1291     0.0689     2.4417
  788.0000   -17.4699     9.8256    10.1171     9.7424     0.1420     0.2613    90.1523     8.1303     0.0510     2.4387
  788.5000   -17.6205     9.6896    10.1151     9.7329     0.1420     0.2565    87.9584     8.1162     0.0360     2.4410
  789.0000   -18.2229     9.5552    10.0435     9.7309     0.1411     0.2583    83.8744     8.1177     0.0331     2.4433
  789.5000   -18.8253     9.4230     9.9723     9.7289     0.1369     0.2703    79.3484     8.1189     0.0451     2.4508
  790.0000   -19.2771     9.2926     9.9699     9.7269     0.1325     0.2739    78.8631     8.1201     0.0544     2.4546
  790.5000   -19.4277     9.1640     9.9679     9.7923     0.1310     0.2735    83.3696     8.1213     0.0662     2.4576
  791.0000   -19.2771     9.1628     9.9659     9.7904     0.1298     0.2724    83.9808     8.1075     0.0633     2.4584
  791.5000   -19.2771     9.0986     9.9638     9.7884     0.1286     0.2748    80.4156     8.0934     0.0783     2.4607
  792.0000   -19.2771     9.0348    10.0313     9.8543     0.1277     0.2760    81.9281     8.0799     0.0859     2.4638
  792.5000   -19.1265     9.0961    10.0288     9.9892     0.1302     0.2754    85.5333     8.0810     0.0814     2.4660
  793.0000   -18.9759     9.0949    10.0267    10.0615     0.1362     0.2760    87.6437     8.0822     0.0695     2.4601
  793.5000   -18.8253     9.1566    10.0942    10.2056     0.1410     0.2778    87.6615     8.0834     0.0591     2.4511
  794.0000   -18.6747     9.4115    10.0921    10.2627     0.1432     0.2790    86.1845     8.0996     0.0577     2.4399
  794.5000   -18.6747     9.6816    10.3681    10.2601     0.1429     0.2763    84.1096     8.1008     0.0697     2.4371
  795.0000   -18.8253    10.0114    10.6490    10.2580     0.1423     0.2736    80.2409     8.1020     0.0802     2.4393
