~VERSION INFORMATION
 VERS.                2.0:   CWLS LOG ASCII STANDARD - VERSION 2.0
 WRAP.                 NO:   ONE LINE PER DEPTH STEP
~WELL INFORMATION
#MNEM.UNIT      DATA TYPE    INFORMATION
#----------   ------------   ------------------------------
 STRT.F           18.0000:   START DEPTH
 STOP.F          576.0000:   STOP DEPTH
 STEP.F            0.5000:   STEP LENGTH
 NULL.          -999.2500:   NO VALUE
 COMP. LAWRENCE/ALLISON INC:   COMPANY
 WELL.    41-16 SX #10-10:   WELL
 FLD .             TEAPOT:   FIELD
 LOC .      S10 T38N R78W:   LOCATION
 CNTY.            NATRONA:   COUNTY
 STAT.            WYOMING:   STATE
 CTRY. UNITED STATES OF AMERICA:   COUNTRY
 SRVC.           Gearhart:   SERVICE COMPANY
 DATE.        30-JUL-1987:   LOGDATE
 API .       490251115400:   API NUMBER
~CURVE INFORMATION
#MNEM.UNIT       API CODE    CURVE DESCRIPTION
#----------   ------------   ------------------------------
 DEPT.F                  :   
 GRR .GAPI   07 310 01 00:   GAMMA RAY
 ILD .OHMM   07 120 46 00:   INDUCTION LOG DEEP
 ILM .OHMM   07 120 44 00:   INDUCTION LOG MEDIUM
~PARAMETER INFORMATION
#MNEM.UNIT          VALUE    DESCRIPTION
#----------   ------------   ------------------------------
 PD  .                 GL:   PERMANENT DATUM
 EPD .F              5253:   ELEVATION PERMANENT DATUM
 LMF .                 KB:   LOG MEASURED FROM
 DAPD.F                 8:   FEET ABOVE PERMANENT DATUM
 DMF .                 KB:   DRILLING MEASURED FROM
 EKB .F              5261:   KELLING BUSHING
 EGL .F              5253:   GROUND LEVEL
 DATE.        30-JUL-1987:   RUN DATE
 RUN .                  1:   RUN NUMBER
 DD  .F               570:   DEPTH DRILLER
 DL  .F               584:   DEPTH LOGGER
 BLI .F               576:   BOTTOM LOG INTERVAL
 TLI .F                18:   TOP LOG INTERVAL
 CS  .IN            8.625:   CASING SIZE
 CBD .F                48:   CASING BOTTOM DRILLER
 CBL .F                48:   CASING BOTTOM LOGGER
 BS  .IN            7.875:   BIT SIZE
 BSD .F               570:   BIT SIZE AT DEPTH
 TLAB.HRS            0346:   TIME LOGGER AT BOTTOM
 MRT .F                80:   MAXIMUM RECORDED TEMPERATURE
 LUN .               7597:   LOGGING UNIT NUMBER
 LUL .           GILLETTE:   LOGGING UNIT LOCATION
 ENGI. K. HUCHFELDT, R. WEATHERMON:   RECORDING ENGINEER
 WITN.    MR. GARY STRONG:   WITNESSED BY
 CLNT.            A2DTECH:   CLIENT CODE
 ORIG.         2.5" PRINT:   ORIGIN OF DATA
 UWI .       490251115400:   UNIQUE WELL ID
 DICO. A2D Technologies, Inc.:   DIGITIZING COMPANY
~OTHER INFORMATION
~A   DEPT       GRR       ILD        ILM   
# ...
  200.0000   112.3867    10.1769    10.3182
  200.5000   109.3424     9.4990    10.2497
  201.0000   106.2659     9.1917     9.0174
  201.5000   101.5374     8.9893     8.8625
  202.0000   107.3072     8.9893     8.8613
  202.5000   112.1501     8.9893     8.9154
  203.0000   114.9547     9.1133     9.1664
  203.5000   113.9245     9.4990     9.2954
  204.0000   110.8640     9.7039     9.4261
  204.5000   108.0936     9.8423     9.6189
  205.0000   107.6423    10.0376     9.6176
  205.5000   107.6526    10.0376     9.6163
  206.0000   107.6616     9.9001     9.6147
  206.5000   108.2749     9.9001     9.6134
  207.0000   109.1138     9.7646     9.4804
  207.5000   109.5015     9.4990     9.3493
  208.0000   109.5106     9.3689     9.3481
  208.5000   109.5196     8.9893     9.0926
  209.0000   111.0030     8.8662     8.8441
  209.5000   114.3877     8.6250     8.8428
  210.0000   118.3686     8.5069     8.7206
  210.5000   118.8852     8.2755     8.4822
  211.0000   115.0433     8.0505     8.3649
  211.5000   108.3673     7.8315     8.2493
  212.0000   102.9382     7.8315     8.0238
  212.5000   106.5725     8.0505     7.9128
  213.0000   110.2068     8.1652     8.0216
  213.5000   113.2369     8.3966     8.2448
  214.0000   116.2670     8.5069     8.3581
  214.5000   116.8802     8.6378     8.4742
  215.0000   118.7018     8.7610     8.5894
  215.5000   120.5234     8.8662     8.5882
  216.0000   122.9493     8.8435     8.5776
  216.5000   124.1667     8.6250     8.3523
  217.0000   124.7799     8.6250     8.2225
  217.5000   124.7888     8.7772     8.1229
  218.0000   124.7978     8.9023     8.1218
  218.5000   124.2025     9.0292     8.1429
  219.0000   123.5992     9.2851     8.3721
  219.5000   121.7794     9.4175     8.7273
  220.0000   120.5237     9.4990     8.9729
  220.5000   118.0836     9.4990     9.0992
  221.0000   115.1118     9.4990     9.1874
  221.5000   118.7463     9.4365     9.1860
  222.0000   125.7886     9.3039     9.0590
  222.5000   129.1088     9.0475     8.8868
  223.0000   127.9083     8.9893     8.7611
  223.5000   127.1611     8.9893     8.6371
  224.0000   125.7764     8.9893     8.5149
  224.5000   123.1510     8.9893     8.4496
  225.0000   120.6949     8.9893     8.4485
  225.5000   119.2780     8.9893     8.5646
  226.0000   118.2943     8.9893     8.6823
  226.5000   118.3051     8.9893     8.8016
  227.0000   119.1843     8.9893     8.8004
  227.5000   121.3041     8.9893     8.7990
  228.0000   124.3666     8.9893     8.7978
  228.5000   126.5106     8.8662     8.7966
  229.0000   128.3484     8.8662     8.6749
  229.5000   126.1259     8.8662     8.6738
  230.0000   121.9957     8.8662     8.5538
  230.5000   119.5878     8.7448     8.4355
  231.0000   120.8052     8.7448     8.3189
  231.5000   122.6268     8.6250     8.2039
  232.0000   122.0315     8.5069     8.0904
  232.5000   121.4362     8.5069     7.9785
  233.0000   118.4240     8.4961     7.8682
  233.5000   117.2236     8.2619     7.8671
  234.0000   117.2335     8.0343     7.8661
  234.5000   117.8466     7.7946     7.8650
  235.0000   119.0640     7.6185     7.8639
  235.5000   119.6772     7.4908     7.7552
  236.0000   119.6862     7.2844     7.4386
  236.5000   120.9036     7.1820     7.0362
  237.0000   121.5167     6.9841     6.7480
  237.5000   122.1299     6.9175     6.4716
  238.0000   119.6898     6.9175     6.3894
  238.5000   119.1266     6.9547     6.5672
  239.0000   122.3021     7.0538     6.6716
  239.5000   124.7120     7.2097     6.9546
  240.0000   126.4048     7.4051     7.0525
  240.5000   125.7130     7.5656     7.3517
  241.0000   124.3847     7.7800     7.4298
  241.5000   122.8057     7.8909     7.5600
  242.0000   122.6707     7.9402     7.6664
  242.5000   122.2194     8.0505     7.7404
  243.0000   122.4069     8.0505     7.7392
  243.5000   124.2447     8.0892     7.7381
  244.0000   125.6878     8.0505     7.7370
  244.5000   127.3162     8.0505     7.6300
  245.0000   128.5498     7.9402     7.5245
  245.5000   129.7835     7.8315     7.4205
  246.0000   131.0171     7.6185     7.3178
  246.5000   131.6465     7.5142     7.1669
  247.0000   131.9698     7.3098     7.0194
  247.5000   131.9789     7.2097     6.9223
  248.0000   130.3686     6.9175     6.6803
  248.5000   126.4542     6.7294     6.3708
  249.0000   124.7553     6.4567     6.1118
  249.5000   126.5786     6.1951     5.7831
  250.0000   129.6087     6.0266     5.3971
  250.5000   132.0346     5.9419     5.0368
  251.0000   132.6478     5.8627     4.7659
  251.5000   130.2398     6.0333     4.7482
  252.0000   127.2276     6.2136     5.0348
  252.5000   125.4239     6.4687     5.3195
  253.0000   124.8278     6.7443     5.6204
  253.5000   127.2544     7.1294     5.9383
  254.0000   129.6803     7.2527     6.3612
  254.5000   132.1062     7.6185     6.6290
  255.0000   133.3236     7.8605     7.0039
  255.5000   132.1241     8.0505     7.2987
  256.0000   132.1330     8.0505     7.6059
  256.5000   133.3666     8.0505     7.8174
  257.0000   135.1964     8.0505     7.9249
  257.5000   135.1007     8.0505     8.1454
  258.0000   132.1128     8.0505     8.2573
  258.5000   132.1783     8.2136     8.2634
  259.0000   132.7909     8.3904     8.3797
  259.5000   131.9868     8.5069     8.4976
  260.0000   129.5469     8.5069     8.6172
  260.5000   127.3797     8.6250     8.7196
  261.0000   127.3897     8.7448     8.6968
  261.5000   129.3806     8.8662     8.5977
  262.0000   131.2185     8.7448     8.5965
  262.5000   130.6395     8.7448     8.4777
  263.0000   127.8127     8.7448     8.4765
  263.5000   125.9929     8.7448     8.5102
  264.0000   125.8811     8.6250     8.5920
  264.5000   127.1148     8.6250     8.5906
  265.0000   128.0262     8.6250     8.7089
  265.5000   130.1863     8.6250     8.7075
  266.0000   132.0242     8.6250     8.7063
  266.5000   132.9839     8.6250     8.7051
  267.0000   133.7986     8.6250     8.6490
  267.5000   131.1347     8.5069     8.5835
  268.0000   129.9335     8.5069     8.4648
  268.5000   129.7332     8.5069     8.3477
  269.0000   129.9531     8.3889     8.2834
  269.5000   131.1705     8.1577     8.2312
  270.0000   132.3879     8.0505     8.1171
  270.5000   133.0011     7.9200     7.8953
  271.0000   134.2185     7.5936     7.7861
  271.5000   132.4147     7.2097     7.5733
  272.0000   131.8187     6.9805     7.3663
  272.5000   133.6411     6.8041     7.0668
  273.0000   135.4627     6.4567     6.6867
  273.5000   134.8674     6.1736     6.2404
  274.0000   133.6679     5.7962     5.7442
  274.5000   132.4684     5.3084     5.2150
  275.0000   131.2689     4.6180     4.8003
  275.5000   130.6416     4.1100     4.4185
  276.0000   127.6294     3.6424     3.7962
  276.5000   125.8096     3.3024     3.2615
  277.0000   125.2624     3.0299     2.8805
  277.5000   127.3263     2.8051     2.7256
  278.0000   131.0090     2.6716     2.5790
  278.5000   133.1442     2.6163     2.4403
  279.0000   127.2003     2.5990     2.3404
  279.5000   123.8097     2.6560     2.3087
  280.0000   121.9738     2.8231     2.4825
  280.5000   120.4911     3.0246     2.8566
  281.0000   129.9032     3.3773     3.3350
  281.5000   138.2669     3.7196     3.8806
  282.0000   142.2702     4.1533     4.3897
  282.5000   137.5680     4.7021     4.9625
  283.0000   134.7815     5.2504     5.3369
  283.5000   134.4441     5.7824     5.7661
  284.0000   136.7977     6.1103     6.1589
  284.5000   142.0191     6.4567     6.4451
  285.0000   142.3263     6.6372     6.6925
  285.5000   141.9970     6.7294     6.8503
  286.0000   141.3857     6.4567     6.5405
  286.5000   141.7510     6.2811     6.1867
  287.0000   142.3641     6.1103     5.9835
  287.5000   144.1858     5.9441     5.7693
  288.0000   146.0074     5.7824     5.5329
  288.5000   148.4333     5.7032     5.3800
  289.0000   150.2549     5.5420     5.2313
  289.5000   152.0765     5.4641     5.0866
  290.0000   150.2728     5.3136     5.0516
  290.5000   144.8437     5.2389     5.0509
