~VERSION INFORMATION
 VERS.                2.0:   CWLS LOG ASCII STANDARD - VERSION 2.0
 WRAP.                 NO:   ONE LINE PER DEPTH STEP
~WELL INFORMATION
#MNEM.UNIT      DATA TYPE    INFORMATION
#----------   ------------   ------------------------------
 STRT.F           86.0000:   START DEPTH
 STOP.F          770.0000:   STOP DEPTH
 STEP.F            0.5000:   STEP LENGTH
 NULL.          -999.2500:   NO VALUE
 COMP.           U S NAVY:   COMPANY
 WELL. NPR 3 TEAPOT DOM #85-S-34:   WELL
 FLD .        TEAPOT DOME:   FIELD
 LOC .      S34 T39N R78W:   LOCATION
 CNTY.            NATRONA:   COUNTY
 STAT.            WYOMING:   STATE
 CTRY. UNITED STATES OF AMERICA:   COUNTRY
 SRVC. Schlumberger Well Surveying Corp:   SERVICE COMPANY
 DATE.        31-JUL-1963:   LOGDATE
 API .       490250652800:   API NUMBER
~CURVE INFORMATION
#MNEM.UNIT       API CODE    CURVE DESCRIPTION
#----------   ------------   ------------------------------
 DEPT.F                  :   
 ASN .OHMM   05 041 16 00:   AMPLIFIED SHORT NORMAL 16"
 CILD.MMHO   05 110 46 00:   CONDUCTIVITY INDUCTION LOG DEEP
 ILD .OHMM   05 120 46 00:   INDUCTION LOG DEEP
 SPR .MV     05 010 01 00:   SPONTANEOUS POTENTIAL FROM RES.
 GR  .GAPI   30 310 01 00:   GAMMA RAY
~PARAMETER INFORMATION
#MNEM.UNIT          VALUE    DESCRIPTION
#----------   ------------   ------------------------------
 PD  .                 GL:   PERMANENT DATUM
 EPD .F              5071:   ELEVATION PERMANENT DATUM
 LMF .                 KB:   LOG MEASURED FROM
 DAPD.F                 5:   FEET ABOVE PERMANENT DATUM
 DMF .                 KB:   DRILLING MEASURED FROM
 EKB .F              5076:   KELLING BUSHING
 EGL .F              5071:   GROUND LEVEL
 DATE.        31-JUL-1963:   RUN DATE
 RUN .                  1:   RUN NUMBER
 DD  .F               770:   DEPTH DRILLER
 DL  .F               771:   DEPTH LOGGER
 BLI .F               770:   BOTTOM LOG INTERVAL
 TLI .F                86:   TOP LOG INTERVAL
 CS  .IN            8.625:   CASING SIZE
 CBD .F                10:   CASING BOTTOM DRILLER
 BS  .IN             6.75:   BIT SIZE
 BSD .F               770:   BIT SIZE AT DEPTH
 DFT .          GEL & OIL:   DRILLING FLUID TYPE
 DFD .                9.6:   DRILLING FLUID DENSITY
 DFV .                 39:   DRILLING FLUID VISCOSITY
 DFPH.                9.0:   DRILLING FLUID PH
 DFL .                8.8:   DRILLING FLUID LOSS
 MSS .           FLOWLINE:   MUD SAMPLE SOURCE
 RMS .OHMM           3.06:   RESISTIVITY MUD SAMPLE
 MST .F                94:   MUD SAMPLE TEMPERATURE
 RMF .OHMM           2.64:   RESISTIVITY MUD FILTRATE SAMPLE
 MFST.F                94:   MUD FILTRATE SAMPLE TEMPERATURE
 MFSS.               MEAS:   MUD FILTRATE SAMPLE SOURCE
 TCS .HRS               1:   TIME CURCULATED STOPPED
 MRT .F           LESS 80:   MAXIMUM RECORDED TEMPERATURE
 LUN .               4507:   LOGGING UNIT NUMBER
 LUL .               CSPR:   LOGGING UNIT LOCATION
 ENGI.            WINKLER:   RECORDING ENGINEER
 WITN.          JORGENSON:   WITNESSED BY
 CLNT.            A2DTECH:   CLIENT CODE
 ORIG.           5" PRINT:   ORIGIN OF DATA
 UWI .       490250652800:   UNIQUE WELL ID
 DICO. A2D Technologies, Inc.:   DIGITIZING COMPANY
~OTHER INFORMATION
~A   DEPT        ASN      CILD         ILD      SPR         GR   
# ...
  513.0000     9.3481   126.1830     7.8166   -31.5615  -999.2500
  513.5000     9.2380   126.1830     7.8158   -31.2537  -999.2500
  514.0000     9.1905   126.1830     7.8077   -31.2598  -999.2500
  514.5000     9.1746   126.1830     7.7359   -31.2660  -999.2500
  515.0000     9.1900   126.1830     7.7350   -31.4291  -999.2500
  515.5000     9.1739   127.7603     7.6558   -31.5923  -999.2500
  516.0000     9.0323   129.3375     7.6551   -31.5984  -999.2500
  516.5000     8.9692   130.9148     7.6543   -31.6259  -999.2500
  517.0000     8.9375   131.7035     7.6535   -31.6107  -999.2500
  517.5000     8.9058   132.4921     7.6528   -31.6195  -999.2500
  518.0000     8.9369   133.2808     7.6520   -32.5945  -999.2500
  518.5000     8.9365   133.2808     7.6512   -33.8808  -999.2500
  519.0000     8.8106   134.0694     7.6505   -34.1472  -999.2500
  519.5000     8.6690   135.6467     7.5713   -32.5850  -999.2500
  520.0000     8.5274   139.5899     7.4034   -32.2757  -999.2500
  520.5000     8.3701   143.5331     6.9426   -32.4404  -999.2500
  521.0000     8.2756   150.6309     6.6284   -32.4465  -999.2500
  521.5000     8.1654   159.3060     6.3925   -32.4527  -999.2500
  522.0000     7.9140   165.6151     6.0783   -31.9879  -999.2500
  522.5000     7.6154   167.1924     5.9208   -30.4242  -999.2500
  523.0000     7.3788   167.1924     5.9200   -29.6454  -999.2500
  523.5000     7.1438   167.1924     5.8409   -29.3376  -999.2500
  524.0000     7.2377   167.1924     5.8401   -28.8728  -999.2500
  524.5000     7.1117   167.1924     5.9177   -28.3940  -999.2500
  525.0000     7.0486   167.1924     5.9953   -28.2572  -999.2500
  525.5000     7.4722   165.6151     6.1580   -29.8348  -999.2500
  526.0000     7.8015   156.1514     6.4127   -30.1549  -999.2500
  526.5000     7.8954   146.6877     6.8549   -30.1611  -999.2500
  527.0000     7.9422   143.5331     7.0110   -30.1672  -999.2500
  527.5000     7.9734   141.9558     7.1670   -30.1734  -999.2500
  528.0000     8.0829   141.1672     7.1661   -30.3365  -999.2500
  528.5000     8.2396   141.1672     7.1653   -30.3427  -999.2500
  529.0000     8.3020   141.1672     7.1645   -30.5058  -999.2500
  529.5000     8.3017   141.1672     7.1638   -30.8260  -999.2500
  530.0000     8.3014   141.1672     7.1630   -30.8321  -999.2500
  530.5000     8.2696   141.1672     7.1622   -30.8383  -999.2500
  531.0000     8.1908   141.9558     7.1614   -30.8446  -999.2500
  531.5000     8.1591   143.5331     7.1607   -30.8509  -999.2500
  532.0000     8.1117   145.8990     7.0030   -30.7013  -999.2500
  532.5000     7.9701   148.2650     6.9238   -30.3935  -999.2500
  533.0000     7.7814   151.4196     6.6880   -29.6147  -999.2500
  533.5000     7.6085   157.7808     6.5305   -29.3054  -999.2500
  534.0000     7.4826   165.1425     6.0595   -29.9410  -999.2500
  534.5000     7.3567   184.5426     5.3534   -30.7321  -999.2500
  535.0000     7.1523   194.7950     4.8040   -31.5232  -999.2500
  535.5000     6.7574   203.4700     4.8033   -31.8434  -999.2500
  536.0000     6.3594   205.0473     4.8025   -31.8495  -999.2500
  536.5000     6.0886   203.4700     4.8017   -31.6986  -999.2500
  537.0000     6.0050   199.5268     4.8009   -31.3899  -999.2500
  537.5000     6.1617   198.7382     4.8002   -29.9582  -999.2500
  538.0000     6.0671   197.1609     4.8776   -30.0660  -999.2500
  538.5000     6.3023   193.9006     5.0336   -31.7249  -999.2500
  539.0000     6.9927   183.9123     5.5814   -32.5160  -999.2500
  539.5000     7.4477   162.4606     6.2860   -32.8361  -999.2500
  540.0000     7.7300   149.0536     6.9121   -32.8423  -999.2500
  540.5000     8.0279   141.9558     7.3032   -30.9646  -999.2500
  541.0000     8.1061   138.8013     7.3025   -30.3413  -999.2500
  541.5000     8.1686   138.0126     7.3017   -30.0350  -999.2500
  542.0000     8.3121   137.2240     7.3009   -30.3551  -999.2500
  542.5000     8.5332   136.4353     7.3785   -30.2041  -999.2500
  543.0000     8.6386   134.8580     7.4561   -30.3675  -999.2500
  543.5000     8.7638   133.2547     7.5337   -30.3742  -999.2500
  544.0000     8.9519   130.7041     7.6113   -30.8509  -999.2500
  544.5000     9.0145   127.7603     7.6104   -30.6756  -999.2500
  545.0000     9.0612   127.7603     7.6882   -30.3921  -999.2500
  545.5000     9.1237   127.7603     7.7658   -30.0843  -999.2500
  546.0000     9.2333   127.7603     7.7648   -30.0920  -999.2500
  546.5000     9.4056   127.7603     7.9210   -30.2551  -999.2500
  547.0000     9.4838   126.1830     7.9200   -31.0462  -999.2500
  547.5000     9.5463   124.6057     7.9976   -31.9943  -999.2500
  548.0000     9.5619   122.2397     8.0752   -32.3144  -999.2500
  548.5000     9.6114   121.4511     7.9961   -32.1621  -999.2500
  549.0000     9.7051   121.4511     7.9953   -32.0126  -999.2500
  549.5000     9.7178   121.4511     7.9944   -31.8619  -999.2500
  550.0000     9.7174   122.2437     7.9152   -31.7111    82.9136
  550.5000     9.6697   123.0792     8.0696   -30.4643    78.8793
  551.0000     9.5748   122.3258     8.1462   -29.5302    81.9936
  551.5000     9.4800   121.5841     8.2223   -29.2239    82.3103
  552.0000     9.3538   121.6427     8.2978   -29.2317    85.1124
  552.5000     9.1177   120.9010     8.2954   -29.2395    89.0045
  553.0000     9.0857   120.9479     8.2931   -29.2472    89.4980
  553.5000     9.0036   120.9949     8.2124   -29.4120    90.7242
  554.0000     8.8119   121.8304     8.0533   -29.2608    90.7302
  554.5000     8.6360   125.8206     7.8942   -29.2705    91.0469
  555.0000     8.3453   131.3880     7.7247   -29.1193    89.8102
  555.5000     8.0464   139.4009     7.4835   -28.9717    84.3793
  556.0000     7.6219   149.7788     7.1030   -28.9798    86.2494
  556.5000     7.1503   159.3690     6.6305   -28.9876    85.4446
  557.0000     6.7101   173.0077     5.8444   -28.9953    84.5541
  557.5000     6.0816   197.2160     4.9800   -29.0083    83.7834
  558.0000     5.7042   249.9778     3.9589   -29.6641    80.8380
  558.5000     5.2326   286.3024     3.1729   -30.2747    80.9994
  559.0000     4.6197   344.7089     2.7003   -30.7807    83.9568
  559.5000     4.1168   394.4404     2.3845   -31.2339    84.2952
  560.0000     3.8179   463.0993     2.2255   -31.2416    83.9688
  560.5000     3.4719   485.2283     2.0664   -29.6795    81.8016
  561.0000     3.2672   493.9503     2.1430   -28.4314    76.5260
  561.5000     3.2504   489.2653     2.2191   -27.4972    78.0854
  562.0000     3.3453   453.8233     2.2162   -26.7201    78.0915
  562.5000     3.4707   425.4791     2.5273   -25.9429    82.7577
  563.0000     3.5181   375.0528     2.9169   -25.4797    83.2297
  563.5000     3.9076   313.5855     3.6982   -25.6444    83.5500
  564.0000     4.7547   267.8911     4.4012   -27.6930    84.3291
  564.5000     5.3349   209.5784     5.1089   -29.1136    79.9871
  565.0000     5.8209   176.5023     5.7393   -29.7493    79.3702
  565.5000     6.4483   160.7764     6.2056   -29.6001    79.6884
  566.0000     6.9500   147.4164     6.5863   -29.4509    79.0716
  566.5000     7.1692   145.0856     6.8191   -29.7726    83.1179
  567.0000     7.2313   145.1443     6.8951   -30.7223    84.3666
  567.5000     7.2778   145.1912     6.8922   -31.6720    85.2039
  568.0000     7.3243   146.0268     6.8899   -31.9937    86.8656
  568.5000     7.2923   146.0737     6.8876   -32.4820    85.0075
  569.0000     7.2289   146.1207     6.8853   -32.7943    84.7013
  569.5000     7.2263   146.1676     6.8829   -31.6071    85.1734
  570.0000     7.2904   147.0032     6.7239   -29.5149    85.3362
  570.5000     7.3526   150.2579     6.5648   -28.8928    81.3802
  571.0000     7.3834   157.5074     6.2490   -28.5866    84.1055
  571.5000     7.3779   169.6212     5.8548   -28.2803    83.6455
  572.0000     7.1573   182.3137     5.5390   -27.9741    87.0705
  572.5000     6.8476   193.2436     5.2232   -27.6699    90.3386
  573.0000     6.3760   200.9242     4.9858   -27.6776    92.9854
  573.5000     6.0771   208.8576     4.8267   -27.3714    91.9041
