~VERSION INFORMATION
 VERS.                2.0:   CWLS LOG ASCII STANDARD - VERSION 2.0
 WRAP.                 NO:   ONE LINE PER DEPTH STEP
~WELL INFORMATION
#MNEM.UNIT      DATA TYPE    INFORMATION
#----------   ------------   ------------------------------
 STRT.F            0.0000:   START DEPTH
 STOP.F          652.0000:   STOP DEPTH
 STEP.F            0.5000:   STEP LENGTH
 NULL.          -999.2500:   NO VALUE
 COMP. US DEPTMNT OF ENRGY:   COMPANY
 WELL. NPR ##3 14-14-SX-11:   WELL
 FLD .   TEAPOT NAVAL RES:   FIELD
 LOC .      S11 T38N R78W:   LOCATION
 CNTY.            NATRONA:   COUNTY
 STAT.            WYOMING:   STATE
 CTRY. UNITED STATES OF AMERICA:   COUNTRY
 SRVC.            Unknown:   SERVICE COMPANY
 DATE.        03-JAN-1985:   LOGDATE
 API .       490251102400:   API NUMBER
~CURVE INFORMATION
#MNEM.UNIT       API CODE    CURVE DESCRIPTION
#----------   ------------   ------------------------------
 DEPT.F                  :   
 CALD.IN     45 280 60 00:   CALIPER
 CORR.G/C3   45 356 01 00:   DENSITY CORRECTION
 PORD.DEC    45 890 12 00:   DENSITY POROSITY SANDSTONE
 CNC .DEC    42 890 03 00:   NEUTRON POROSITY SANDSTONE
 SPR .MV     11 010 01 00:   SPONTANEOUS POTENTIAL FROM RES.
 GRR .GAPI   11 310 01 00:   GAMMA RAY FROM RES.
 RS  .OHMM   11 220 09 00:   RESISTIVITY SHALLOW
 RD  .OHMM   11 220 10 00:   RESISTIVITY DEEP
 DEN .G/C3   45 350 01 00:   COMPENSATED BULK DENSTIY
~PARAMETER INFORMATION
#MNEM.UNIT          VALUE    DESCRIPTION
#----------   ------------   ------------------------------
 PD  .                 GL:   PERMANENT DATUM
 EPD .F            5197.3:   ELEVATION PERMANENT DATUM
 LMF .                 KB:   LOG MEASURED FROM
 DMF .                 KB:   DRILLING MEASURED FROM
 EKB .F            5197.3:   KELLING BUSHING
 EGL .F            5197.3:   GROUND LEVEL
 DATE.         3-JAN-1985:   RUN DATE
 RUN .                  1:   RUN NUMBER
 DD  .F               650:   DEPTH DRILLER
 DL  .F               653:   DEPTH LOGGER
 BLI .F               651:   BOTTOM LOG INTERVAL
 CS  .IN            8.625:   CASING SIZE
 CBD .F                20:   CASING BOTTOM DRILLER
 CBL .F                20:   CASING BOTTOM LOGGER
 BS  .IN             6.25:   BIT SIZE
 BSD .F               650:   BIT SIZE AT DEPTH
 DFT .                KCL:   DRILLING FLUID TYPE
 RMS .OHMM            .12:   RESISTIVITY MUD SAMPLE
 MST .F                70:   MUD SAMPLE TEMPERATURE
 RMF .OHMM            .09:   RESISTIVITY MUD FILTRATE SAMPLE
 MFST.F                70:   MUD FILTRATE SAMPLE TEMPERATURE
 RMC .OHMM            .15:   RESISTIVITY MUD CAKE
 MCST.F                70:   MUD CAKE SAMPLE TEMPERATURE
 MFSS.               CALC:   MUD FILTRATE SAMPLE SOURCE
 MCSS.               CALC:   MUD CAKE SAMPLE SOURCE
 RMB .OHMM             .1:   RESISTIVITY MUD AT BHT
 BHT .F                80:   BOTTOM HOLE TEMPERATURE
 TCS .HRS               3:   TIME CURCULATED STOPPED
 MRT .F                80:   MAXIMUM RECORDED TEMPERATURE
 LUN .               6274:   LOGGING UNIT NUMBER
 LUL .               GLTE:   LOGGING UNIT LOCATION
 ENGI.               MACK:   RECORDING ENGINEER
 WITN.               PAGE:   WITNESSED BY
 CLNT.            A2DTECH:   CLIENT CODE
 ORIG.       2", 5" PRINT:   ORIGIN OF DATA
 UWI .       490251102400:   UNIQUE WELL ID
 DICO. A2D Technologies, Inc.:   DIGITIZING COMPANY
~OTHER INFORMATION
~A    DEPT    CALD       CORR       PORD        CNC        SPR         GRR        RS         RD        DEN   
# ...
  182.5000     6.5367     0.0312     0.1084     0.2928   -56.6158   118.2382     9.4952    15.6774     2.4933
  183.0000     6.5369     0.0225     0.1083     0.2866   -56.6751   120.8331     9.6541    15.7371     2.4961
  183.5000     6.5370     0.0135     0.1107     0.2791   -56.7341   122.9866     9.5134    15.7371     2.4949
  184.0000     6.5372     0.0201     0.1117     0.2767   -56.7913   121.8105     9.3908    15.7373     2.4896
  184.5000     6.5373     0.0292     0.1097     0.2788   -56.7351   114.2521     9.4177    15.7371     2.4929
  185.0000     6.5374     0.0382     0.1091     0.2850   -56.5219   112.2087     9.4526    15.7371     2.4975
  185.5000     6.5376     0.0473     0.1120     0.2876   -56.3113   115.5130     9.4878    15.7374     2.4939
  186.0000     6.5377     0.0434     0.1145     0.2869   -56.0968   118.9271     9.5229    15.7364     2.4880
  186.5000     6.5378     0.0402     0.1155     0.2863   -56.0692   121.2924     9.5652    15.7389     2.4841
  187.0000     6.5380     0.0470     0.1168     0.2876   -56.1344   121.2910     9.4905    15.5673     2.4821
  187.5000     6.5381     0.0538     0.1191     0.2900   -56.2009   119.4572     9.3971    15.3996     2.4800
  188.0000     6.5382     0.0545     0.1229     0.2914   -56.3017   116.4516     9.3043    15.2326     2.4738
  188.5000     6.5384     0.0430     0.1268     0.2882   -56.4176   113.3931     9.2124    15.0677     2.4671
  189.0000     6.5385     0.0222     0.1294     0.2851   -56.5344   112.5496     9.1215    14.9045     2.4604
  189.5000     6.5387    -0.0013     0.1318     0.2926   -56.6512   115.5664     9.0258    14.7430     2.4551
  190.0000     6.5388    -0.0061     0.1302     0.3004   -56.7680   118.5984     8.9105    14.5579     2.4592
  190.5000     6.5389     0.0011     0.1279     0.3117   -56.8848   120.8054     8.7967    14.2860     2.4630
  191.0000     6.5391     0.0082     0.1284     0.3261   -57.0019   119.4219     8.6843    14.0191     2.4627
  191.5000     6.5392     0.0154     0.1282     0.3186   -57.1193   118.7667     8.5734    13.7573     2.4622
  192.0000     6.5393     0.0213     0.1273     0.3078   -57.2229   120.9709     8.4638    13.5003     2.4630
  192.5000     6.5395     0.0073     0.1267     0.2975   -57.1633   123.9296     8.3557    13.2481     2.4640
  193.0000     6.5396    -0.0049     0.1269     0.2911   -57.1015   124.1060     8.2542    13.2084     2.4641
  193.5000     6.5397     0.0044     0.1267     0.2848   -57.0405   121.8080     8.3174    13.2084     2.4642
  194.0000     6.5399     0.0227     0.1237     0.2803   -56.9796   117.9136     8.5630    13.3240     2.4700
  194.5000     6.5400     0.0606     0.1208     0.2855   -56.9187   114.0043     8.8442    13.7946     2.4767
  195.0000     6.5401     0.0575     0.1204     0.2781   -56.8579   112.8536     9.1356    14.2818     2.4774
  195.5000     6.5403     0.0517     0.1222     0.2745   -56.7970   114.6404     9.4771    14.7536     2.4727
  196.0000     6.5404     0.0425     0.1239     0.2910   -56.7361   118.4887     9.3522    14.5703     2.4679
  196.5000     6.5404     0.0268     0.1251     0.3058   -56.6753   121.8039     9.2090    14.3610     2.4666
  197.0000     6.5401     0.0110     0.1204     0.3030   -56.6144   122.4608     9.0680    14.0889     2.4753
  197.5000     6.5398     0.0116     0.1163     0.3038   -56.5535   121.1134     8.9677    14.1540     2.4847
  198.0000     6.5395     0.0166     0.1143     0.3118   -56.4930   117.9034     9.0465    14.2506     2.4865
  198.5000     6.5392     0.0217     0.1151     0.3182   -56.4355   113.0428     9.1202    14.3480     2.4842
  199.0000     6.5389     0.0268     0.1159     0.3100   -56.3083   109.5625     9.1944    14.4461     2.4821
  199.5000     6.5387     0.0320     0.1138     0.3001   -56.1770   107.0815     9.2692    14.5448     2.4841
  200.0000     6.5384     0.0427     0.1108     0.2911   -56.0454   109.5727     9.3446    14.6442     2.4929
  200.5000     6.5381     0.0597     0.1058     0.2952   -55.9154   112.3385     9.4207    14.7536     2.5019
  201.0000     6.5378     0.0495     0.1048     0.2982   -55.7964   114.9316     9.4971    14.6258     2.5029
  201.5000     6.5375     0.0358     0.1107     0.2958   -55.7106   115.2002     9.5653    14.4864     2.4944
  202.0000     6.5373     0.0342     0.1150     0.2875   -55.6237   114.3848     9.4597    14.3478     2.4850
  202.5000     6.5370     0.0323     0.1187     0.2880   -55.5371   111.3723     9.3688    14.2107     2.4779
  203.0000     6.5367     0.0306     0.1190     0.2887   -55.4506   112.8336     9.2187    14.0751     2.4777
  203.5000     6.5364     0.0334     0.1193     0.2859   -55.3640   117.8685     9.2290    13.9596     2.4772
  204.0000     6.5361     0.0365     0.1207     0.2817   -55.2772   119.4529     9.2701    13.8674     2.4760
  204.5000     6.5358     0.0351     0.1242     0.2843   -55.1627   115.9682     9.2940    13.7443     2.4700
  205.0000     6.5356     0.0271     0.1277     0.2864   -54.9976   112.4798     9.3046    13.6221     2.4641
  205.5000     6.5353     0.0192     0.1312     0.2844   -54.8331   110.5739     9.0820    13.5003     2.4582
  206.0000     6.5350     0.0113     0.1347     0.2835   -54.6687   110.0393     8.8854    13.3814     2.4524
  206.5000     6.5347     0.0034     0.1382     0.2835   -54.5042   112.1152     8.9905    13.2084     2.4480
  207.0000     6.5344     0.0030     0.1355     0.2817   -54.3397   114.7563     9.1763    13.4631     2.4520
  207.5000     6.5341     0.0035     0.1326     0.2787   -54.1752   117.4505     9.3660    13.6834     2.4578
  208.0000     6.5339     0.0041     0.1322     0.2757   -54.0109   117.5944     9.5596    13.9073     2.4563
  208.5000     6.5336     0.0054     0.1335     0.2747   -53.8490   116.3501     9.7572    14.1349     2.4523
  209.0000     6.5333     0.0082     0.1348     0.2776   -53.6552   115.7530     9.9589    14.3662     2.4521
  209.5000     6.5330     0.0110     0.1343     0.2777   -53.4589   115.4988    10.1647    14.6013     2.4521
  210.0000     6.5327     0.0139     0.1327     0.2742   -53.2623   113.0309    10.3047    14.8402     2.4553
  210.5000     6.5324     0.0186     0.1300     0.2719   -53.0658   110.7607    10.4307    15.0282     2.4608
  211.0000     6.5322     0.0255     0.1265     0.2723   -52.8695   111.1478    10.5581    15.2612     2.4681
  211.5000     6.5319     0.0324     0.1205     0.2723   -52.6742   112.2342    10.6871    15.4920     2.4784
  212.0000     6.5316     0.0363     0.1164     0.2658   -52.4727   113.0883    10.8177    15.7261     2.4836
  212.5000     6.5313     0.0334     0.1141     0.2636   -52.3171   111.0214    10.9499    15.9639     2.4859
  213.0000     6.5310     0.0306     0.1126     0.2752   -52.0284   109.0679    11.0837    16.2052     2.4877
  213.5000     6.5307     0.0277     0.1118     0.2815   -51.6521   108.3833    11.2184    16.4501     2.4895
  214.0000     6.5305     0.0135     0.1140     0.2722   -51.2792   107.5946    11.2935    16.6988     2.4861
  214.5000     6.5302     0.0088     0.1175     0.2592   -50.9044   105.0669    11.5171    16.9513     2.4804
  215.0000     6.5299     0.0307     0.1175     0.2592   -50.5305   103.7482    11.7337    17.2075     2.4831
  215.5000     6.5296     0.0527     0.1134     0.2657   -50.1673   105.6337    11.9536    17.4676     2.4892
  216.0000     6.5293     0.0754     0.1096     0.2780   -49.9215   106.8581    12.1765    17.7317     2.4953
  216.5000     6.5290     0.0725     0.1084     0.2871   -49.6692   103.6572    12.3849    17.9997     2.4946
  217.0000     6.5288     0.0554     0.1153     0.2871   -49.4167   101.7467    12.5785    18.4075     2.4847
  217.5000     6.5285     0.0379     0.1217     0.2622   -49.1729   102.3130    12.8481    18.3273     2.4750
  218.0000     6.5282     0.0206     0.1238     0.2449   -48.9857   102.8386    12.7679    18.1701     2.4680
  218.5000     6.5279     0.0058     0.1223     0.2461   -48.7955   103.3762    12.6130    18.0143     2.4704
