~VERSION INFORMATION
 VERS.                2.0:   CWLS LOG ASCII STANDARD - VERSION 2.0
 WRAP.                 NO:   ONE LINE PER DEPTH STEP
~WELL INFORMATION
#MNEM.UNIT      DATA TYPE    INFORMATION
#----------   ------------   ------------------------------
 STRT.F           30.0000:   START DEPTH
 STOP.F          750.0000:   STOP DEPTH
 STEP.F            0.5000:   STEP LENGTH
 NULL.          -999.2500:   NO VALUE
 COMP. FENIX & SCISSON INC:   COMPANY
 WELL. TEAPOT DOME SX #38-11:   WELL
 FLD .             TEAPOT:   FIELD
 LOC .      S11 T38N R78W:   LOCATION
 CNTY.            NATRONA:   COUNTY
 STAT.            WYOMING:   STATE
 CTRY. UNITED STATES OF AMERICA:   COUNTRY
 SRVC.            Unknown:   SERVICE COMPANY
 DATE.        23-FEB-1978:   LOGDATE
 API .       490251058200:   API NUMBER
~CURVE INFORMATION
#MNEM.UNIT       API CODE    CURVE DESCRIPTION
#----------   ------------   ------------------------------
 DEPT.F                  :   
 CALD.IN     45 280 60 00:   CALIPER FROM DENSITY LOG
 GRD .GAPI   45 310 01 00:   GAMMA RAY FROM DENSITY LOG
 RHOB.G/C3   45 350 01 00:   BULK DENSITY
 DPHI.DEC    45 890 12 00:   DENSITY POROSITY SANDSTONE
 CORR.G/C3   45 356 01 00:   DENSITY CORRECTION
 SPR .MV     07 010 01 00:   SPONTANEOUS POTENTIAL FROM RES. LOG
 SN  .OHMM   07 040 16 00:   SHORT NORMAL 16'
 ILD .OHMM   07 120 46 00:   INDUCTION LOG DEEP
~PARAMETER INFORMATION
#MNEM.UNIT          VALUE    DESCRIPTION
#----------   ------------   ------------------------------
 PD  .                 GL:   PERMANENT DATUM
 EPD .F              5204:   ELEVATION PERMANENT DATUM
 LMF .                 KB:   LOG MEASURED FROM
 DAPD.F                 4:   FEET ABOVE PERMANENT DATUM
 DMF .                 KB:   DRILLING MEASURED FROM
 EKB .F              5208:   KELLING BUSHING
 EGL .F              5204:   GROUND LEVEL
 DATE.            2-23-78:   RUN DATE
 RUN .                  1:   RUN NUMBER
 DD  .F               755:   DEPTH DRILLER
 DL  .F               751:   DEPTH LOGGER
 BLI .F               745:   BOTTOM LOG INTERVAL
 TLI .F                45:   TOP LOG INTERVAL
 CS  .IN            8.625:   CASING SIZE
 CBD .F                40:   CASING BOTTOM DRILLER
 CBL .F                40:   CASING BOTTOM LOGGER
 BS  .IN            7.875:   BIT SIZE
 BSD .F               755:   BIT SIZE AT DEPTH
 DFT .         LIGNO SULF:   DRILLING FLUID TYPE
 DFD .                8.7:   DRILLING FLUID DENSITY
 DFV .                 33:   DRILLING FLUID VISCOSITY
 DFPH.                 10:   DRILLING FLUID PH
 DFL .                  4:   DRILLING FLUID LOSS
 MSS .          FLOW LINE:   MUD SAMPLE SOURCE
 RMS .OHMM              2:   RESISTIVITY MUD SAMPLE
 MST .F                60:   MUD SAMPLE TEMPERATURE
 RMF .OHMM            1.9:   RESISTIVITY MUD FILTRATE SAMPLE
 MFST.F                62:   MUD FILTRATE SAMPLE TEMPERATURE
 RMC .OHMM            3.5:   RESISTIVITY MUD CAKE
 MCST.F                60:   MUD CAKE SAMPLE TEMPERATURE
 MFSS.               MEAS:   MUD FILTRATE SAMPLE SOURCE
 MCSS.               MEAS:   MUD CAKE SAMPLE SOURCE
 RMB .OHMM           1.69:   RESISTIVITY MUD AT BHT
 BHT .F                71:   BOTTOM HOLE TEMPERATURE
 TCS .HRS               3:   TIME CURCULATED STOPPED
 MRT .F                71:   MAXIMUM RECORDED TEMPERATURE
 LUN .               2958:   LOGGING UNIT NUMBER
 LUL .               CASP:   LOGGING UNIT LOCATION
 ENGI.            POINTER:   RECORDING ENGINEER
 WITN.           MCGINLEY:   WITNESSED BY
 CLNT.            A2DTECH:   CLIENT CODE
 ORIG.       2", 5" PRINT:   ORIGIN OF DATA
 UWI .       490251058200:   UNIQUE WELL ID
 DICO. A2D Technologies, Inc.:   DIGITIZING COMPANY
~OTHER INFORMATION
~A   DEPT     CALD         GRD      RHOB       DPHI       CORR        SPR         SN        ILD   
# ...
  637.5000     8.0910    71.8972     2.2861     0.2163     0.0455   -49.5010    20.9626    19.0102
  638.0000     8.0705    74.7886     2.2964     0.2043     0.0523   -49.9014    20.8409    18.5972
  638.5000     8.0244    79.1436     2.3046     0.1952     0.0586   -49.4295    20.7198    18.0843
  639.0000     7.9790    80.1349     2.3265     0.1864     0.0608   -48.7363    20.5163    17.5856
  639.5000     7.9609    78.9570     2.3403     0.1777     0.0623   -48.0373    20.2242    17.3343
  640.0000     7.9807    75.5281     2.3544     0.1687     0.0616   -47.7815    19.9079    17.0101
  640.5000     8.0003    74.6078     2.3681     0.1687     0.0411   -47.9900    19.7745    16.6536
  641.0000     8.0405    77.1762     2.3733     0.1906     0.0159   -48.0975    19.4954    16.3045
  641.5000     8.1114    77.4937     2.3369     0.2067     0.0119   -47.2784    19.0923    15.9627
  642.0000     8.1824    78.0728     2.3085     0.1996     0.0234   -46.1236    18.6976    15.7634
  642.5000     8.2075    79.0642     2.3161     0.1938     0.0309   -45.9090    18.3110    15.6373
  643.0000     8.2030    78.8308     2.3258     0.1890     0.0276   -45.7047    17.9324    15.5121
  643.5000     8.1983    76.3231     2.3350     0.1959     0.0228   -45.9522    17.5616    15.3880
  644.0000     8.1934    75.5798     2.3409     0.2002     0.0272   -46.2879    17.3343    15.2648
  644.5000     8.1886    77.9198     2.3159     0.1960     0.0320   -45.6102    17.4447    15.1427
  645.0000     8.1838    80.2843     2.3288     0.1916     0.0280   -45.7821    17.5270    15.0456
  645.5000     8.1789    80.5753     2.3370     0.1886     0.0217   -46.3029    17.6093    15.2110
  646.0000     8.1743    80.4616     2.3393     0.1971     0.0154   -46.8329    17.6915    15.3296
  646.5000     8.1756    81.1277     2.3286     0.2034     0.0131   -47.3636    17.7741    15.4492
  647.0000     8.1914    83.2478     2.3156     0.2078     0.0209   -47.8882    17.8209    15.5171
  647.5000     8.2066    85.7852     2.3095     0.1988     0.0283   -48.1930    17.6058    15.4565
  648.0000     8.2218    87.9852     2.3280     0.1872     0.0357   -47.6941    17.4339    15.4136
  648.5000     8.2370    88.0970     2.3350     0.1735     0.0409   -47.2185    17.2637    15.3762
  649.0000     8.2507    87.8518     2.3559     0.1691     0.0386   -46.8735    17.0189    15.2320
  649.5000     8.2529    86.2494     2.3726     0.1780     0.0361   -47.0031    16.6949    15.0716
  650.0000     8.2549    82.9878     2.3676     0.1760     0.0349   -47.1254    16.3771    14.9122
  650.5000     8.2570    80.5665     2.3598     0.1751     0.0367   -47.2569    16.1006    14.7544
  651.0000     8.2591    80.4685     2.3619     0.1671     0.0413   -47.0254    16.1006    14.5984
  651.5000     8.2612    80.6152     2.3692     0.1585     0.0507   -46.5845    16.2064    14.4439
  652.0000     8.2633    83.1316     2.3930     0.1520     0.0389   -45.6985    16.2865    14.2912
  652.5000     8.2654    83.1598     2.4117     0.1599     0.0212   -44.8262    16.4037    14.1401
  653.0000     8.2676    83.2625     2.3902     0.1683     0.0279   -43.9613    16.4043    13.9924
  653.5000     8.2697    85.6542     2.3739     0.1649     0.0362   -43.5943    15.8236    13.8557
  654.0000     8.2718    90.8036     2.3813     0.1618     0.0410   -43.9688    15.2614    13.7202
  654.5000     8.2739    91.7041     2.3927     0.1588     0.0312   -44.3343    14.9547    13.5860
  655.0000     8.2760    87.1006     2.3963     0.1669     0.0168   -44.2732    15.0539    13.4531
  655.5000     8.2781    88.3486     2.3814     0.1644     0.0221   -43.8881    15.0934    13.3215
  656.0000     8.2802    90.5009     2.3772     0.1597     0.0327   -43.5100    14.3338    13.1911
  656.5000     8.2823    89.3848     2.3887     0.1549     0.0425   -43.3141    14.2803    13.0621
  657.0000     8.2844    88.2644     2.4214     0.1502     0.0381   -43.5546    14.2803    12.9343
  657.5000     8.2865    87.9326     2.4559     0.1454     0.0163   -43.6307    14.2803    12.8078
  658.0000     8.2886    87.2291     2.4416     0.1429    -0.0055   -42.9509    14.0664    12.6826
  658.5000     8.2907    87.3930     2.4066     0.1688    -0.0046   -42.2526    13.8426    12.5585
  659.0000     8.2928    87.0356     2.3718     0.1699     0.0083   -42.4704    13.6224    12.4342
  659.5000     8.2949    86.7561     2.3691     0.1682     0.0206   -42.7668    13.4056    12.2659
  660.0000     8.2970    87.0538     2.3708     0.1675     0.0205   -43.0618    13.1923    12.0979
  660.5000     8.2991    88.0446     2.3692     0.1693     0.0199   -43.3555    12.9824    11.9323
  661.0000     8.3012    87.6400     2.3756     0.1715     0.0193   -43.6450    12.7759    11.7689
  661.5000     8.3033    85.3493     2.3780     0.1737     0.0198   -43.8595    12.6456    11.6077
  662.0000     8.3054    83.0650     2.3584     0.1759     0.0241   -43.6148    12.6017    11.4487
  662.5000     8.3075    81.9069     2.3639     0.1743     0.0294   -43.2900    12.5581    11.3329
  663.0000     8.3096    82.3434     2.3748     0.1723     0.0304   -42.9624    12.5145    11.3156
  663.5000     8.3129    82.3490     2.3780     0.1707     0.0287   -42.6384    12.4711    11.2986
  664.0000     8.3165    81.3164     2.3766     0.1671     0.0271   -42.4612    12.4279    11.2816
  664.5000     8.3202    80.4693     2.3654     0.1635     0.0317   -42.6002    12.3848    11.2646
  665.0000     8.3239    80.5554     2.3584     0.1615     0.0367   -42.7341    12.3419    11.2476
  665.5000     8.3273    80.6476     2.3715     0.1610     0.0360   -42.8680    12.2991    11.2306
  666.0000     8.3240    80.7379     2.3832     0.1606     0.0282   -43.0015    12.2564    11.2136
  666.5000     8.3013    80.8443     2.3772     0.1602     0.0253   -42.9374    12.2140    11.1967
  667.0000     8.2793    80.2565     2.3725     0.1597     0.0258   -42.7170    12.1716    11.1798
  667.5000     8.2567    79.4114     2.3768     0.1595     0.0264   -42.4904    12.1294    11.1629
  668.0000     8.2489    78.5490     2.3811     0.1594     0.0269   -42.4707    12.0873    11.1460
  668.5000     8.2463    78.9438     2.3819     0.1593     0.0269   -42.5640    12.0451    11.1293
  669.0000     8.2438    81.6466     2.3815     0.1591     0.0273   -42.6582    12.0084    11.0525
  669.5000     8.2414    84.2757     2.3810     0.1590     0.0304   -42.7531    11.8735    10.9812
  670.0000     8.2389    84.9984     2.3860     0.1589     0.0336   -42.8341    11.7570    10.9104
  670.5000     8.2365    85.3560     2.3952     0.1588     0.0367   -42.6519    11.6324    10.8401
  671.0000     8.2340    85.5194     2.4046     0.1584     0.0344   -42.4613    11.5089    10.7697
  671.5000     8.2314    85.0037     2.4100     0.1581     0.0297   -42.2719    11.3874    10.7207
  672.0000     8.2347    84.6556     2.4204     0.1577     0.0250   -42.0829    11.3192    10.6825
  672.5000     8.2409    85.7428     2.4214     0.1574     0.0209   -41.8937    11.2892    10.6452
  673.0000     8.2473    86.8408     2.4209     0.1547     0.0199   -41.7051    11.2587    10.6078
  673.5000     8.2536    86.8526     2.4214     0.1500     0.0162   -41.5151    11.2283    10.5706
  674.0000     8.2599    86.6428     2.4218     0.1454     0.0130   -41.4236    11.1980    10.5335
  674.5000     8.2662    87.0583     2.4177     0.1428     0.0157   -41.4056    11.1677    10.4965
  675.0000     8.2725    87.6071     2.4129     0.1418     0.0212   -41.3890    11.1376    10.4594
  675.5000     8.2788    87.8244     2.4142     0.1407     0.0266   -41.3726    11.1075    10.4250
  676.0000     8.2851    89.3359     2.4187     0.1397     0.0320   -41.3561    11.0775    10.3936
  676.5000     8.2908    91.8072     2.4305     0.1341     0.0348   -41.3395    11.0476    10.3628
  677.0000     8.2926    92.8919     2.4368     0.1309     0.0349   -41.3230    11.0286    10.3320
  677.5000     8.2945    91.4895     2.4422     0.1286     0.0358   -41.3064    11.0758    10.3013
