~VERSION INFORMATION
 VERS.                2.0:   CWLS LOG ASCII STANDARD - VERSION 2.0
 WRAP.                 NO:   ONE LINE PER DEPTH STEP
~WELL INFORMATION
#MNEM.UNIT      DATA TYPE    INFORMATION
#----------   ------------   ------------------------------
 STRT.F           28.0000:   START DEPTH
 STOP.F          791.0000:   STOP DEPTH
 STEP.F            0.5000:   STEP LENGTH
 NULL.          -999.2500:   NO VALUE
 COMP. LAWRENCE/ALLISON INC:   COMPANY
 WELL.    34-61 SX #11-11:   WELL
 FLD .             TEAPOT:   FIELD
 LOC .      S11 T38N R78W:   LOCATION
 CNTY.            NATRONA:   COUNTY
 STAT.            WYOMING:   STATE
 CTRY. UNITED STATES OF AMERICA:   COUNTRY
 SRVC.           Gearhart:   SERVICE COMPANY
 DATE.        29-JUL-1987:   LOGDATE
 API .       490251112500:   API NUMBER
~CURVE INFORMATION
#MNEM.UNIT       API CODE    CURVE DESCRIPTION
#----------   ------------   ------------------------------
 DEPT.F                  :   
 GRR .GAPI   07 310 01 00:   GAMMA RAY FROM RESISTIVITY
 RILD.OHMM   07 120 46 00:   RESISTIVITY INDUCTION LOG DEEP
 RILM.OHMM   07 120 44 00:   RESISTIVITY INDUCTION LOG MEDIUM
 RLL .OHMM   07 220 00 00:   RESISTIVITY LATEROLOG
~PARAMETER INFORMATION
#MNEM.UNIT          VALUE    DESCRIPTION
#----------   ------------   ------------------------------
 PD  .                 GL:   PERMANENT DATUM
 EPD .F              5172:   ELEVATION PERMANENT DATUM
 LMF .                 KB:   LOG MEASURED FROM
 DAPD.F                 7:   FEET ABOVE PERMANENT DATUM
 DMF .                 KB:   DRILLING MEASURED FROM
 EKB .F              5180:   KELLING BUSHING
 EDF .F              5178:   DRILLING FLOOR
 EGL .F              5172:   GROUND LEVEL
 DATE.        29-JUL-1987:   RUN DATE
 RUN .                  1:   RUN NUMBER
 DD  .F               793:   DEPTH DRILLER
 DL  .F               792:   DEPTH LOGGER
 BLI .F               791:   BOTTOM LOG INTERVAL
 TLI .F                30:   TOP LOG INTERVAL
 CS  .IN            8.625:   CASING SIZE
 CBL .F                50:   CASING BOTTOM LOGGER
 BS  .IN            7.875:   BIT SIZE
 BSD .F               793:   BIT SIZE AT DEPTH
 DFT .                MUD:   DRILLING FLUID TYPE
 DFD .                0.5:   DRILLING FLUID DENSITY
 MSS .           FLOWLINE:   MUD SAMPLE SOURCE
 RMS .OHMM           1.92:   RESISTIVITY MUD SAMPLE
 MST .F                71:   MUD SAMPLE TEMPERATURE
 RMF .OHMM            1.4:   RESISTIVITY MUD FILTRATE SAMPLE
 MFST.F                72:   MUD FILTRATE SAMPLE TEMPERATURE
 RMC .OHMM            2.2:   RESISTIVITY MUD CAKE
 MCST.F                72:   MUD CAKE SAMPLE TEMPERATURE
 MFSS.              CHART:   MUD FILTRATE SAMPLE SOURCE
 MCSS.              CHART:   MUD CAKE SAMPLE SOURCE
 TCS .HRS            2200:   TIME CURCULATED STOPPED
 MRT .F                60:   MAXIMUM RECORDED TEMPERATURE
 LUN .               7397:   LOGGING UNIT NUMBER
 LUL .           GILLETTE:   LOGGING UNIT LOCATION
 ENGI.         WEATHERMON:   RECORDING ENGINEER
 WITN.             STRONG:   WITNESSED BY
 CLNT.            A2DTECH:   CLIENT CODE
 ORIG.           5" PRINT:   ORIGIN OF DATA
 UWI .       490251112500:   UNIQUE WELL ID
 DICO. A2D Technologies, Inc.:   DIGITIZING COMPANY
~OTHER INFORMATION
~A   DEPT      GRR       RILD       RILM        RLL   
# ...
  174.0000    80.4281     6.3470     6.4092     6.6114
  174.5000    80.4281     6.3471     6.4092     6.8989
  175.0000    81.0398     6.3921     6.4168     6.8017
  175.5000    81.9572     6.3921     6.4548     6.5646
  176.0000    83.1804     6.3921     6.4092     6.5646
  176.5000    85.3211     6.3921     6.4092     6.9480
  177.0000    86.8502     6.3470     6.3639     6.5575
  177.5000    88.0734     6.3022     6.3190     6.7536
  178.0000    88.0734     6.3022     6.3190     7.0975
  178.5000    85.6269     6.2577     6.2743     7.4590
  179.0000    83.1804     6.2135     6.2300     8.0645
  179.5000    81.0398     6.1261     6.1860     7.8946
  180.0000    79.8165     6.1261     6.1423     7.6195
  180.5000    78.5933     6.1261     6.0989     7.8388
  181.0000    78.5933     6.1261     6.0558     8.2380
  181.5000    79.2558     6.1697     6.0558     7.5656
  182.0000    81.9572     6.1697     6.0558     7.3019
  182.5000    84.4037     6.2135     6.0989     7.2502
  183.0000    85.6269     6.2577     6.1860     7.1481
  183.5000    81.9572     6.3022     6.2300     7.7834
  184.0000    79.5107     6.3970     6.3238     8.3557
  184.5000    78.5933     6.5759     6.5007     8.7192
  185.0000    79.2049     6.6697     6.5936     8.7813
  185.5000    80.1223     6.7649     6.6877     9.0341
  186.0000    81.9572     6.8130     6.7833     8.9068
  186.5000    83.1804     6.8130     6.8315     7.5656
  187.0000    82.2630     6.8088     6.8315     6.9975
  187.5000    80.9888     6.7171     6.7833     6.8501
  188.0000    77.9817     6.6226     6.7353     6.8017
  188.5000    75.8410     6.5294     6.6877     6.7058
  189.0000    75.2294     6.4376     6.5936     6.6584
  189.5000    75.5352     6.3022     6.4548     6.6114
  190.0000    74.6177     5.9466     6.3609     6.5646
  190.5000    72.1713     4.9883     6.1423     6.4721
  191.0000    70.3364     4.2083     5.8035     6.2023
  191.5000    68.5015     3.6265     4.8954     5.7775
  192.0000    67.8899     3.2379     4.0713     4.9983
  192.5000    71.8654     2.9321     3.4099     3.6687
  193.0000    78.5933     2.5960     2.7708     3.1833
  193.5000    83.3842     2.2401     2.1970     2.6470
  194.0000    88.6850     2.0575     1.8142     2.1093
  194.5000    91.7431     2.0000     1.7387     2.4138
  195.0000    92.6606     2.0430     1.7264     2.5748
  195.5000    88.6850     2.1621     1.7635     2.8823
  196.0000    85.3211     2.4426     1.9776     3.4174
  196.5000    80.4281     3.1031     2.5862     4.1685
  197.0000    77.0642     3.5755     3.0659     4.9075
  197.5000    73.3648     4.2684     3.7392     5.6961
  198.0000    68.7835     5.0595     4.7585     6.4746
  198.5000    65.7312     5.7885     5.8448     7.3539
  199.0000    63.5964     6.6707     6.8825     8.0075
  199.5000    62.9906     7.7397     8.2729     8.5631
  200.0000    64.2212     8.5290     8.9981     9.9775
  200.5000    66.6735     9.3031     9.3327    10.7869
  201.0000    67.5968     9.3673     9.3991    10.4101
  201.5000    68.2142     9.1033     9.3327    10.5581
  202.0000    68.5260     8.5999     9.0564    10.3062
  202.5000    67.3099     8.1821     8.1564     8.6543
  203.0000    66.7027     7.6751     7.3857     7.8912
  203.5000    67.3216     7.1996     6.5470     7.2982
  204.0000    70.3856     6.6360     5.9283     6.7497
  204.5000    74.0693     6.0710     5.5578     6.3305
  205.0000    75.9033     5.9844     5.4835     6.0244
  205.5000    74.3801     6.1552     5.6814     6.0669
  206.0000    69.7988     6.4211     6.2743     6.3754
  206.5000    67.0523     6.7030     6.6405     6.7473
  207.0000    67.3640     6.8894     6.8801     6.9411
  207.5000    69.9797     6.8880     6.9291     7.0399
  208.0000    78.3863     6.8380     6.8801     7.0393
  208.5000    81.7561     6.8366     6.8801     7.0388
  209.0000    83.5968     6.8352     6.8801     7.0383
  209.5000    85.1317     6.8824     6.8836     7.0378
  210.0000    86.0550     6.8807     6.9291     7.0373
  210.5000    84.8390     6.8793     6.9291     7.0368
  211.0000    83.3158     6.8779     6.9291     7.0363
  211.5000    83.3216     6.8765     6.9291     7.0358
  212.0000    83.9391     6.8751     6.9291     7.0353
  212.5000    82.1101     6.8736     6.9291     7.0349
  213.0000    80.2825     6.8720     6.9291     7.0845
  213.5000    81.2058     6.8706     6.9291     7.0839
  214.0000    82.7407     6.8692     6.9784     7.0834
  214.5000    83.9698     6.9166     6.9784     7.0829
  215.0000    84.8931     6.9644     6.9784     7.0824
  215.5000    85.8532     6.9626     6.9784     7.1324
  216.0000    86.4338     7.0605     6.9291     7.1318
  216.5000    83.3830     7.0591     6.9291     7.1313
  217.0000    82.1656     7.1078     6.9291     7.1308
  217.5000    82.7831     7.1569     6.9784     7.1303
  218.0000    85.2681     7.2064     7.0280     7.1325
  218.5000    83.4078     7.2561     7.1284     7.1801
  219.0000    80.9672     7.2543     7.1791     7.2308
  219.5000    79.1382     7.2528     7.2302     7.2816
  220.0000    81.2847     7.1933     7.2302     7.2297
  220.5000    84.0428     7.0469     7.1284     7.0769
  221.0000    86.1908     6.8486     7.0280     6.9273
  221.5000    87.1141     6.7509     6.8315     6.8292
  222.0000    88.0374     6.6546     6.7353     6.7325
  222.5000    88.3490     6.5565     6.5936     6.6844
  223.0000    88.3549     6.4657     6.5007     6.5898
  223.5000    87.7491     6.4644     6.4548     6.5428
  224.0000    87.4491     6.4174     6.4092     6.4500
  224.5000    88.0680     6.4161     6.4092     6.4496
  225.0000    89.6029     6.3695     6.3639     6.4491
  225.5000    91.1378     6.3679     6.3639     6.4487
  226.0000    90.8012     6.3666     6.3639     6.4027
  226.5000    85.9522     6.3653     6.3639     6.3569
  227.0000    83.2057     6.3191     6.3190     6.3564
  227.5000    81.6811     6.3178     6.3190     6.3560
  228.0000    84.1349     6.3165     6.3190     6.3556
  228.5000    86.5872     6.3598     6.3639     6.4004
  229.0000    87.2047     6.4037     6.3639     6.4914
  229.5000    84.1539     6.5400     6.4548     6.6305
  230.0000    82.3248     6.6791     6.5532     6.7250
  230.5000    80.1900     6.8238     6.7353     6.9180
  231.0000    78.6668     6.9660     6.9291     7.0164
  231.5000    77.7552     7.0640     7.0280     7.1162
  232.0000    79.2916     7.1131     7.1284     7.2173
  232.5000    82.6613     7.1619     7.1791     7.2168
  233.0000    85.4195     7.1604     7.1791     7.2678
  233.5000    86.0369     7.2098     7.1791     7.2672
  234.0000    83.5718     7.2080     7.1791     7.2667
  234.5000    79.9339     7.2066     7.1791     7.3178
  235.0000    77.7990     7.1542     7.1741     7.2656
  235.5000    77.1918     7.1023     7.1284     7.2137
  236.0000    79.3398     7.0954     7.0280     7.1116
  236.5000    81.7921     6.9991     6.9784     7.0109
  237.0000    83.6779     6.9483     6.9291     6.9536
  237.5000    84.2517     6.8492     6.8315     6.8622
  238.0000    84.5634     6.7994     6.7833     6.8132
  238.5000    85.1809     6.7500     6.7353     6.7646
  239.0000    86.1041     6.7483     6.7353     6.8123
  239.5000    87.9939     6.7470     6.7353     6.8118
  240.0000    89.4812     6.7939     6.7833     6.8599
  240.5000    87.3464     6.8895     6.8801     6.9083
  241.0000    84.9057     6.9860     6.9291     7.0065
  241.5000    82.4651     7.1854     7.1284     7.1062
  242.0000    83.7023     7.3379     7.2302     7.2592
  242.5000    87.3712     7.4940     7.4382     7.4668
  243.0000    87.6814     7.7078     7.6522     7.6813
  243.5000    84.6306     7.8163     7.8167     7.8461
  244.0000    80.6609     7.9878     7.9848     8.0144
  244.5000    80.3445     8.0944     8.0416     8.1283
  245.0000    82.2834     8.0356     8.0416     8.1856
  245.5000    85.5729     7.9772     7.9848     8.0125
  246.0000    86.8005     7.8079     7.8723     7.8432
  246.5000    84.6671     7.6936     7.7066     7.6775
