~VERSION INFORMATION
 VERS.                2.0:   CWLS LOG ASCII STANDARD - VERSION 2.0
 WRAP.                 NO:   ONE LINE PER DEPTH STEP
~WELL INFORMATION
#MNEM.UNIT      DATA TYPE    INFORMATION
#----------   ------------   ------------------------------
 STRT.F           30.0000:   START DEPTH
 STOP.F          759.0000:   STOP DEPTH
 STEP.F            0.5000:   STEP LENGTH
 NULL.          -999.2500:   NO VALUE
 COMP. FENIX & SCISSON INC:   COMPANY
 WELL.    NPR ##3 15-S-14:   WELL
 FLD .             TEAPOT:   FIELD
 LOC .      S14 T38N R78W:   LOCATION
 CNTY.            NATRONA:   COUNTY
 STAT.            WYOMING:   STATE
 CTRY. UNITED STATES OF AMERICA:   COUNTRY
 SRVC.              Welex:   SERVICE COMPANY
 DATE.        23-FEB-1977:   LOGDATE
 API .       490251027600:   API NUMBER
~CURVE INFORMATION
#MNEM.UNIT       API CODE    CURVE DESCRIPTION
#----------   ------------   ------------------------------
 DEPT.F                  :   
 GURD.OHMM   07 220 05 00:   SHALLOW SHORT GUARD RESISTIVITY
 ILD .OHMM   07 120 46 00:   INDUCTION LOG DEEP
 ILM .OHMM   07 120 44 00:   INDUCTION LOG MEDIUM
 SPR .MV     07 010 01 00:   SPONTANEOUS POTENTIAL
 CALD.IN     45 280 60 00:   CALIPER FROM DENSITY LOG
 CORR.G/C3   45 356 01 00:   DENSITY CORRECTION
 DPHI.DEC    45 890 12 00:   DENSITY POROSITY SANDSTONE
 GRD .GAPI   45 310 01 00:   GAMMA RAY FROM DENSITY LOG
 RHOB.G/C3   45 350 01 00:   BULK DENSITY
~PARAMETER INFORMATION
#MNEM.UNIT          VALUE    DESCRIPTION
#----------   ------------   ------------------------------
 PD  .                 GL:   PERMANENT DATUM
 EPD .F            5229.2:   ELEVATION PERMANENT DATUM
 LMF .                 GL:   LOG MEASURED FROM
 DMF .                 GL:   DRILLING MEASURED FROM
 EGL .F            5229.2:   GROUND LEVEL
 DATE.        23-FEB-1977:   RUN DATE
 RUN .                  1:   RUN NUMBER
 DD  .F               764:   DEPTH DRILLER
 DL  .F               762:   DEPTH LOGGER
 BLI .F               760:   BOTTOM LOG INTERVAL
 TLI .F                40:   TOP LOG INTERVAL
 CS  .IN            8.625:   CASING SIZE
 CBD .F                40:   CASING BOTTOM DRILLER
 CBL .F                40:   CASING BOTTOM LOGGER
 BS  .IN            7.875:   BIT SIZE
 BSD .F               764:   BIT SIZE AT DEPTH
 DFT .           CHEM/GEL:   DRILLING FLUID TYPE
 DFD .                9.4:   DRILLING FLUID DENSITY
 DFV .                 50:   DRILLING FLUID VISCOSITY
 DFPH.               11.0:   DRILLING FLUID PH
 DFL .               12.2:   DRILLING FLUID LOSS
 MSS .           FLOWLINE:   MUD SAMPLE SOURCE
 RMS .OHMM           0.23:   RESISTIVITY MUD SAMPLE
 MST .F                38:   MUD SAMPLE TEMPERATURE
 RMF .OHMM           0.15:   RESISTIVITY MUD FILTRATE SAMPLE
 MFST.F                38:   MUD FILTRATE SAMPLE TEMPERATURE
 RMC .OHMM           0.54:   RESISTIVITY MUD CAKE
 MCST.F                38:   MUD CAKE SAMPLE TEMPERATURE
 MFSS.               MEAS:   MUD FILTRATE SAMPLE SOURCE
 MCSS.               MEAS:   MUD CAKE SAMPLE SOURCE
 RMB .OHMM           .148:   RESISTIVITY MUD AT BHT
 BHT .F                59:   BOTTOM HOLE TEMPERATURE
 TCS .HRS               2:   TIME CURCULATED STOPPED
 MRT .F                59:   MAXIMUM RECORDED TEMPERATURE
 LUN .               8611:   LOGGING UNIT NUMBER
 LUL .           GILLETTE:   LOGGING UNIT LOCATION
 ENGI.             C.DOAK:   RECORDING ENGINEER
 WITN.         STUEBINGER:   WITNESSED BY
 CLNT.            A2DTECH:   CLIENT CODE
 ORIG.           5" PRINT:   ORIGIN OF DATA
 UWI .       490251027600:   UNIQUE WELL ID
 DICO. A2D Technologies, Inc.:   DIGITIZING COMPANY
~OTHER INFORMATION
~A   DEPT     GURD        ILD        ILM        SPR         CALD      CORR      DPHI         GRD        RHOB 
# ...
  395.0000     9.7759     7.5815     8.4671   -47.5993     8.2384     0.0973     0.1154   105.0975     2.4608
  395.5000     9.1871     7.4267     8.4083   -47.8226     8.2529     0.0973     0.1108   108.9898     2.4676
  396.0000     8.5153     7.2714     8.3444   -48.0656     8.2525     0.0958     0.1171   113.3305     2.4541
  396.5000     7.6775     7.1142     8.2916   -48.2143     8.2520     0.0958     0.1198   117.2228     2.4503
  397.0000     8.9385     6.9331     8.2910   -48.2134     8.2565     0.0958     0.1117   119.7698     2.4698
  397.5000    10.1230     6.8385     8.3481   -48.0634     8.2810     0.0958     0.1090   120.2241     2.4765
  398.0000    10.3357     6.7919     8.4054   -48.0627     8.2806     0.0973     0.1126   115.8316     2.4712
  398.5000    10.3364     6.8395     8.5218   -48.0619     8.2801     0.0988     0.1147   116.8471     2.4660
  399.0000    10.2659     6.8400     8.6397   -48.0612     8.2797     0.0988     0.1150   115.4600     2.4644
  399.5000    10.1959     6.8878     8.6990   -48.0603     8.2643     0.0988     0.1123   110.5332     2.4644
  400.0000    10.2674     6.9359     8.8002   -48.0596     8.2638     0.1005     0.1057   112.9307     2.4719
  400.5000    10.4110     7.0328     8.8565   -48.0588     8.2484     0.1027     0.1002   113.3836     2.4847
  401.0000    10.5566     7.1311     8.9128   -48.0198     8.2630     0.1050     0.0984   113.5404     2.4885
  401.5000    10.7042     7.1737     8.9691   -47.9149     8.2769     0.1072     0.0946   114.2937     2.4891
  402.0000    10.5580     7.2488     9.0255   -47.8100     8.2734     0.1095     0.0904   108.3205     2.4928
  402.5000    10.3421     7.3240     9.0763   -47.7051     8.2700     0.1108     0.0922   105.3369     2.4988
  403.0000    10.2716     7.3991     9.2044   -47.6002     8.2666     0.1123     0.0944   106.0902     2.4950
  403.5000    10.4276     7.4743     9.2701   -47.4953     8.2631     0.1123     0.0980   108.3382     2.4883
  404.0000    10.7691     7.5431     9.3363   -47.3904     8.2597     0.1123     0.1006   110.2873     2.4823
  404.5000    11.1098     7.6489     9.4029   -47.2855     8.2420     0.1123     0.1029   110.3164     2.4755
  405.0000    11.4918     7.7029     9.4700   -47.1806     8.2413     0.1108     0.1035   109.8507     2.4718
  405.5000    11.5738     7.7573     9.5376   -47.0757     8.2405     0.1108     0.1002   108.6608     2.4762
  406.0000    11.4173     7.8120     9.5396   -46.9708     8.2398     0.1108     0.0993   106.5640     2.4807
  406.5000    11.2623     7.8131     9.5416   -47.0541     8.2390     0.1093     0.1005   103.6980     2.4830
  407.0000    11.6611     7.8683     9.6101   -47.3556     8.2384     0.1093     0.1014   101.7837     2.4792
  407.5000    11.8252     7.8693     9.6120   -47.5077     8.2376     0.1078     0.0960   101.5094     2.4816
  408.0000    11.2697     7.8704     9.6807   -47.5107     8.2520     0.1078     0.0936   101.9652     2.4882
  408.5000    10.8892     7.8715     9.6826   -47.5135     8.2511     0.1073     0.1011   100.6259     2.4784
  409.0000    10.5216     7.8728     9.6846   -47.3672     8.2504     0.1063     0.1155    98.5391     2.4689
  409.5000    10.4513     7.8738     9.6865   -47.3702     8.2496     0.1048     0.1214    98.2445     2.4577
  410.0000    11.2431     7.8749     9.7557   -47.3732     8.2489     0.1048     0.1202   104.7694     2.4509
  410.5000    11.8408     7.8760     9.7577   -47.2267     8.2631     0.1018     0.1133   109.7892     2.4554
  411.0000    11.5203     7.8770     9.7596   -47.0804     8.2624     0.1018     0.1050   110.8241     2.4689
  411.5000    11.1314     7.8238     9.7616   -47.0841     8.2615     0.0988     0.0981   110.5034     2.4817
  412.0000    11.3668     7.8250     9.6296   -47.0866     8.2607     0.0985     0.0990   107.9609     2.4869
  412.5000    11.4474     7.8260     9.6316   -47.2392     8.2601     0.0973     0.1022   103.6246     2.4814
  413.0000    10.9853     7.8271     9.6340   -47.2421     8.2593     0.0988     0.1118   103.7729     2.4697
  413.5000    10.7621     7.8282     9.5691   -47.3943     8.2435     0.1003     0.1202   101.2300     2.4577
  414.0000    10.6166     7.8292     9.5716   -47.3972     8.2428     0.1003     0.1244    98.3888     2.4472
  414.5000    10.6187     7.7764     9.5735   -47.5493     8.2421     0.0988     0.1262   102.2734     2.4345
  415.0000    10.9185     7.6184     9.5754   -47.5523     8.2413     0.0958     0.1250   104.5141     2.4292
  415.5000    10.9965     7.5148     9.5774   -47.5552     8.2406     0.0943     0.1196   106.4558     2.4360
  416.0000    10.8483     7.3621     9.4479   -47.5582     8.2399     0.0943     0.1142   108.3975     2.4457
  416.5000    10.7016     7.2622     9.3200   -47.7110     8.2391     0.0958     0.1088   110.4887     2.4554
  417.0000    10.4841     7.2132     9.1307   -47.7140     8.2384     0.0988     0.1058   112.4404     2.4644
  417.5000    10.3418     7.1644     9.0052   -47.7169     8.2451     0.1033     0.1043   108.0942     2.4749
  418.0000    10.2727     7.2152     8.8854   -47.7198     8.2519     0.1078     0.1001   104.7942     2.4816
  418.5000    10.2753     7.2161     8.8877   -47.8720     8.2661     0.1108     0.0983   106.5067     2.4877
  419.0000    10.3487     7.2171     8.8895   -47.8749     8.2654     0.1138     0.0968   108.2389     2.4914
  419.5000    10.5675     7.1662     8.9530   -48.0271     8.2796     0.1123     0.0992   108.3872     2.4884
  420.0000    10.7168     7.0854     9.0169   -48.1792     8.2787     0.1093     0.1059   107.6380     2.4794
  420.5000    10.8699     7.0235     9.0812   -48.4807     8.2781     0.1048     0.1137   104.1986     2.4682
  421.0000    11.0216     6.9689     9.0831   -49.0806     8.2773     0.1018     0.1188   103.0017     2.4577
  421.5000    10.7982     6.8250     8.9598   -49.3821     8.2917     0.1003     0.1222   109.2779     2.4464
  422.0000    10.0159     6.6493     8.8386   -49.6836     8.2908     0.0988     0.1249   112.8638     2.4375
  422.5000     9.0261     6.4247     8.6595   -49.8364     8.2900     0.0988     0.1285   111.5171     2.4300
  423.0000     7.9168     6.2077     8.5424   -49.9886     8.2743     0.0988     0.1312   107.9282     2.4255
  423.5000     8.8445     6.0814     8.3688   -50.1407     8.2736     0.0988     0.1309   106.2824     2.4330
  424.0000     8.3129     6.0822     8.2466   -50.1436     8.2728     0.0988     0.1264   106.8789     2.4346
  424.5000     6.6159     6.0412     7.9773   -50.1466     8.2721     0.1003     0.1320   111.5112     2.4277
  425.0000     7.4680     6.0420     7.9236   -49.9995     8.2714     0.1003     0.1335   115.2466     2.4232
  425.5000     9.4854     6.0428     7.9256   -49.8532     8.2706     0.1018     0.1290   113.8699     2.4257
  426.0000    10.0960     6.0855     8.0932   -49.7075     8.2699     0.1033     0.1245   114.4265     2.4393
  426.5000    10.4530     6.1286     8.3794   -49.5612     8.2690     0.1033     0.1188   112.7008     2.4532
  427.0000    10.5276     6.2576     8.6757   -49.2637     8.2834     0.1048     0.1129   111.0550     2.4622
  427.5000    10.3853     6.3894     8.8592   -48.8208     8.2675     0.1048     0.1119   108.9609     2.4697
  428.0000    10.1042     6.5239     9.0466   -48.5252     8.2668     0.1078     0.1038   109.2584     2.4764
  428.5000    10.3895     6.6154     9.1112   -48.2296     8.2660     0.1093     0.0996   106.7158     2.4854
  429.0000    10.6092     6.7082     9.2399   -48.0841     8.2653     0.1093     0.0988   108.3586     2.4891
  429.5000    10.3937     6.8023     9.3059   -47.9370     8.2645     0.1108     0.0990   110.4498     2.4854
  430.0000    10.2484     6.9393     9.3082   -47.9406     8.2488     0.1108     0.0999   111.7936     2.4809
  430.5000    10.1145     7.0430     9.3101   -47.9433     8.2481     0.1108     0.1020   113.1374     2.4809
  431.0000    10.1170     7.1913     9.2474   -47.9465     8.2473     0.1108     0.1053   114.1823     2.4816
