~VERSION INFORMATION
 VERS.                2.0:   CWLS LOG ASCII STANDARD - VERSION 2.0
 WRAP.                 NO:   ONE LINE PER DEPTH STEP
~WELL INFORMATION
#MNEM.UNIT      DATA TYPE    INFORMATION
#----------   ------------   ------------------------------
 STRT.F           36.0000:   START DEPTH
 STOP.F          700.0000:   STOP DEPTH
 STEP.F            0.5000:   STEP LENGTH
 NULL.          -999.2500:   NO VALUE
 COMP. FENIX & SCISSON INC:   COMPANY
 WELL. NPR #3 13SX14 #13-14:   WELL
 FLD .             TEAPOT:   FIELD
 LOC .      S14 T38N R78W:   LOCATION
 CNTY.            NATRONA:   COUNTY
 STAT.            WYOMING:   STATE
 CTRY. UNITED STATES OF AMERICA:   COUNTRY
 SRVC.              Welex:   SERVICE COMPANY
 DATE.        28-FEB-1977:   LOGDATE
 API .       490251029600:   API NUMBER
~CURVE INFORMATION
#MNEM.UNIT       API CODE    CURVE DESCRIPTION
#----------   ------------   ------------------------------
 DEPT.F                  :   
 CALD.IN     45 280 60 00:   CALIPER FROM DENSITY LOG
 GRD .GAPI   45 310 01 00:   GAMMA RAY FROM DENSITY LOG
 CORR.G/C3   45 356 01 00:   DENSITY CORRECTION
 RHOB.G/C3   45 350 01 00:   BULK DENSITY
 DPHI.DEC    45 890 12 00:   DENSITY POROSITY SANDSTONE
 SPR .MV     07 010 01 00:   SPONTANEOUS POTENTIAL
 SGRD.OHMM   07 220 05 00:   SHALLOW RESISTIVITY
 ILD .OHMM   07 120 46 00:   INDUCTION LOG DEEP
 ILM .OHMM   07 120 44 00:   INDUCTION LOG MEDIUM
~PARAMETER INFORMATION
#MNEM.UNIT          VALUE    DESCRIPTION
#----------   ------------   ------------------------------
 PD  .                 GL:   PERMANENT DATUM
 EPD .F              5238:   ELEVATION PERMANENT DATUM
 LMF .                 GL:   LOG MEASURED FROM
 DMF .                 GL:   DRILLING MEASURED FROM
 EGL .F              5238:   GROUND LEVEL
 DATE.            2-28-77:   RUN DATE
 RUN .                  1:   RUN NUMBER
 DD  .F               710:   DEPTH DRILLER
 DL  .F               706:   DEPTH LOGGER
 BLI .F               704:   BOTTOM LOG INTERVAL
 TLI .F                42:   TOP LOG INTERVAL
 CS  .IN            8.625:   CASING SIZE
 CBD .F                42:   CASING BOTTOM DRILLER
 CBL .F                42:   CASING BOTTOM LOGGER
 BS  .IN            7.875:   BIT SIZE
 BSD .F               710:   BIT SIZE AT DEPTH
 DFT .           CHEM-GEL:   DRILLING FLUID TYPE
 DFD .                8.7:   DRILLING FLUID DENSITY
 DFV .                 33:   DRILLING FLUID VISCOSITY
 DFPH.                  7:   DRILLING FLUID PH
 DFL .                  8:   DRILLING FLUID LOSS
 MSS .          FLOW LINE:   MUD SAMPLE SOURCE
 RMS .OHMM           .382:   RESISTIVITY MUD SAMPLE
 MST .F                54:   MUD SAMPLE TEMPERATURE
 RMF .OHMM           .342:   RESISTIVITY MUD FILTRATE SAMPLE
 MFST.F                54:   MUD FILTRATE SAMPLE TEMPERATURE
 RMC .OHMM           .821:   RESISTIVITY MUD CAKE
 MCST.F                54:   MUD CAKE SAMPLE TEMPERATURE
 MFSS.           MEASURED:   MUD FILTRATE SAMPLE SOURCE
 MCSS.           MEASURED:   MUD CAKE SAMPLE SOURCE
 RMB .OHMM           .333:   RESISTIVITY MUD AT BHT
 BHT .F                62:   BOTTOM HOLE TEMPERATURE
 TCS .HRS               3:   TIME CURCULATED STOPPED
 MRT .F                62:   MAXIMUM RECORDED TEMPERATURE
 LUN .               8611:   LOGGING UNIT NUMBER
 LUL .           GILLETTE:   LOGGING UNIT LOCATION
 ENGI.               DOAK:   RECORDING ENGINEER
 WITN.               JAPP:   WITNESSED BY
 CLNT.            A2DTECH:   CLIENT CODE
 ORIG.       2", 5" PRINT:   ORIGIN OF DATA
 UWI .       490251029600:   UNIQUE WELL ID
 DICO. A2D Technologies, Inc.:   DIGITIZING COMPANY
~OTHER INFORMATION
~A   DEPT       CALD       GRD       CORR        RHOB     DPHI         SPR        SGRD      ILD        ILM   
# ...
  218.5000     7.9734   128.8229     0.0047     2.4674     0.1066   -40.0116    10.1043     7.2336     8.8786
  219.0000     7.9683   130.9131     0.0034     2.4686     0.1052   -40.0397    10.3931     7.2533     9.0508
  219.5000     7.9632   132.6393     0.0040     2.4734     0.1028   -40.0678    10.1449     7.2518     8.8658
  220.0000     7.9581   132.6109     0.0046     2.4785     0.1003   -40.0958     9.9377     7.3835     8.7231
  220.5000     7.9530   128.9311     0.0053     2.4748     0.1022   -40.1239    10.0294     7.4528     8.9527
  221.0000     7.9478   125.3650     0.0059     2.4669     0.1064   -40.1520    10.1507     7.5220     9.1620
  221.5000     7.9425   122.1455     0.0066     2.4615     0.1091   -40.1801    10.4662     7.5914     9.3754
  222.0000     7.9505   122.2593     0.0080     2.4666     0.1053   -40.2082    10.7915     7.6614     9.5936
  222.5000     7.9598   125.5275     0.0107     2.4769     0.0991   -40.2362    11.1049     7.7321     9.7444
  223.0000     7.9691   128.4362     0.0134     2.4872     0.0929   -40.2636    11.2628     7.8034     9.8010
  223.5000     7.9784   131.6616     0.0161     2.4973     0.0874   -40.2857    11.5024     7.8753     9.8629
  224.0000     7.9876   133.6347     0.0188     2.5020     0.0846   -40.3082    11.4199     7.9476     9.9254
  224.5000     7.9969   132.1013     0.0212     2.5065     0.0818   -40.3308    11.2597     8.0279     9.9885
  225.0000     8.0062   131.6701     0.0225     2.5110     0.0791   -40.3533    11.1017     8.0404    10.0519
  225.5000     8.0153   132.2438     0.0239     2.5155     0.0763   -40.3759    11.0860     8.0583    10.1096
  226.0000     8.0189   132.8135     0.0253     2.5200     0.0733   -40.3984    11.3949     8.0756    10.0372
  226.5000     8.0067   133.4199     0.0265     2.5244     0.0709   -40.4210    11.2209     8.0919     9.9715
  227.0000     7.9948   133.1229     0.0268     2.5208     0.0718   -40.4435    11.0808     8.1001     9.9249
  227.5000     7.9825   132.5146     0.0235     2.5163     0.0756   -40.4661    11.5390     8.1794    10.1503
  228.0000     7.9825   131.8990     0.0202     2.5118     0.0793   -40.4886    11.9680     8.3317    10.3490
  228.5000     7.9953   132.1724     0.0169     2.5074     0.0827   -40.5112    12.3829     8.4796    10.5515
  229.0000     8.0076   132.9259     0.0155     2.5054     0.0827   -40.5337    12.1566     8.5822    10.7581
  229.5000     8.0197   131.3615     0.0170     2.5056     0.0827   -40.5563    12.3312     8.6884    10.9687
  230.0000     8.0319   129.8723     0.0184     2.5091     0.0796   -40.5787    12.8481     8.7959    11.1834
  230.5000     8.0440   128.4003     0.0198     2.5175     0.0753   -40.6012    12.6915     8.9047    11.4020
  231.0000     8.0562   126.9419     0.0212     2.5251     0.0724   -40.6243    12.3561     9.0149    11.6237
  231.5000     8.0685   125.5080     0.0227     2.5194     0.0745   -40.6471    12.0451     9.1265    11.8496
  232.0000     8.0811   123.1355     0.0241     2.5134     0.0766   -40.7389    13.2090     9.2394    12.0521
  232.5000     8.0701   120.8628     0.0239     2.5140     0.0787   -40.8798    13.0455     9.3538    12.0769
  233.0000     8.0570   118.6101     0.0217     2.5137     0.0790   -41.0209    12.8600     9.4695    12.1011
  233.5000     8.0440   116.7513     0.0195     2.5096     0.0783   -41.1602    12.8347     9.5867    12.1244
  234.0000     8.0310   115.8764     0.0173     2.5056     0.0811   -41.1479    14.7536     9.7019    12.1477
  234.5000     8.0180   116.0976     0.0150     2.5016     0.0839   -40.8491    14.2807     9.7436    12.4396
  235.0000     8.0050   117.4648     0.0130     2.4984     0.0866   -40.7580    13.6398     9.6979    13.0884
  235.5000     7.9920   118.8375     0.0146     2.4991     0.0865   -41.0586    13.3307     9.6534    13.0038
  236.0000     7.9791   120.2082     0.0162     2.5027     0.0843   -41.1051    13.7012     9.6092    12.7302
  236.5000     7.9657   121.5760     0.0177     2.5062     0.0822   -40.6616    13.3896     9.5652    12.9092
  237.0000     7.9719   122.8063     0.0190     2.5097     0.0812   -40.9721    13.0856     9.5214    13.0872
  237.5000     7.9909   123.6805     0.0189     2.5121     0.0806   -41.1968    13.0887     9.4778    12.7563
  238.0000     8.0100   124.6410     0.0189     2.5103     0.0799   -40.8689    13.0872     9.4344    12.4976
  238.5000     8.0292   125.6076     0.0216     2.5105     0.0758   -40.9677    14.2998     9.3911    12.8481
  239.0000     8.0483   126.5742     0.0248     2.5206     0.0696   -41.0690    15.7371     9.3481    12.6934
  239.5000     8.0622   127.5324     0.0280     2.5330     0.0633   -41.1674    12.8481     9.3046    12.5007
  240.0000     8.0585   128.4876     0.0307     2.5417     0.0602   -41.2104    12.9671     9.2502    12.3108
  240.5000     8.0539   128.3846     0.0265     2.5377     0.0626   -40.9129    12.7932     9.1952    12.2692
  241.0000     8.0493   127.6336     0.0221     2.5340     0.0650   -40.6585    12.6133     9.1405    12.2692
  241.5000     8.0446   129.1949     0.0227     2.5304     0.0674   -40.8410    12.8489     9.0862    12.2337
  242.0000     8.0400   130.4213     0.0252     2.5273     0.0683   -41.0473    12.7293     9.0322    12.0248
  242.5000     8.0353   128.1385     0.0278     2.5311     0.0653   -41.1223    12.7310     8.9785    11.8196
  243.0000     8.0307   129.3811     0.0304     2.5389     0.0622   -41.3591    12.6094     8.9251    11.6090
  243.5000     8.0261   130.9701     0.0329     2.5466     0.0592   -41.5968    12.4976     8.8720    11.8429
  244.0000     8.0215   132.5544     0.0355     2.5525     0.0564   -41.5284    12.5263     8.8193    12.0926
  244.5000     8.0168   134.0688     0.0359     2.5508     0.0547   -41.3655    12.5787     8.7668    12.1566
  245.0000     8.0122   133.5560     0.0338     2.5439     0.0615   -41.1994    12.6133     8.7147    11.9812
  245.5000     8.0076   132.6861     0.0294     2.5314     0.0664   -41.0598    12.4206     8.6629    11.8525
  246.0000     8.0029   131.8117     0.0252     2.5192     0.0733   -41.1056    12.2692     8.6114    11.7165
  246.5000     7.9983   130.9315     0.0210     2.5071     0.0811   -41.1536    12.2692     8.5602    11.7165
  247.0000     7.9936   129.9760     0.0168     2.4972     0.0866   -41.2009    12.8475     8.4851    11.7165
  247.5000     7.9890   129.8556     0.0131     2.4933     0.0898   -41.2482    13.2328     8.5191    11.7165
  248.0000     7.9844   131.6163     0.0159     2.4906     0.0909   -41.2955    12.6519     8.5845    11.7534
  248.5000     7.9842   134.6637     0.0187     2.4949     0.0891   -41.3428    13.0872     8.6430    11.8049
  249.0000     7.9883   137.6466     0.0215     2.4983     0.0872   -41.3898    12.9058     8.6430    11.8566
  249.5000     7.9924   140.3735     0.0214     2.4923     0.0898   -41.4383    12.5545     8.5637    11.9345
  250.0000     7.9966   141.6931     0.0183     2.4864     0.0936   -41.4076    12.2141     8.4406    11.7873
  250.5000     8.0008   142.9265     0.0153     2.4805     0.0975   -41.3222    12.0429     8.2947    11.4995
  251.0000     7.9987   144.1624     0.0122     2.4746     0.1014   -41.2363    12.1695     8.1512    11.2188
  251.5000     7.9859   145.3883     0.0092     2.4715     0.1038   -41.1489    12.3100     8.0102    10.9450
  252.0000     7.9735   145.5499     0.0071     2.4683     0.1049   -41.0656    12.4976     7.8717    10.6779
  252.5000     7.9610   145.1001     0.0077     2.4667     0.1054   -41.3426    12.1799     7.7355    10.4202
  253.0000     7.9486   142.2487     0.0083     2.4728     0.1036   -41.6461    11.7291     7.6017    10.1757
  253.5000     7.9361   138.9186     0.0088     2.4796     0.0986   -41.5937    11.2950     7.4703     9.9374
  254.0000     7.9237   135.6041     0.0094     2.4842     0.0954   -41.5056    10.8769     7.3415     9.7047
  254.5000     7.9245   132.5799     0.0100     2.4820     0.0966   -41.4182    10.4743     7.2154     9.4774
