~VERSION INFORMATION
 VERS.                2.0:   CWLS LOG ASCII STANDARD - VERSION 2.0
 WRAP.                 NO:   ONE LINE PER DEPTH STEP
~WELL INFORMATION
#MNEM.UNIT      DATA TYPE    INFORMATION
#----------   ------------   ------------------------------
 STRT.F           40.0000:   START DEPTH
 STOP.F          684.0000:   STOP DEPTH
 STEP.F            0.5000:   STEP LENGTH
 NULL.          -999.2500:   NO VALUE
 COMP.    FENIX & SCISSON:   COMPANY
 WELL.   N P R-3 #26SX2-2:   WELL
 FLD .             TEAPOT:   FIELD
 LOC .       S2 T38N R78W:   LOCATION
 CNTY.            NATRONA:   COUNTY
 STAT.            WYOMING:   STATE
 CTRY. UNITED STATES OF AMERICA:   COUNTRY
 SRVC.            Unknown:   SERVICE COMPANY
 DATE.        26-JAN-1978:   LOGDATE
 API .       490251056400:   API NUMBER
~CURVE INFORMATION
#MNEM.UNIT       API CODE    CURVE DESCRIPTION
#----------   ------------   ------------------------------
 DEPT.F                  :   
 ILD .OHMM   05 120 46 00:   INDUCTION LOG DEEP
 SN  .OHMM   05 040 16 00:   SHORT NORMAL 16"
 SPR .MV     05 010 01 00:   SPONTANEOUS POTENTIAL FROM RES.
 CALD.IN     45 280 60 00:   CALIPER FROM DENSITY LOG
 CORR.G/C3   45 356 01 00:   DENSITY CORRECTION
 DPHI.DEC    45 890 12 00:   DENSITY POROSITY SANDSTONE
 GRD .GAPI   45 310 01 00:   GAMMA RAY FROM DENSITY LOG
 RHOB.G/C3   45 350 01 00:   BULK DENSITY
~PARAMETER INFORMATION
#MNEM.UNIT          VALUE    DESCRIPTION
#----------   ------------   ------------------------------
 PD  .                 GL:   PERMANENT DATUM
 EPD .F              5142:   ELEVATION PERMANENT DATUM
 LMF .                 KB:   LOG MEASURED FROM
 DMF .                 KB:   DRILLING MEASURED FROM
 EKB .F              5146:   KELLING BUSHING
 EGL .F              5142:   GROUND LEVEL
 DATE.        26-JAN-1978:   RUN DATE
 RUN .                  1:   RUN NUMBER
 DD  .F               690:   DEPTH DRILLER
 DL  .F               684:   DEPTH LOGGER
 BLI .F               684:   BOTTOM LOG INTERVAL
 TLI .F                50:   TOP LOG INTERVAL
 CS  .IN            8.625:   CASING SIZE
 CBD .F                39:   CASING BOTTOM DRILLER
 CBL .F                40:   CASING BOTTOM LOGGER
 BS  .IN            7.875:   BIT SIZE
 BSD .F               690:   BIT SIZE AT DEPTH
 DFT .                KCL:   DRILLING FLUID TYPE
 DFD .                8.5:   DRILLING FLUID DENSITY
 DFV .                 33:   DRILLING FLUID VISCOSITY
 DFPH.                  9:   DRILLING FLUID PH
 MSS .           FLOWLINE:   MUD SAMPLE SOURCE
 RMS .OHMM           0.48:   RESISTIVITY MUD SAMPLE
 MST .F                75:   MUD SAMPLE TEMPERATURE
 RMF .OHMM           0.46:   RESISTIVITY MUD FILTRATE SAMPLE
 MFST.F                75:   MUD FILTRATE SAMPLE TEMPERATURE
 RMC .OHMM              1:   RESISTIVITY MUD CAKE
 MCST.F                75:   MUD CAKE SAMPLE TEMPERATURE
 MFSS.               MEAS:   MUD FILTRATE SAMPLE SOURCE
 MCSS.               MEAS:   MUD CAKE SAMPLE SOURCE
 RMB .OHMM           0.47:   RESISTIVITY MUD AT BHT
 BHT .F                76:   BOTTOM HOLE TEMPERATURE
 TCS .HRS               1:   TIME CURCULATED STOPPED
 MRT .F                76:   MAXIMUM RECORDED TEMPERATURE
 LUN .               2958:   LOGGING UNIT NUMBER
 LUL .             CASPER:   LOGGING UNIT LOCATION
 ENGI.           REYNOLDS:   RECORDING ENGINEER
 WITN.       MR. MCGINLEY:   WITNESSED BY
 CLNT.            A2DTECH:   CLIENT CODE
 ORIG.      2.5" 5" PRINT:   ORIGIN OF DATA
 UWI .       490251056400:   UNIQUE WELL ID
 DICO. A2D Technologies, Inc.:   DIGITIZING COMPANY
~OTHER INFORMATION
~A   DEPT      ILD         SN        SPR       CALD       CORR       DPHI         GRD        RHOB 
# ...
  485.5000     4.9805     5.6012   -56.0506     9.2727     0.1133     0.1740   114.8318     2.3730
  486.0000     5.0549     5.6436   -56.0394     9.2723     0.1284     0.1764   112.1814     2.3690
  486.5000     5.1973     6.0955   -56.0293     9.2717     0.1405     0.1782   110.3593     2.3683
  487.0000     5.6479     6.5946   -56.1677     9.2711     0.1495     0.1744   108.5627     2.3699
  487.5000     6.3524     7.0984   -56.1573     9.2705     0.1526     0.1707   107.4031     2.3735
  488.0000     6.7621     7.4538   -56.1470     9.2699     0.1616     0.1664   108.3078     2.3780
  488.5000     7.0999     7.7200   -56.1346     9.2693     0.1740     0.1699   109.4419     2.3810
  489.0000     7.2026     7.9408   -56.4210     9.2687     0.1896     0.1915   109.6330     2.3582
  489.5000     7.1574     8.1119   -56.5592     9.2681     0.2115     0.1952   109.4929     2.3461
  490.0000     7.1619     8.2299   -56.6999     9.2675     0.2724     0.2061   107.3394     2.3339
  490.5000     7.1170     8.2923   -55.2045     9.2669     0.2922     0.2103   105.4663     2.3172
  491.0000     7.2211     8.4129   -54.7496     9.2663     0.2946     0.2121   103.4148     2.3081
  491.5000     7.3255     8.4769   -54.7395     9.2657     0.2885     0.1867    98.9297     2.3520
  492.0000     7.3299     8.4824   -54.7294     9.2650     0.2855     0.1789    97.0948     2.3641
  492.5000     7.3343     8.4298   -54.5708     9.2644     0.2825     0.1765    96.4832     2.3702
  493.0000     7.3387     8.4369   -54.3865     9.2638     0.2825     0.1753    95.8716     2.3702
  493.5000     7.3431     8.4425   -53.9552     9.2632     0.2811     0.1734    95.5658     2.3718
  494.0000     7.3476     8.4280   -53.9451     9.2626     0.2795     0.1709    95.5148     2.3736
  494.5000     7.3520     8.3944   -53.9350     9.2620     0.2764     0.1683    95.8716     2.3782
  495.0000     7.3566     8.4013   -53.9249     9.2614     0.2734     0.1642    96.7890     2.3829
  495.5000     7.3619     8.4071   -53.9155     9.2608     0.2704     0.1617    97.4006     2.3886
  496.0000     7.4172     8.4129   -53.9046     9.2602     0.2674     0.1586    97.4006     2.3932
  496.5000     7.5245     8.4198   -53.8945     9.2596     0.2583     0.1551    96.1392     2.3968
  497.0000     7.6860     8.4254   -53.8843     9.2590     0.2523     0.1506    94.5973     2.4030
  497.5000     7.9051     8.4311   -53.8740     9.2584     0.2462     0.1458    93.3486     2.4098
  498.0000     8.1867     8.4950   -53.8617     9.2578     0.2432     0.1418    92.1509     2.4191
  498.5000     8.2481     8.5007   -54.0024     9.2571     0.2341     0.1387    91.5902     2.4268
  499.0000     7.8060     8.5652   -54.1405     9.2565     0.2311     0.1356    92.7370     2.4336
  499.5000     7.3986     8.5709   -54.4270     9.2559     0.2251     0.1360    95.0562     2.4106
  500.0000     6.6945     8.5218   -54.4516     9.2534     0.2251     0.1880    97.5720     2.3868
  500.5000     5.7025     8.3025   -54.6654     9.2488     0.2349     0.1965    98.9279     2.3648
  501.0000     5.6281     8.0728   -54.8385     9.2443     0.2447     0.1990   100.7613     2.3428
  501.5000     5.5554     7.0879   -54.8239     9.2397     0.2553     0.1977   102.2889     2.3297
  502.0000     5.5588     6.2661   -54.8122     9.2351     0.2221     0.1899   103.8165     2.3269
  502.5000     5.5622     6.1846   -54.8005     9.2306     0.2010     0.1754   100.1452     2.3257
  503.0000     5.5656     6.3180   -54.3439     9.2260     0.1980     0.1397    91.7729     2.3660
  503.5000     5.6075     6.2788   -54.0356     9.2239     0.1919     0.1263    87.9099     2.4249
  504.0000     5.7940     7.0158   -53.8755     9.2237     0.1889     0.1161    90.9255     2.4534
  504.5000     7.2670     8.1125   -53.8636     9.2236     0.1859     0.1118    92.7999     2.4698
  505.0000     8.9694     9.1258   -53.8494     9.2234     0.1860     0.1064    92.4926     2.4822
  505.5000     9.6139     9.6489   -53.8377     9.2233     0.1766     0.1009    93.8527     2.4969
  506.0000     9.4884    10.2021   -53.9772     9.2231     0.1558     0.1076    96.2446     2.4954
  506.5000     9.3630    10.4220   -53.9625     9.2229     0.1444     0.1112    98.1361     2.4832
  507.0000     9.1788    10.4291   -53.9508     9.2228     0.1394     0.1087    97.9582     2.4772
  507.5000     9.1844    10.5082   -53.9391     9.2226     0.1377     0.1057    96.7658     2.4802
  508.0000     9.1900    10.5153   -53.9274     9.2225     0.1407     0.1039    95.8469     2.4878
  508.5000     9.4522    10.6683   -53.9157     9.2223     0.1407     0.1026    94.6221     2.4908
  509.0000     9.9930    10.8235   -53.7557     9.2222     0.1347     0.1020    92.7858     2.4953
  509.5000    10.7111    11.1332   -53.7440     9.1916     0.1136     0.1016    90.9494     2.4968
  510.0000    11.3446    11.7880   -53.7323     9.1611     0.1015     0.1140    88.1957     2.4948
  510.5000    11.8977    12.7425   -53.7206     9.1609     0.1015     0.1408    82.9954     2.4633
  511.0000    12.4507    14.0033   -53.7089     9.1608     0.1015     0.1452    78.3819     2.4451
  511.5000    13.1084    15.1150   -53.6972     9.1606     0.0925     0.1476    68.6988     2.4220
  512.0000    15.2593    16.3150   -53.6855     9.1605     0.0834     0.1651    65.6942     2.4095
  512.5000    16.9282    17.6103   -53.6738     9.1515     0.0773     0.1881    65.5583     2.3941
  513.0000    18.9092    18.8780   -53.6619     9.1298     0.0708     0.1905    66.5698     2.3655
  513.5000    20.1290    20.2926   -53.6501     9.1296     0.0649     0.2214    66.2025     2.3411
  514.0000    21.4276    21.5449   -53.6382     9.1147     0.0587     0.2347    62.8746     2.2998
  514.5000    22.3441    22.3144   -53.6241     9.0989     0.0563     0.2444    60.8109     2.2861
  515.0000    22.9815    23.1115   -53.3158     9.0988     0.0603     0.2499    60.3517     2.2664
  515.5000    22.9955    23.9369   -53.3041     9.0986     0.0707     0.2523    61.2673     2.2543
  516.0000    22.8518    24.6219   -53.1441     9.0985     0.0814     0.2529    66.4646     2.2525
  516.5000    22.7091    25.5013   -53.1324     9.0983     0.0940     0.2528    69.2154     2.2505
  517.0000    22.7235    26.0510   -53.1207     9.0982     0.1050     0.2480    70.7430     2.2482
  517.5000    22.7403    24.9944   -53.1090     9.0980     0.1138     0.2390    70.1299     2.2603
  518.0000    22.7715    24.3510   -53.0973     9.0979     0.1229     0.2316    68.2935     2.2725
  518.5000    22.9253    24.0343   -53.0856     9.0977     0.1290     0.2265    67.6804     2.2785
  519.0000    22.9393    23.7231   -53.0739     9.1280     0.1380     0.2298    68.9470     2.2830
  519.5000    22.9512    23.5750   -53.0622     9.1278     0.1562     0.2349    69.8599     2.2785
  520.0000    22.9654    23.5949   -53.0505     9.1277     0.1834     0.2343    70.4283     2.2739
  520.5000    22.8203    23.4449   -53.3357     9.1275     0.1743     0.2195    70.7326     2.2724
  521.0000    22.8378    23.2999   -53.7684     9.1274     0.1683     0.2085    70.7309     2.3061
  521.5000    22.8517    23.3196   -53.7567     9.1576     0.1623     0.2209    70.7294     2.3088
  522.0000    22.7055    23.1714   -53.7450     9.1574     0.1620     0.2327    70.1448     2.3032
  522.5000    22.7228    23.1910   -53.7333     9.1573     0.1589     0.2178    68.8711     2.2899
  523.0000    22.7367    23.2066   -53.8699     9.1571     0.1563     0.2348    67.3119     2.2789
  523.5000    22.7506    23.2223   -53.7094     9.1570     0.1533     0.2414    67.0533     2.2711
  524.0000    22.7645    25.4229   -53.6953     9.1872     0.1533     0.2354    67.9692     2.2671
  524.5000    22.7782    26.3391   -53.6836     9.1871     0.1503     0.2185    69.1910     2.2702
  525.0000    22.7923    26.7356   -53.6719     9.1869     0.1256     0.2027    69.8011     2.2915
  525.5000    22.6499    27.4729   -53.5119     9.1564     0.0782     0.1972    70.4112     2.3329
