~VERSION INFORMATION
 VERS.                2.0:   CWLS LOG ASCII STANDARD - VERSION 2.0
 WRAP.                 NO:   ONE LINE PER DEPTH STEP
~WELL INFORMATION
#MNEM.UNIT      DATA TYPE    INFORMATION
#----------   ------------   ------------------------------
 STRT.F           38.0000:   START DEPTH
 STOP.F          663.5000:   STOP DEPTH
 STEP.F            0.5000:   STEP LENGTH
 NULL.          -999.2500:   NO VALUE
 COMP. FENIX & SCISSON INC:   COMPANY
 WELL.   NPR SX #3 #35-34:   WELL
 FLD .             TEAPOT:   FIELD
 LOC .      S34 T39N R78W:   LOCATION
 CNTY.            NATRONA:   COUNTY
 STAT.            WYOMING:   STATE
 CTRY. UNITED STATES OF AMERICA:   COUNTRY
 SRVC.       Schlumberger:   SERVICE COMPANY
 DATE.        21-MAR-1977:   LOGDATE
 API .       490251031500:   API NUMBER
~CURVE INFORMATION
#MNEM.UNIT       API CODE    CURVE DESCRIPTION
#----------   ------------   ------------------------------
 DEPT.F                  :   
 SPR .MV     07 010 01 00:   SPONTANEOUS POTENTIAL
 LL8 .OHMM   07 220 08 00:   LATEROLOG-8 RES.
 ILD .OHMM   07 120 46 00:   INDUCTION LOG DEEP
 ILM .OHMM   07 120 44 00:   INDUCTION LOG MEDIUM
 CALD.IN     45 280 60 00:   CALIPER
 RHOB.G/C3   45 350 01 00:   BULK DENSITY
 DPHI.DEC    45 890 12 00:   DENSITY POROSITY SANDSTONE
 CORR.G/C3   45 356 01 00:   DENSITY CORRECTION
 GRD .GAPI   45 310 01 00:   GAMMA RAY FROM DENSITY LOG
~PARAMETER INFORMATION
#MNEM.UNIT          VALUE    DESCRIPTION
#----------   ------------   ------------------------------
 PD  .                 GL:   PERMANENT DATUM
 EPD .F              5081:   ELEVATION PERMANENT DATUM
 LMF .                 GL:   LOG MEASURED FROM
 DMF .                 KB:   DRILLING MEASURED FROM
 EKB .F              5086:   KELLING BUSHING
 EGL .F              5081:   GROUND LEVEL
 DATE.          3-21-1977:   RUN DATE
 RUN .                  1:   RUN NUMBER
 DD  .F               670:   DEPTH DRILLER
 DL  .F               665:   DEPTH LOGGER
 BLI .F               659:   BOTTOM LOG INTERVAL
 TLI .F                40:   TOP LOG INTERVAL
 CS  .IN            8.625:   CASING SIZE
 CBD .F                40:   CASING BOTTOM DRILLER
 CBL .F                40:   CASING BOTTOM LOGGER
 BS  .IN            7.875:   BIT SIZE
 BSD .F               670:   BIT SIZE AT DEPTH
 DFT .           CHEM GEL:   DRILLING FLUID TYPE
 DFV .                 33:   DRILLING FLUID VISCOSITY
 MSS .           MUD TANK:   MUD SAMPLE SOURCE
 RMS .OHMM           4.98:   RESISTIVITY MUD SAMPLE
 MST .F                53:   MUD SAMPLE TEMPERATURE
 RMF .OHMM           4.94:   RESISTIVITY MUD FILTRATE SAMPLE
 MFST.F                53:   MUD FILTRATE SAMPLE TEMPERATURE
 RMC .OHMM            2.5:   RESISTIVITY MUD CAKE
 MCST.F                53:   MUD CAKE SAMPLE TEMPERATURE
 MFSS.                  M:   MUD FILTRATE SAMPLE SOURCE
 MCSS.                  C:   MUD CAKE SAMPLE SOURCE
 RMB .OHMM              4:   RESISTIVITY MUD AT BHT
 BHT .F                65:   BOTTOM HOLE TEMPERATURE
 TCS .HRS            1000:   TIME CURCULATED STOPPED
 TLAB.HRS            1400:   TIME LOGGER AT BOTTOM
 MRT .F                65:   MAXIMUM RECORDED TEMPERATURE
 LUN .               7742:   LOGGING UNIT NUMBER
 LUL .                GLT:   LOGGING UNIT LOCATION
 ENGI.               LANE:   RECORDING ENGINEER
 WITN.              BURKE:   WITNESSED BY
 CLNT.            A2DTECH:   CLIENT CODE
 ORIG.       2", 5" PRINT:   ORIGIN OF DATA
 UWI .       490251031500:   UNIQUE WELL ID
 DICO. A2D Technologies, Inc.:   DIGITIZING COMPANY
~OTHER INFORMATION
~A   DEPT      SPR        LL8        ILD        ILM       CALD       RHOB       DPHI       CORR         GRD  
# ...
  293.5000   -60.8321    12.0404     9.7500     7.4941     8.1404     2.4393     0.1314     0.0238   107.5660
  294.0000   -60.8261    11.9613     9.6607     7.4062     8.1400     2.4284     0.1396     0.0126   106.8666
  294.5000   -60.8343    11.8827     9.5981     7.3403     8.1397     2.4165     0.1463     0.0098   106.4570
  295.0000   -60.9555    11.8046     9.5983     7.3251     8.1393     2.4261     0.1382     0.0170   105.1183
  295.5000   -61.0781    11.7270     9.5983     7.3099     8.1390     2.4372     0.1319     0.0243   103.7975
  296.0000   -61.2003    11.6508     9.5984     7.2947     8.1386     2.4380     0.1301     0.0238   103.6542
  296.5000   -61.3226    11.7767     9.5984     7.2795     8.1382     2.4399     0.1283     0.0302   104.3869
  297.0000   -61.4445    11.9024     9.5984     7.2773     8.1379     2.4492     0.1235     0.0450   102.2991
  297.5000   -61.5666    12.0295     9.5984     7.2773     8.1375     2.4498     0.1226     0.0344    98.8348
  298.0000   -61.6012    12.1234     9.5984     7.2773     8.1371     2.4384     0.1329     0.0170    97.6636
  298.5000   -61.5388    12.2010     9.5985     7.2773     8.1368     2.4258     0.1373     0.0149   100.1994
  299.0000   -61.4757    11.7588     9.5998     7.2773     8.1364     2.4252     0.1375     0.0168   102.1440
  299.5000   -61.4125    11.8228     9.5561     7.2773     8.1360     2.4255     0.1389     0.0162   101.7784
  300.0000   -61.3492    11.9232     9.4911     7.2773     8.1357     2.4311     0.1353     0.0185   101.4638
  300.5000   -61.2844    12.0245     9.4263     7.2772     8.1353     2.4419     0.1296     0.0237   101.2224
  301.0000   -61.2305    12.0889     9.3619     7.2763     8.1349     2.4427     0.1275     0.0289   103.4461
  301.5000   -61.4774    11.6125     9.1522     7.2834     8.1346     2.4364     0.1298     0.0343   106.6266
  302.0000   -61.7399    11.2763     8.8537     7.2007     8.1342     2.4195     0.1368     0.0177   107.8316
  302.5000   -62.0009    10.9220     8.5650     7.0136     8.1339     2.4197     0.1419     0.0152   109.0454
  303.0000   -62.2652    10.3139     8.2856     6.7744     8.1335     2.4294     0.1351     0.0181   109.4794
  303.5000   -62.6852     9.6870     8.0154     6.4564     8.1331     2.4389     0.1298     0.0287   112.0412
  304.0000   -63.2783     9.0982     7.7629     6.1636     8.1328     2.4453     0.1255     0.0370   115.6696
  304.5000   -63.4614     8.3335     7.6236     6.2511     8.1324     2.4267     0.1382     0.0170   116.1192
  305.0000   -63.6140     8.5212     7.4913     6.3565     8.1320     2.4119     0.1463     0.0120   112.0907
  305.5000   -63.4465     9.0762     7.3618     6.4637     8.1317     2.4186     0.1415     0.0140   113.2195
  306.0000   -63.2823     9.6674     7.2105     6.5727     8.1313     2.4258     0.1376     0.0161   115.5345
  306.5000   -63.1191    10.1448     7.3526     6.6358     8.1309     2.4199     0.1365     0.0164   116.7470
  307.0000   -62.9558     9.6473     7.5315     6.6359     8.1306     2.4148     0.1435     0.0153   117.4065
  307.5000   -62.7915     9.1656     7.7147     6.6561     8.1302     2.4223     0.1397     0.0142   113.2434
  308.0000   -62.6311     9.3928     7.9024     6.7204     8.1299     2.4320     0.1336     0.0130   108.7568
  308.5000   -62.6431     9.7084     7.9972     6.7853     8.1295     2.4412     0.1271     0.0195   111.6724
  309.0000   -62.6639    10.0347     8.0385     6.8221     8.1291     2.4310     0.1358     0.0144   115.2017
  309.5000   -62.6838    10.2681     8.0800     6.8221     8.1288     2.4330     0.1352     0.0189   114.8389
  310.0000   -62.7035    10.4296     8.1216     6.8221     8.1284     2.4408     0.1281     0.0239   115.0762
  310.5000   -62.7232    10.1703     8.1633     6.8223     8.1280     2.4426     0.1274     0.0239   116.0772
  311.0000   -62.7429     9.9593     8.2051     6.8215     8.1277     2.4361     0.1305     0.0187   114.9666
  311.5000   -62.7626    10.0940     8.3114     6.9351     8.1273     2.4346     0.1311     0.0157   112.7478
  312.0000   -62.7823    10.2069     8.4175     7.0168     8.1270     2.4374     0.1248     0.0222   110.5752
  312.5000   -62.8020    10.4911     8.5247     7.0994     8.1266     2.4714     0.1094     0.0419   108.5618
  313.0000   -62.8217    10.8542     8.6333     7.1829     8.1262     2.4918     0.0950     0.0571   114.9369
  313.5000   -62.8414    11.2289     8.7432     7.2674     8.1259     2.4925     0.1039     0.0401   122.1025
  314.0000   -62.8611    11.5098     8.8543     7.3529     8.1255     2.4616     0.1176     0.0182   124.6549
  314.5000   -62.8808    11.6508     8.9992     7.4129     8.1251     2.4549     0.1209     0.0229   123.8386
  315.0000   -62.9005    11.4303     8.9974     7.3458     8.1248     2.4539     0.1209     0.0237   122.4777
  315.5000   -62.9202    11.2347     8.9980     7.2949     8.1244     2.4506     0.1246     0.0194   121.1110
  316.0000   -62.9399    11.1261     8.9980     7.2443     8.1241     2.4543     0.1222     0.0355   119.7504
  316.5000   -62.9596    11.1843     8.9980     7.1941     8.1237     2.4476     0.1260     0.0204   118.3884
  317.0000   -62.9794    11.2286     8.9153     7.1442     8.1233     2.4361     0.1330     0.0132   120.3536
  317.5000   -62.9989    11.0624     8.7755     7.0947     8.1230     2.4270     0.1369     0.0104   123.8248
  318.0000   -63.0196    10.8865     8.6707     7.0455     8.1226     2.4352     0.1315     0.0077   125.5672
  318.5000   -62.9613    10.7134     8.5671     6.9966     8.1222     2.4393     0.1290     0.0050   123.6113
  319.0000   -62.8605    10.5431     8.4648     6.9481     8.1219     2.4408     0.1269     0.0049   121.7635
  319.5000   -62.7585    10.4305     8.3577     6.8999     8.1215     2.4331     0.1309     0.0093   120.6790
  320.0000   -62.6565    10.8366     8.4111     6.8521     8.1211     2.4318     0.1348     0.0136   123.0216
  320.5000   -62.5547    11.0221     8.4696     6.8046     8.1208     2.4349     0.1327     0.0179   120.8100
  321.0000   -62.4527    10.9861     8.5281     6.7574     8.1204     2.4299     0.1383     0.0171   117.2897
  321.5000   -62.3507    10.9597     8.5869     6.6974     8.1201     2.4324     0.1328     0.0199   113.7694
  322.0000   -62.2431    10.9334     8.6461     6.7276     8.1197     2.4324     0.1326     0.0231   112.0546
  322.5000   -62.3454    10.9072     8.7057     6.7699     8.1193     2.4348     0.1316     0.0191   113.2700
  323.0000   -62.5047    10.8810     8.7657     6.8125     8.1190     2.4334     0.1312     0.0146   113.2401
  323.5000   -62.6651    10.8549     8.8261     6.8553     8.1186     2.4453     0.1343     0.0129   113.5342
  324.0000   -62.8250    10.8290     8.8334     6.8854     8.1182     2.4601     0.1178     0.0249   115.8386
  324.5000   -62.9849    10.7395     8.6701     6.7720     8.1179     2.4637     0.1164     0.0291   117.4094
  325.0000   -63.1447    10.6270     8.5468     6.7180     8.1175     2.4637     0.1154     0.0269   114.8477
  325.5000   -63.3045    10.5157     8.4253     6.6644     8.1172     2.4520     0.1206     0.0200   112.3630
  326.0000   -63.4643    10.4057     8.3055     6.6112     8.1168     2.4554     0.1201     0.0184   113.1176
  326.5000   -63.6241    10.2967     8.1874     6.5584     8.1164     2.4501     0.1178     0.0224   116.9311
  327.0000   -63.7839    10.1891     8.0710     6.5061     8.1161     2.4286     0.1270     0.0149   120.8670
  327.5000   -63.9437    10.1041     7.9562     6.4542     8.1157     2.4216     0.1246     0.0095   122.8997
  328.0000   -64.1035    10.0349     7.8419     6.4026     8.1153     2.4439     0.1208     0.0160   124.8785
  328.5000   -64.2633     9.9662     7.6870     6.3516     8.1150     2.4323     0.1182     0.0223   125.3511
  329.0000   -64.4231     9.8980     7.4116     6.3009     8.1146     2.4353     0.1241     0.0287   126.6071
  329.5000   -64.5829     9.8303     7.1497     6.1789     8.1142     2.4435     0.1317     0.0318   129.5081
