~VERSION INFORMATION
 VERS.                2.0:   CWLS LOG ASCII STANDARD - VERSION 2.0
 WRAP.                 NO:   ONE LINE PER DEPTH STEP
~WELL INFORMATION
#MNEM.UNIT      DATA TYPE    INFORMATION
#----------   ------------   ------------------------------
 STRT.F           28.0000:   START DEPTH
 STOP.F          884.0000:   STOP DEPTH
 STEP.F            0.5000:   STEP LENGTH
 NULL.          -999.2500:   NO VALUE
 COMP. U S NAVY-INTEX OIL:   COMPANY
 WELL. NPR 3 TEAPOT DOM #43-SX-2:   WELL
 FLD .             TEAPOT:   FIELD
 LOC .       S2 T38N R78W:   LOCATION
 CNTY.            NATRONA:   COUNTY
 STAT.            WYOMING:   STATE
 CTRY. UNITED STATES OF AMERICA:   COUNTRY
 SRVC.       Schlumberger:   SERVICE COMPANY
 DATE.        19-JUL-1963:   LOGDATE
 API .       490250967900:   API NUMBER
~CURVE INFORMATION
#MNEM.UNIT       API CODE    CURVE DESCRIPTION
#----------   ------------   ------------------------------
 DEPT.F                  :   
 ASN .OHMM   05 041 16 00:   AMPLIFIED SHORT NORMAL 16"
 CILD.MMHO   05 110 46 00:   CONDUCTIVITY INDUCTION LOG DEEP
 ILD .OHMM   05 120 46 00:   INDUCTION LOG DEEP
 SPR .MV     05 010 01 00:   SPONTANEOUS POTENTIAL FROM RES.
 GR  .GAPI   30 310 01 00:   GAMMA RAY
~PARAMETER INFORMATION
#MNEM.UNIT          VALUE    DESCRIPTION
#----------   ------------   ------------------------------
 LMF .                 KB:   LOG MEASURED FROM
 DMF .                 KB:   DRILLING MEASURED FROM
 EKB .F              5151:   KELLING BUSHING
 EGL .F              5146:   GROUND LEVEL
 DATE.        19-JUL-1963:   RUN DATE
 RUN .                  1:   RUN NUMBER
 DD  .F               881:   DEPTH DRILLER
 DL  .F               885:   DEPTH LOGGER
 BLI .F               884:   BOTTOM LOG INTERVAL
 TLI .F                30:   TOP LOG INTERVAL
 CS  .IN            8.625:   CASING SIZE
 CBD .F                12:   CASING BOTTOM DRILLER
 BS  .IN             6.75:   BIT SIZE
 BSD .F               881:   BIT SIZE AT DEPTH
 DFT .           GEL- OIL:   DRILLING FLUID TYPE
 DFD .                9.6:   DRILLING FLUID DENSITY
 DFV .                 39:   DRILLING FLUID VISCOSITY
 DFPH.                8.5:   DRILLING FLUID PH
 DFL .                4.4:   DRILLING FLUID LOSS
 RMS .OHMM           2.58:   RESISTIVITY MUD SAMPLE
 MST .F                72:   MUD SAMPLE TEMPERATURE
 RMF .OHMM           2.26:   RESISTIVITY MUD FILTRATE SAMPLE
 MFST.F                72:   MUD FILTRATE SAMPLE TEMPERATURE
 TCS .HRS               3:   TIME CURCULATED STOPPED
 LUN .               4507:   LOGGING UNIT NUMBER
 LUL .             CASPER:   LOGGING UNIT LOCATION
 ENGI.            WINKLER:   RECORDING ENGINEER
 WITN.          JORGENSEN:   WITNESSED BY
 CLNT.            A2DTECH:   CLIENT CODE
 ORIG.      2.5" 5" PRINT:   ORIGIN OF DATA
 UWI .       490250967900:   UNIQUE WELL ID
 DICO. A2D Technologies, Inc.:   DIGITIZING COMPANY
~OTHER INFORMATION
~A   DEPT      ASN         CILD       ILD       SPR         GR   
# ...
  272.0000     3.9564   330.5480     3.1149   -36.5787  -999.2500
  272.5000     3.8538   319.9641     3.4165   -36.5816  -999.2500
  273.0000     4.0058   298.7741     3.7180   -36.5846  -999.2500
  273.5000     4.6123   271.5235     4.0195   -36.5875  -999.2500
  274.0000     5.0067   238.2123     4.3211   -36.5905  -999.2500
  274.5000     5.0677   212.0933     4.4711   -36.5934  -999.2500
  275.0000     5.0985   195.5810     4.6212   -36.5964  -999.2500
  275.5000     5.0989   189.5909     4.7712   -36.2981  -999.2500
  276.0000     5.0994   195.4952     4.7697   -36.3012  -999.2500
  276.5000     5.1041   204.1994     4.6103   -36.6054  -999.2500
  277.0000     5.1722   206.5303     4.4636   -36.6084  -999.2500
  277.5000     5.2523   208.0682     4.4432   -36.6114  -999.2500
  278.0000     5.2224   208.0909     4.3091   -36.3129  -999.2500
  278.5000     5.1524   211.8182     4.3076   -36.3163  -999.2500
  279.0000     5.0189   220.2375     4.3061   -36.3193  -999.2500
  279.5000     4.8826   240.7088     4.1088   -36.3223  -999.2500
  280.0000     4.7111   271.8226     3.7980   -36.3253  -999.2500
  280.5000     4.5269   290.0266     3.4871   -36.3283  -999.2500
  281.0000     4.3561   299.1396     3.2394   -36.3313  -999.2500
  281.5000     4.1045   321.8891     3.0864   -36.3343  -999.2500
  282.0000     3.8322   346.1537     2.8576   -36.3373  -999.2500
  282.5000     3.8023   335.5697     2.7803   -36.0392  -999.2500
  283.0000     3.8331   326.5010     2.7788   -36.0427  -999.2500
  283.5000     4.0457   314.4019     2.9285   -36.0457  -999.2500
  284.0000     4.0909   300.6864     3.0788   -36.3498  -999.2500
  284.5000     3.9859   286.7807     3.3801   -36.3528  -999.2500
  285.0000     4.0167   272.3228     3.6818   -36.6569  -999.2500
  285.5000     5.5626   248.0494     3.9832   -36.6599  -999.2500
  286.0000     5.8358   211.3634     4.4362   -36.9640  -999.2500
  286.5000     5.7083   180.3814     4.7378   -36.6657  -999.2500
  287.0000     5.5639   176.1919     4.8879   -36.6687  -999.2500
  287.5000     5.6654   171.5910     4.8863   -36.6717  -999.2500
  288.0000     5.7531   171.3131     4.8848   -36.3734  -999.2500
  288.5000     5.8156   175.9597     4.5740   -36.3765  -999.2500
  289.0000     5.8385   179.8937     4.4147   -36.3798  -999.2500
  289.5000     5.8175   189.0250     4.2553   -36.0813  -999.2500
  290.0000     5.6697   226.8223     3.9444   -36.0845  -999.2500
  290.5000     5.4221   254.1171     3.7851   -36.0875  -999.2500
  291.0000     5.0847   278.3817     3.6636   -36.0904  -999.2500
  291.5000     4.5911   292.0402     3.4664   -36.3946  -999.2500
  292.0000     4.1232   299.6382     3.3576   -36.3976  -999.2500
  292.5000     3.8721   304.2057     3.3561   -36.0993  -999.2500
  293.0000     4.0846   304.2279     3.4177   -36.1024  -999.2500
  293.5000     4.2972   305.7652     3.6561   -36.1054  -999.2500
  294.0000     3.9946   302.6161     3.6545   -36.4096  -999.2500
  294.5000     3.9895   294.7577     3.8045   -36.4127  -999.2500
  295.0000     4.0561   281.9704     4.0429   -36.4960  -999.2500
  295.5000     4.6323   264.3236     4.2561   -36.7199  -999.2500
  296.0000     4.7236   240.6664     4.5573   -36.7229  -999.2500
  296.5000     4.7546   210.5756     4.7074   -36.7259  -999.2500
  297.0000     4.7900   202.3536     4.8576   -36.4277  -999.2500
  297.5000     5.0371   199.2677     4.8559   -36.1295  -999.2500
  298.0000     5.2236   199.7879     4.5514   -35.8313  -999.2500
  298.5000     5.3681   208.3181     4.3984   -35.8343  -999.2500
  299.0000     5.4233   216.8132     4.2454   -35.8373  -999.2500
  299.5000     5.3848   224.2240     4.2439   -35.8409  -999.2500
  300.0000     5.2828   228.7916     3.9394   -35.8441  -999.2500
  300.5000     5.0944   233.3592     3.8818   -36.1497  -999.2500
  301.0000     4.5850   237.9268     3.6364   -36.1541  -999.2500
  301.5000     4.3959   242.4944     3.5646   -36.1585  -999.2500
  302.0000     4.2209   262.2135     3.3333   -36.1630  -999.2500
  302.5000     4.1654   280.4175     3.1818   -36.1674  -999.2500
  303.0000     4.1260   291.0457     3.3333   -36.4730  -999.2500
  303.5000     4.0936   294.0982     3.3333   -36.4774  -999.2500
  304.0000     4.0612   286.1817     3.3333   -36.4658  -999.2500
  304.5000     3.9986   280.3082     3.3333   -36.1850  -999.2500
  305.0000     3.9804   275.9828     3.1818   -36.1446  -999.2500
  305.5000     3.9339   285.8107     3.1818   -35.8926  -999.2500
  306.0000     3.8580   292.0504     3.0303   -35.8233  -999.2500
  306.5000     3.9175   295.2601     2.7273   -35.6003  -999.2500
  307.0000     3.9274   297.8789     2.5758   -35.3035  -999.2500
  307.5000     3.8254   299.4949     2.5758   -35.3087  -999.2500
  308.0000     3.7340   302.6262     2.4242   -35.3133  -999.2500
  308.5000     3.6125   310.4395     2.4242   -35.4649  -999.2500
  309.0000     3.4909   344.7523     2.4242   -35.6235  -999.2500
  309.5000     3.4297   385.7225     2.4242   -35.6280  -999.2500
  310.0000     3.2256   431.7675     2.4242   -35.9345  -999.2500
  310.5000     3.0355   440.5930     2.4242   -35.9390  -999.2500
  311.0000     3.0658   440.0858     2.4242   -35.9434  -999.2500
  311.5000     3.1593   430.0355     2.4859   -35.9478  -999.2500
  312.0000     3.2483   406.1206     2.6444   -36.2534  -999.2500
  312.5000     3.2742   373.1064     2.8030   -36.2578  -999.2500
  313.0000     3.3101   347.2976     3.1131   -35.9610  -999.2500
  313.5000     3.6653   320.7556     3.4848   -35.9654  -999.2500
  314.0000     4.1479   276.8455     3.6364   -35.9699  -999.2500
  314.5000     4.3889   254.1034     3.7879   -35.9744  -999.2500
  315.0000     4.3277   240.4522     3.6364   -35.9789  -999.2500
  315.5000     4.2665   232.8616     3.4848   -35.6819  -999.2500
  316.0000     4.1752   228.3013     3.3333   -35.6867  -999.2500
  316.5000     4.0838   238.8926     3.1818   -35.6913  -999.2500
  317.0000     4.0226   254.0293     3.0303   -35.6958  -999.2500
  317.5000     3.9313   266.1357     3.0303   -35.7003  -999.2500
  318.0000     3.8693   276.7269     2.5737   -35.8273  -999.2500
  318.5000     3.7449   290.3485     2.4152   -36.0105  -999.2500
  319.0000     3.6507   314.1761     2.1212   -36.0151  -999.2500
  319.5000     3.4868   373.8770     1.9697   -36.3208  -999.2500
  320.0000     3.2810   408.1825     1.9697   -36.6274  -999.2500
  320.5000     3.1868   424.7022     1.8182   -36.3298  -999.2500
  321.0000     3.0623   435.2276     1.8182   -36.3350  -999.2500
  321.5000     3.1506   440.2596     1.8697   -36.3394  -999.2500
  322.0000     3.3436   412.7679     2.0283   -36.0422  -999.2500
  322.5000     3.4101   383.9393     2.3384   -36.0470  -999.2500
  323.0000     3.4094   365.3334     2.6485   -36.3526  -999.2500
  323.5000     3.4706   344.5329     3.1101   -36.3571  -999.2500
  324.0000     3.7188   320.5658     3.5717   -36.6627  -999.2500
  324.5000     4.4039   273.6218     3.9394   -36.9684  -999.2500
  325.0000     4.6449   229.7973     4.2424   -36.6715  -999.2500
  325.5000     4.8254   203.7700     4.5455   -36.6762  -999.2500
  326.0000     5.0060   191.6339     4.8485   -36.6807  -999.2500
  326.5000     5.2167   187.0737     5.0000   -36.6852  -999.2500
  327.0000     5.3670   187.0589     5.1515   -36.6064  -999.2500
  327.5000     5.5778   185.5289     5.3030   -36.3924  -999.2500
  328.0000     5.7583   180.9686     5.4545   -36.6988  -999.2500
  328.5000     5.9086   171.8629     5.6061   -36.7033  -999.2500
  329.0000     6.0637   164.2723     5.7636   -36.7078  -999.2500
  329.5000     6.3458   159.7120     6.0606   -37.0136  -999.2500
  330.0000     6.7805   155.1010     6.2121   -37.0181  -999.2500
  330.5000     7.1304   153.6212     6.2121   -37.0234  -999.2500
  331.0000     7.3385   153.6061     6.2121   -37.0279  -999.2500
  331.5000     7.3543   153.5909     6.2121   -37.3335  -999.2500
  332.0000     7.3233   153.5758     6.2121   -37.0367  -999.2500
  332.5000     7.3114   153.5606     6.2121   -37.0411  -999.2500
