~VERSION INFORMATION
 VERS.                2.0:   CWLS LOG ASCII STANDARD - VERSION 2.0
 WRAP.                 NO:   ONE LINE PER DEPTH STEP
~WELL INFORMATION
#MNEM.UNIT      DATA TYPE    INFORMATION
#----------   ------------   ------------------------------
 STRT.F          148.5000:   START DEPTH
 STOP.F          882.5000:   STOP DEPTH
 STEP.F            0.5000:   STEP LENGTH
 NULL.          -999.2500:   NO VALUE
 COMP.               NAVY:   COMPANY
 WELL. RES 3 TEAPOT DOM #55S-11:   WELL
 FLD .             TEAPOT:   FIELD
 LOC .      S11 T38N R78W:   LOCATION
 CNTY.            NATRONA:   COUNTY
 STAT.            WYOMING:   STATE
 CTRY. UNITED STATES OF AMERICA:   COUNTRY
 SRVC.       Schlumberger:   SERVICE COMPANY
 DATE.        05-AUG-1961:   LOGDATE
 API .       490250634000:   API NUMBER
~CURVE INFORMATION
#MNEM.UNIT       API CODE    CURVE DESCRIPTION
#----------   ------------   ------------------------------
 DEPT.F                  :   
 GR  .GAPI   30 310 01 00:   GAMMA RAY
 SPR .MV     05 010 01 00:   SPONTANEOUS POTENTIAL FROM RES.
 CILD.MMHO   05 110 46 00:   CONDUCTIVITY INDUCTION LOG DEEP
 ASN .OHMM   05 041 16 00:   AMPLIFIED SHORT NORMAL 16"
 ILD .OHMM   05 120 46 00:   INDUCTION LOG DEEP
~PARAMETER INFORMATION
#MNEM.UNIT          VALUE    DESCRIPTION
#----------   ------------   ------------------------------
 PD  .                 GL:   PERMANENT DATUM
 EPD .F              5201:   ELEVATION PERMANENT DATUM
 LMF .                 KB:   LOG MEASURED FROM
 DAPD.F                 6:   FEET ABOVE PERMANENT DATUM
 DMF .                 KB:   DRILLING MEASURED FROM
 EKB .F              5207:   KELLING BUSHING
 EGL .F              5201:   GROUND LEVEL
 DATE.             8-5-61:   RUN DATE
 RUN .                  1:   RUN NUMBER
 DD  .F               880:   DEPTH DRILLER
 DL  .F               882:   DEPTH LOGGER
 BLI .F               881:   BOTTOM LOG INTERVAL
 TLI .F               150:   TOP LOG INTERVAL
 BS  .IN            7.875:   BIT SIZE
 BSD .F               880:   BIT SIZE AT DEPTH
 DFT .       OIL EMULSION:   DRILLING FLUID TYPE
 DFV .                 40:   DRILLING FLUID VISCOSITY
 MSS .           FLOWLINE:   MUD SAMPLE SOURCE
 RMS .OHMM            .96:   RESISTIVITY MUD SAMPLE
 MST .F                74:   MUD SAMPLE TEMPERATURE
 TCS .HRS               1:   TIME CURCULATED STOPPED
 LUN .               2544:   LOGGING UNIT NUMBER
 LUL .                 NC:   LOGGING UNIT LOCATION
 ENGI.            EARNEST:   RECORDING ENGINEER
 WITN.          JORGENSEN:   WITNESSED BY
 CLNT.            A2DTECH:   CLIENT CODE
 ORIG.       2", 5" PRINT:   ORIGIN OF DATA
 UWI .       490250634000:   UNIQUE WELL ID
 DICO. A2D Technologies, Inc.:   DIGITIZING COMPANY
~OTHER INFORMATION
~A   DEPT       GR        SPR       CILD        ASN        ILD   
  148.5000  -999.2500   -54.0404  -999.2500  -999.2500  -999.2500
  149.0000  -999.2500   -54.0404  -999.2500  -999.2500  -999.2500
  149.5000  -999.2500   -53.9683  -999.2500  -999.2500  -999.2500
  150.0000  -999.2500   -53.6796  -999.2500  -999.2500     7.4018
  150.5000  -999.2500   -53.3910  -999.2500  -999.2500     7.5599
  151.0000  -999.2500   -53.1025  -999.2500     8.0068     7.7039
  151.5000  -999.2500   -52.8139  -999.2500     8.1269     7.6683
  152.0000  -999.2500   -52.7590  -999.2500     8.1269     7.6345
  152.5000  -999.2500   -52.3797  -999.2500     7.2336     7.6032
  153.0000  -999.2500   -52.0963  -999.2500     6.0571     7.4008
  153.5000  -999.2500   -51.9943  -999.2500     4.8806     7.3164
  154.0000  -999.2500   -51.9476  -999.2500     3.2326     7.1199
  154.5000  -999.2500   -51.8865   157.6586     3.2934     6.9299
  155.0000  -999.2500   -51.8428   162.3397     3.1242     6.7390
  155.5000  -999.2500   -52.0704   164.1490     2.9999     6.5559
  156.0000  -999.2500   -52.3609   164.1490     2.9177     6.3569
  156.5000  -999.2500   -52.6244   162.2488     2.8735     6.3254
  157.0000  -999.2500   -52.8971   160.5584     2.8549     6.4155
  157.5000  -999.2500   -53.1604   158.8680     2.8436     6.4810
  158.0000  -999.2500   -53.2441   158.0228     3.1205     6.5572
  158.5000  -999.2500   -53.2102   156.3324     3.6564     6.6297
  159.0000  -999.2500   -53.1336   154.6420     4.2306     6.7004
  159.5000  -999.2500   -53.0544   154.0786     4.8018     6.7782
  160.0000  -999.2500   -52.9668   159.0083     5.3439     6.7765
  160.5000  -999.2500   -52.8998   163.3357     7.9095     6.7321
  161.0000  -999.2500   -52.7256   167.6632     7.6028     6.6757
  161.5000  -999.2500   -52.4832   171.9906     7.3536     6.4532
  162.0000  -999.2500   -52.3143   176.3180     7.1131     6.2564
  162.5000  -999.2500   -52.1289   180.6455     6.8219     6.0427
  163.0000  -999.2500   -51.9499   184.9729     6.6159     5.8635
  163.5000  -999.2500   -51.8111   188.3182     6.4766     5.6497
  164.0000  -999.2500   -51.8858   188.3182     6.3916     5.4957
  164.5000  -999.2500   -52.1389   187.5701     6.3223     5.5650
  165.0000  -999.2500   -52.3949   186.3041     6.2747     5.6223
  165.5000  -999.2500   -52.6555   188.3182     6.2743     5.6841
  166.0000  -999.2500   -52.9101   188.3182     6.2951     5.7509
  166.5000  -999.2500   -53.1660   189.0353     6.3741     5.7962
  167.0000  -999.2500   -53.2409   189.9716     6.4655     5.7784
  167.5000  -999.2500   -53.2288   190.9078     6.5207     5.7502
  168.0000  -999.2500   -53.1162   191.8440     6.4929     5.7094
  168.5000  -999.2500   -52.9396   192.7802     6.4072     5.6862
  169.0000  -999.2500   -52.7775   193.7164     6.2817     5.5981
  169.5000  -999.2500   -52.6070   194.1073     6.1723     5.4840
  170.0000  -999.2500   -52.4432   193.2959     6.0396     5.3530
  170.5000  -999.2500   -52.2717   192.4845     5.9645     5.3073
  171.0000  -999.2500   -52.1120   191.6731     5.9869     5.4074
  171.5000  -999.2500   -51.9303   190.8618     6.0153     5.4857
  172.0000  -999.2500   -51.8725   190.3323     6.0895     5.5844
  172.5000  -999.2500   -52.0705   193.5384     6.1603     5.5557
  173.0000  -999.2500   -52.2698   197.3056     6.2339     5.4508
  173.5000  -999.2500   -52.4751   201.0728     6.3073     5.3514
  174.0000  -999.2500   -52.6755   204.8400     6.3119     5.2493
  174.5000  -999.2500   -52.8805   208.6072     6.2310     5.1470
  175.0000  -999.2500   -53.0797   212.3744     6.1303     5.0479
  175.5000  -999.2500   -53.2901   216.5156     6.0121     4.9391
  176.0000  -999.2500   -53.4318   219.2562     5.8650     4.8630
  176.5000  -999.2500   -53.3778   222.2990     5.7160     4.8286
  177.0000  -999.2500   -53.2945   225.3417     5.5658     4.7852
  177.5000  -999.2500   -53.2149   228.6002     5.4208     4.7461
  178.0000  -999.2500   -53.1316   230.6143     5.3965     4.7049
  178.5000  -999.2500   -53.0474   230.6143     5.3902     4.6644
  179.0000  -999.2500   -52.8092   230.6143     5.3807     4.6240
  179.5000  -999.2500   -52.4960   229.1314     5.3709     4.5842
  180.0000  -999.2500   -52.1962   227.5710     5.3672     4.5919
  180.5000  -999.2500   -51.8989   226.0107     5.3652     4.6194
  181.0000  -999.2500   -51.8004   224.4503     5.3871     4.6438
  181.5000  -999.2500   -51.8879   222.8899     5.4361     4.6698
  182.0000  -999.2500   -52.1372   221.3295     5.4808     4.6949
  182.5000  -999.2500   -52.3949   219.7691     5.5275     4.7205
  183.0000  -999.2500   -52.6546   218.2088     5.5733     4.7458
  183.5000  -999.2500   -52.9099   216.6484     5.6193     4.7712
  184.0000  -999.2500   -53.1660   215.0880     5.6661     4.7966
  184.5000  -999.2500   -53.2400   213.5277     5.7069     4.8220
  185.0000  -999.2500   -53.2347   211.9673     5.7107     4.8474
  185.5000  -999.2500   -53.2309   210.4733     5.7099     4.8728
  186.0000  -999.2500   -53.2460   209.7269     5.7105     4.8980
  186.5000  -999.2500   -53.1300   209.0110     5.7094     4.9237
  187.0000  -999.2500   -52.8612   208.2950     5.7139     4.9485
  187.5000  -999.2500   -52.6534   207.5791     5.7440     4.9749
  188.0000  -999.2500   -52.4304   206.8632     5.7683     4.9861
  188.5000  -999.2500   -52.2130   206.1472     5.7901     4.9846
  189.0000  -999.2500   -51.9978   205.4295     5.7816     4.9855
  189.5000  -999.2500   -51.7707   204.7110     5.7624     4.9851
  190.0000  -999.2500   -51.6181   204.4142     5.7456     4.9858
  190.5000  -999.2500   -51.6177   204.0680     5.7303     4.9852
  191.0000  -999.2500   -51.7408   203.4757     5.7314     4.9866
  191.5000  -999.2500   -51.9266   202.8315     5.7282     4.9844
  192.0000  -999.2500   -52.0999   202.1652     5.7520     4.9898
  192.5000  -999.2500   -52.2797   203.8784     5.7891     4.9645
  193.0000  -999.2500   -52.4556   210.4067     5.8299     4.7721
  193.5000  -999.2500   -52.6342   223.1644     5.8560     4.5842
  194.0000  -999.2500   -52.8108   237.3395     5.9048     4.3961
  194.5000  -999.2500   -52.9846   251.5345     5.7101     4.2088
  195.0000  -999.2500   -53.0350   265.6830     5.4457     4.0196
  195.5000  -999.2500   -52.9208   277.1444     5.1290     3.8381
  196.0000  -999.2500   -52.7665   288.3183     4.7360     3.7584
  196.5000  -999.2500   -52.6147   291.0802     4.3930     3.8077
  197.0000  -999.2500   -52.4620   291.0373     4.2699     3.8674
  197.5000  -999.2500   -52.2731   278.8088     4.3046     4.0053
  198.0000  -999.2500   -52.0709   268.6664     4.4784     4.2538
  198.5000  -999.2500   -51.8640   260.8258     4.6450     4.4585
  199.0000  -999.2500   -51.6698   241.4103     4.8189     4.6800
  199.5000  -999.2500   -51.4555   225.5862     4.9653     4.8977
  200.0000  -999.2500   -51.4996   209.7620     5.1715     5.1073
  200.5000  -999.2500   -51.6964   193.9379     5.4209     5.3474
  201.0000  -999.2500   -51.9151   181.0560     5.6345     5.5408
  201.5000  -999.2500   -52.1973   176.4178     5.8863     5.6600
  202.0000  -999.2500   -52.3915   171.7796     6.0102     5.8075
  202.5000  -999.2500   -52.6158   166.1631     6.1336     5.9439
  203.0000  -999.2500   -52.8318   164.3332     6.2592     6.0841
  203.5000  -999.2500   -53.0593   162.0141     6.3851     6.2264
  204.0000  -999.2500   -53.2673   159.6950     6.5087     6.3596
  204.5000  -999.2500   -53.5159   158.1068     6.6492     6.5164
  205.0000  -999.2500   -53.6470   158.1068     6.7664     6.6065
  205.5000  -999.2500   -53.6421   159.6694     6.9211     6.5850
  206.0000  -999.2500   -53.5535   164.4042     7.0086     6.3944
  206.5000  -999.2500   -53.2994   169.1390     6.9823     6.1288
  207.0000  -999.2500   -53.0573   174.4398     6.9089     5.8801
  207.5000  -999.2500   -52.8147   180.7811     6.7589     5.6104
  208.0000  -999.2500   -52.5534   187.1224     6.6134     5.4565
  208.5000  -999.2500   -52.4030   193.4636     6.4634     5.2969
  209.0000  -999.2500   -52.4958   199.8049     6.3172     5.1577
