~VERSION INFORMATION
 VERS.                2.0:   CWLS LOG ASCII STANDARD - VERSION 2.0
 WRAP.                 NO:   ONE LINE PER DEPTH STEP
~WELL INFORMATION
#MNEM.UNIT      DATA TYPE    INFORMATION
#----------   ------------   ------------------------------
 STRT.F           24.0000:   START DEPTH
 STOP.F          609.0000:   STOP DEPTH
 STEP.F            0.5000:   STEP LENGTH
 NULL.          -999.2500:   NO VALUE
 COMP. FENIX & SCISSON INC:   COMPANY
 WELL.        S 34 #48-34:   WELL
 FLD .            NPR - 3:   FIELD
 LOC .      S34 T39N R78W:   LOCATION
 CNTY.            NATRONA:   COUNTY
 STAT.            WYOMING:   STATE
 CTRY. UNITED STATES OF AMERICA:   COUNTRY
 SRVC.              Welex:   SERVICE COMPANY
 DATE.        03-MAY-1977:   LOGDATE
 API .       490251035700:   API NUMBER
~CURVE INFORMATION
#MNEM.UNIT       API CODE    CURVE DESCRIPTION
#----------   ------------   ------------------------------
 DEPT.F                  :   
 CALD.IN     45 280 60 00:   CALIPER FROM DENSITY LOG
 CORR.G/C3   45 356 01 00:   DENSITY CORRECTION
 DPHI.DEC    45 890 12 00:   DENSITY POROSITY SANDSTONE
 GRD .GAPI   45 310 01 00:   GAMMA RAY FROM DENSITY LOG
 RHOB.G/C3   45 350 01 00:   BULK DENSITY
 GURD.OHMM   07 220 05 00:   SHALLOW GUARD RESISTIVITY
 ILD .OHMM   07 120 46 00:   INDUCTION LOG DEEP
 ILM .OHMM   07 120 44 00:   INDUCTION LOG MEDIUM
 SPR .MV     07 010 01 00:   SPONTANEOUS POTENTIAL FROM RES.
~PARAMETER INFORMATION
#MNEM.UNIT          VALUE    DESCRIPTION
#----------   ------------   ------------------------------
 PD  .                 GL:   PERMANENT DATUM
 EPD .F              5160:   ELEVATION PERMANENT DATUM
 LMF .                 GL:   LOG MEASURED FROM
 DMF .                 GL:   DRILLING MEASURED FROM
 EGL .F              5160:   GROUND LEVEL
 DATE.        03-MAY-1977:   RUN DATE
 RUN .                  1:   RUN NUMBER
 DD  .F               610:   DEPTH DRILLER
 DL  .F               611:   DEPTH LOGGER
 BLI .F               609:   BOTTOM LOG INTERVAL
 TLI .F                30:   TOP LOG INTERVAL
 CS  .IN            8.625:   CASING SIZE
 CBD .F                40:   CASING BOTTOM DRILLER
 CBL .F                32:   CASING BOTTOM LOGGER
 BS  .IN            7.875:   BIT SIZE
 BSD .F               610:   BIT SIZE AT DEPTH
 DFT .            KCL GEL:   DRILLING FLUID TYPE
 DFD .                8.9:   DRILLING FLUID DENSITY
 DFV .                 33:   DRILLING FLUID VISCOSITY
 DFPH.                8.0:   DRILLING FLUID PH
 DFL .                7.2:   DRILLING FLUID LOSS
 MSS .            MUD PIT:   MUD SAMPLE SOURCE
 RMS .OHMM           0.19:   RESISTIVITY MUD SAMPLE
 MST .F                65:   MUD SAMPLE TEMPERATURE
 RMF .OHMM           0.16:   RESISTIVITY MUD FILTRATE SAMPLE
 MFST.F                65:   MUD FILTRATE SAMPLE TEMPERATURE
 RMC .OHMM           0.24:   RESISTIVITY MUD CAKE
 MCST.F                65:   MUD CAKE SAMPLE TEMPERATURE
 MFSS.               MEAS:   MUD FILTRATE SAMPLE SOURCE
 MCSS.               MEAS:   MUD CAKE SAMPLE SOURCE
 RMB .OHMM           0.17:   RESISTIVITY MUD AT BHT
 BHT .F                72:   BOTTOM HOLE TEMPERATURE
 TCS .HRS               2:   TIME CURCULATED STOPPED
 MRT .F                72:   MAXIMUM RECORDED TEMPERATURE
 LUN .               8766:   LOGGING UNIT NUMBER
 LUL .             CASPER:   LOGGING UNIT LOCATION
 ENGI.          T. JOYNER:   RECORDING ENGINEER
 WITN.           ROB LYON:   WITNESSED BY
 CLNT.            A2DTECH:   CLIENT CODE
 ORIG.           5" PRINT:   ORIGIN OF DATA
 UWI .       490251035700:   UNIQUE WELL ID
 DICO. A2D Technologies, Inc.:   DIGITIZING COMPANY
~OTHER INFORMATION
~A   DEPT       CALD      CORR        DPHI      GRD         RHOB     GURD        ILD        ILM        SPR   
# ...
  243.0000     7.8854     0.0038     0.1427   103.2441     2.4406    14.4618     8.7768    10.8870   -27.5337
  243.5000     7.8865    -0.0005     0.1430   103.7036     2.4399    14.3731     8.7834    10.8969   -27.8204
  244.0000     7.8877    -0.0004     0.1430   106.2532     2.4392    14.3944     8.7278    10.9087   -27.9296
  244.5000     7.8889    -0.0003     0.1432   108.6958     2.4378    14.5008     8.4975    10.9923   -28.0528
  245.0000     7.8751    -0.0002     0.1438   109.8240     2.4379    14.2977     8.2717    10.9260   -28.0323
  245.5000     7.8614    -0.0001     0.1435   109.8354     2.4380    14.1293     7.9413    10.8467   -28.1657
  246.0000     7.8628     0.0000     0.1401   108.0665     2.4463    14.3423     8.3996    10.7949   -28.1401
  246.5000     7.8640     0.0002     0.1365   105.1106     2.4517    14.7583     8.5231    11.1104   -28.4173
  247.0000     7.8500     0.0005     0.1347   104.1859     2.4555    14.3679     8.1826    11.2754   -28.5507
  247.5000     7.8366     0.0064     0.1353   106.3205     2.4563    13.7002     8.0190    11.3638   -28.9715
  248.0000     7.8377     0.0125     0.1359   107.5905     2.4548    14.0002     8.3092    11.3739   -29.3974
  248.5000     7.8391     0.0187     0.1340   109.4621     2.4541    14.5031     8.1446    11.3029   -29.5309
  249.0000     7.8403     0.0218     0.1319   111.6991     2.4587    13.5478     7.9282    11.3155   -29.5053
  249.5000     7.8414     0.0234     0.1310   114.6779     2.4611    13.9407     7.7711    11.2474   -29.4848
  250.0000     7.8392     0.0235     0.1322   117.6539     2.4566    14.6462     7.6172    10.7992   -29.4643
  250.5000     7.8288     0.0191     0.1348   111.2884     2.4515    14.5580     7.4663    10.4410   -29.4435
  251.0000     7.8300     0.0148     0.1369   109.9644     2.4500    13.9780     7.5762    10.1625   -29.4226
  251.5000     7.8461     0.0133     0.1376   108.7552     2.4539    13.2364     7.6346     9.7597   -29.3977
  252.0000     7.8323     0.0120     0.1345   107.0230     2.4570    12.5342     7.0226     9.5676   -29.4600
  252.5000     7.8338     0.0091     0.1332   106.4382     2.4593    11.8692     6.8934     9.3790   -29.5376
  253.0000     7.8349     0.0077     0.1326   108.8264     2.4601    10.9950     6.8025     9.1945   -29.6152
  253.5000     7.8209     0.0093     0.1326   111.2118     2.4602    10.4817     6.6230     9.2027   -29.6929
  254.0000     7.8223     0.0125     0.1326   113.1520     2.4603    10.9104     6.5357     9.2110   -29.7705
  254.5000     7.8235     0.0141     0.1329   113.6086     2.4604    11.9738     6.5418     9.2929   -29.8481
  255.0000     7.8247     0.0142     0.1289   112.2651     2.4658    11.8170     6.5922     9.4623   -29.8810
  255.5000     7.8109     0.0158     0.1262   108.3545     2.4695    11.7413     6.6430     9.6092   -29.8631
  256.0000     7.8124     0.0174     0.1268   106.8181     2.4680    11.6681     6.6480    10.0649   -29.8417
  256.5000     7.8135     0.0176     0.1277   108.9096     2.4682    11.4378     6.6992    10.2101   -29.8244
  257.0000     7.7995     0.0192     0.1273   108.9211     2.4683    11.4455     6.7508     9.4014   -29.8071
  257.5000     7.8010     0.0193     0.1270   107.7456     2.4684    11.6936     6.7916     9.6700   -29.7898
  258.0000     7.8021     0.0194     0.1276   102.9059     2.4669    12.2943     6.8705    10.3670   -29.6237
  258.5000     7.8033     0.0196     0.1279   107.2266     2.4663    12.1238     6.8276     9.2840   -29.6064
  259.0000     7.8045     0.0197     0.1278   110.2083     2.4664    11.7191     6.8350     9.9556   -29.5891
  259.5000     7.8056     0.0198     0.1278   110.8398     2.4665    11.5637     6.8886    10.3112   -29.5714
  260.0000     7.8070     0.0199     0.1272   109.0109     2.4673    11.7348     6.9921     9.9649   -29.5501
  260.5000     7.8081     0.0200     0.1264   107.2842     2.4704    12.0725     7.0957     9.6884   -29.5328
  261.0000     7.8092     0.0201     0.1237   106.1152     2.4734    12.0806     7.2509    10.1146   -29.5155
  261.5000     7.8104     0.0203     0.1222   107.1682     2.4765    12.1785     7.3583    10.7701   -29.4982
  262.0000     7.8116     0.0204     0.1210   110.8918     2.4774    12.6121     7.4159    10.2653   -29.4809
  262.5000     7.8276     0.0190     0.1242   116.2475     2.4699    12.7966     7.5258     9.9883   -29.4636
  263.0000     7.8439     0.0161     0.1317   123.8287     2.4558    12.9837     7.5847    10.4182   -29.4463
  263.5000     7.8450     0.0162     0.1362   124.6123     2.4499    12.9924     7.5960    10.3511   -29.5778
  264.0000     7.8759     0.0164     0.1385   123.4046     2.4484    13.0011     7.6523     9.7934   -29.4073
  264.5000     7.8770     0.0134     0.1382   121.9001     2.4508    12.9198     7.5537     9.6676   -29.5431
  265.0000     7.8782     0.0106     0.1376   119.8839     2.4524    12.7509     7.5603    10.1538   -29.5215
  265.5000     7.8793     0.0107     0.1390   118.2663     2.4502    12.4859     7.4115    10.3718   -29.5042
  266.0000     7.9400     0.0109     0.1402   116.6487     2.4480    12.0819     7.2154    10.2339   -29.4869
  266.5000     7.9412     0.0094     0.1381   115.1794     2.4482    11.6786     7.0733     9.8220   -29.4696
  267.0000     7.9263     0.0066     0.1347   112.8199     2.4521    11.5237     6.9822     9.6244   -29.6012
  267.5000     7.8840     0.0052     0.1347   110.4599     2.4550    11.4538     6.9883     9.3660   -29.7326
  268.0000     7.8855     0.0094     0.1353   113.2938     2.4543    11.4615     6.8983     9.4444   -29.8641
  268.5000     7.8272     0.0096     0.1359   115.3007     2.4537    11.5488     6.9058     9.8416   -29.9956
  269.0000     7.8284     0.0067     0.1346   118.8158     2.4538    11.6424     6.9118     9.9147   -29.9739
  269.5000     7.8147     0.0069     0.1295   115.7145     2.4614    11.7276     6.9178     9.7829   -29.9566
  270.0000     7.8158     0.0130     0.1235   109.9426     2.4742    11.7354     6.9720     9.5201   -29.9393
  270.5000     7.8318     0.0192     0.1166   109.6566     2.4885    11.7433     7.0265     9.3287   -30.0714
  271.0000     7.8330     0.0193     0.1111   112.4936     2.4968    11.5876     7.0814     9.2686   -30.3512
  271.5000     7.8342     0.0225     0.1090   116.5140     2.5022    11.2805     7.1426     9.4112   -30.4826
  272.0000     7.8356     0.0256     0.1108   118.9023     2.4978    11.2880     7.2442     9.7393   -30.7586
  272.5000     7.8367     0.0258     0.1149   120.5588     2.4903    11.2956     7.2505     9.8116   -31.0433
  273.0000     7.8377     0.0259     0.1176   120.7151     2.4852    11.3034     7.2568     9.8162   -31.1748
  273.5000     7.8390     0.0260     0.1194   118.9491     2.4800    11.3127     7.2115     9.6189   -31.3063
  274.0000     7.8402     0.0262     0.1212   116.2929     2.4771    11.3202     7.1201     9.4256   -31.5866
  274.5000     7.8413     0.0219     0.1236   113.6367     2.4742    11.2866     7.0770     9.1722   -31.8631
  275.0000     7.8425     0.0205     0.1254   112.4641     2.4713    11.2472     7.0834     9.3693   -31.9940
  275.5000     7.8437     0.0147     0.1282   113.0720     2.4683    11.2079     6.9921     9.3737   -32.2927
  276.0000     7.8451     0.0088     0.1312   116.0537     2.4639    10.8899     6.9020     8.9975   -32.5547
  276.5000     7.8461     0.0029     0.1333   120.2384     2.4603    10.5977     6.7209     8.6953   -32.6862
  277.0000     7.8474     0.0091     0.1342   120.8303     2.4566    10.7545     6.4532     8.3454   -32.6645
  277.5000     7.8486     0.0153     0.1308   114.9136     2.4552    10.8347     6.1962     8.1202   -32.4984
  278.0000     7.8497     0.0154     0.1257   106.1743     2.4638    10.3306     5.9907     7.9021   -32.3323
  278.5000     7.8509     0.0155     0.1224   106.0368     2.4757     9.5793     5.7521     7.6907   -32.0174
  279.0000     7.8520     0.0157     0.1212   110.2091     2.4802     8.9404     5.5608     7.3745   -31.8512
