~VERSION INFORMATION
 VERS.                2.0:   CWLS LOG ASCII STANDARD - VERSION 2.0
 WRAP.                 NO:   ONE LINE PER DEPTH STEP
~WELL INFORMATION
#MNEM.UNIT      DATA TYPE    INFORMATION
#----------   ------------   ------------------------------
 STRT.F           14.0000:   START DEPTH
 STOP.F          549.0000:   STOP DEPTH
 STEP.F            0.5000:   STEP LENGTH
 NULL.          -999.2500:   NO VALUE
 COMP.   LAWRENCE-ALLISON:   COMPANY
 WELL.    NPR 3 #58-64SX3:   WELL
 FLD .           NPR NO 3:   FIELD
 LOC .       S3 T38N R78W:   LOCATION
 CNTY.            NATRONA:   COUNTY
 STAT.            WYOMING:   STATE
 CTRY. UNITED STATES OF AMERICA:   COUNTRY
 SRVC.      Dresser Atlas:   SERVICE COMPANY
 DATE.        05-DEC-1984:   LOGDATE
 API .       490251099700:   API NUMBER
~CURVE INFORMATION
#MNEM.UNIT       API CODE    CURVE DESCRIPTION
#----------   ------------   ------------------------------
 DEPT.F                  :   
 RFOC.OHMM   07 220 04 00:   RESISTIVITY FOCUSED LOG
 RILD.OHMM   07 120 46 00:   INDUCTION LOG DEEP RESISTIVITY
 RILM.OHMM   07 120 44 00:   INDUCTION LOG MEDIUM RESISTIVITY
 SPR .MV     07 010 01 00:   SPONTANEOUS POTENTIAL
 DT  .US/F   60 520 00 00:   INTERVAL TRANSIT TIME
 CALD.IN     45 280 60 00:   CALIPER FROM DENSITY LOG
 CORR.G/C3   45 356 01 00:   DENSITY CORRECTION
 CNC .DEC    42 890 03 00:   NEUTRON POROSITY SANDSTONE
 DEN .G/C3   45 350 01 00:   COMPENSATED BULK DENSTIY
 GRD .GAPI   45 310 01 00:   GAMMA RAY FROM DENSITY LOG
 PORD.DEC    45 890 12 00:   POROSITY DENSITY SANDSTONE
~PARAMETER INFORMATION
#MNEM.UNIT          VALUE    DESCRIPTION
#----------   ------------   ------------------------------
 PD  .                 GL:   PERMANENT DATUM
 EPD .F              5188:   ELEVATION PERMANENT DATUM
 LMF .                 KB:   LOG MEASURED FROM
 DMF .                 KB:   DRILLING MEASURED FROM
 EGL .F              5188:   GROUND LEVEL
 DATE.        05-DEC-1984:   RUN DATE
 RUN .                  1:   RUN NUMBER
 DD  .F               556:   DEPTH DRILLER
 DL  .F               551:   DEPTH LOGGER
 BLI .F               548:   BOTTOM LOG INTERVAL
 CS  .IN            8.625:   CASING SIZE
 CBD .F                20:   CASING BOTTOM DRILLER
 CBL .F                20:   CASING BOTTOM LOGGER
 BS  .IN            7.875:   BIT SIZE
 BSD .F               556:   BIT SIZE AT DEPTH
 DFT .          KCL WATER:   DRILLING FLUID TYPE
 MSS .           FLOWLINE:   MUD SAMPLE SOURCE
 RMS .OHMM            .36:   RESISTIVITY MUD SAMPLE
 MST .F                70:   MUD SAMPLE TEMPERATURE
 RMF .OHMM            .26:   RESISTIVITY MUD FILTRATE SAMPLE
 MFST.F                70:   MUD FILTRATE SAMPLE TEMPERATURE
 RMC .OHMM            .46:   RESISTIVITY MUD CAKE
 MCST.F                70:   MUD CAKE SAMPLE TEMPERATURE
 MFSS.               CALC:   MUD FILTRATE SAMPLE SOURCE
 MCSS.               CALC:   MUD CAKE SAMPLE SOURCE
 RMB .OHMM            .29:   RESISTIVITY MUD AT BHT
 BHT .F                85:   BOTTOM HOLE TEMPERATURE
 TCS .HRS               3:   TIME CURCULATED STOPPED
 MRT .F               100:   MAXIMUM RECORDED TEMPERATURE
 LUN .               6274:   LOGGING UNIT NUMBER
 LUL .               GLTE:   LOGGING UNIT LOCATION
 ENGI.             PAUTIO:   RECORDING ENGINEER
 WITN.       GROONS/LUERS:   WITNESSED BY
 CLNT.            A2DTECH:   CLIENT CODE
 ORIG.           5" PRINT:   ORIGIN OF DATA
 UWI .       490251099700:   UNIQUE WELL ID
 DICO. A2D Technologies, Inc.:   DIGITIZING COMPANY
~OTHER INFORMATION
~A   DEPT     RFOC       RILD       RILM        SPR         DT       CALD       CORR          CNC      DEN         GRD      PORD   
# ...
  227.5000     6.2483     6.6160     6.3183   -66.4692   112.5833     8.1212     0.0492     0.3096     2.4574   131.2796     0.1268
  228.0000     5.9311     6.3720     5.9969   -66.4893   112.0226     8.1205     0.0460     0.3102     2.4820   129.1100     0.1273
  228.5000     5.5483     6.2274     5.6093   -66.6597   112.4258     8.1197     0.0173     0.3058     2.4955   127.8664     0.1150
  229.0000     5.3834     6.1758     5.3240   -66.8301   113.3053     8.1190     0.0300     0.3027     2.4986   127.2400     0.1087
  229.5000     5.3392     6.1695     5.2796   -66.8467   114.9784     8.1182     0.0427     0.3129     2.4851   124.1446     0.1062
  230.0000     5.3734     6.1633     5.3151   -67.0170   116.5722     8.1174     0.0460     0.3307     2.4588   125.6787     0.1189
  230.5000     5.5669     6.1571     5.3903   -66.8797   115.5469     8.1167     0.0526     0.3524     2.4397   127.5215     0.1352
  231.0000     5.8125     6.1509     5.5777   -66.8963   114.0454     8.1159     0.0601     0.3435     2.4373   126.8827     0.1432
  231.5000     6.5739     6.2811     5.9503   -66.9128   112.1471     8.1171     0.0442     0.3375     2.4492   126.2685     0.1416
  232.0000     7.2225     6.4207     6.7791   -66.9293   108.8996     8.1142     0.0362     0.3188     2.4684   126.2575     0.1305
  232.5000     7.4299     6.7920     7.2849   -66.6382   107.9536     8.1135     0.0330     0.2832     2.4884   126.5593     0.1166
  233.0000     7.4792     7.1942     7.3861   -66.5009   107.5497     8.1127     0.0361     0.2859     2.4952   125.9307     0.1109
  233.5000     7.3084     7.5646     7.3762   -66.2139   107.1643     8.1096     0.0361     0.2922     2.4944   126.2326     0.1095
  234.0000     7.2501     7.8960     7.3683   -66.0724   106.4593     8.0957     0.0345     0.3055     2.4936   127.7644     0.1080
  234.5000     7.4566     8.0064     7.3603   -65.9351   105.8350     8.0951     0.0296     0.3152     2.4944   126.8295     0.1055
  235.0000     7.4496     7.8802     7.3524   -65.9558   105.2065     8.0942     0.0264     0.3024     2.4952   125.2772     0.1078
  235.5000     7.2805     7.6452     7.1853   -65.9723   104.4987     8.0935     0.0248     0.2863     2.4951   123.7249     0.1088
  236.0000     6.9021     7.3095     7.0220   -66.1427   103.2353     8.0927     0.0248     0.2879     2.4967   121.8640     0.1072
  236.5000     6.5838     6.8369     6.8105   -66.1592   102.6846     8.0920     0.0263     0.2943     2.4998   119.6944     0.1031
  237.0000     6.1359     6.6812     6.5001   -66.4835   103.2482     8.0912     0.0266     0.2991     2.5046   120.3027     0.1009
  237.5000     5.8671     6.2036     6.0332   -66.8077   104.1277     8.0750     0.0311     0.3026     2.5072   121.3220     0.0994
  238.0000     5.6927     5.9312     5.6146   -68.2379   104.9278     8.0740     0.0390     0.3294     2.4950   122.1364     0.1093
  238.5000     5.7305     5.9253     5.5692   -69.1526   104.6168     8.0733     0.0501     0.3230     2.4552   121.8164     0.1309
  239.0000     5.9804     5.9643     5.7266   -69.3188   104.2264     8.0725     0.0708     0.3218     2.4425   122.4246     0.1399
  239.5000     6.2885     6.0007     5.9767   -69.0277   104.0198     8.0718     0.0628     0.3232     2.4477   122.4156     0.1380
  240.0000     6.7591     6.1725     6.3295   -68.5827   104.7948     8.0711     0.0404     0.3238     2.4631   124.2584     0.1297
  240.5000     7.2650     6.3032     6.7032   -67.9880   105.0381     8.0703     0.0229     0.3203     2.4726   127.9530     0.1215
  241.0000     7.7407     6.4871     7.1509   -67.5430   104.9540     8.0696     0.0149     0.3073     2.4798   126.7094     0.1165
  241.5000     8.1511     6.7253     7.6306   -67.4057   104.6418     8.0688     0.0133     0.2997     2.4861   123.3052     0.1123
  242.0000     8.5119     7.0626     7.9038   -67.1145   104.1026     8.0680     0.0164     0.2815     2.4948   119.9011     0.1051
  242.5000     8.7699     7.3184     8.4310   -66.9769   103.5556     8.0672     0.0212     0.2651     2.5107   118.0298     0.0968
  243.0000     9.1347     7.5834     8.7352   -66.6860   103.0859     8.0665     0.0227     0.2645     2.5194   117.3765     0.0956
  243.5000     9.3970     7.8580     9.0504   -66.3949   102.9333     8.0655     0.0228     0.2681     2.5162   115.2420     0.0969
  244.0000     9.5288     8.0937     9.1761   -66.1079   102.6226     8.0495     0.0259     0.2831     2.5090   114.9243     0.0985
  244.5000     9.5177     8.3752     9.3668   -65.9706   102.3116     8.0641     0.0306     0.2859     2.5138   114.9153     0.0973
  245.0000     9.5808     8.5524     9.3568   -65.8291   102.3181     8.0634     0.0369     0.2788     2.5185   115.2171     0.0951
  245.5000     9.5696     8.7334     9.4842   -65.8498   102.4039     8.0625     0.0337     0.2713     2.5177   116.4403     0.0964
  246.0000     9.5607     8.9837     9.4738   -65.8663   102.4103     8.0618     0.0321     0.2746     2.5103   118.9004     0.0993
  246.5000     9.5518     9.0428     9.3946   -65.8829   102.3374     8.0611     0.0368     0.2778     2.5026   119.8195     0.0989
  247.0000     9.5429     8.9003     9.4537   -65.7414   102.2645     8.0602     0.0432     0.2785     2.5152   118.8823     0.0965
  247.5000     9.5340     8.6983     9.5127   -65.7621   102.0329     8.0595     0.0448     0.2779     2.5232   118.2560     0.0927
  248.0000     9.5950     8.6262     9.4999   -65.7786   101.5631     8.0587     0.0383     0.2719     2.5104   117.0123     0.0978
  248.5000     9.5161     8.5547     9.5619   -65.7954   101.3794     8.0580     0.0240     0.2706     2.5025   113.9167     0.0994
  249.0000     9.5071     8.4838     9.5490   -65.9661   101.0090     8.0572     0.0237     0.2723     2.5040   115.2901     0.0998
  249.5000     9.4964     8.4753     9.4004   -65.8324   100.8666     8.0564     0.0287     0.2806     2.5096   119.7606     0.0992
  250.0000     9.5594     8.6541     9.3245   -66.0011   101.5079     8.0400     0.0318     0.2876     2.5143   124.3835     0.1014
  250.5000     9.2746     8.7124     9.3146   -65.8576   102.0691     8.0391     0.0286     0.2840     2.5079   122.8066     0.1037
  251.0000     9.4055     8.8969     9.3065   -65.7174   102.4714     8.0382     0.0237     0.2810     2.5031   122.1564     0.1066
  251.5000     9.5365     8.9569     9.3668   -65.7345   102.5564     8.0373     0.0220     0.2779     2.4991   121.8400     0.1063
  252.0000     9.5988     8.8827     9.4389   -65.7482   102.0064     8.0520     0.0236     0.2744     2.5006   123.9760     0.1051
  252.5000     9.4501     8.6830     9.4881   -65.7619   101.2976     8.0509     0.0267     0.2700     2.5038   122.3251     0.1026
  253.0000     9.1705     8.4878     9.2049   -65.9295    99.7953     8.0499     0.0377     0.2561     2.5077   120.1234     0.0994
  253.5000     8.6427     8.2969     8.9322   -66.0970    97.8167     8.0490     0.0488     0.2539     2.5116   116.1481     0.0982
  254.0000     8.0860     7.8718     8.5418   -66.5723    96.3937     8.0481     0.0328     0.2615     2.5108   112.1433     0.1004
  254.5000     7.4010     7.4087     7.7048   -66.7400    96.0000     8.0472     0.0200     0.2651     2.5044   111.8102     0.1032
  255.0000     6.6758     7.2550     6.6519   -66.9077    96.6429     8.0463     0.0119     0.2731     2.5012   112.4029     0.1059
  255.5000     5.9777     6.3548     5.8700   -66.9215    98.8707     8.0453     0.0103     0.2941     2.4956   113.6129     0.1120
  256.0000     5.5115     5.9888     5.4518   -66.9354   104.8286     8.0444     0.0102     0.3027     2.4733   123.7736     0.1302
  256.5000     5.3837     5.6439     5.2518   -66.9519   110.9453     8.0435     0.0103     0.3393     2.4128   130.5392     0.1729
  257.0000     5.8341     5.5169     5.7279   -66.8083   113.8080     8.0580     0.0420     0.3295     2.3611   134.5332     0.1983
  257.5000     6.6009     5.4735     6.7698   -66.5143   113.0993     8.0571     0.0352     0.3191     2.3491   130.4901     0.1873
