~VERSION INFORMATION
 VERS.                2.0:   CWLS LOG ASCII STANDARD - VERSION 2.0
 WRAP.                 NO:   ONE LINE PER DEPTH STEP
~WELL INFORMATION
#MNEM.UNIT      DATA TYPE    INFORMATION
#----------   ------------   ------------------------------
 STRT.F            1.0000:   START DEPTH
 STOP.F          886.0000:   STOP DEPTH
 STEP.F            0.5000:   STEP LENGTH
 NULL.          -999.2500:   NO VALUE
 COMP. BROWN JOHN E&C INC:   COMPANY
 WELL. NAVAL PETROLEUM RESERVE 3 SHX-1 #33-2:   WELL
 FLD .             NPR #3:   FIELD
 LOC .       S2 T38N R78W:   LOCATION
 CNTY.            NATRONA:   COUNTY
 STAT.            WYOMING:   STATE
 CTRY. UNITED STATES OF AMERICA:   COUNTRY
 SRVC.      Western Atlas:   SERVICE COMPANY
 DATE.        26-NOV-1991:   LOGDATE
 API .       490252248300:   API NUMBER
~CURVE INFORMATION
#MNEM.UNIT       API CODE    CURVE DESCRIPTION
#----------   ------------   ------------------------------
 DEPT.F                  :   
 RILD.OHMM   07 120 46 00:   INDUCTION LOG DEEP RESISTIVITY
 RILM.OHMM   07 120 44 00:   INDUCTION LOG MEDIUM RESISTIVITY
 RFOC.OHMM   07 220 04 00:   RESISTIVITY FOCUSED LOG
 SPR .MV     07 010 01 00:   SPONTANEOUS POTENTIAL
 GRR .GAPI   07 310 01 00:   GAMMA RAY
~PARAMETER INFORMATION
#MNEM.UNIT          VALUE    DESCRIPTION
#----------   ------------   ------------------------------
 PD  .                 GL:   PERMANENT DATUM
 EPD .F              5133:   ELEVATION PERMANENT DATUM
 LMF .                 KB:   LOG MEASURED FROM
 DAPD.F                10:   FEET ABOVE PERMANENT DATUM
 DMF .                 KB:   DRILLING MEASURED FROM
 EKB .F              5143:   KELLING BUSHING
 EGL .F              5133:   GROUND LEVEL
 DATE.        26-NOV-1991:   RUN DATE
 RUN .                  1:   RUN NUMBER
 DD  .F               892:   DEPTH DRILLER
 DL  .F               889:   DEPTH LOGGER
 BLI .F               837:   BOTTOM LOG INTERVAL
 CS  .IN            8.625:   CASING SIZE
 CBD .F                40:   CASING BOTTOM DRILLER
 CBL .F                55:   CASING BOTTOM LOGGER
 BS  .IN            7.875:   BIT SIZE
 BSD .F               892:   BIT SIZE AT DEPTH
 DFT .            POLYMER:   DRILLING FLUID TYPE
 DFD .                9.8:   DRILLING FLUID DENSITY
 DFV .                 38:   DRILLING FLUID VISCOSITY
 DFPH.                9.5:   DRILLING FLUID PH
 DFL .               10.6:   DRILLING FLUID LOSS
 MSS .           FLOWLINE:   MUD SAMPLE SOURCE
 RMS .OHMM           2.08:   RESISTIVITY MUD SAMPLE
 MST .F                78:   MUD SAMPLE TEMPERATURE
 RMF .OHMM           1.66:   RESISTIVITY MUD FILTRATE SAMPLE
 MFST.F                78:   MUD FILTRATE SAMPLE TEMPERATURE
 RMC .OHMM           2.60:   RESISTIVITY MUD CAKE
 MCST.F                78:   MUD CAKE SAMPLE TEMPERATURE
 MFSS.               MEAS:   MUD FILTRATE SAMPLE SOURCE
 MCSS.               CALC:   MUD CAKE SAMPLE SOURCE
 RMB .OHMM           1.08:   RESISTIVITY MUD AT BHT
 BHT .F               150:   BOTTOM HOLE TEMPERATURE
 TCS .HRS               2:   TIME CURCULATED STOPPED
 MRT .F               150:   MAXIMUM RECORDED TEMPERATURE
 LUN .            HL-6307:   LOGGING UNIT NUMBER
 LUL .         CASPER, WY:   LOGGING UNIT LOCATION
 ENGI.             ZIEGER:   RECORDING ENGINEER
 WITN.             STRONG:   WITNESSED BY
 CLNT.            A2DTECH:   CLIENT CODE
 ORIG.           5" PRINT:   ORIGIN OF DATA
 UWI .       490252248300:   UNIQUE WELL ID
 DICO. A2D Technologies, Inc.:   DIGITIZING COMPANY
~OTHER INFORMATION
~A    DEPT    RILD       RILM       RFOC        SPR         GRR  
# ...
   62.0000     1.8598     1.9107     2.6124  -102.8236    88.0952
   62.5000     1.9251     1.9486     2.6486  -102.3755    87.1785
   63.0000     1.9928     2.0030     2.7039  -102.2290    85.9602
   63.5000     2.0916     2.0732     2.7224  -102.0826    85.3172
   64.0000     2.1670     2.1460     2.7600  -101.6356    90.2001
   64.5000     2.2883     2.2059     2.7798  -101.6400    96.0563
   65.0000     2.3687     2.2833     2.8401  -101.6444    99.4850
   65.5000     2.4690     2.3964     2.8960  -101.6488    97.0600
   66.0000     2.5559     2.4827     2.9565  -101.6531    96.7467
   66.5000     2.6641     2.6213     2.9975  -101.5067    97.0395
   67.0000     2.7769     2.7511     3.0389  -101.3603    96.7232
   67.5000     2.9349     2.8874     3.1023  -101.0630    89.1700
   68.0000     3.0426     3.0941     3.1671  -100.7668    84.9351
   68.5000     3.1887     3.2700     3.2333  -100.4696    84.6217
   69.0000     3.2779     3.4559     3.3261  -100.4739    86.1154
   69.5000     3.3697     3.5034     3.4405  -100.3275    87.6120
   70.0000     3.4401     3.5271     3.5368  -100.1811    88.8069
   70.5000     3.5610     3.5263     3.5611  -100.1855    89.0998
   71.0000     3.6353     3.5747     3.5605  -100.3418    86.6718
   71.5000     3.6602     3.6493     3.4867  -100.4970    83.6435
   72.0000     3.6597     3.6995     3.4621  -100.9539    80.9169
   72.5000     3.6590     3.7505     3.4616  -101.4108    78.4515
   73.0000     3.6586     3.6979     3.4612  -101.8676    79.6839
   73.5000     3.6581     3.7228     3.4848  -102.3245    84.8004
   74.0000     3.6831     3.7480     3.5575  -102.4797    91.1235
   74.5000     3.7340     3.7472     3.5819  -102.7858    92.6201
   75.0000     3.7595     3.7726     3.6063  -102.9412    88.9885
   75.5000     3.7589     3.8509     3.6308  -102.7946    85.3568
   76.0000     3.8130     3.8769     3.6557  -102.6481    85.6471
   76.5000     3.9998     3.9576     3.6805  -102.3519    84.7139
   77.0000     4.2275     4.1537     3.7314  -102.2055    80.2735
   77.5000     4.4372     4.4203     3.7874  -101.9082    76.8606
   78.0000     4.5615     4.6393     4.1106  -101.7617    77.4522
   78.5000     4.8883     4.7688     4.5292  -101.6154    77.7421
   79.0000     5.3860     4.9464     4.8203  -101.3181    77.1271
   79.5000     5.6925     5.5140     4.9211  -101.1716    75.9088
   80.0000     5.7314     6.1598     5.0587  -101.0252    74.6904
   80.5000     5.8916     6.4650     5.3466  -100.7279    73.1704
   81.0000     6.0565     6.6455     5.7298  -100.8842    72.2212
   81.5000     6.3130     6.7838     6.1839  -101.1903    70.7308
   82.0000     6.4898     6.8775     6.3123  -101.6472    69.5124
   82.5000     6.5343     6.9237     6.2676  -102.1066    69.1990
   83.0000     6.6705     6.9704     6.2235  -102.4103    71.2989
   83.5000     6.7161     6.9208     6.1796  -102.5664    74.0022
   84.0000     6.6687     6.8238     6.0937  -102.5708    74.5943
   84.5000     6.6215     6.6819     6.0089  -102.4244    73.9787
   85.0000     6.5749     6.5430     5.8844  -102.2779    73.6451
   85.5000     6.5286     6.3627     5.8816  -101.9807    73.3491
   86.0000     6.1754     6.1021     6.1783  -101.6834    72.7340
   86.5000     5.6422     5.4981     6.5267  -101.2348    73.6273
   87.0000     5.3741     5.1644     5.8810  -100.6364    78.4421
   87.5000     5.0833     4.9158     4.5810  -100.1883    85.9719
   88.0000     4.8405     4.7170     4.0710  -100.1934    90.4850
   88.5000     4.6708     4.5553     4.0704   -99.4436    93.7916
   89.0000     4.5160     4.3991     4.1556   -98.9955    96.8205
   89.5000     4.4224     4.3377     4.1838   -98.3966    99.2418
   90.0000     4.3008     4.2770     4.1832   -97.9496    97.6751
   90.5000     4.2410     4.2466     4.1537   -97.8021    94.0434
   91.0000     4.1820     4.2164     4.1531   -97.5059    92.2218
   91.5000     4.1815     4.2449     4.1238   -97.3583    96.1316
   92.0000     4.1809     4.2736     4.1521   -97.5147    99.4382
   92.5000     4.2094     4.2725     4.1804   -97.6699   100.3318
   93.0000     4.2675     4.3016     4.2088   -97.8251   100.0181
   93.5000     4.2968     4.3606     4.2377   -98.1408    97.8301
   94.0000     4.2961     4.3902     4.2961   -98.5891    93.9585
   94.5000     4.3254     4.3891     4.3254   -99.0460    94.8518
   95.0000     4.3248     4.3883     4.3853   -99.3521    97.5550
   95.5000     4.3846     4.4179     4.4152   -99.6581    99.0516
   96.0000     4.4145     4.4498     4.4761   -99.3608   100.8498
   96.5000     4.4181     4.5087     4.5380   -99.0625   102.6481
   97.0000     4.4441     4.5392     4.5374   -98.4646   104.7480
   97.5000     4.5055     4.6337     4.4434   -98.1599   102.8657
   98.0000     4.5677     4.7302     4.3816   -97.8701    98.6884
   98.5000     4.6633     4.8961     4.3206   -98.0264    97.1684
   99.0000     4.7936     5.0328     4.3230   -98.3325    97.4584
   99.5000     4.9278     5.1376     4.7929   -98.4877    97.7483
  100.0000     5.4293     5.2810     5.2446   -98.6429    97.4352
  100.5000     5.5032     5.4650     5.9119   -98.7981    96.5214
  101.0000     5.5787     5.5391     6.0627   -99.1042    97.4176
  101.5000     5.4615     5.4950     5.7331   -99.2594    98.6234
  102.0000     5.3473     5.2962     5.4595   -99.5656    98.9522
  102.5000     5.2354     5.0549     5.1991  -100.0234   100.1040
  103.0000     5.1207     4.9146     4.9855  -100.3294   101.3018
  103.5000     4.9491     4.8114     4.8475  -100.7863   102.4997
  104.0000     4.8455     4.7433     4.7128  -101.2432   103.6997
  104.5000     4.7442     4.7086     4.6467  -100.9459   104.8954
  105.0000     4.6128     4.6741     4.6775   -99.8945   104.5849
  105.5000     4.5163     4.6380     4.5793   -99.2959   102.4645
  106.0000     4.4836     4.5421     4.5147   -98.9985   100.3441
  106.5000     4.4821     4.5403     4.4820   -99.1538   103.6514
  107.0000     4.5118     4.5385     4.4805   -99.6340   105.7542
  107.5000     4.5728     4.5682     4.4790  -101.4261   106.9521
  108.0000     4.6674     4.6306     4.5094  -101.8830   108.4516
  108.5000     4.8305     4.7256     4.6067  -101.1332   112.0627
  109.0000     4.9993     4.8230     4.7954  -100.3835   115.6738
  109.5000     5.1382     4.9592     4.9629   -99.8493   118.6816
  110.0000     5.2809     5.1647     5.2081   -99.6384   117.6873
  110.5000     5.4276     5.3448     5.3158   -99.1892   109.6121
  111.0000     5.5785     5.6084     5.2773   -99.3456   104.7768
  111.5000     5.6611     5.7638     5.3122   -99.6516   103.8652
  112.0000     5.7709     5.8022     5.5376   -99.8069   104.7614
  112.5000     5.7291     5.7592     5.6899   -99.8123   103.8454
  113.0000     5.6092     5.6383     5.6875   -99.9675   102.6300
  113.5000     5.4539     5.4818     5.5300   -99.9719   103.2245
  114.0000     5.2663     5.3292     5.3397  -100.1271   106.2564
  114.5000     5.1205     5.1454     5.1204  -100.1315   109.5418
  115.0000     4.9078     4.9337     4.9442  -100.1359   108.6258
  115.5000     4.7360     4.7637     4.8073   -99.9894   107.1088
  116.0000     4.6739     4.6314     4.7050   -99.9940   106.1972
  116.5000     4.7052     4.5029     4.6722   -99.8473   109.2028
  117.0000     4.8021     4.4084     4.8355   -99.8528   111.0040
  117.5000     4.8343     4.3762     4.9698   -99.8572   110.6935
  118.0000     4.8663     4.7536     5.2881   -99.5599   109.4781
  118.5000     4.9322     4.9193     5.7054   -99.2626   108.8014
  119.0000     4.9649     4.8834     6.1985   -99.2670   105.2351
  119.5000     4.9289     4.8814     6.2448   -98.9698   100.7014
  120.0000     4.8590     4.7789     5.5336   -98.8233    97.3744
  120.5000     4.8238     4.7440     4.9594   -98.6769   100.6839
  121.0000     4.7557     4.6768     4.6901   -98.6823   104.5966
  121.5000     4.6886     4.6104     4.5603   -98.6867   108.2078
  122.0000     4.6547     4.5447     4.5909   -98.6911   110.6123
  122.5000     4.5573     4.4803     4.5572   -98.6955   109.6179
