~VERSION INFORMATION
 VERS.                2.0:   CWLS LOG ASCII STANDARD - VERSION 2.0
 WRAP.                 NO:   ONE LINE PER DEPTH STEP
~WELL INFORMATION
#MNEM.UNIT      DATA TYPE    INFORMATION
#----------   ------------   ------------------------------
 STRT.F           34.0000:   START DEPTH
 STOP.F          445.0000:   STOP DEPTH
 STEP.F            0.5000:   STEP LENGTH
 NULL.          -999.2500:   NO VALUE
 COMP. FENIX & SCISSON U.S. NAVY:   COMPANY
 WELL.       NPR #64-S-10:   WELL
 FLD .             TEAPOT:   FIELD
 LOC .      S10 T38N R78W:   LOCATION
 CNTY.            NATRONA:   COUNTY
 STAT.            WYOMING:   STATE
 CTRY. UNITED STATES OF AMERICA:   COUNTRY
 SRVC.              Welex:   SERVICE COMPANY
 DATE.        08-APR-1977:   LOGDATE
 API .       490251033400:   API NUMBER
~CURVE INFORMATION
#MNEM.UNIT       API CODE    CURVE DESCRIPTION
#----------   ------------   ------------------------------
 DEPT.F                  :   
 SPR .MV     07 010 01 00:   SPONTANEOUS POTENTIAL
 ILD .OHMM   07 120 46 00:   INDUCTION LOG DEEP
 ILM .OHMM   07 120 44 00:   INDUCTION LOG MEDIUM
 SGRD.OHMM   07 221 05 00:   SHALLOW SHORT GUARD RESISTIVITY
 CALD.IN     45 280 60 00:   CALIPER FROM DENSITY LOG
 GRD .GAPI   45 310 01 00:   GAMMA RAY FROM DENSITY LOG
 CORR.G/C3   45 356 01 00:   DENSITY CORRECTION
 RHOB.G/C3   45 350 01 00:   BULK DENSITY
 DPHI.DEC    45 890 12 00:   DENSITY POROSITY SANDSTONE
~PARAMETER INFORMATION
#MNEM.UNIT          VALUE    DESCRIPTION
#----------   ------------   ------------------------------
 PD  .                 GL:   PERMANENT DATUM
 EPD .F              5183:   ELEVATION PERMANENT DATUM
 LMF .                 GL:   LOG MEASURED FROM
 DMF .                 GL:   DRILLING MEASURED FROM
 EGL .F              5183:   GROUND LEVEL
 DATE.        08-APR-1977:   RUN DATE
 RUN .                  1:   RUN NUMBER
 DD  .F               455:   DEPTH DRILLER
 DL  .F               447:   DEPTH LOGGER
 BLI .F               445:   BOTTOM LOG INTERVAL
 TLI .F                34:   TOP LOG INTERVAL
 CS  .IN            8.625:   CASING SIZE
 BS  .IN            7.875:   BIT SIZE
 BSD .F               455:   BIT SIZE AT DEPTH
 DFT .           KCL- GEL:   DRILLING FLUID TYPE
 DFD .                8.3:   DRILLING FLUID DENSITY
 TCS .HRS            0100:   TIME CURCULATED STOPPED
 MRT .F                62:   MAXIMUM RECORDED TEMPERATURE
 ENGI.        E. CALLAHAN:   RECORDING ENGINEER
 WITN.            R. LYON:   WITNESSED BY
 CLNT.            A2DTECH:   CLIENT CODE
 ORIG.           5" PRINT:   ORIGIN OF DATA
 UWI .       490251033400:   UNIQUE WELL ID
 DICO. A2D Technologies, Inc.:   DIGITIZING COMPANY
~OTHER INFORMATION
~A   DEPT      SPR        ILD        ILM       SGRD       CALD        GRD        CORR        RHOB     DPHI   
# ...
   70.5000  -999.2500     8.6492     9.0159   231.6374     7.8609   134.2960     0.1269     2.4486     0.1204
   71.0000  -999.2500     8.7053     9.1386    81.8857     7.8630   133.2631     0.1330     2.4517     0.1198
   71.5000  -999.2500     8.7002     9.1969    50.7444     7.8646   135.2287     0.1301     2.4480     0.1213
   72.0000  -999.2500     8.6961     9.1926    67.8662     7.9111   136.7414     0.1107     2.4120     0.1393
   72.5000  -999.2500     8.6309     9.1194   318.1745     7.9875   135.4140     0.0972     2.3941     0.1528
   73.0000  -999.2500     8.5673     8.9938   303.0063     8.0639   134.3857     0.0868     2.4009     0.1492
   73.5000  -999.2500     8.5633     8.8658   294.6234     8.1403   134.2496     0.0794     2.4078     0.1453
   74.0000  -999.2500     8.5593     8.8616   290.4707     8.1867   135.1689     0.0810     2.4011     0.1483
   74.5000  -999.2500     8.6158     8.9191   272.4717     8.2033   135.9342     0.0962     2.4139     0.1455
   75.0000  -999.2500     8.6107     8.9771   218.9279     8.2050   136.4006     0.1068     2.4207     0.1392
   75.5000  -999.2500     8.6676     9.0981    94.5139     8.1767   135.0732     0.1099     2.4163     0.1383
   76.0000  -999.2500     8.7239     9.0937    37.0322     8.1335   133.4469     0.1025     2.4044     0.1443
   76.5000  -999.2500     8.7805     9.0885    43.4206     8.0903   131.2227     0.0951     2.3917     0.1551
   77.0000  -999.2500     8.8374     9.0843    70.7629     8.0766   129.8954     0.0907     2.4008     0.1521
   77.5000  -999.2500     8.8312     9.0800   203.9936     8.0633   128.7175     0.0877     2.4016     0.1505
   78.0000  -999.2500     8.7661     9.0131   253.9323     8.0654   127.2407     0.0834     2.3934     0.1547
   78.5000  -999.2500     8.5815     8.9466   142.4558     8.0969   125.1659     0.0835     2.3957     0.1535
   79.0000  -999.2500     8.5182     8.9424    15.1156     8.1584   121.1480     0.0836     2.4071     0.1472
   79.5000  -999.2500     8.5132     8.9372     7.7149     8.1451   117.4290     0.0852     2.4109     0.1436
   80.0000  -999.2500     8.5705     8.9962     9.4946     8.1019   114.7564     0.0853     2.4072     0.1466
   80.5000  -999.2500     8.6251     9.0546    24.4143     8.0882   112.5321     0.0884     2.4156     0.1396
   81.0000  -999.2500     8.6800     9.1767    18.8416     8.0603   110.9043     0.0915     2.4254     0.1333
   81.5000  -999.2500     8.7374     9.2995    21.4861     8.0317   107.7833     0.0946     2.4300     0.1324
   82.0000  -999.2500     8.7940     9.2951    41.7783     7.9885   105.4096     0.0977     2.4346     0.1293
   82.5000  -999.2500     8.7889     9.2907   171.7116     8.0652   103.9327     0.1009     2.4362     0.1311
   83.0000  -999.2500     8.7230     9.2853   110.9270     8.1267   103.4978     0.1025     2.4355     0.1290
   83.5000  -999.2500     8.5394     9.2169    62.3848     8.1582   104.8655     0.1026     2.4356     0.1305
   84.0000  -100.0000     8.3596     9.0856   203.9884     8.2047   106.6771     0.1012     2.4364     0.1287
   84.5000   -98.5161     8.1271     9.0186   131.6604     8.2064   107.8909     0.1013     2.4372     0.1251
   85.0000   -78.8350     7.9560     8.8288    17.2359     8.1926   106.4141     0.0983     2.4388     0.1241
   85.5000   -61.6204     7.8973     8.6429     4.5060     8.1798   104.0404     0.0969     2.4426     0.1250
   86.0000   -34.6651     7.8391     8.3947     3.0553     8.1515   106.0015     0.0926     2.4532     0.1211
   86.5000   -31.2246     7.7803     8.1679     0.2005     8.0934   107.6637     0.0882     2.4631     0.1175
   87.0000   -25.2276     7.7230     8.1076     0.5211     8.0203   108.7280     0.0853     2.4646     0.1162
   87.5000   -12.9149     7.7193     8.0478     3.3632     7.9173   109.6428     0.0824     2.4572     0.1165
   88.0000    -1.0532     7.7157     7.9884     4.5556     7.8288   110.1091     0.0795     2.4505     0.1180
   88.5000    -0.0187     7.7121     8.0404     1.7642     7.7711   109.3797     0.0780     2.4453     0.1213
   89.0000     0.0000     7.7630     8.0924     0.2000     7.7574   107.7534     0.0752     2.4484     0.1228
   89.5000     0.0000     7.8669     8.1450     0.2000     7.7291   105.9776     0.0737     2.4530     0.1225
   90.0000     0.0000     7.9170     8.1402     0.4781     7.7611   107.3408     0.0723     2.4493     0.1233
   90.5000     0.0000     7.9133     8.1364     0.2000     7.7777   109.0030     0.0694     2.4411     0.1245
   91.0000     0.0000     7.9096     8.1326     1.5226     7.8092   108.2735     0.0681     2.4374     0.1290
   91.5000     0.0000     7.9059     8.1288     0.2000     7.8109   107.0957     0.0667     2.4330     0.1299
   92.0000     0.0000     7.9021     8.1250     0.2011     7.8270   107.5620     0.0668     2.4263     0.1287
   92.5000    -0.1724     7.8984     8.1824     0.2004     7.7693   109.8221     0.0669     2.4219     0.1311
   93.0000    -1.0927     7.8947     8.3457     0.2000     7.7261   109.5411     0.0654     2.4340     0.1292
   93.5000    -2.7649     7.9469     8.4573     1.0382     7.7124   107.6158     0.0656     2.4461     0.1244
   94.0000    -4.8883     8.0541     8.5715     0.2167     7.6991   106.7369     0.0672     2.4499     0.1238
   94.5000    -6.8612     8.1618     8.6281     0.5261     7.7161   106.4514     0.0673     2.4462     0.1241
   95.0000   -10.2631     8.2157     8.7436     0.8316     7.7626   107.9686     0.0689     2.4380     0.1241
   95.5000   -16.3756     8.3246     8.8615     0.7111     7.7941   109.4813     0.0720     2.4283     0.1268
   96.0000   -18.0478     8.3207     8.9190     0.2033     7.8257   111.1435     0.0766     2.4261     0.1309
   96.5000   -12.8027     8.2594     8.7909     0.7238     7.8423   113.5531     0.0827     2.4413     0.1270
   97.0000    -4.0990     8.1408     8.6658     0.5362     7.8290   115.3647     0.0889     2.4466     0.1228
   97.5000    -0.2067     8.0249     8.5424     1.3567     7.8306   114.1868     0.0980     2.4467     0.1222
   98.0000    -1.4436     7.9107     8.3626     0.2000     7.8323   111.5142     0.1041     2.4415     0.1279
   98.5000    -2.5037     7.9075     8.1866     1.7642     7.8339   110.0374     0.1072     2.4326     0.1306
   99.0000    -2.3714     7.9034     8.1262     1.6202     7.8202   109.9013     0.1118     2.4221     0.1329
   99.5000    -1.0361     7.8989     8.1214     0.8340     7.8069   111.5680     0.1089     2.4087     0.1386
  100.0000    -1.7703     7.8952     8.1777     2.7653     7.7927   112.7773     0.1015     2.3952     0.1497
  100.5000    -3.4513     7.8916     8.2102    15.9579     7.7805   112.4962     0.0986     2.3885     0.1566
  101.0000    -5.7061     7.9438     8.2427    26.7549     7.7667   113.2676     0.0988     2.3931     0.1536
  101.5000    -8.6369     7.9954     8.2783     0.2845     7.6938   113.5725     0.0989     2.4022     0.1487
  102.0000   -15.5203     8.0454     8.3906     5.4083     7.6056   113.4375     0.0885     2.4090     0.1454
  102.5000   -19.1365     8.0417     8.3873     4.6742     7.5473   112.9596     0.0811     2.4016     0.1484
  103.0000   -18.0910     8.0958     8.2105     5.5187     7.5637   111.9462     0.0722     2.4159     0.1453
  103.5000   -16.1433     8.1465     8.1513     4.3587     7.6250   111.0904     0.0633     2.4220     0.1387
  104.0000   -16.4513     8.1428     8.4348     4.0651     7.6863   110.3616     0.0559     2.4213     0.1342
  104.5000   -19.1652     8.1381     8.6686     5.4746     7.7475   110.0737     0.0514     2.4304     0.1323
  105.0000   -18.8717     8.0781     8.7255     5.2499     7.7789   110.2418     0.0471     2.4282     0.1323
  105.5000   -28.2040     8.0744     8.3079     5.7027     7.8252   110.7050     0.0427     2.4155     0.1407
  106.0000   -27.0081     8.1268     8.0215     4.2029     7.8566   112.2146     0.0413     2.4125     0.1431
  106.5000   -24.0078     8.1231     7.9079     3.8126     7.8880   113.4253     0.0414     2.4224     0.1370
