~VERSION INFORMATION
 VERS.                2.0:   CWLS LOG ASCII STANDARD - VERSION 2.0
 WRAP.                 NO:   ONE LINE PER DEPTH STEP
~WELL INFORMATION
#MNEM.UNIT      DATA TYPE    INFORMATION
#----------   ------------   ------------------------------
 STRT.F           95.0000:   START DEPTH
 STOP.F          922.0000:   STOP DEPTH
 STEP.F            0.5000:   STEP LENGTH
 NULL.          -999.2500:   NO VALUE
 COMP.          U.S. NAVY:   COMPANY
 WELL. RES 3 TEAPOT DOM #57S-11:   WELL
 FLD .             TEAPOT:   FIELD
 LOC .      S11 T38N R78W:   LOCATION
 CNTY.            NATRONA:   COUNTY
 STAT.            WYOMING:   STATE
 CTRY. UNITED STATES OF AMERICA:   COUNTRY
 SRVC.       Schlumberger:   SERVICE COMPANY
 DATE.        02-AUG-1961:   LOGDATE
 API .       490250632800:   API NUMBER
~CURVE INFORMATION
#MNEM.UNIT       API CODE    CURVE DESCRIPTION
#----------   ------------   ------------------------------
 DEPT.F                  :   
 GR  .GAPI   30 310 01 00:   GAMMA RAY
 SPR .MV     05 010 01 00:   SPONTANEOUS POTENTIAL FROM RES.
 CILD.MMHO   05 110 46 00:   CONDUCTIVITY INDUCTION LOG DEEP
 ASN .OHMM   05 041 16 00:   AMPLIFIED SHORT NORMAL 16"
 ILD .OHMM   05 120 46 00:   INDUCTION LOG DEEP
~PARAMETER INFORMATION
#MNEM.UNIT          VALUE    DESCRIPTION
#----------   ------------   ------------------------------
 PD  .                 GL:   PERMANENT DATUM
 EPD .F              5213:   ELEVATION PERMANENT DATUM
 LMF .                 KB:   LOG MEASURED FROM
 DAPD.F                 6:   FEET ABOVE PERMANENT DATUM
 DMF .                 KB:   DRILLING MEASURED FROM
 EKB .F              5219:   KELLING BUSHING
 EGL .F              5213:   GROUND LEVEL
 DATE.             8-2-61:   RUN DATE
 RUN .                  1:   RUN NUMBER
 DD  .F               920:   DEPTH DRILLER
 DL  .F               921:   DEPTH LOGGER
 BLI .F               920:   BOTTOM LOG INTERVAL
 TLI .F               100:   TOP LOG INTERVAL
 BS  .IN             6.75:   BIT SIZE
 BSD .F               920:   BIT SIZE AT DEPTH
 DFT .       OIL EMULSION:   DRILLING FLUID TYPE
 DFD .                9.2:   DRILLING FLUID DENSITY
 DFV .                 55:   DRILLING FLUID VISCOSITY
 MFSS.                  M:   MUD FILTRATE SAMPLE SOURCE
 MCSS.                  M:   MUD CAKE SAMPLE SOURCE
 RMB .OHMM            .75:   RESISTIVITY MUD AT BHT
 BHT .F                80:   BOTTOM HOLE TEMPERATURE
 TCS .HRS               1:   TIME CURCULATED STOPPED
 MRT .F                80:   MAXIMUM RECORDED TEMPERATURE
 LUN .               2552:   LOGGING UNIT NUMBER
 LUL .                RIV:   LOGGING UNIT LOCATION
 ENGI.             RANDLE:   RECORDING ENGINEER
 WITN.          VORGENSEN:   WITNESSED BY
 CLNT.            A2DTECH:   CLIENT CODE
 ORIG.       2", 5" PRINT:   ORIGIN OF DATA
 UWI .       490250632800:   UNIQUE WELL ID
 DICO. A2D Technologies, Inc.:   DIGITIZING COMPANY
~OTHER INFORMATION
~A   DEPT       GR        SPR       CILD        ASN        ILD   
# ...
  888.0000  -999.2500   -32.9699    93.0291    12.1120    11.7058
  888.5000  -999.2500   -32.7505    93.7813    12.1442    11.7169
  889.0000  -999.2500   -32.5081    93.7813    12.1769    11.7294
  889.5000  -999.2500   -32.2890    93.2107    12.2092    11.7409
  890.0000  -999.2500   -32.1006    92.6919    12.2420    11.7534
  890.5000  -999.2500   -31.9972    92.1731    12.2737    11.7647
  891.0000  -999.2500   -31.8834    91.6543    12.3074    11.7783
  891.5000  -999.2500   -31.7742    91.1355    12.3375    11.7862
  892.0000  -999.2500   -31.6625    90.8846    12.3747    11.7856
  892.5000  -999.2500   -31.5521    91.2589    12.3695    11.7854
  893.0000  -999.2500   -31.4410    91.6331    12.3201    11.7866
  893.5000  -999.2500   -31.3305    92.0074    12.2804    11.7842
  894.0000  -999.2500   -31.2189    92.3816    12.2325    11.7896
  894.5000  -999.2500   -31.1093    92.7559    12.1951    11.7473
  895.0000  -999.2500   -30.9959    93.1301    12.1479    11.6589
  895.5000  -999.2500   -30.8895    93.5044    12.0776    11.5758
  896.0000  -999.2500   -30.7668    93.8786    12.0188    11.4944
  896.5000  -999.2500   -30.6801    94.2529    11.9518    11.4042
  897.0000  -999.2500   -30.6476    94.6272    11.8948    11.3336
  897.5000  -999.2500   -30.6020    95.0014    11.8200    11.2210
  898.0000  -999.2500   -30.5627    95.3757    11.8065    11.2566
  898.5000  -999.2500   -30.5198    95.7786    11.8968    11.4099
  899.0000  -999.2500   -30.4814    94.4916    11.9753    11.5000
  899.5000  -999.2500   -30.4450    93.0633    12.0647    11.6201
  900.0000  -999.2500   -30.4085    91.7777    12.1414    11.7342
  900.5000  -999.2500   -30.3720    91.7806    12.2405    11.7804
  901.0000  -999.2500   -30.3352    91.7803    12.2647    11.7323
  901.5000  -999.2500   -30.2989    91.7782    12.1682    11.6990
  902.0000  -999.2500   -30.2615    91.7761    12.0839    11.6565
  902.5000  -999.2500   -30.2264    91.7753    11.9916    11.6213
  903.0000  -999.2500   -30.1870    92.4576    11.9048    11.5735
  903.5000  -999.2500   -30.1558    93.1913    11.8131    11.4495
  904.0000  -999.2500   -30.1085    93.9251    11.7284    11.3287
  904.5000  -999.2500   -30.1602    94.6588    11.6224    11.2087
  905.0000  -999.2500   -30.2978    95.3926    11.5005    11.0856
  905.5000  -999.2500   -30.4198    96.1264    11.3811    10.9626
  906.0000  -999.2500   -30.5462    96.8601    11.2818    10.8363
  906.5000  -999.2500   -30.6862    97.5938    11.2274    10.7102
  907.0000  -999.2500   -30.6765    98.3276    11.1795    10.5840
  907.5000  -999.2500   -30.6158    99.0614    11.1314    10.4579
  908.0000  -999.2500   -30.5634    99.7994    11.0849    10.3317
  908.5000  -999.2500   -30.5129   101.3257    11.0342    10.2058
  909.0000  -999.2500   -30.4391   102.8610    10.9921    10.0791
  909.5000  -999.2500   -30.3147   104.3963    10.9330     9.9430
  910.0000  -999.2500   -30.2044   105.9316    10.9051     9.8062
  910.5000  -999.2500   -30.0877   107.7550    10.7298     9.6694
  911.0000  -999.2500   -29.9744   109.9746    10.6016     9.5332
  911.5000  -999.2500   -29.8595   112.1942    10.3095     9.3955
  912.0000  -999.2500   -29.7454   114.4138     9.9173     9.2615
  912.5000  -999.2500   -29.6308   116.6334     9.6924     9.1208
  913.0000  -999.2500   -29.5091   118.8566     9.4356     8.9929
  913.5000  -999.2500   -29.4199   119.5203     9.1855     8.8397
  914.0000  -999.2500   -29.3274   120.8102     8.9457     8.7799
  914.5000  -999.2500   -29.2340   119.9190     8.6946     8.7099
  915.0000  -999.2500   -29.1413   119.0905     8.4440     8.5864
  915.5000  -999.2500   -29.0476   119.0645     8.1926     8.4221
  916.0000  -999.2500   -28.9555   119.4147     7.6716     7.7918
  916.5000  -999.2500   -28.8602   119.7591     7.0219     7.1601
  917.0000  -999.2500   -28.7712   119.7606     6.4433     6.5236
  917.5000  -999.2500   -28.6704   119.6125     5.7368     5.9693
  918.0000  -999.2500   -28.5922   119.4621     5.7917     5.7909
  918.5000  -999.2500   -28.4573   119.3135     5.9172     5.8634
  919.0000  -999.2500   -28.2591   119.1653     6.2818     6.7963
  919.5000  -999.2500   -28.2174   119.0165     7.5577     8.0332
  920.0000  -999.2500   -28.1517   118.8583     9.1651     9.1669
  920.5000  -999.2500   -28.0990  -999.2500    10.0293     9.8880
  921.0000  -999.2500   -28.0384  -999.2500  -999.2500  -999.2500
  921.5000  -999.2500   -27.9835  -999.2500  -999.2500  -999.2500
  922.0000  -999.2500   -27.9229  -999.2500  -999.2500  -999.2500
