~VERSION INFORMATION
 VERS.                2.0:   CWLS LOG ASCII STANDARD - VERSION 2.0
 WRAP.                 NO:   ONE LINE PER DEPTH STEP
~WELL INFORMATION
#MNEM.UNIT      DATA TYPE    INFORMATION
#----------   ------------   ------------------------------
 STRT.F           30.0000:   START DEPTH
 STOP.F          547.0000:   STOP DEPTH
 STEP.F            0.5000:   STEP LENGTH
 NULL.          -999.2500:   NO VALUE
 COMP.   FINIX & SCISSION:   COMPANY
 WELL. SX-11 NPR #3 #11-11:   WELL
 FLD .             TEAPOT:   FIELD
 LOC .      S11 T38N R78W:   LOCATION
 CNTY.            NATRONA:   COUNTY
 STAT.            WYOMING:   STATE
 CTRY. UNITED STATES OF AMERICA:   COUNTRY
 SRVC.       Schlumberger:   SERVICE COMPANY
 DATE.        01-MAR-1977:   LOGDATE
 API .       490251058500:   API NUMBER
~CURVE INFORMATION
#MNEM.UNIT       API CODE    CURVE DESCRIPTION
#----------   ------------   ------------------------------
 DEPT.F                  :   
 ILD .OHMM               :   INDUCTION LOG DEEP
 ILM .OHMM   07 120 44 00:   INDUCTION LOG MEDIUM
 LL8 .OHMM   07 220 08 00:   
 SPR .MV     07 010 01 00:   SPONTANEOUS POTENTIAL
 CALD.IN     45 280 60 00:   CALIPER FROM DENSITY LOG
 CORR.G/C3   45 356 01 00:   DENSITY CORRECTION
 DPHI.DEC    45 890 12 00:   DENSITY POROSITY SANDSTONE
 GRD .GAPI   45 310 01 00:   GAMMA RAY FROM DENSITY LOG
 RHOB.G/C3   45 350 01 00:   BULK DENSITY
~PARAMETER INFORMATION
#MNEM.UNIT          VALUE    DESCRIPTION
#----------   ------------   ------------------------------
 PD  .                 GL:   PERMANENT DATUM
 EPD .F              5158:   ELEVATION PERMANENT DATUM
 LMF .                 GL:   LOG MEASURED FROM
 DMF .                 GL:   DRILLING MEASURED FROM
 EKB .F              5161:   KELLING BUSHING
 EGL .F              5158:   GROUND LEVEL
 DATE.        01-MAR-1977:   RUN DATE
 RUN .                  1:   RUN NUMBER
 DD  .F               575:   DEPTH DRILLER
 DL  .F               548:   DEPTH LOGGER
 BLI .F               547:   BOTTOM LOG INTERVAL
 TLI .F                45:   TOP LOG INTERVAL
 CS  .IN            8.625:   CASING SIZE
 CBD .F                40:   CASING BOTTOM DRILLER
 CBL .F                45:   CASING BOTTOM LOGGER
 BS  .IN            7.875:   BIT SIZE
 BSD .F               575:   BIT SIZE AT DEPTH
 DFT .                PIT:   DRILLING FLUID TYPE
 DFD .                8.7:   DRILLING FLUID DENSITY
 DFV .                 46:   DRILLING FLUID VISCOSITY
 DFPH.                  8:   DRILLING FLUID PH
 DFL .                6.8:   DRILLING FLUID LOSS
 MSS .                PIT:   MUD SAMPLE SOURCE
 RMS .OHMM          0.632:   RESISTIVITY MUD SAMPLE
 MST .F                65:   MUD SAMPLE TEMPERATURE
 RMF .OHMM          0.465:   RESISTIVITY MUD FILTRATE SAMPLE
 MFST.F                65:   MUD FILTRATE SAMPLE TEMPERATURE
 MFSS.               MEAS:   MUD FILTRATE SAMPLE SOURCE
 RMB .OHMM          0.635:   RESISTIVITY MUD AT BHT
 BHT .F                68:   BOTTOM HOLE TEMPERATURE
 TCS .HRS              12:   TIME CURCULATED STOPPED
 MRT .F                68:   MAXIMUM RECORDED TEMPERATURE
 LUN .               5642:   LOGGING UNIT NUMBER
 LUL .               CSPR:   LOGGING UNIT LOCATION
 ENGI.         JIM MARTIN:   RECORDING ENGINEER
 WITN.         STUEBINGER:   WITNESSED BY
 CLNT.            A2DTECH:   CLIENT CODE
 ORIG.           5" PRINT:   ORIGIN OF DATA
 UWI .       490251058500:   UNIQUE WELL ID
 DICO. A2D Technologies, Inc.:   DIGITIZING COMPANY
~OTHER INFORMATION
~A   DEPT      ILD        ILM        LL8        SPR       CALD       CORR       DPHI         GRD      RHOB   
   30.0000  -999.2500  -999.2500  -999.2500  -999.2500  -999.2500  -999.2500  -999.2500    80.4665  -999.2500
   30.5000  -999.2500  -999.2500  -999.2500  -999.2500  -999.2500  -999.2500  -999.2500    79.2774  -999.2500
   31.0000  -999.2500  -999.2500  -999.2500  -999.2500  -999.2500  -999.2500  -999.2500    79.4377  -999.2500
   31.5000  -999.2500  -999.2500  -999.2500  -999.2500  -999.2500  -999.2500  -999.2500    80.1976  -999.2500
   32.0000  -999.2500  -999.2500  -999.2500  -999.2500  -999.2500  -999.2500  -999.2500    80.6551  -999.2500
   32.5000  -999.2500  -999.2500  -999.2500  -999.2500  -999.2500  -999.2500  -999.2500    78.8689  -999.2500
   33.0000  -999.2500  -999.2500  -999.2500  -999.2500  -999.2500  -999.2500  -999.2500    77.3800  -999.2500
   33.5000  -999.2500  -999.2500  -999.2500  -999.2500  -999.2500  -999.2500  -999.2500    78.7396  -999.2500
   34.0000  -999.2500  -999.2500  -999.2500  -999.2500  -999.2500  -999.2500  -999.2500    79.5192  -999.2500
   34.5000  -999.2500  -999.2500  -999.2500  -999.2500  -999.2500  -999.2500  -999.2500    76.5114  -999.2500
   35.0000  -999.2500  -999.2500  -999.2500  -999.2500  -999.2500  -999.2500  -999.2500    74.5727  -999.2500
   35.5000  -999.2500  -999.2500  -999.2500  -999.2500  -999.2500  -999.2500  -999.2500    73.3836  -999.2500
   36.0000  -999.2500  -999.2500  -999.2500  -999.2500  -999.2500  -999.2500  -999.2500    75.2734  -999.2500
   36.5000  -999.2500  -999.2500  -999.2500  -999.2500  -999.2500  -999.2500  -999.2500    77.3049  -999.2500
   37.0000  -999.2500  -999.2500  -999.2500  -999.2500  -999.2500  -999.2500  -999.2500    78.6646  -999.2500
   37.5000  -999.2500  -999.2500  -999.2500  -999.2500  -999.2500  -999.2500  -999.2500    79.7244  -999.2500
   38.0000  -999.2500  -999.2500  -999.2500  -999.2500  -999.2500  -999.2500  -999.2500    80.4843  -999.2500
   38.5000  -999.2500  -999.2500  -999.2500  -999.2500  -999.2500  -999.2500  -999.2500    80.3421  -999.2500
   39.0000  -999.2500  -999.2500  -999.2500  -999.2500  -999.2500  -999.2500  -999.2500    80.8048  -999.2500
   39.5000  -999.2500  -999.2500  -999.2500  -999.2500  -999.2500  -999.2500  -999.2500    81.2649  -999.2500
   40.0000  -999.2500  -999.2500  -999.2500  -999.2500  -999.2500  -999.2500  -999.2500    79.4761  -999.2500
   40.5000  -999.2500  -999.2500  -999.2500  -999.2500  -999.2500  -999.2500  -999.2500    77.9872  -999.2500
   41.0000  -999.2500  -999.2500  -999.2500  -999.2500  -999.2500  -999.2500  -999.2500    77.3952  -999.2500
   41.5000  -999.2500  -999.2500  -999.2500  -999.2500  -999.2500  -999.2500  -999.2500    78.4576  -999.2500
   42.0000  -999.2500  -999.2500  -999.2500  -999.2500  -999.2500  -999.2500  -999.2500    79.3675  -999.2500
   42.5000  -999.2500  -999.2500  -999.2500  -999.2500  -999.2500  -999.2500  -999.2500    77.2789  -999.2500
   43.0000  -999.2500  -999.2500  -999.2500  -999.2500  -999.2500  -999.2500  -999.2500    75.3203  -999.2500
   43.5000  -999.2500  -999.2500  -999.2500  -999.2500  -999.2500  -999.2500  -999.2500    74.1314  -999.2500
   44.0000  -999.2500  -999.2500  -999.2500  -999.2500  -999.2500  -999.2500  -999.2500    77.1625  -999.2500
   44.5000  -999.2500  -999.2500  -999.2500  -999.2500  -999.2500  -999.2500  -999.2500    83.7695  -999.2500
   45.0000  -999.2500  -999.2500  -999.2500  -999.2500     8.3280     0.2366     0.4485    87.6779     1.9436
   45.5000  -999.2500  -999.2500  -999.2500  -999.2500    10.1401     0.2478     0.3300    90.5368     2.2167
   46.0000     0.9348     7.7572  1544.4077  -184.5090    11.5031     0.2486     0.1722    93.8455     2.3352
   46.5000     0.9799     2.5265   843.6163  -179.9728    13.2701     0.2486     0.2451    96.7018     2.0434
   47.0000     1.0357     1.6922  1268.1182  -150.2036    12.7471     0.1280     0.3889    94.7656     1.8043
   47.5000     1.2488     1.3277  1507.1241  -146.3025    10.8766     0.0457     0.5965    93.5766     1.7809
   48.0000     1.9599     1.4916  1581.7025  -177.4831     9.2156     0.0537     0.4156    92.5374     1.9092
   48.5000     2.2512     1.7209  1545.5448  -183.2608     8.7373     0.0629     0.4051    92.2453     1.9549
   49.0000     2.6039     1.7391   843.3159  -165.8845     8.3488     0.0427     0.4041    93.7575     1.9572
   49.5000     1.9321     1.8378   383.5970  -153.7499     8.1849     0.0412     0.4017    94.6673     1.9467
   50.0000     2.1887     1.9965   648.4893  -175.1996     8.1407     0.0524     0.4086    89.8801     1.9347
   50.5000     2.2814     2.0953  1330.3054  -183.6706     8.1415     0.0636     0.4149    87.9315     1.9378
   51.0000     2.2811     2.0808  1465.3197  -174.5285     8.1590     0.0696     0.4244    88.4418     1.9183
   51.5000     2.1727     2.0521  1580.9247  -173.0212     8.1879     0.0890     0.4413    90.2135     1.8815
   52.0000     2.1564     2.0378  1569.9325  -151.6037     8.0840     0.1152     0.4485    91.4232     1.8650
   52.5000     2.8865     2.2916  1008.7963  -143.3598     7.9797     0.1212     0.4500    91.7334     1.8553
   53.0000     2.7634     2.6310   724.0114  -166.1039     8.2801     0.1167     0.4476    91.8910     1.8846
   53.5000     2.5802     2.4894   890.3097  -184.3571     8.2656     0.1399     0.4350    87.8559     1.9176
   54.0000     2.4769     2.3554  1008.5910  -177.3108     8.1917     0.1302     0.4467    85.7673     1.8981
   54.5000     2.3756     2.3715  1414.8890  -163.9771     8.1474     0.0351     0.4326    85.1779     1.8921
   55.0000     2.2785     2.3227  1495.1987  -140.1644     8.3129     0.0397     0.4124    84.8884     1.9364
   55.5000     2.2468     2.2907  1420.4119  -132.2199     8.4185     0.0612     0.4070    84.2990     1.9538
   56.0000     2.2465     2.2905  1347.8101  -119.1397     8.5539     0.1020     0.4169    85.0590     1.9417
   56.5000     2.3743     2.3746  1464.2017  -111.1467     8.6595     0.1496     0.3968    87.4681     1.9574
   57.0000     2.5094     2.5289  1547.3103  -106.5901     8.7051     0.1803     0.3860    87.3285     1.9785
   57.5000     2.6157     2.5933  1547.2053  -117.0984     8.7208     0.1578     0.3872    86.1394     1.9875
   58.0000     2.8423     2.7979  1547.1003  -152.8244     8.7365     0.1354     0.3977    84.5907     1.9815
   58.5000     2.8817     2.8960  1536.3694  -156.7063     8.7675     0.1548     0.3744    80.9630     2.0108
   59.0000     3.0037     2.9770  1546.9166  -154.8995     8.8452     0.1758     0.3701    75.9781     2.0203
   59.5000     3.4983     3.2341  1546.7854  -144.1107     9.3888     0.1563     0.3841    70.2913     1.7917
   60.0000     3.8545     3.6119   796.7620  -132.2741    11.2696     0.1518     0.3898    56.8083     1.8090
   60.5000     3.8256     3.8435   393.7518  -129.4194    11.7043     0.1570     0.3445    50.0000     2.0963
   61.0000     3.7741     3.7384  2000.0000  -129.2594    10.7619     0.1540     0.3154    50.0000     2.0558
   61.5000     4.5191     3.9234  -999.2500  -127.7521    12.2898     0.1308     0.3106    50.0000     1.9738
   62.0000     5.0488     4.3817  -999.2500  -126.5441    12.5897     0.1061     0.4881    50.0000     1.8357
   62.5000     4.7426     4.9961  -999.2500  -125.9350    11.8721     0.1007     0.4774    50.0000     1.7873
   63.0000     4.3937     4.7599  -999.2500  -125.3258    10.9896     0.1070     0.4246    50.0000     1.9186
   63.5000     4.3026     4.5036  -999.2500  -124.4173    11.8287     0.1794     0.3736    50.0000     2.0184
   64.0000     4.2136     4.3200  -999.2500  -123.5088    12.3083     0.1952     0.4459    50.0000     1.9217
   64.5000     4.5469     4.4480  -999.2500  -122.6002    12.7433     0.0956     0.4717    50.0000     1.8472
   65.0000     5.0098     4.8049  -999.2500  -122.5898    13.7470     0.0799     0.4825    50.0000     1.8242
   65.5000     5.1859     5.2778  -999.2500  -122.4296    14.1819     0.1308     0.5053    50.0000     1.8354
   66.0000     5.2944     5.2050  1643.5062  -121.9481    13.0300     0.1742     0.5287    50.0000     1.7514
