~VERSION INFORMATION
 VERS.                2.0:   CWLS LOG ASCII STANDARD - VERSION 2.0
 WRAP.                 NO:   ONE LINE PER DEPTH STEP
~WELL INFORMATION
#MNEM.UNIT      DATA TYPE    INFORMATION
#----------   ------------   ------------------------------
 STRT.F           60.0000:   START DEPTH
 STOP.F          945.0000:   STOP DEPTH
 STEP.F            0.5000:   STEP LENGTH
 NULL.          -999.2500:   NO VALUE
 COMP.          U.S. NAVY:   COMPANY
 WELL. RES 3 TEAPOT DOM #48S-35:   WELL
 FLD .           TEAPOT E:   FIELD
 LOC .      S35 T39N R78W:   LOCATION
 CNTY.            NATRONA:   COUNTY
 STAT.            WYOMING:   STATE
 CTRY. UNITED STATES OF AMERICA:   COUNTRY
 SRVC.       Schlumberger:   SERVICE COMPANY
 DATE.        15-JUL-1964:   LOGDATE
 API .       490250649200:   API NUMBER
~CURVE INFORMATION
#MNEM.UNIT       API CODE    CURVE DESCRIPTION
#----------   ------------   ------------------------------
 DEPT.F                  :   
 SPR .MV     05 010 01 00:   SPONTANEOUS POTENTIAL FROM RES.
 ILD .OHMM   05 120 46 00:   INDUCTION LOG DEEP
 ASN .OHMM   05 041 18 00:   AMPLIFIED SHORT NORMAL 18"
 CILD.MMHO   05 110 46 00:   CONDUCTIVITY INDUCTION LOG DEEP
 CALS.IN     60 280 50 00:   CALIPER FROM SONIC LOG
 DT  .US/F   60 520 00 00:   INTERVAL TRANSIT TIME
 GR  .GAPI   30 310 01 00:   GAMMA RAY
~PARAMETER INFORMATION
#MNEM.UNIT          VALUE    DESCRIPTION
#----------   ------------   ------------------------------
 PD  .                 GL:   PERMANENT DATUM
 EPD .F              5123:   ELEVATION PERMANENT DATUM
 LMF .                 KB:   LOG MEASURED FROM
 DAPD.F                 5:   FEET ABOVE PERMANENT DATUM
 DMF .                 KB:   DRILLING MEASURED FROM
 EKB .F              5128:   KELLING BUSHING
 EGL .F              5123:   GROUND LEVEL
 DATE.        15-JUL-1964:   RUN DATE
 RUN .                  1:   RUN NUMBER
 DD  .F               945:   DEPTH DRILLER
 DL  .F               946:   DEPTH LOGGER
 BLI .F               945:   BOTTOM LOG INTERVAL
 TLI .F                94:   TOP LOG INTERVAL
 CS  .IN            8.625:   CASING SIZE
 CBD .F                10:   CASING BOTTOM DRILLER
 BS  .IN             6.75:   BIT SIZE
 BSD .F               945:   BIT SIZE AT DEPTH
 DFT .                GEL:   DRILLING FLUID TYPE
 DFD .                9.5:   DRILLING FLUID DENSITY
 DFV .                 44:   DRILLING FLUID VISCOSITY
 DFPH.                8.0:   DRILLING FLUID PH
 DFL .               10.5:   DRILLING FLUID LOSS
 MSS .           FLOWLINE:   MUD SAMPLE SOURCE
 RMS .OHMM           3.37:   RESISTIVITY MUD SAMPLE
 MST .F                74:   MUD SAMPLE TEMPERATURE
 RMF .OHMM           2.97:   RESISTIVITY MUD FILTRATE SAMPLE
 MFST.F                78:   MUD FILTRATE SAMPLE TEMPERATURE
 MFSS.                 FP:   MUD FILTRATE SAMPLE SOURCE
 TCS .HRS             1.5:   TIME CURCULATED STOPPED
 MRT .F       T. L. T. M.:   MAXIMUM RECORDED TEMPERATURE
 LUN .               3527:   LOGGING UNIT NUMBER
 LUL .               CSPR:   LOGGING UNIT LOCATION
 ENGI.            WINKLER:   RECORDING ENGINEER
 WITN.          JORGENSEN:   WITNESSED BY
 CLNT.            A2DTECH:   CLIENT CODE
 ORIG.           2" PRINT:   ORIGIN OF DATA
 UWI .       490250649200:   UNIQUE WELL ID
 DICO. A2D Technologies, Inc.:   DIGITIZING COMPANY
~OTHER INFORMATION
~A   DEPT      SPR        ILD        ASN       CILD         CALS       DT         GR   
# ...
  788.0000   -39.8621     7.4692     9.2703   137.2119     6.6711    99.1760    94.6500
  788.5000   -39.8630     7.4705     9.2262   136.4508     6.6697    98.5775    95.2430
  789.0000   -39.8635     7.5135     9.0855   134.5327     6.6687    98.0544    90.5727
  789.5000   -39.7144     7.6226     8.9706   131.1400     6.6679    97.9834    88.4589
  790.0000   -39.7153     7.6987     8.9265   128.1818     6.6671    98.5163    88.7510
  790.5000   -39.6539     7.8212     8.9991   126.5878     6.6662    98.3700    90.2440
  791.0000   -39.5667     7.9488     9.2652   130.4036     6.6803    98.6757    94.4460
  791.5000   -39.5676     8.0019     9.4531   149.3061     6.6794    99.5090    99.0990
  792.0000   -39.5002     7.4785     9.6034   165.2018     6.6939    99.7384    99.9949
  792.5000   -39.4190     6.5848     9.7424   176.1231     6.6927    98.6134    95.9240
  793.0000   -39.4199     5.8193     9.7577   185.6585     6.7073    97.2948    96.5148
  793.5000   -39.4205     5.3829     9.4364   195.9369     6.7060    95.6089    97.2602
  794.0000   -39.4213     5.2339     8.6594   193.8131     6.7051    94.4075    95.2946
  794.5000   -39.4221     5.2350     7.4734   190.9503     6.7042    93.5076    90.3236
  795.0000   -39.2729     5.3112     7.1171   189.0657     6.7034    92.9844    84.9015
  795.5000   -39.2736     5.4966     7.0386   187.4031     6.6874    93.4409    75.4171
  796.0000   -39.4243     5.8771     7.2343   175.0300     6.6864    98.5544    67.1378
  796.5000   -39.5970     6.5140     7.3190   146.1847     6.6854   107.0894    66.8285
  797.0000   -39.9515     7.2516     8.3892   121.2285     6.6845   105.7384    66.8199
  797.5000   -40.6260     8.3453    10.0293   110.6248     6.6836   105.4413    66.8113
  798.0000   -41.4442     9.0660    10.4734   105.0359     6.6981   104.7675    67.5524
  798.5000   -42.1087     9.3830    10.6591   101.6516     6.6668   102.5111    69.3484
  799.0000   -42.7271     9.5180    10.6596   100.0075     6.5902    95.8920    71.1443
  799.5000   -42.9758     9.5191    10.6839   102.7259     6.5589    90.4027    74.5943
  800.0000   -43.5374     9.5952    10.7357   108.5831     6.5582    89.7291    76.9915
  800.5000   -43.8363     9.5967    10.6608   109.8485     6.5570    92.1414    71.1210
  801.0000   -44.0793     9.5982    10.7362   109.0909     6.5560    92.6717    68.5587
  801.5000   -43.4805     9.7209    10.8115   106.1173     6.5398    92.9010    61.3348
  802.0000   -43.0885     9.9760    10.9269   103.0303     6.5386    93.2808    55.3138
  802.5000   -42.6912    10.4179    11.1122    97.8216     6.5376    94.1121    48.8403
  803.0000   -42.4333    10.9635    11.5504    92.2230     6.5366    94.3423    44.7743
  803.5000   -42.5839    11.5548    12.4015    81.8182     6.5356    94.3459    37.5504
  804.0000   -42.9205    12.2459    14.0409    74.2425     6.5499    94.5752    33.3339
  804.5000   -43.4851    12.9871    14.8018    68.1565     6.5484    94.9550    28.0649
  805.0000   -44.5801    14.0331    16.2559    61.3636     6.5474    94.7329    26.1041
  805.5000   -46.2195    15.1833    17.7953    55.8334     6.5464    93.4582    24.7449
  806.0000   -47.6852    16.4022    18.9867    50.9846     6.5303    92.3331    22.3330
  806.5000   -48.6717    18.0106    21.8046    48.4848     6.4990    89.4022    18.7181
  807.0000   -49.7632    20.2007    23.8020    44.9623     6.4372    90.1582    14.8024
  807.5000   -52.3352    22.0054    25.6101    41.9508     6.3757    94.0745    13.4431
  808.0000   -55.7247    22.7378    28.3069    39.3939     6.2991    99.7223     8.6252
  808.5000   -58.8845    23.2714    30.2591    37.0832     6.2224   105.7455    10.4224
  809.0000   -59.9836    24.1525    31.2302    35.4672     6.1609   110.4142    10.8706
  809.5000   -60.6341    25.6658    32.5270    33.3333     6.0991   115.6849     9.8091
  810.0000   -61.5592    26.2294    33.7633    32.9546     6.0527   120.9556    10.4047
  810.5000   -63.5841    26.9274    34.7056    32.5758     6.0215   123.2927    12.9552
  811.0000   -63.2699    27.6194    35.3653    32.5758     6.0356   120.6627    12.1975
  811.5000   -60.6685    27.9917    36.1688    32.5758     6.1856   118.9356     9.6352
  812.0000   -59.7961    28.0719    36.9073    32.5758     6.2454   119.0897     8.4263
  812.5000   -61.5443    27.8488    37.2429    32.5758     6.2441   116.9112     9.0219
  813.0000   -63.0014    27.4902    37.5859    32.5758     6.2431   111.4981    10.6702
  813.5000   -63.2332    27.5761    37.6937    32.5758     6.2270   110.5987    13.2207
  814.0000   -62.1289    27.9282    35.7421    32.5758     6.2257   110.1499    10.3562
  814.5000   -59.5420    28.1862    34.5184    33.3333     6.2247   112.4870     9.6014
  815.0000   -57.5937    27.8188    32.8146    33.3333     6.2391   114.0707    12.1490
  815.5000   -58.2771    25.9837    32.7034    34.0909     6.2530   115.7306    12.5942
  816.0000   -58.5387    25.6702    33.4457    35.1517     6.2973   117.3143    12.7387
  816.5000   -58.6455    25.5367    33.6411    36.4078     6.3566   116.9417    13.7854
  817.0000   -58.4962    25.7634    32.9081    37.1212     6.4010   114.2365    14.9826
  817.5000   -58.3470    25.9989    32.1775    38.9203     6.4153   114.4658    14.9767
  818.0000   -58.6477    26.2159    30.7139    39.3939     6.4141   114.7703    15.4219
  818.5000   -59.7596    25.1682    29.8770    39.3939     6.4131   112.9689    15.7168
  819.0000   -60.4483    24.5660    29.6632    39.1288     6.4118   114.4022    16.1635
  819.5000   -60.4491    24.2714    29.5884    37.1149     6.4108   113.7285    17.2073
  820.0000   -59.9201    24.2729    29.8138    35.8587     6.4098   114.8608    19.6075
  820.5000   -59.1382    25.0635    32.1414    34.6022     6.4088   113.4356    22.7595
  821.0000   -58.7787    26.9745    33.0625    33.3333     6.4078   112.2344    23.9566
  821.5000   -59.4762    27.9874    33.1178    33.3333     6.4065   114.6467    24.2515
  822.0000   -61.4664    28.1766    33.1180    34.5456     6.4055   113.0702    25.1478
  822.5000   -64.6515    28.0285    35.2454    38.6364     6.4199   110.1392    27.3976
  823.0000   -65.2519    26.7944    34.6251    42.3110     6.4340   107.7350    32.9556
  823.5000   -63.8938    24.7689    30.8665    46.0793     6.4481   108.5671    37.0099
  824.0000   -60.9056    21.3614    26.9728    51.5152     6.4618   108.1192    39.4100
  824.5000   -58.2298    19.5088    21.7828    56.3380     6.4607   107.2942    40.0071
  825.0000   -54.8225    18.6094    21.7080    61.1744     6.4597   109.4056    33.6825
  825.5000   -53.2617    17.0181    20.9700    63.6364     6.4587   104.6696    34.1277
  826.0000   -52.8126    16.1649    20.2269    66.3384     6.4731    99.7823    34.7234
  826.5000   -52.8568    15.6380    18.6306    66.6667     6.5021   106.9341    35.3190
  827.0000   -54.0136    15.3734    18.3731    65.9091     6.5314   109.8714    36.0665
  827.5000   -54.1217    15.2999    18.2493    64.7411     6.5755    91.9679    32.7508
  828.0000   -54.4648    15.3164    18.1057    64.2424     6.6047    91.8209    29.4367
  828.5000   -54.4655    15.6028    18.1059    63.6364     6.6491    92.6319    29.1315
  829.0000   -54.5147    16.0228    18.1862    62.4874     6.6784   105.6741    30.3286
  829.5000   -54.7669    16.5577    18.4818    61.2310     6.7074   111.0191    28.6671
  830.0000   -55.1075    17.0316    18.6572    59.8485     6.7369    96.7272    26.8568
  830.5000   -55.7544    17.2935    18.9327    58.7184     6.7810    95.2259    25.7968
  831.0000   -56.4183    17.5817    19.0555    57.4622     6.7954    95.7059    26.3924
  831.5000   -57.4980    17.7108    19.1796    56.0606     6.8095    96.8893    28.4918
  832.0000   -57.7690    17.8571    19.3087    55.3030     6.7475    97.4196    31.4934
  832.5000   -57.3201    18.0135    19.4278    54.5455     6.5952    98.9281    34.0439
  833.0000   -54.7152    18.0152    19.5344    54.5455     6.5185    99.1574    35.2410
