~VERSION INFORMATION
 VERS.                2.0:   CWLS LOG ASCII STANDARD - VERSION 2.0
 WRAP.                 NO:   ONE LINE PER DEPTH STEP
~WELL INFORMATION
#MNEM.UNIT      DATA TYPE    INFORMATION
#----------   ------------   ------------------------------
 STRT.F           40.0000:   START DEPTH
 STOP.F          596.0000:   STOP DEPTH
 STEP.F            0.5000:   STEP LENGTH
 NULL.          -999.2500:   NO VALUE
 COMP. FENIX & SCISSON INC:   COMPANY
 WELL. SX-15 N.O.R. #3 #51-15:   WELL
 FLD .             TEAPOT:   FIELD
 LOC .      S15 T38N R78W:   LOCATION
 CNTY.            NATRONA:   COUNTY
 STAT.            WYOMING:   STATE
 CTRY. UNITED STATES OF AMERICA:   COUNTRY
 SRVC.              Welex:   SERVICE COMPANY
 DATE.        12-MAR-1977:   LOGDATE
 API .       490251031100:   API NUMBER
~CURVE INFORMATION
#MNEM.UNIT       API CODE    CURVE DESCRIPTION
#----------   ------------   ------------------------------
 DEPT.F                  :   
 GRD .GAPI   45 310 01 00:   GAMMA RAY FROM DENSITY LOG
 CALD.IN     45 280 60 00:   CALIPER FROM DENSITY LOG
 CORR.G/C3   45 356 01 00:   DENSITY CORRECTION
 RHOB.G/C3   45 350 01 00:   BULK DENSITY
 DPOR.DEC    45 890 12 00:   DENSITY POROSITY SANDSTONE
 SGRD.OHMM   07 220 05 00:   SHALLOW GUARD RESISTIVITY
 ILD .OHMM   07 120 46 00:   INDUCTION LOG DEEP
 ILM .OHMM   07 120 44 00:   INDUCTION LOG MEDIUM
 SPR .MV     07 010 01 00:   SPONTANEOUS POTENTIAL
~PARAMETER INFORMATION
#MNEM.UNIT          VALUE    DESCRIPTION
#----------   ------------   ------------------------------
 PD  .                 GL:   PERMANENT DATUM
 EPD .F              5221:   ELEVATION PERMANENT DATUM
 LMF .                 GL:   LOG MEASURED FROM
 DMF .                 GL:   DRILLING MEASURED FROM
 EGL .F              5221:   GROUND LEVEL
 DATE.            3-12-77:   RUN DATE
 RUN .                  1:   RUN NUMBER
 DD  .F               600:   DEPTH DRILLER
 DL  .F               597:   DEPTH LOGGER
 BLI .F               596:   BOTTOM LOG INTERVAL
 TLI .F                45:   TOP LOG INTERVAL
 CS  .IN            8.625:   CASING SIZE
 CBD .F                46:   CASING BOTTOM DRILLER
 CBL .F                45:   CASING BOTTOM LOGGER
 BS  .IN            7.875:   BIT SIZE
 BSD .F               600:   BIT SIZE AT DEPTH
 DFT .            KCL-MUD:   DRILLING FLUID TYPE
 DFD .                8.9:   DRILLING FLUID DENSITY
 DFV .                 34:   DRILLING FLUID VISCOSITY
 MSS .            MUD PIT:   MUD SAMPLE SOURCE
 RMS .OHMM            .68:   RESISTIVITY MUD SAMPLE
 MST .F                40:   MUD SAMPLE TEMPERATURE
 RMF .OHMM            .57:   RESISTIVITY MUD FILTRATE SAMPLE
 MFST.F                40:   MUD FILTRATE SAMPLE TEMPERATURE
 RMC .OHMM            .78:   RESISTIVITY MUD CAKE
 MCST.F                40:   MUD CAKE SAMPLE TEMPERATURE
 MFSS.           MEASURED:   MUD FILTRATE SAMPLE SOURCE
 MCSS.           MEASURED:   MUD CAKE SAMPLE SOURCE
 RMB .OHMM            .41:   RESISTIVITY MUD AT BHT
 BHT .F                65:   BOTTOM HOLE TEMPERATURE
 TCS .HRS               3:   TIME CURCULATED STOPPED
 MRT .F                65:   MAXIMUM RECORDED TEMPERATURE
 LUN .                716:   LOGGING UNIT NUMBER
 LUL .             VERNAL:   LOGGING UNIT LOCATION
 ENGI.           CALLAHAN:   RECORDING ENGINEER
 WITN.         STUEBINGER:   WITNESSED BY
 CLNT.            A2DTECH:   CLIENT CODE
 ORIG.       2", 5" PRINT:   ORIGIN OF DATA
 UWI .       490251031100:   UNIQUE WELL ID
 DICO. A2D Technologies, Inc.:   DIGITIZING COMPANY
~OTHER INFORMATION
~A   DEPT       GRD        CALD     CORR       RHOB       DPOR       SGRD        ILD        ILM        SPR   
# ...
  222.5000   109.4153     7.9339     0.0559     2.5017     0.0940    18.7500    10.2930    12.6133   -47.9351
  223.0000   109.4216     7.9339     0.0504     2.4979     0.1027    14.2194    10.1561    12.1756   -47.9032
  223.5000   109.6261     7.9339     0.0449     2.4941     0.1076    13.5680    10.0210    11.7165   -47.8712
  224.0000   110.4548     7.9339     0.0448     2.4904     0.1103    13.4725     9.8877    11.7378   -47.8389
  224.5000   111.2602     7.9339     0.0455     2.4876     0.1099    13.3307     9.7561    11.7677   -47.8062
  225.0000   112.0643     7.9339     0.0462     2.4859     0.1096    13.3587     9.6264    11.7978   -47.8262
  225.5000   112.8679     7.9339     0.0469     2.4836     0.1116    13.4146     9.4983    11.8250   -47.8509
  226.0000   113.5314     7.9339     0.0476     2.4765     0.1149    13.4542     9.3720    11.6283   -47.8755
  226.5000   113.8653     7.9337     0.0482     2.4692     0.1179    13.2865     9.2473    11.4516   -47.8999
  227.0000   114.2222     7.9326     0.0411     2.4620     0.1189    13.2084     9.1346    11.2777   -47.9244
  227.5000   114.9830     7.9315     0.0331     2.4545     0.1212    13.3307     9.1124    11.1881   -47.9488
  228.0000   115.8292     7.9303     0.0264     2.4521     0.1328    12.7302     9.0882    11.1873   -47.9732
  228.5000   115.9404     7.9292     0.0358     2.4498     0.1239    12.8149     9.0638    11.2622   -47.9977
  229.0000   115.8265     7.9281     0.0367     2.4515     0.1261    12.9417     9.0393    11.3745   -48.0221
  229.5000   115.7043     7.9270     0.0372     2.4558     0.1226    13.0872     9.0149    11.5024   -48.0466
  230.0000   115.5820     7.9258     0.0377     2.4603     0.1127    12.8058     8.9906    11.4183   -48.0710
  230.5000   115.4468     7.9247     0.0382     2.4604     0.1173    12.4976     8.9679    11.3216   -48.0955
  231.0000   115.8499     7.9236     0.0386     2.4593     0.1225    12.8635     8.9773    11.2258   -48.1199
  231.5000   116.4065     7.9224     0.0391     2.4612     0.1206    13.0872     8.9884    11.1307   -48.1443
  232.0000   116.9621     7.9213     0.0396     2.4636     0.1188    12.3829     8.9995    11.0365   -48.1688
  232.5000   117.4659     7.9202     0.0407     2.4611     0.1193    12.8149     9.0107    10.9842   -48.1931
  233.0000   117.5518     7.9191     0.0235     2.4489     0.1255    13.0872     9.0218    11.0413   -48.2272
  233.5000   117.7995     7.9179     0.0201     2.4367     0.1317    12.7208     9.0331    11.0860   -48.2681
  234.0000   118.8087     7.9168     0.0302     2.4350     0.1341    12.4976     9.0443    10.8764   -48.3089
  234.5000   119.8295     7.9157     0.0282     2.4364     0.1320    12.4976     9.0508    10.6296   -48.3498
  235.0000   120.1171     7.9145     0.0232     2.4333     0.1328    12.6133     8.6300    10.3883   -48.3907
  235.5000   120.2425     7.9134     0.0185     2.4272     0.1381    12.0574     8.3731    10.1526   -48.4316
  236.0000   119.6340     7.9123     0.0273     2.4237     0.1396    11.3125     8.2173     9.9221   -48.4725
  236.5000   118.8690     7.9111     0.0369     2.4344     0.1353    10.6137     8.0644     9.6970   -48.5134
  237.0000   118.0971     7.9100     0.0459     2.4449     0.1292     9.9580     7.9143     9.4778   -48.5543
  237.5000   117.6532     7.9089     0.0425     2.4523     0.1249     9.8338     7.7663     9.5102   -48.5952
  238.0000   118.4091     7.9077     0.0386     2.4542     0.1276    11.1615     7.6942     9.5426   -48.6361
  238.5000   119.0159     7.9066     0.0325     2.4523     0.1203    11.7284     7.6397     9.5751   -48.6770
  239.0000   118.7980     7.9055     0.0231     2.4425     0.1280    11.9345     7.5961     9.6077   -48.7179
  239.5000   118.7641     7.9043     0.0142     2.4327     0.1343    11.5950     7.6789     9.6404   -48.7588
  240.0000   119.4458     7.9032     0.0160     2.4293     0.1396    11.1887     7.7638     9.8062   -48.7996
  240.5000   120.1231     7.9021     0.0184     2.4340     0.1350    11.6887     7.8494     9.9845   -48.8405
  241.0000   120.8112     7.9010     0.0209     2.4388     0.1325    12.3829     7.9360    10.2024   -48.8814
  241.5000   121.4982     7.8998     0.0233     2.4437     0.1281    12.3890     8.0234    10.1832   -48.9223
  242.0000   122.1807     7.8987     0.0281     2.4486     0.1269    11.8968     8.1119    10.1572   -48.9632
  242.5000   122.8582     7.8976     0.0372     2.4560     0.1241    11.6805     8.2013    10.1314   -49.0041
  243.0000   123.3277     7.8964     0.0463     2.4727     0.1163    11.6090     8.2917    10.1105   -49.0450
  243.5000   123.1464     7.8953     0.0553     2.4891     0.1085    11.7279     8.3832    10.1341   -49.0859
  244.0000   122.4765     7.8941     0.0568     2.5009     0.1051    11.8874     8.4756    10.1552   -49.1268
  244.5000   121.8073     7.8938     0.0488     2.4952     0.1072    12.0490     8.5691    10.1765   -49.1677
  245.0000   121.1359     7.8938     0.0426     2.4899     0.1092    12.3702     8.6638    10.1980   -49.2086
  245.5000   120.4649     7.8938     0.0450     2.4888     0.1111    13.0176     8.7585    10.2032   -49.2495
  246.0000   119.7943     7.8938     0.0433     2.4894     0.1104    13.3307     8.8031    10.2032   -49.2904
  246.5000   119.1235     7.8938     0.0370     2.4851     0.1116    13.3307     8.7825    10.2032   -49.3312
  247.0000   118.4521     7.8938     0.0416     2.4819     0.1143    13.2096     8.7685    10.1186   -49.3721
  247.5000   117.7803     7.8938     0.0478     2.4843     0.1134    12.8441     8.7545     9.9597   -49.4130
  248.0000   117.1112     7.8938     0.0523     2.4863     0.1120    12.4888     8.7406     9.8032   -49.4539
  248.5000   116.6234     7.8938     0.0516     2.4842     0.1106    12.1432     8.7267     9.6492   -49.4948
  249.0000   117.1664     7.8938     0.0510     2.4821     0.1099    12.0451     8.7128     9.4977   -49.5357
  249.5000   117.7690     7.8938     0.0502     2.4799     0.1099    12.0412     8.6989     9.3051   -49.5766
  250.0000   118.3714     7.8938     0.0353     2.4759     0.1134    12.0357     8.6851     9.4936   -49.6175
  250.5000   118.9727     7.8938     0.0203     2.4690     0.1167    12.8524     8.6713     9.7692   -49.6584
  251.0000   119.5808     7.8938     0.0196     2.4622     0.1200    12.8248     8.6575    10.0527   -49.6992
  251.5000   120.6335     7.8938     0.0266     2.4594     0.1192    12.7570     8.6438    10.3445   -49.7401
  252.0000   121.6492     7.8938     0.0336     2.4687     0.1165    12.7032     8.6300    10.4894   -49.7809
  252.5000   122.0358     7.8938     0.0406     2.4778     0.1138    12.6493     8.6163    10.2032   -49.8624
  253.0000   122.3922     7.8938     0.0446     2.4824     0.1119    12.5569     8.6026    10.0168   -49.9807
  253.5000   122.6419     7.8938     0.0454     2.4855     0.1119    12.3838     8.5889    10.0512   -50.0988
  254.0000   122.3764     7.8938     0.0462     2.4885     0.1119    12.2692     8.5753    10.0884   -50.2170
  254.5000   122.1224     7.8938     0.0519     2.4936     0.1068    12.3831     8.5616    10.1259   -50.3351
  255.0000   121.8685     7.8938     0.0584     2.4998     0.1010    12.4694     8.5480    10.1634   -50.4532
  255.5000   121.6685     7.8938     0.0641     2.5059     0.0952    12.5562     8.5344    10.2030   -50.5713
  256.0000   122.1867     7.8938     0.0595     2.5083     0.0896    12.6133     8.5209    10.0144   -50.6894
  256.5000   122.6070     7.8938     0.0547     2.4983     0.0975    12.3214     8.5072     9.8181   -50.8074
  257.0000   121.7253     7.8938     0.0391     2.4779     0.1080    11.7193     8.4938     9.6461   -50.9263
  257.5000   120.4098     7.8938     0.0169     2.4644     0.1243    11.7838     8.4726     9.5948   -51.0967
  258.0000   118.8692     7.8938     0.0243     2.4667     0.1217    11.8692     8.3945     9.5437   -51.3553
  258.5000   117.4334     7.8938     0.0282     2.4694     0.1159    11.9582     8.3172     9.4928   -51.6126
