~VERSION INFORMATION
 VERS.                2.0:   CWLS LOG ASCII STANDARD - VERSION 2.0
 WRAP.                 NO:   ONE LINE PER DEPTH STEP
~WELL INFORMATION
#MNEM.UNIT      DATA TYPE    INFORMATION
#----------   ------------   ------------------------------
 STRT.F           38.5000:   START DEPTH
 STOP.F          606.0000:   STOP DEPTH
 STEP.F            0.5000:   STEP LENGTH
 NULL.          -999.2500:   NO VALUE
 COMP. FENIX & SCISSON INC:   COMPANY
 WELL.      NPR-X3 #185-2:   WELL
 FLD .             TEAPOT:   FIELD
 LOC .       S2 T38N R78W:   LOCATION
 CNTY.            NATRONA:   COUNTY
 STAT.            WYOMING:   STATE
 CTRY. UNITED STATES OF AMERICA:   COUNTRY
 SRVC.            Unknown:   SERVICE COMPANY
 DATE.        30-JAN-1978:   LOGDATE
 API .       490251056200:   API NUMBER
~CURVE INFORMATION
#MNEM.UNIT       API CODE    CURVE DESCRIPTION
#----------   ------------   ------------------------------
 DEPT.F                  :   
 CALD.IN     45 280 60 00:   CALIPER
 GRD .GAPI   45 310 01 00:   GAMMA RAY FROM DENSITY LOG
 CORR.G/C3   45 356 01 00:   DENSITY CORRECTION
 RHOB.G/C3   45 350 01 00:   BULK DENSITY
 DPHI.DEC    45 890 12 00:   DENSITY POROSITY SANDSTONE
 SPR .MV     05 010 01 00:   SPONTANEOUS POTENTIAL FROM RES.
 SN  .OHMM   05 040 16 00:   SHORT NORMAL 16"
 ILD .OHMM   05 120 46 00:   INDUCTION LOG DEEP
~PARAMETER INFORMATION
#MNEM.UNIT          VALUE    DESCRIPTION
#----------   ------------   ------------------------------
 PD  .                 GL:   PERMANENT DATUM
 EPD .F              5134:   ELEVATION PERMANENT DATUM
 LMF .                 KB:   LOG MEASURED FROM
 DAPD.F                 4:   FEET ABOVE PERMANENT DATUM
 DMF .                 KB:   DRILLING MEASURED FROM
 EKB .F              5138:   KELLING BUSHING
 EGL .F              5134:   GROUND LEVEL
 DATE.            1-30-78:   RUN DATE
 RUN .                  1:   RUN NUMBER
 DD  .F               600:   DEPTH DRILLER
 DL  .F               604:   DEPTH LOGGER
 BLI .F               598:   BOTTOM LOG INTERVAL
 TLI .F                40:   TOP LOG INTERVAL
 CS  .IN            8.625:   CASING SIZE
 CBD .F                40:   CASING BOTTOM DRILLER
 CBL .F                41:   CASING BOTTOM LOGGER
 BS  .IN            7.875:   BIT SIZE
 BSD .F               600:   BIT SIZE AT DEPTH
 DFT .                KCL:   DRILLING FLUID TYPE
 DFD .                8.6:   DRILLING FLUID DENSITY
 DFV .                 34:   DRILLING FLUID VISCOSITY
 DFPH.                 10:   DRILLING FLUID PH
 DFL .                  7:   DRILLING FLUID LOSS
 MSS .                PIT:   MUD SAMPLE SOURCE
 RMS .OHMM            .65:   RESISTIVITY MUD SAMPLE
 MST .F                70:   MUD SAMPLE TEMPERATURE
 RMF .OHMM            1.2:   RESISTIVITY MUD FILTRATE SAMPLE
 MFST.F                64:   MUD FILTRATE SAMPLE TEMPERATURE
 MFSS.               MEAS:   MUD FILTRATE SAMPLE SOURCE
 RMB .OHMM            .64:   RESISTIVITY MUD AT BHT
 BHT .F                71:   BOTTOM HOLE TEMPERATURE
 TCS .HRS               3:   TIME CURCULATED STOPPED
 MRT .F                71:   MAXIMUM RECORDED TEMPERATURE
 LUN .               2958:   LOGGING UNIT NUMBER
 LUL .                CAS:   LOGGING UNIT LOCATION
 ENGI.           REYNOLDS:   RECORDING ENGINEER
 WITN.         HARRINGTON:   WITNESSED BY
 CLNT.            A2DTECH:   CLIENT CODE
 ORIG.        2" 5" PRINT:   ORIGIN OF DATA
 UWI .       490251056200:   UNIQUE WELL ID
 DICO. A2D Technologies, Inc.:   DIGITIZING COMPANY
~OTHER INFORMATION
~A   DEPT     CALD        GRD        CORR      RHOB       DPHI        SPR         SN        ILD   
# ...
  281.5000     8.0739   125.7904     0.1276     2.4915     0.0987   -64.8538     8.7520     7.3955
  282.0000     8.1111   113.0051     0.1164     2.4993     0.0962   -64.9106     8.7525     7.3489
  282.5000     8.1392   111.2686     0.1049     2.5071     0.0907   -64.9105     8.6649     7.3020
  283.0000     8.1387   110.4306     0.0928     2.5110     0.0907   -64.9104     8.5436     7.2554
  283.5000     8.1386   113.3777     0.0883     2.5103     0.1015   -64.9082     8.3054     7.2010
  284.0000     8.1386   112.4585     0.0864     2.4902     0.1125   -65.0036     8.0352     7.1078
  284.5000     8.1386   117.3021     0.0840     2.4719     0.1124   -65.1230     7.9446     7.0157
  285.0000     8.1386   117.3920     0.0816     2.4697     0.1167   -65.2421     7.8947     6.9249
  285.5000     8.1386   122.0020     0.0828     2.4621     0.1257   -65.2962     7.8454     6.8237
  286.0000     8.1386   120.3364     0.0872     2.4516     0.1296   -65.2682     7.6591     6.7178
  286.5000     8.1386   125.3752     0.0937     2.4411     0.1364   -65.2409     7.4565     6.5826
  287.0000     8.1386   128.1879     0.1004     2.4328     0.1368   -65.2134     7.2592     6.3799
  287.5000     8.1386   130.2707     0.0997     2.4318     0.1354   -65.1860     7.0671     6.1739
  288.0000     8.1386   128.0882     0.0979     2.4384     0.1330   -65.1593     6.6449     5.9200
  288.5000     8.1386   119.7421     0.0908     2.4398     0.1389   -65.1310     6.1769     5.6642
  289.0000     8.1386   114.7534     0.0833     2.4291     0.1439   -65.0446     5.7419     5.4195
  289.5000     8.1386   113.7357     0.0758     2.4191     0.1538   -64.7020     5.3376     5.0434
  290.0000     8.1386   115.7037     0.0694     2.4009     0.1656   -64.5992     4.9619     4.6156
  290.5000     8.1386   114.8833     0.0705     2.3786     0.1793   -64.7965     4.4346     4.2295
  291.0000     8.1386   116.2782     0.0715     2.3544     0.1930   -64.9913     3.7776     3.8784
  291.5000     8.1388   119.3528     0.0753     2.3304     0.2068   -65.1874     3.1882     3.5385
  292.0000     8.1424   113.1214     0.0836     2.3050     0.2231   -65.3808     2.6907     3.1544
  292.5000     8.1459   106.8381     0.0917     2.2801     0.2425   -65.5087     2.2708     2.8114
  293.0000     8.1494   110.0262     0.0954     2.2550     0.2537   -65.5067     1.9165     2.6509
  293.5000     8.1525   111.2254     0.0887     2.2326     0.2501   -65.5071     1.6454     2.6109
  294.0000     8.1566   107.5503     0.0833     2.2491     0.2254   -65.5071     1.5690     2.5794
  294.5000     8.1835   106.3841     0.1083     2.3014     0.1922   -65.5071     1.5415     2.6902
  295.0000     8.3183   106.4851     0.1151     2.3535     0.1769   -65.5057     1.6473     2.8954
  295.5000     8.1739   107.2272     0.1177     2.3633     0.1726   -65.4389     1.8311     3.1688
  296.0000     8.1005   107.2926     0.1375     2.3875     0.1494   -65.3002     2.2023     3.4938
  296.5000     8.0987   108.9974     0.1484     2.4133     0.1420   -65.1631     2.9671     4.0549
  297.0000     8.0989   107.3703     0.1538     2.4301     0.1347   -65.0235     3.5295     4.4769
  297.5000     8.0990   104.8539     0.1624     2.4430     0.1316   -64.8113     3.9009     4.8537
  298.0000     8.0990   105.0066     0.1862     2.4388     0.1358   -64.2461     4.9538     5.2373
  298.5000     8.0990   109.2587     0.2159     2.4323     0.1380   -64.0154     5.4792     5.4406
  299.0000     8.0990   108.5709     0.2308     2.4287     0.1318   -64.2617     5.4792     5.4847
  299.5000     8.0990   108.1300     0.2308     2.4447     0.1249   -64.5029     5.6165     5.5303
  300.0000     8.0990   108.8885     0.2267     2.4557     0.1145   -64.7424     5.7498     5.5781
  300.5000     8.0990   110.3405     0.1813     2.4672     0.1008   -64.9320     5.8969     5.5582
  301.0000     8.0990   112.3178     0.0926     2.4965     0.0815   -64.9911     5.8130     5.5302
  301.5000     8.0990   113.4471     0.0868     2.5272     0.0803   -65.0532     5.7366     5.2129
  302.0000     8.0990   112.4624     0.0939     2.5415     0.1502   -65.1146     5.6895     4.8733
  302.5000     8.0992   115.8375     0.1299     2.4123     0.1699   -65.1763     5.6412     4.4628
  303.0000     8.1003   117.0414     0.1655     2.3810     0.1827   -65.2383     5.2580     4.3155
  303.5000     8.1014   113.8616     0.1672     2.3514     0.1853   -65.3027     4.8373     4.3553
  304.0000     8.1025   113.3402     0.1616     2.3496     0.1547   -65.2093     4.1561     4.1075
  304.5000     8.1036   116.2078     0.1387     2.3865     0.1336   -65.0930     3.7585     3.9368
  305.0000     8.1047   112.3435     0.1403     2.4199     0.1244   -64.9765     3.7586     3.9732
  305.5000     8.1058   111.0024     0.1402     2.4461     0.1306   -64.8603     3.8736     4.1055
  306.0000     8.1068   113.4259     0.1142     2.4460     0.1312   -64.7438     4.1317     4.2949
  306.5000     8.1079   112.0041     0.1094     2.4565     0.1217   -64.6256     4.4634     4.4931
  307.0000     8.1090   111.0900     0.1052     2.4648     0.1161   -64.5236     4.8182     4.7003
  307.5000     8.1101   114.0117     0.0923     2.4713     0.1143   -64.7665     5.0915     4.9184
  308.0000     8.1112   117.8813     0.0794     2.4755     0.1126   -65.0257     5.3780     5.1672
  308.5000     8.1123   117.3679     0.0645     2.4818     0.1112   -65.1084     5.6776     5.4459
  309.0000     8.1133   112.1865     0.0613     2.4914     0.1101   -65.0740     6.0638     5.7385
  309.5000     8.1144   111.2288     0.0674     2.4806     0.1123   -64.9224     6.5297     6.0468
  310.0000     8.1155   112.8723     0.0764     2.4698     0.1137   -64.7770     6.9531     6.3699
  310.5000     8.1166   113.6500     0.0852     2.4711     0.1126   -64.6319     7.3508     6.5536
  311.0000     8.1177   113.6865     0.0941     2.4730     0.1116   -64.4868     7.4870     6.6287
  311.5000     8.1188   113.0865     0.1031     2.4748     0.1105   -64.3417     7.4880     6.7056
  312.0000     8.1186   112.4702     0.1076     2.4757     0.1141   -64.1964     7.4872     6.6566
  312.5000     8.1180   111.6882     0.1119     2.4725     0.1147   -64.0515     7.4869     6.6071
  313.0000     8.1173   112.4737     0.1163     2.4688     0.1143   -63.9122     7.4870     6.5582
  313.5000     8.1167   113.9758     0.1208     2.4694     0.1148   -63.8059     7.4151     6.5061
  314.0000     8.1161   115.9886     0.1164     2.4666     0.1150   -63.7669     7.3337     6.4453
  314.5000     8.1155   116.5910     0.1062     2.4755     0.1122   -64.2148     7.2531     6.3852
  315.0000     8.1149   118.9823     0.0960     2.4776     0.1131   -64.5464     7.1460     6.3258
  315.5000     8.1142   113.8831     0.0875     2.4698     0.1193   -64.6293     7.0182     6.2334
  316.0000     8.1136   113.3135     0.0890     2.4613     0.1248   -64.7166     6.8931     6.0889
  316.5000     8.1130   115.2113     0.0864     2.4528     0.1248   -64.8028     6.6382     5.8677
  317.0000     8.1124   114.8710     0.0838     2.4495     0.1229   -64.8892     6.3936     5.6364
  317.5000     8.1118   115.5346     0.0813     2.4486     0.1297   -64.9757     6.1581     5.4270
  318.0000     8.1111   117.0809     0.0801     2.4418     0.1407   -65.0621     5.9513     5.0482
  318.5000     8.1105   116.9419     0.0852     2.4274     0.1461   -65.1491     5.5009     4.8011
  319.0000     8.1099   116.8969     0.0895     2.4169     0.1535   -65.2353     5.1178     4.7368
  319.5000     8.1093   117.6216     0.0841     2.4066     0.1571   -65.3116     4.9528     4.6754
  320.0000     8.1087   114.8770     0.0783     2.4012     0.1458   -65.1343     4.8626     4.6149
  320.5000     8.1080   110.8083     0.0840     2.4315     0.1370   -64.8306     4.8626     4.6020
  321.0000     8.1074   114.7894     0.0918     2.4343     0.1305   -64.5259     4.9985     4.7549
  321.5000     8.1068   115.9400     0.0966     2.4437     0.1256   -64.2177     5.2698     4.8678
