~VERSION INFORMATION
 VERS.                2.0:   CWLS LOG ASCII STANDARD - VERSION 2.0
 WRAP.                 NO:   ONE LINE PER DEPTH STEP
~WELL INFORMATION
#MNEM.UNIT      DATA TYPE    INFORMATION
#----------   ------------   ------------------------------
 STRT.F          610.5000:   START DEPTH
 STOP.F         2311.0000:   STOP DEPTH
 STEP.F            0.5000:   STEP LENGTH
 NULL.          -999.2500:   NO VALUE
 COMP. BROWN JOHN E&C INC:   COMPANY
 WELL.  48-1SHX-34 #48-34:   WELL
 FLD .             TEAPOT:   FIELD
 LOC .      S34 T39N R78W:   LOCATION
 CNTY.            NATRONA:   COUNTY
 STAT.            WYOMING:   STATE
 CTRY. UNITED STATES OF AMERICA:   COUNTRY
 SRVC.            Unknown:   SERVICE COMPANY
 DATE.        16-SEP-1991:   LOGDATE
 API .       490251109000:   API NUMBER
~CURVE INFORMATION
#MNEM.UNIT       API CODE    CURVE DESCRIPTION
#----------   ------------   ------------------------------
 DEPT.F                  :   
 ROP .MIN/FT 91 810 01 00:   RAT OF DRILLING PENETRATION
 TGAS.UNITS  91 830 01 00:   TOTAL GAS FROM HOTWIRE
~PARAMETER INFORMATION
#MNEM.UNIT          VALUE    DESCRIPTION
#----------   ------------   ------------------------------
 EKB .F              5163:   KELLING BUSHING
 EGL .F              5152:   GROUND LEVEL
 DATE.            9-16-91:   RUN DATE
 DD  .F              2311:   DEPTH DRILLER
 TCS .HRS            0200:   TIME CURCULATED STOPPED
 TLAB.HRS            0115:   TIME LOGGER AT BOTTOM
 ENGI.             HENDRY:   RECORDING ENGINEER
 WITN.               HUSK:   WITNESSED BY
 CLNT.            A2DTECH:   CLIENT CODE
 ORIG.           5" PRINT:   ORIGIN OF DATA
 UWI .       490251109000:   UNIQUE WELL ID
 DICO. A2D Technologies, Inc.:   DIGITIZING COMPANY
~OTHER INFORMATION
~A   DEPT        ROP       TGAS 
# ...
 2068.5000     0.6322    25.3389
 2069.0000     0.5541    25.0820
 2069.5000     0.4757    24.8251
 2070.0000     0.3972    24.5681
 2070.5000     0.3873    24.3112
 2071.0000     0.4268    24.0541
 2071.5000     0.4663    23.7970
 2072.0000     0.5060    23.5438
 2072.5000     0.5456    23.3582
 2073.0000     0.5852    23.3701
 2073.5000     0.6248    23.3148
 2074.0000     0.6651    22.8506
 2074.5000     0.6721    22.7691
 2075.0000     0.6723    22.7008
 2075.5000     0.6714    22.6347
 2076.0000     0.6944    22.5677
 2076.5000     0.7164    22.5008
 2077.0000     0.7393    22.4339
 2077.5000     0.7622    22.3670
 2078.0000     0.7840    22.3001
 2078.5000     0.8013    22.2332
 2079.0000     0.8215    22.1663
 2079.5000     0.8418    22.0994
 2080.0000     0.8622    22.0325
 2080.5000     0.8825    21.9655
 2081.0000     0.9030    21.8986
 2081.5000     0.9231    21.8317
 2082.0000     0.9261    21.7648
 2082.5000     0.8626    21.6979
 2083.0000     0.7998    21.6310
 2083.5000     0.7371    21.5641
 2084.0000     0.6743    21.4972
 2084.5000     0.6112    21.4302
 2085.0000     0.5490    21.3633
 2085.5000     0.5460    21.2964
 2086.0000     0.5464    21.2295
 2086.5000     0.5463    21.1626
 2087.0000     0.5532    21.0957
 2087.5000     0.5622    21.0286
 2088.0000     0.5711    20.9617
 2088.5000     0.5805    20.8998
 2089.0000     0.5925    20.9013
 2089.5000     0.6133    20.9016
 2090.0000     0.6491    20.9016
 2090.5000     0.7003    20.9016
 2091.0000     0.7513    20.9016
 2091.5000     0.8215    20.9016
 2092.0000     0.9341    20.9016
 2092.5000     0.9858    20.9016
 2093.0000     0.9908    20.9016
 2093.5000     0.9951    20.9016
 2094.0000     1.0046    20.9016
 2094.5000     1.0514    20.9016
 2095.0000     1.0986    20.9016
 2095.5000     1.1494    20.9016
 2096.0000     1.1745    20.9016
 2096.5000     1.0876    20.9016
 2097.0000     0.9178    20.9016
 2097.5000     0.7433    20.9016
 2098.0000     0.6680    20.9016
 2098.5000     0.5974    20.9016
 2099.0000     0.5334    20.9016
 2099.5000     0.4921    20.9016
 2100.0000     0.4730    20.9016
 2100.5000     0.4865    20.9016
 2101.0000     0.5005    20.9016
 2101.5000     0.5146    20.9016
 2102.0000     0.5212    20.9016
 2102.5000     0.5213    20.9016
 2103.0000     0.5214    20.9016
 2103.5000     0.5213    20.9016
 2104.0000     0.5381    20.9016
 2104.5000     0.5696    20.9016
 2105.0000     0.6010    20.9015
 2105.5000     0.6328    20.9021
 2106.0000     0.6409    20.9173
 2106.5000     0.6307    20.9333
 2107.0000     0.6215    20.9493
 2107.5000     0.6217    20.9652
 2108.0000     0.6326    20.9811
 2108.5000     0.7036    20.9971
 2109.0000     0.7742    21.0130
 2109.5000     0.8461    21.0290
 2110.0000     0.8894    21.0449
 2110.5000     0.9353    21.0609
 2111.0000     0.9806    21.0768
 2111.5000     0.9985    21.0927
 2112.0000     0.9988    21.1087
 2112.5000     0.9988    21.1246
 2113.0000     0.9988    21.1406
 2113.5000     0.9991    21.1565
 2114.0000     0.9969    21.1724
 2114.5000     0.9353    21.1884
 2115.0000     0.8719    21.2043
 2115.5000     0.8085    21.2203
 2116.0000     0.7457    21.2362
 2116.5000     0.7213    21.2521
 2117.0000     0.7231    21.2681
 2117.5000     0.7440    21.2840
 2118.0000     0.7652    21.3000
 2118.5000     0.7865    21.3159
 2119.0000     0.8117    21.3318
 2119.5000     0.8352    21.3478
 2120.0000     0.8874    21.3637
 2120.5000     0.9386    21.3797
 2121.0000     0.9855    21.3956
 2121.5000     0.9863    21.4115
 2122.0000     0.9902    21.4275
 2122.5000     0.9946    21.4434
 2123.0000     0.9986    21.4594
 2123.5000     0.9998    21.4753
 2124.0000     0.9452    21.4912
 2124.5000     0.8698    21.5072
 2125.0000     0.7926    21.5231
 2125.5000     0.7146    21.5391
 2126.0000     0.6993    21.5550
 2126.5000     0.7320    21.5709
 2127.0000     0.7640    21.5869
 2127.5000     0.7961    21.6028
 2128.0000     0.7982    21.6188
 2128.5000     0.7468    21.6347
 2129.0000     0.6502    21.6506
 2129.5000     0.5537    21.6666
 2130.0000     0.4828    21.6825
 2130.5000     0.4834    21.6985
 2131.0000     0.4877    21.7144
 2131.5000     0.4932    21.7303
 2132.0000     0.4987    21.7463
 2132.5000     0.5040    21.7622
 2133.0000     0.5121    21.7782
 2133.5000     0.5209    21.7941
 2134.0000     0.5365    21.8100
 2134.5000     0.5626    21.8260
 2135.0000     0.5889    21.8419
 2135.5000     0.6152    21.8579
 2136.0000     0.6414    21.8738
 2136.5000     0.6677    21.8854
 2137.0000     0.6940    21.8816
 2137.5000     0.7203    21.8740
 2138.0000     0.7465    21.8665
 2138.5000     0.7728    21.8590
 2139.0000     0.7991    21.8514
 2139.5000     0.8254    21.8439
 2140.0000     0.8517    21.8364
 2140.5000     0.8779    21.8288
 2141.0000     0.9042    21.8213
 2141.5000     0.9305    21.8138
 2142.0000     0.9568    21.8063
 2142.5000     0.9830    21.7987
 2143.0000     1.0098    21.7912
 2143.5000     1.0333    21.7837
 2144.0000     1.0253    21.7761
 2144.5000     0.9776    21.7686
 2145.0000     0.9333    21.7611
 2145.5000     0.8891    21.7535
 2146.0000     0.8451    21.7460
 2146.5000     0.8458    21.7385
 2147.0000     0.8575    21.7309
 2147.5000     0.8700    21.7234
 2148.0000     0.8870    21.7159
 2148.5000     0.8822    21.7083
 2149.0000     0.8084    21.7008
 2149.5000     0.7362    21.6933
 2150.0000     0.6735    21.6857
 2150.5000     0.6689    21.6782
 2151.0000     0.6903    21.6707
 2151.5000     0.7105    21.6632
 2152.0000     0.7064    21.6556
 2152.5000     0.6994    21.6481
 2153.0000     0.6925    21.6406
 2153.5000     0.6856    21.6330
 2154.0000     0.6786    21.6255
 2154.5000     0.6717    21.6180
 2155.0000     0.6641    21.6104
 2155.5000     0.6515    21.6029
 2156.0000     0.6823    21.5954
 2156.5000     0.7167    21.5878
 2157.0000     0.7508    21.5803
 2157.5000     0.7847    21.5728
 2158.0000     0.8188    21.5652
 2158.5000     0.8529    21.5577
 2159.0000     0.8850    21.5502
 2159.5000     0.8867    21.5426
 2160.0000     0.8553    21.5351
 2160.5000     0.8184    21.5276
 2161.0000     0.7813    21.5201
 2161.5000     0.7445    21.5125
 2162.0000     0.7176    21.5050
 2162.5000     0.7064    21.4975
 2163.0000     0.6950    21.4899
 2163.5000     0.6838    21.4824
 2164.0000     0.6715    21.4749
 2164.5000     0.6363    21.4673
 2165.0000     0.5992    21.4598
 2165.5000     0.6044    21.4523
 2166.0000     0.6382    21.4447
 2166.5000     0.6725    21.4372
 2167.0000     0.7068    21.4297
 2167.5000     0.7410    21.4221
 2168.0000     0.7753    21.4146
 2168.5000     0.8097    21.4071
 2169.0000     0.8439    21.3995
 2169.5000     0.8737    21.3933
 2170.0000     0.8562    21.3934
 2170.5000     0.8039    21.3903
 2171.0000     0.7521    21.3815
 2171.5000     0.6995    21.3729
 2172.0000     0.7390    21.3642
 2172.5000     0.8192    21.3556
 2173.0000     0.8999    21.3469
 2173.5000     0.9822    21.3383
 2174.0000     0.9861    21.3296
 2174.5000     0.9683    21.3210
 2175.0000     0.9164    21.3123
 2175.5000     0.8545    21.3037
 2176.0000     0.7920    21.2950
 2176.5000     0.7293    21.2864
 2177.0000     0.6666    21.2777
 2177.5000     0.6044    21.2691
 2178.0000     0.6113    21.2604
 2178.5000     0.6375    21.2518
 2179.0000     0.6639    21.2431
 2179.5000     0.6904    21.2345
 2180.0000     0.7213    21.2258
 2180.5000     0.7715    21.2172
 2181.0000     0.8206    21.2085
 2181.5000     0.8695    21.1999
 2182.0000     0.9188    21.1912
 2182.5000     0.9282    21.1826
 2183.0000     0.9112    21.1739
 2183.5000     0.8970    21.1653
 2184.0000     0.9355    21.1566
 2184.5000     0.9805    21.1480
 2185.0000     1.0255    21.1393
 2185.5000     1.0706    21.1307
 2186.0000     1.1155    21.1220
 2186.5000     1.1602    21.1134
 2187.0000     1.1875    21.1047
 2187.5000     1.1719    21.0961
 2188.0000     1.1071    21.0874
 2188.5000     1.0361    21.0788
 2189.0000     0.9650    21.0701
 2189.5000     0.8939    21.0615
