~VERSION INFORMATION
 VERS.                2.0:   CWLS LOG ASCII STANDARD - VERSION 2.0
 WRAP.                 NO:   ONE LINE PER DEPTH STEP
~WELL INFORMATION
#MNEM.UNIT      DATA TYPE    INFORMATION
#----------   ------------   ------------------------------
 STRT.F           82.0000:   START DEPTH
 STOP.F          750.0000:   STOP DEPTH
 STEP.F            0.5000:   STEP LENGTH
 NULL.          -999.2500:   NO VALUE
 COMP. U S NAVY/INTEX OIL CO:   COMPANY
 WELL.      GOVT #18-S-35:   WELL
 FLD .             TEAPOT:   FIELD
 LOC .      S35 T39N R78W:   LOCATION
 CNTY.            NATRONA:   COUNTY
 STAT.            WYOMING:   STATE
 CTRY. UNITED STATES OF AMERICA:   COUNTRY
 SRVC. Schlumberger Well Surveying Corp:   SERVICE COMPANY
 DATE.        19-JUL-1962:   LOGDATE
 API .       490250649300:   API NUMBER
~CURVE INFORMATION
#MNEM.UNIT       API CODE    CURVE DESCRIPTION
#----------   ------------   ------------------------------
 DEPT.F                  :   
 SPR .MV     05 010 01 00:   SPONTANEOUS POTENTIAL
 ILD .OHMM   05 120 46 00:   INDUCTION LOG DEEP
 CILD.MMHO   05 110 46 00:   CONDUCTIVITY INDUCTION LOG DEEP
 ASN .OHMM   05 041 16 00:   AMPLIFIED SHORT NORMAL 16"
 NEUT.NAPI   35 330 01 00:   NEUTRON GAMMA RAY
~PARAMETER INFORMATION
#MNEM.UNIT          VALUE    DESCRIPTION
#----------   ------------   ------------------------------
 PD  .                 GL:   PERMANENT DATUM
 EPD .F              5107:   ELEVATION PERMANENT DATUM
 LMF .                 KB:   LOG MEASURED FROM
 DAPD.F                 5:   FEET ABOVE PERMANENT DATUM
 DMF .                 KB:   DRILLING MEASURED FROM
 EKB .F              5112:   KELLING BUSHING
 EGL .F              5107:   GROUND LEVEL
 DATE.            7-19-62:   RUN DATE
 RUN .                  1:   RUN NUMBER
 DD  .F               745:   DEPTH DRILLER
 DL  .F               745:   DEPTH LOGGER
 BLI .F               744:   BOTTOM LOG INTERVAL
 TLI .F                80:   TOP LOG INTERVAL
 BS  .IN             6.75:   BIT SIZE
 BSD .F               745:   BIT SIZE AT DEPTH
 DFT .       OIL EMULSION:   DRILLING FLUID TYPE
 DFD .                 10:   DRILLING FLUID DENSITY
 DFV .                 46:   DRILLING FLUID VISCOSITY
 DFL .                2.9:   DRILLING FLUID LOSS
 RMS .OHMM           3.75:   RESISTIVITY MUD SAMPLE
 MST .F                87:   MUD SAMPLE TEMPERATURE
 RMF .OHMM           2.65:   RESISTIVITY MUD FILTRATE SAMPLE
 MFST.F                87:   MUD FILTRATE SAMPLE TEMPERATURE
 RMC .OHMM           3.54:   RESISTIVITY MUD CAKE
 MCST.F                87:   MUD CAKE SAMPLE TEMPERATURE
 TCS .HRS              .5:   TIME CURCULATED STOPPED
 LUN .               2503:   LOGGING UNIT NUMBER
 LUL .             CASPER:   LOGGING UNIT LOCATION
 ENGI.             DANNER:   RECORDING ENGINEER
 WITN.          JORGENSEN:   WITNESSED BY
 CLNT.            A2DTECH:   CLIENT CODE
 ORIG.       2", 5" PRINT:   ORIGIN OF DATA
 UWI .       490250649300:   UNIQUE WELL ID
 DICO. A2D Technologies, Inc.:   DIGITIZING COMPANY
~OTHER INFORMATION
~A   DEPT      SPR          ILD      CILD         ASN     NEUT   
# ...
  509.0000   -63.7427     8.1787   114.2748     8.6720   181.8808
  509.5000   -63.7800     8.1320   114.7719     8.5333   151.8199
  510.0000   -63.4377     8.0850   115.2690     8.3974   113.7193
  510.5000   -63.2213     8.0383   115.7661     8.2615    67.3480
  511.0000   -62.9991     7.9920   116.2632     8.1258    86.2232
  511.5000   -62.7772     7.9441   118.7702     7.9901   128.1790
  512.0000   -62.5552     7.8057   123.0285     7.8341   150.7220
  512.5000   -62.3333     7.4680   127.9522     7.5714   184.8637
  513.0000   -62.1112     7.1334   132.7996     7.3027   160.6962
  513.5000   -61.8884     6.7917   141.0362     6.9935   134.8895
  514.0000   -61.6740     6.3701   149.6056     6.6309   160.6804
  514.5000   -61.6202     5.8685   170.0403     6.2580   185.5017
  515.0000   -61.5729     5.1901   197.6436     5.8328   153.0966
  515.5000   -61.5251     4.5143   228.3589     5.4084    89.6996
  516.0000   -61.4798     3.8365   266.4189     4.9844   183.2620
  516.5000   -61.3387     3.1984   304.6688     4.5590   160.7759
  517.0000   -61.1827     2.8792   343.2120     4.2119   166.8004
  517.5000   -61.0265     2.5492   377.1169     3.9079    91.2116
  518.0000   -60.8704     2.4516   402.3034     3.5993   114.5751
  518.5000   -60.7141     2.3463   415.3134     3.4268    73.8606
  519.0000   -60.5600     2.2663   425.0383     3.3079    45.8106
  519.5000   -60.4881     2.3214   429.1067     3.2009    34.4245
  520.0000   -60.5607     2.4267   418.5849     3.1358    87.1343
  520.5000   -60.6300     2.6296   389.1829     3.3034   117.6870
  521.0000   -60.9639     2.8542   344.6312     3.7960   235.9760
  521.5000   -61.5187     3.3970   300.3404     4.2946   224.4593
  522.0000   -62.0732     3.9891   255.5444     4.5881   275.0573
  522.5000   -62.6306     4.5821   223.4424     4.8418   217.9915
  523.0000   -62.9078     5.1776   195.6485     5.4332   189.9324
  523.5000   -62.9747     5.7648   173.7693     6.0301   169.5942
  524.0000   -63.0371     6.2024   154.3980     6.2451   152.6347
  524.5000   -63.1582     6.6118   148.0652     6.3608   214.4705
  525.0000   -63.4105     6.6033   143.5095     6.4462   244.9681
  525.5000   -63.6608     6.6031   141.1445     6.4567   270.2432
  526.0000   -63.8614     6.6033   142.0938     6.4684   192.0390
  526.5000   -63.6950     6.6040   144.0321     6.4788   160.0477
  527.0000   -63.9158     6.5742   146.6964     6.5316   191.0600
  527.5000   -64.1621     6.3037   150.8065     6.5918   208.0007
  528.0000   -64.1536     6.0305   158.1502     6.5869   199.3085
  528.5000   -63.8889     5.7580   170.0803     6.5420   313.6894
  529.0000   -63.6630     5.4857   182.0077     6.3107   279.3135
  529.5000   -63.5915     5.2132   193.9361     6.0076   301.6272
  530.0000   -63.5178     4.9398   205.8720     5.7013   338.7617
  530.5000   -63.4439     4.6901   216.6477     5.4499   291.3739
  531.0000   -63.3699     4.5992   226.7705     5.3667   268.9855
  531.5000   -63.2959     4.4571   233.3669     5.2537   325.9978
  532.0000   -63.2220     4.3826   230.8501     5.0901   290.3898
  532.5000   -63.1491     4.5374   223.5603     4.9990   252.8498
  533.0000   -63.0712     4.7216   213.2274     5.1455   217.6275
  533.5000   -62.8735     4.9058   202.8944     5.2863   206.6280
  534.0000   -62.6835     5.0891   192.5615     5.3594   299.4132
  534.5000   -62.7224     5.2631   182.2286     5.4358   312.4745
  535.0000   -62.7732     5.5927   171.8935     5.6977   352.1738
  535.5000   -62.8227     5.9306   161.5462     6.1013   316.3986
  536.0000   -62.8720     6.2687   151.2617     6.5064   281.2662
  536.5000   -62.9213     6.6063   142.8447     6.9117   298.9708
  537.0000   -62.9708     6.9435   136.0128     7.3123   241.2744
  537.5000   -63.0206     7.2829   131.0231     7.6379   189.4374
  538.0000   -63.0762     7.4593   126.1247     7.7530   176.5432
  538.5000   -62.8542     7.5427   124.4960     7.8136   225.8533
  539.0000   -62.5774     7.5930   124.6591     7.8130   234.7444
  539.5000   -62.2999     7.4469   125.1411     7.8128   203.3766
  540.0000   -62.0234     7.3031   126.5524     7.7780   135.2264
  540.5000   -61.8252     7.1597   130.7944     7.6125   137.1989
  541.0000   -61.7245     7.0164   135.0363     7.4520   189.6376
  541.5000   -61.6235     6.8733   139.6976     7.2916   253.7203
  542.0000   -61.5238     6.7302   145.0000     7.1311   260.8218
  542.5000   -61.5104     6.5637   150.3024     6.9707   198.2296
  543.0000   -61.5992     6.2590   156.6343     6.8103   213.4974
  543.5000   -61.6318     5.9488   168.2334     6.6532   190.8762
  544.0000   -61.3894     5.6400   179.7792     6.4283   288.4646
  544.5000   -61.1796     5.3297   190.6811     6.1940   235.1203
  545.0000   -60.9966     5.1938   195.1302     5.9591   246.4507
  545.5000   -60.8142     5.1909   196.4879     5.7243   197.9564
  546.0000   -60.6308     5.1913   197.0181     5.5392   211.2350
  546.5000   -60.4477     5.1908   194.3808     5.6361   127.6252
  547.0000   -60.2651     5.2814   189.4125     5.7972   116.3798
  547.5000   -60.5770     5.4381   182.9379     5.9608   151.0120
  548.0000   -60.9864     5.7022   176.8200     6.1714   180.4090
  548.5000   -61.3729     6.0129   163.6532     6.5626   272.9879
  549.0000   -61.7590     6.3268   152.2480     6.9436   324.2972
  549.5000   -62.1476     6.6392   144.2944     7.1631   342.1153
  550.0000   -62.3710     6.9531   137.4306     7.3001   293.9031
  550.5000   -62.4282     7.1288   133.2989     7.4346   250.4159
  551.0000   -62.2635     7.2154   130.5444     7.5543   258.2286
  551.5000   -62.1032     7.2975   130.5444     7.5890   174.2914
  552.0000   -61.9423     7.3796   130.5444     7.6316   179.5894
  552.5000   -61.7812     7.4612   130.2083     7.7161   159.4789
  553.0000   -61.6187     7.5065   128.4946     7.8033   128.8427
  553.5000   -61.4783     7.4963   126.7809     7.8904   151.3969
  554.0000   -61.6573     7.4868   126.5121     7.9777   160.8382
  554.5000   -61.8406     7.4770   126.5121     8.0642   222.9799
  555.0000   -62.0214     7.4673   127.0161     8.0605   247.1225
  555.5000   -62.4685     7.4576   128.0444     8.0310   223.7093
  556.0000   -63.0129     7.4479   129.0726     8.0017   203.7941
  556.5000   -63.5524     7.4382   130.0969     7.9415   245.1585
  557.0000   -63.8910     7.4285   130.4442     7.8712   261.6880
  557.5000   -63.4342     7.4187   130.2464     7.8004   218.6368
  558.0000   -62.7171     7.4095   130.0553     7.7328   200.1867
  558.5000   -62.2903     7.4094   129.8648     7.7557   266.9679
  559.0000   -62.0086     7.4089   129.6744     7.7865   305.5332
  559.5000   -61.7284     7.4123   130.5948     7.8071   236.4514
  560.0000   -61.4506     7.2299   134.4506     7.6839   206.2755
  560.5000   -61.2259     6.9158   140.5507     7.5479   162.2783
  561.0000   -61.1132     6.5896   147.5860     7.3643   189.8916
  561.5000   -60.9985     6.2646   154.6212     7.1034   229.3699
  562.0000   -60.8843     5.9897   161.7944     6.8436   273.5691
  562.5000   -60.7703     5.9556   164.6295     6.5824   267.1019
  563.0000   -60.6616     5.9131   167.5214     6.4554   223.1559
  563.5000   -60.5772     5.8703   170.4133     6.4121   172.7612
  564.0000   -60.4959     5.8280   172.6008     6.2031   163.1819
  564.5000   -60.4147     5.7931   174.6573     6.0707   182.0478
  565.0000   -60.3336     5.7352   175.3116     6.3578   193.8703
  565.5000   -60.2522     5.6779   175.7790     6.5844   184.4110
  566.0000   -60.1715     5.6200   178.1452     6.5531   175.7502
  566.5000   -60.0877     5.5628   181.6676     6.2309   242.3530
  567.0000   -60.2050     5.4680   184.2454     6.0004   207.9836
  567.5000   -60.4272     5.3912   184.9798     5.7966   175.1274
  568.0000   -60.6526     5.3929   185.7143     5.8959   183.6519
  568.5000   -60.8781     5.3923   185.9879     6.0910   240.2228
  569.0000   -61.1037     5.3930   184.1398     6.1118   271.3084
  569.5000   -61.3246     5.4562   181.2836     6.0395   218.3659
