~VERSION INFORMATION
 VERS.                2.0:   CWLS LOG ASCII STANDARD - VERSION 2.0
 WRAP.                 NO:   ONE LINE PER DEPTH STEP
~WELL INFORMATION
#MNEM.UNIT      DATA TYPE    INFORMATION
#----------   ------------   ------------------------------
 STRT.F           18.0000:   START DEPTH
 STOP.F         2312.0000:   STOP DEPTH
 STEP.F            0.5000:   STEP LENGTH
 NULL.          -999.2500:   NO VALUE
 COMP. FENIX & SCISSON INC:   COMPANY
 WELL.  NPR 3 #51 SHX -15:   WELL
 FLD .             TEAPOT:   FIELD
 LOC .      S15 T38N R78W:   LOCATION
 CNTY.            NATRONA:   COUNTY
 STAT.            WYOMING:   STATE
 CTRY. UNITED STATES OF AMERICA:   COUNTRY
 SRVC.            Unknown:   SERVICE COMPANY
 DATE.        14-MAR-1978:   LOGDATE
 API .       490251060000:   API NUMBER
~CURVE INFORMATION
#MNEM.UNIT       API CODE    CURVE DESCRIPTION
#----------   ------------   ------------------------------
 DEPT.F                  :   
 ILD .OHMM   05 120 46 00:   INDUCTION LOG DEEP
 CILD.MMHO   05 110 46 00:   CONDUCTIVITY INDUCTION LOG DEEP
 CALD.IN     45 280 60 00:   CALIPER FROM DENSITY LOG
 GRD .GAPI   45 310 01 00:   GAMMA RAY FROM DENSITY LOG
 CORR.G/C3   45 356 01 00:   DENSITY CORRECTION
 RHOB.G/C3   45 350 01 00:   BULK DENSITY
 DPHI.DEC    45 890 12 00:   DENSITY POROSITY SANDSTONE
~PARAMETER INFORMATION
#MNEM.UNIT          VALUE    DESCRIPTION
#----------   ------------   ------------------------------
 PD  .                 GL:   PERMANENT DATUM
 EPD .F              5223:   ELEVATION PERMANENT DATUM
 LMF .                 KB:   LOG MEASURED FROM
 DAPD.F                10:   FEET ABOVE PERMANENT DATUM
 DMF .                 KB:   DRILLING MEASURED FROM
 EKB .F              5233:   KELLING BUSHING
 EGL .F              5223:   GROUND LEVEL
 DATE.            3-14-78:   RUN DATE
 RUN .                  1:   RUN NUMBER
 DD  .F              2323:   DEPTH DRILLER
 DL  .F              2314:   DEPTH LOGGER
 BLI .F              2312:   BOTTOM LOG INTERVAL
 TLI .F                20:   TOP LOG INTERVAL
 CS  .IN                9:   CASING SIZE
 CBD .F               680:   CASING BOTTOM DRILLER
 CBL .F               682:   CASING BOTTOM LOGGER
 BS  .IN            7.875:   BIT SIZE
 BSD .F              2323:   BIT SIZE AT DEPTH
 DFT .           AIR MIST:   DRILLING FLUID TYPE
 TCS .HRS               2:   TIME CURCULATED STOPPED
 LUN .               2958:   LOGGING UNIT NUMBER
 LUL .               CASP:   LOGGING UNIT LOCATION
 ENGI.             MILLER:   RECORDING ENGINEER
 WITN.           MCGINLEY:   WITNESSED BY
 CLNT.            A2DTECH:   CLIENT CODE
 ORIG.       2", 5" PRINT:   ORIGIN OF DATA
 UWI .       490251060000:   UNIQUE WELL ID
 DICO. A2D Technologies, Inc.:   DIGITIZING COMPANY
~OTHER INFORMATION
~A   DEPT      ILD       CILD       CALD         GRD      CORR       RHOB       DPHI   
# ...
 2020.0000     8.5939   117.0513     8.9497   165.9705    -0.0009     2.4753     0.1089
 2020.5000     8.6173   116.9733     8.9519   171.2041     0.0002     2.4685     0.1160
 2021.0000     8.6256   116.8953     8.9541   171.1228     0.0013     2.4676     0.1152
 2021.5000     8.6340   116.8174     8.9563   168.5161     0.0025     2.4697     0.1143
 2022.0000     8.6421   116.7335     8.9585   164.3631     0.0034     2.4718     0.1145
 2022.5000     8.6502   117.0215     8.9606   168.4636     0.0042     2.4705     0.1200
 2023.0000     8.6114   117.3334     8.9628   166.9021     0.0137     2.4664     0.1160
 2023.5000     8.5293   117.6453     8.9649   162.8726     0.0293     2.4648     0.1159
 2024.0000     8.4471   117.8537     8.9673   161.0388     0.0449     2.4676     0.1177
 2024.5000     8.3749   118.0200     8.9696   161.6296     0.0564     2.4621     0.1223
 2025.0000     8.3820   118.1864     8.9987   162.6980     0.0608     2.4552     0.1196
 2025.5000     8.3902   118.3527     9.0447   156.6042     0.0634     2.4554     0.1327
 2026.0000     8.3983   118.5190     9.0916   151.6300     0.0644     2.4371     0.1442
 2026.5000     8.4073   118.6854     9.1104   165.5736     0.0558     2.4230     0.1693
 2027.0000     8.4118   118.2020     9.1129   179.3362     0.0496     2.4105     0.1454
 2027.5000     8.4393   117.4223     9.1151   180.8051     0.0848     2.3644     0.1012
 2028.0000     8.5720   116.6427     9.1173   177.4898     0.0470     2.5091     0.1081
 2028.5000     8.6929   115.8630     9.1195   178.2122     0.0294     2.4668     0.1192
 2029.0000     8.6955   115.0833     9.1217   182.1319     0.0294     2.4619     0.1202
 2029.5000     8.6953   114.3036     9.1239   186.8433     0.0303     2.4589     0.1280
 2030.0000     8.7409   113.5239     9.1261   187.3481     0.0377     2.4429     0.1397
 2030.5000     8.8409   112.7442     9.1271   183.4196     0.0541     2.4216     0.1519
 2031.0000     8.9447   111.9645     9.1969   182.3393     0.0868     2.4104     0.1561
 2031.5000     8.9846   111.1849     9.3625   182.2538     0.1260     2.3982     0.1542
 2032.0000     8.9996   110.4052     9.5276   183.9042     0.1606     2.4021     0.1529
 2032.5000     9.0090   109.6255     9.6555   184.6149     0.1565     2.3953     0.1625
 2033.0000     9.1510   108.8458     9.7628   182.1715     0.1471     2.3888     0.1484
 2033.5000     9.3100   107.1221     9.7101   165.4626     0.0985     2.4297     0.1316
 2034.0000     9.4696   105.1893     9.6770   160.8430     0.0502     2.4004     0.1840
 2034.5000     9.5469   103.6948     9.7253   158.7112     0.0598     2.3322     0.2011
 2035.0000     9.6055   103.6987     9.7891   162.5753     0.1027     2.2915     0.2167
 2035.5000     9.6636   103.7074     9.9498   163.4826     0.1594     2.2940     0.2111
 2036.0000     9.6966   103.7074     9.5039   165.3200     0.2040     2.4766     0.1554
 2036.5000     9.6866   103.7074     9.0672   168.0663     0.0301     2.4320     0.1112
 2037.0000     9.6771   103.7074     9.0317   166.7113     0.0331     2.4526     0.1216
 2037.5000     9.6665   105.3015     9.0095   161.4466     0.0402     2.4712     0.1156
 2038.0000     9.6300   106.8892     8.9875   155.9547     0.0587     2.4636     0.1104
 2038.5000     9.4759   108.4770     9.0667   160.3356     0.0793     2.4723     0.1164
 2039.0000     9.3225   110.0647     9.1659   163.0765     0.1019     2.4669     0.1123
 2039.5000     9.1683   110.6464     9.2668   157.9989     0.1065     2.4825     0.1076
 2040.0000     9.1091   110.5185     9.3469   153.7636     0.1063     2.4797     0.1120
 2040.5000     9.0733   110.3905     9.4249   156.3909     0.1031     2.4720     0.1135
 2041.0000     9.0384   110.2626     9.4168   163.7547     0.0817     2.4697     0.1314
 2041.5000     9.0157   110.1346     9.3981   169.1015     0.0573     2.4341     0.1300
 2042.0000     9.0160   110.0067     9.3480   171.2829     0.0432     2.4478     0.1388
 2042.5000     9.0163   109.8787     9.2455   174.2346     0.0411     2.4284     0.1369
 2043.0000     9.0165   109.7508     9.1861   171.3864     0.0464     2.4267     0.1028
 2043.5000     9.0725   108.8124     9.0721   164.1730     0.0628     2.4953     0.1081
 2044.0000     9.1717   107.6112     8.9438   157.0545    -0.0010     2.4697     0.1204
 2044.5000     9.2711   106.4099     8.9341   152.6403     0.0092     2.4607     0.1151
 2045.0000     9.3468   105.2086     8.9208   151.8650     0.0160     2.4700     0.1093
 2045.5000     9.3780   104.0073     8.9070   154.2151     0.0174     2.4792     0.1148
 2046.0000     9.4896   102.8060     9.0049   152.5706     0.0147     2.4727     0.1138
 2046.5000     9.6164   101.6047     9.0801   148.7867     0.0089     2.4665     0.1272
 2047.0000     9.8310   100.4034     9.0633   145.0643     0.0008     2.4541     0.1192
 2047.5000    10.0592    99.2039     9.1745   144.6481    -0.0053     2.4406     0.1296
 2048.0000    10.2695    98.0067     8.9229   148.7446    -0.0031     2.4404     0.1287
 2048.5000    10.3484    96.7014     8.9124   151.3611    -0.0007     2.4471     0.1275
 2049.0000    10.4258    96.0869     8.9155   154.3459     0.0016     2.4474     0.1262
 2049.5000    10.5036    95.4217     8.9189   153.7437     0.0040     2.4455     0.1300
 2050.0000    10.6024    94.7564     8.9215   168.9970     0.0063     2.4446     0.1380
 2050.5000    10.7219    93.0756     8.9240   156.6297    -0.0024     2.4542     0.1390
 2051.0000    10.8411    92.1985     8.9266   157.8506    -0.0095     2.4359     0.1384
 2051.5000    10.9603    91.3215     8.9293   158.5256    -0.0087     2.4264     0.1396
 2052.0000    11.0472    90.6814     8.9483   158.2318    -0.0080     2.4253     0.1400
 2052.5000    11.0973    90.6783     8.9854   160.7271    -0.0056     2.4253     0.1356
 2053.0000    11.1471    90.6802     9.0221   163.9103    -0.0021     2.4376     0.1291
 2053.5000    11.1963    90.6811     9.0504   170.2207    -0.0044     2.4495     0.1240
 2054.0000    11.2079    90.6814     9.0497   173.7185    -0.0044     2.4505     0.1305
 2054.5000    11.1696    90.6814     9.0497   157.6830    -0.0023     2.4415     0.1324
 2055.0000    11.1315    90.6814     9.0497   138.2159    -0.0001     2.4372     0.1308
 2055.5000    11.0929    90.6814     9.0497   154.7932     0.0005     2.4440     0.1288
 2056.0000    11.0551    90.6814     9.0497   178.9498     0.0005     2.4418     0.1264
 2056.5000    11.0283    90.6814     9.0497   211.9656     0.0012     2.4471     0.1301
 2057.0000    11.0562    90.6814     9.0497   224.2715     0.0026     2.4416     0.1296
 2057.5000    11.1376    90.2906     9.0497   224.6689     0.0041     2.4338     0.1243
 2058.0000    11.2301    89.7936     9.0497   204.0985     0.0045     2.4539     0.1204
 2058.5000    11.3233    89.2966     9.0497   189.2261     0.0045     2.4483     0.1311
 2059.0000    11.3816    88.7996     9.0497   181.5970     0.0045     2.4364     0.1376
 2059.5000    11.4367    86.6934     9.0497   174.1697     0.0092     2.4283     0.1319
 2060.0000    11.6179    84.0622     9.0497   168.1093     0.0145     2.4459     0.1232
 2060.5000    12.1391    81.4311     9.0497   167.3814     0.0185     2.4590     0.1216
 2061.0000    12.6548    79.5944     9.0497   163.5835     0.0154     2.4531     0.1232
 2061.5000    12.9623    79.3956     9.0497   159.6334     0.0124     2.4558     0.1261
 2062.0000    13.1934    79.1968     9.0497   149.4998     0.0093     2.4448     0.1291
 2062.5000    13.2723    78.9941     9.0497   140.0518     0.0065     2.4425     0.1248
 2063.0000    13.2744    78.7920     9.0497   144.6398     0.0050     2.4500     0.1264
 2063.5000    13.2040    78.9334     9.0497   152.8734     0.0036     2.4442     0.1282
 2064.0000    13.0448    79.9304     9.0497   161.3537     0.0028     2.4443     0.1305
 2064.5000    12.8209    80.9280     9.0497   170.7255     0.0044     2.4364     0.1260
 2065.0000    12.7357    81.9244     9.0497   168.4319     0.0059     2.4403     0.1284
