~VERSION INFORMATION
 VERS.                2.0:   CWLS LOG ASCII STANDARD - VERSION 2.0
 WRAP.                 NO:   ONE LINE PER DEPTH STEP
~WELL INFORMATION
#MNEM.UNIT      DATA TYPE    INFORMATION
#----------   ------------   ------------------------------
 STRT.F           21.0000:   START DEPTH
 STOP.F          495.0000:   STOP DEPTH
 STEP.F            0.5000:   STEP LENGTH
 NULL.          -999.2500:   NO VALUE
 COMP. FENIX & SCISSON U.S. NAVY:   COMPANY
 WELL.        NPR #42-S-3:   WELL
 FLD .             TEAPOT:   FIELD
 LOC .       S3 T38N R78W:   LOCATION
 CNTY.            NATRONA:   COUNTY
 STAT.            WYOMING:   STATE
 CTRY. UNITED STATES OF AMERICA:   COUNTRY
 SRVC.              Welex:   SERVICE COMPANY
 DATE.        05-MAY-1977:   LOGDATE
 API .       490251034800:   API NUMBER
~CURVE INFORMATION
#MNEM.UNIT       API CODE    CURVE DESCRIPTION
#----------   ------------   ------------------------------
 DEPT.F                  :   
 SPR .MV     07 010 01 00:   SPONTANEOUS POTENTIAL
 SGRD.OHMM   07 221 05 00:   SHALLOW SHORT GUARD RESISTIVITY
 ILD .OHMM   07 120 46 00:   INDUCTION LOG DEEP
 ILM .OHMM   07 120 44 00:   INDUCTION LOG MEDIUM
 GRD .GAPI   45 310 01 00:   GAMMA RAY FROM DENSITY LOG
 CALD.IN     45 280 60 00:   CALIPER FROM DENSITY LOG
 CORR.G/C3   45 356 01 00:   DENSITY CORRECTION
 RHOB.G/C3   45 350 01 00:   BULK DENSITY
 DPHI.DEC    45 890 12 00:   DENSITY POROSITY SANDSTONE
~PARAMETER INFORMATION
#MNEM.UNIT          VALUE    DESCRIPTION
#----------   ------------   ------------------------------
 PD  .                 GL:   PERMANENT DATUM
 EPD .F              5120:   ELEVATION PERMANENT DATUM
 LMF .                 GL:   LOG MEASURED FROM
 DMF .                 GL:   DRILLING MEASURED FROM
 EGL .F              5120:   GROUND LEVEL
 DATE.        05-MAY-1977:   RUN DATE
 RUN .                  1:   RUN NUMBER
 DD  .F               490:   DEPTH DRILLER
 DL  .F               495:   DEPTH LOGGER
 BLI .F               493:   BOTTOM LOG INTERVAL
 TLI .F                20:   TOP LOG INTERVAL
 CS  .IN            8.625:   CASING SIZE
 CBD .F                25:   CASING BOTTOM DRILLER
 CBL .F                25:   CASING BOTTOM LOGGER
 BS  .IN            7.875:   BIT SIZE
 BSD .F               490:   BIT SIZE AT DEPTH
 DFT .            KCL MUD:   DRILLING FLUID TYPE
 DFD .                8.8:   DRILLING FLUID DENSITY
 DFV .                 34:   DRILLING FLUID VISCOSITY
 DFPH.                8.0:   DRILLING FLUID PH
 DFL .                8.4:   DRILLING FLUID LOSS
 MSS .           FLOWLINE:   MUD SAMPLE SOURCE
 RMS .OHMM           0.26:   RESISTIVITY MUD SAMPLE
 MST .F                60:   MUD SAMPLE TEMPERATURE
 RMF .OHMM           0.14:   RESISTIVITY MUD FILTRATE SAMPLE
 MFST.F                60:   MUD FILTRATE SAMPLE TEMPERATURE
 RMC .OHMM           0.41:   RESISTIVITY MUD CAKE
 MCST.F                60:   MUD CAKE SAMPLE TEMPERATURE
 MFSS.           FANN KIT:   MUD FILTRATE SAMPLE SOURCE
 MCSS.            FANNKIT:   MUD CAKE SAMPLE SOURCE
 RMB .OHMM           0.21:   RESISTIVITY MUD AT BHT
 BHT .F                71:   BOTTOM HOLE TEMPERATURE
 TCS .HRS            0130:   TIME CURCULATED STOPPED
 MRT .F                71:   MAXIMUM RECORDED TEMPERATURE
 LUN .               8611:   LOGGING UNIT NUMBER
 LUL .             CASPER:   LOGGING UNIT LOCATION
 ENGI.            C. DOAK:   RECORDING ENGINEER
 WITN.            R. LYON:   WITNESSED BY
 CLNT.            A2DTECH:   CLIENT CODE
 ORIG.           5" PRINT:   ORIGIN OF DATA
 UWI .       490251034800:   UNIQUE WELL ID
 DICO. A2D Technologies, Inc.:   DIGITIZING COMPANY
~OTHER INFORMATION
~A   DEPT      SPR       SGRD        ILD        ILM         GRD        CALD       CORR       RHOB       DPHI 
# ...
  276.5000   -50.2458    11.2758     7.9263     9.6579   118.5098     7.9770     0.0094     2.5132     0.0943
  277.0000   -50.2530    11.2728     7.8676     9.5897   120.0480     7.9922     0.0102     2.5184     0.0925
  277.5000   -50.2604    11.3485     7.7558     9.5219   123.1813     7.9925     0.0110     2.5334     0.0883
  278.0000   -50.2693    11.5029     7.5930     9.2610   124.9901     7.9778     0.0117     2.5379     0.0859
  278.5000   -50.2753    11.6587     7.5368     9.0646   123.6411     7.9932     0.0118     2.5295     0.0872
  279.0000   -50.2838    11.6556     7.6373     8.9432   120.7883     7.9934     0.0118     2.5238     0.0895
  279.5000   -50.1404    11.1803     7.7961     8.8799   118.2363     7.9788     0.0118     2.5223     0.0913
  280.0000   -50.1494    10.5000     7.9514     8.9400   114.1805     7.9791     0.0118     2.5186     0.0931
  280.5000   -50.1566    10.2164     7.8915     9.1877   114.8542     7.9793     0.0118     2.5156     0.0930
  281.0000   -50.3127    10.9419     7.8331     9.5080   118.5511     7.9796     0.0111     2.5201     0.0915
  281.5000   -50.3199    11.4009     7.7751     9.6385   123.2171     7.9950     0.0104     2.5240     0.0906
  282.0000   -50.3274    12.2114     7.6646     9.6361   123.9723     7.9803     0.0097     2.5194     0.0921
  282.5000   -50.1874    12.8117     7.5556     9.5022   122.0228     7.9806     0.0097     2.5157     0.0936
  283.0000   -50.1946    12.6328     7.3960     9.4977   120.5234     7.9809     0.0090     2.5217     0.0924
  283.5000   -49.9024    12.6294     7.2260     9.2852   118.5504     7.9812     0.0090     2.5270     0.0906
  284.0000   -49.7608    12.8900     6.8486     8.5043   117.2249     7.9814     0.0090     2.5157     0.0975
  284.5000   -49.3216    12.4363     6.5224     7.2060   118.8834     7.9817     0.0068     2.5053     0.1048
  285.0000   -49.1815     8.5167     6.2118     6.4078   121.4442     7.9670     0.0061     2.4776     0.1193
  285.5000   -48.7426     5.3658     6.0814     6.1469   121.4485     7.9674     0.0031     2.4627     0.1319
  286.0000   -48.1449     6.2000     6.2052     6.2741   121.0017     7.9527    -0.0006     2.4350     0.1520
  286.5000   -47.4178    11.4482     6.4638     6.8610   118.7504     7.9530    -0.0029     2.4118     0.1591
  287.0000   -46.8298    13.2281     6.6921     7.8196   110.4243     7.9383    -0.0021     2.4044     0.1561
  287.5000   -46.2436    13.8783     7.0614     8.6102   109.8869     7.9386     0.0017     2.4322     0.1349
  288.0000   -45.8044    14.1646     7.5094     9.5675   112.2984     7.9389     0.0055     2.4800     0.1088
  288.5000   -45.6610    14.4568     8.0967    10.8048   113.6561     7.9393     0.0085     2.5070     0.0989
  289.0000   -45.0748    14.6534     8.5512    11.3367   111.8560     7.9396     0.0092     2.5047     0.0995
  289.5000   -44.4868    14.4488     8.9076    11.6514   109.9054     7.9399     0.0100     2.5070     0.0983
  290.0000   -43.8988    14.3448     9.3430    11.8107   109.0075     7.9401     0.0123     2.5168     0.0929
  290.5000   -43.1274    14.3410     9.5991    11.8084   110.3054     7.9404     0.0145     2.5266     0.0878
  291.0000   -42.1294    14.4373     9.7945    11.8060   112.3256     7.9407     0.0161     2.5340     0.0857
  291.5000   -41.3925    14.4324    10.0616    11.8036   112.4792     7.9560     0.0176     2.5318     0.0863
  292.0000   -40.5069    14.0361    10.4090    12.1312   108.7252     7.9563     0.0191     2.5311     0.0885
  292.5000   -39.7701    14.0323    10.8428    12.4794   101.6619     7.9566     0.0206     2.5184     0.0968
  293.0000   -39.0333    14.1258    11.4514    13.1130    95.9520     7.9419     0.0214     2.5012     0.1043
  293.5000   -38.1477    15.2344    12.1780    14.5032    90.1521     7.9422     0.0222     2.4885     0.1121
  294.0000   -37.5596    19.7460    13.2260    15.5352    78.3678     7.9425     0.0222     2.4623     0.1231
  294.5000   -36.8155    26.5488    14.2053    16.4127    67.3947     7.9428     0.0215     2.4429     0.1387
  295.0000   -36.2348    20.6150    15.6892    17.3398    66.7964     7.9432     0.0177     2.4122     0.1544
  295.5000   -35.6486    16.9927    16.9162    18.7022    69.9598     7.9435     0.0148     2.3860     0.1809
  296.0000   -35.0606    22.2271    18.2392    20.3111    71.0168     7.9437     0.0118     2.3576     0.1959
  296.5000   -34.7702    28.6797    19.3963    22.2110    69.6677     7.9440     0.0088     2.3367     0.2063
  297.0000   -34.4780    22.2152    20.3445    24.6349    70.3186     7.9443     0.0074     2.3232     0.2102
  297.5000   -34.3382    29.2613    21.1923    26.8438    73.1362     7.9446     0.0066     2.3225     0.2096
  298.0000   -34.1964    33.6219    21.9600    29.8556    77.0503     7.9449     0.0074     2.3315     0.2054
  298.5000   -34.0551    30.9038    22.5218    31.7603    80.5133     7.9453     0.0082     2.3368     0.2012
  299.0000   -33.9135    34.4985    22.8223    33.5543    80.0665     7.9456     0.0089     2.3308     0.2060
  299.5000   -33.9225    39.3134    22.8102    36.4409    77.0633     7.9458     0.0075     2.3376     0.2042
  300.0000   -34.0786    37.0947    22.2167    40.5819    76.0150     7.9472     0.0067     2.3413     0.1981
  300.5000   -34.2346    31.0831    21.4872    44.1812    75.7814     7.9543     0.0073     2.3675     0.1828
  301.0000   -34.5446    33.5491    20.6892    39.0125    76.0210     7.9614     0.0097     2.3855     0.1707
  301.5000   -34.7059    31.2797    19.9830    32.1557    79.6289     7.9615     0.0120     2.4052     0.1575
  302.0000   -34.8647    29.5936    19.4344    29.5929    81.4345     7.9617     0.0127     2.4289     0.1443
  302.5000   -34.7234    29.9985    19.0184    29.5851    79.4814     7.9618     0.0120     2.4357     0.1419
  303.0000   -34.5846    30.1962    18.6360    29.5774    78.5806     7.9470     0.0120     2.4349     0.1419
  303.5000   -34.5971    30.1863    18.3760    29.7745    78.2812     7.9472     0.0120     2.4379     0.1397
  304.0000   -34.6071    31.0222    18.3712    30.6183    78.8882     7.9473     0.0127     2.4462     0.1326
  304.5000   -34.4707    32.7727    18.4934    32.5467    79.6375     7.9325     0.0135     2.4553     0.1281
  305.0000   -34.3294    39.7403    18.7453    37.3486    79.1882     7.9327     0.0135     2.4589     0.1299
  305.5000   -34.0418    45.7605    19.1308    39.7289    77.6859     7.9328     0.0142     2.4477     0.1368
  306.0000   -33.7566    52.3282    19.6605    39.4457    74.8302     7.9329     0.0157     2.4342     0.1419
  306.5000   -33.4688    56.0483    20.3447    36.3019    73.7790     7.9481     0.0187     2.4320     0.1470
  307.0000   -33.1711    57.6004    20.9195    35.0627    74.2457     7.9482     0.0202     2.4215     0.1571
  307.5000   -32.8937    57.1765    21.7839    35.0536    75.5868     7.9483     0.0195     2.4058     0.1655
  308.0000   -32.4598    43.3926    22.5420    30.7420    76.9416     7.9485     0.0172     2.3884     0.1784
  308.5000   -32.3185    38.5837    23.1662    21.1808    77.3941     7.9337     0.0127     2.3527     0.1910
  309.0000   -32.1797    37.7841    23.6442    26.5829    77.2449     7.9488     0.0097     2.3325     0.1999
  309.5000   -31.8945    34.2988    23.9661    30.0872    77.5474     7.9490     0.0067     2.3295     0.2053
  310.0000   -31.9048    35.3135    23.6302    33.3563    78.1705     7.9491     0.0067     2.3325     0.2040
  310.5000   -31.7657    39.8926    23.4618    36.2237    79.5055     7.9492     0.0067     2.3475     0.1957
  311.0000   -31.9270    46.7349    22.8177    37.2268    79.3566     7.9494     0.0067     2.3551     0.1886
  311.5000   -31.9370    42.1325    22.6549    36.7050    78.0047     7.9496     0.0067     2.3759     0.1781
  312.0000   -32.2446    36.9235    22.8057    34.7264    75.7505     7.9497     0.0067     2.3984     0.1718
  312.5000   -32.4034    33.5397    23.2747    30.6658    74.2481     7.9499     0.0045     2.4134     0.1625
