~VERSION INFORMATION
 VERS.                2.0:   CWLS LOG ASCII STANDARD - VERSION 2.0
 WRAP.                 NO:   ONE LINE PER DEPTH STEP
~WELL INFORMATION
#MNEM.UNIT      DATA TYPE    INFORMATION
#----------   ------------   ------------------------------
 STRT.F           20.0000:   START DEPTH
 STOP.F          610.0000:   STOP DEPTH
 STEP.F            0.5000:   STEP LENGTH
 NULL.          -999.2500:   NO VALUE
 COMP. LAWRENCE/ALLISON INC:   COMPANY
 WELL.    44-55 SX #10-10:   WELL
 FLD .             TEAPOT:   FIELD
 LOC .      S10 T38N R78W:   LOCATION
 CNTY.            NATRONA:   COUNTY
 STAT.            WYOMING:   STATE
 CTRY. UNITED STATES OF AMERICA:   COUNTRY
 SRVC.            Unknown:   SERVICE COMPANY
 DATE.        29-AUG-1984:   LOGDATE
 API .       490251098300:   API NUMBER
~CURVE INFORMATION
#MNEM.UNIT       API CODE    CURVE DESCRIPTION
#----------   ------------   ------------------------------
 DEPT.F                  :   
 AC  .US/F   60 520 00 00:   ACOUSTIC SONIC
 SPR .MV     07 010 01 00:   SPONTANEOUS POTENTIAL
 RILD.OHMM   07 120 46 00:   INDUCTION LOG DEEP RESISTIVITY
 RILM.OHMM   07 120 44 00:   INDUCTION LOG MEDIUM RESISTIVITY
 RFOC.OHMM   07 220 04 00:   RESISTIVITY FOCUSED LOG
 GRD .GAPI   45 310 01 00:   GAMMA RAY FROM DENSITY LOG
 CALD.IN     45 280 60 00:   CALIPER
 DEN .G/C3   45 350 01 00:   COMPENSATED BULK DENSTIY
 CNC .DEC    42 890 03 00:   NEUTRON POROSITY SANDSTONE
 PORD.DEC    45 890 12 00:   DENSITY POROSITY SANDSTONE
 CORR.G/C3   45 356 01 00:   DENSITY CORRECTION
~PARAMETER INFORMATION
#MNEM.UNIT          VALUE    DESCRIPTION
#----------   ------------   ------------------------------
 PD  .                 GL:   PERMANENT DATUM
 EPD .F              5247:   ELEVATION PERMANENT DATUM
 LMF .                 KB:   LOG MEASURED FROM
 DAPD.F                13:   FEET ABOVE PERMANENT DATUM
 DMF .                 KB:   DRILLING MEASURED FROM
 EKB .F              5260:   KELLING BUSHING
 EGL .F              5247:   GROUND LEVEL
 DATE.        29-AUG-1984:   RUN DATE
 RUN .                  1:   RUN NUMBER
 DD  .F               613:   DEPTH DRILLER
 DL  .F               607:   DEPTH LOGGER
 BLI .F               607:   BOTTOM LOG INTERVAL
 TLI .F                42:   TOP LOG INTERVAL
 CBL .F                42:   CASING BOTTOM LOGGER
 BS  .IN            7.875:   BIT SIZE
 BSD .F               613:   BIT SIZE AT DEPTH
 DFT .          KCL WATER:   DRILLING FLUID TYPE
 MSS .               TANK:   MUD SAMPLE SOURCE
 RMS .OHMM           .295:   RESISTIVITY MUD SAMPLE
 MST .F                75:   MUD SAMPLE TEMPERATURE
 TCS .HRS               3:   TIME CURCULATED STOPPED
 MRT .F               100:   MAXIMUM RECORDED TEMPERATURE
 LUN .               4082:   LOGGING UNIT NUMBER
 LUL .               ROOS:   LOGGING UNIT LOCATION
 ENGI.             MILLER:   RECORDING ENGINEER
 WITN.            JOHNSON:   WITNESSED BY
 CLNT.            A2DTECH:   CLIENT CODE
 ORIG.       2", 5" PRINT:   ORIGIN OF DATA
 UWI .       490251098300:   UNIQUE WELL ID
 DICO. A2D Technologies, Inc.:   DIGITIZING COMPANY
~OTHER INFORMATION
~A   DEPT       AC        SPR       RILD       RILM       RFOC         GRD      CALD        DEN        CNC       PORD       CORR   
# ...
  294.5000   106.1926   -40.8424     5.1870     5.5694     6.9484   106.4330     7.9598     2.4698     0.3198     0.1343     0.0345
  295.0000   105.1260   -40.4496     5.4624     5.8498     8.1554   106.3569     7.9584     2.4910     0.3267     0.1160     0.0624
  295.5000   104.9202   -40.0576     5.7710     6.1440     7.6937   106.4500     7.9570     2.4967     0.3318     0.1106     0.0800
  296.0000   104.5210   -39.6671     6.0993     6.4292     7.1255   103.6373     7.9556     2.5090     0.3210     0.1031     0.0595
  296.5000   103.6020   -39.5530     6.4467     6.6144     6.8542    97.3589     7.9542     2.5244     0.2994     0.0938     0.0389
  297.0000   102.5624   -39.7411     6.8105     6.9029     8.0218    91.4293     7.9528     2.5387     0.3030     0.0864     0.0309
  297.5000   101.6267   -39.9270     7.0678     7.2013     8.6219    87.9849     7.9514     2.5389     0.3099     0.0852     0.0390
  298.0000   101.4072   -40.1141     7.3162     7.5130     8.8849    89.5112     7.9500     2.5354     0.3116     0.0855     0.0491
  298.5000   101.2076   -40.3016     7.5733     7.9402     9.0919    93.3886     7.9486     2.5313     0.3067     0.0877     0.0591
  299.0000   101.0279   -40.4900     7.8394     7.9304     9.1982    94.4429     7.9472     2.5273     0.3017     0.0907     0.0686
  299.5000   100.7928   -40.6432     7.9303     7.9164     9.1637    93.0942     7.9458     2.5233     0.2978     0.0934     0.0675
  300.0000   100.5791   -40.4156     8.0010     7.9024     9.1254    92.1080     7.9444     2.5192     0.2994     0.0958     0.0515
  300.5000   100.4635   -40.1913     8.0723     7.8884     9.0872    94.3532     7.9430     2.5151     0.2922     0.0992     0.0305
  301.0000   100.5784   -39.9692     8.1440     7.8676     9.0492    96.5152     7.9416     2.5138     0.2994     0.1020     0.0094
  301.5000   100.6929   -39.7476     8.2384     7.9088     9.0113    98.7484     7.9402     2.5211     0.3051     0.0965    -0.0017
  302.0000   100.5729   -39.5255     8.2376     7.9903     8.9731    97.5593     7.9387     2.5314     0.3102     0.0903     0.0122
  302.5000   100.2577   -39.3016     8.2376     8.0897     8.9482    95.6238     7.9390     2.5352     0.3153     0.0864     0.0319
  303.0000    99.9423   -39.0777     8.2376     8.1970     9.0456    95.2447     7.9399     2.5262     0.3204     0.0899     0.0525
  303.5000    99.6268   -39.1867     8.2376     8.3137     9.1207    98.3345     7.9407     2.5149     0.3250     0.0969     0.0614
  304.0000    99.3114   -39.3257     8.2376     8.3279     9.1961   102.0969     7.9416     2.5128     0.3173     0.1024     0.0488
  304.5000    98.9960   -39.4492     8.1203     8.3433     9.2722   103.8932     7.9425     2.5133     0.3110     0.1006     0.0353
  305.0000    98.8323   -39.2194     7.9964     8.3587     9.3489    98.7167     7.9434     2.5206     0.3265     0.0969     0.0219
  305.5000    99.1389   -39.1168     7.8743     8.3742     9.4554    95.5655     7.9442     2.5271     0.3455     0.0936     0.0083
  306.0000    99.5705   -39.0190     7.7956     8.3904     9.1391    94.4754     7.9451     2.5244     0.3467     0.0931    -0.0035
  306.5000   100.0021   -38.9226     8.0935     8.5516     8.8392    96.9192     7.9460     2.5191     0.3058     0.0947     0.0128
  307.0000   100.2295   -38.8260     8.3624     8.7249     8.5498    99.6251     7.9468     2.5139     0.3014     0.0981     0.0347
  307.5000   100.0299   -38.7300     8.6402     8.9017     8.3114   102.3195     7.9477     2.5100     0.2995     0.1011     0.0494
  308.0000    99.3238   -38.6632     8.9273     9.0821     8.5548   103.4075     7.9486     2.5067     0.2889     0.1036     0.0605
  308.5000    97.5030   -38.8334     9.2931     9.1982     9.0063    98.8522     7.9495     2.5046     0.2693     0.1052     0.0687
  309.0000    95.7425   -39.0483     9.2922     9.3689     9.4817    94.2964     7.9503     2.5069     0.2732     0.1037     0.0571
  309.5000    95.0697   -39.2645     8.5461     9.3689     9.9892    89.7488     7.9512     2.5108     0.2860     0.1015     0.0421
  310.0000    94.5264   -39.4804     8.0236     8.6391    10.2709    87.6667     7.9521     2.5138     0.3061     0.0993     0.0127
  310.5000    94.7533   -39.6968     7.5343     7.3205    10.4615    93.8316     7.9530     2.5093     0.3260     0.1011    -0.0145
  311.0000    97.1517   -39.9127     7.0748     6.2007    10.4615    98.3547     7.9538     2.4963     0.3458     0.1080    -0.0170
  311.5000   101.8827   -40.1227     6.8555     6.0217     9.4384   100.5899     7.9547     2.4705     0.3658     0.1222     0.0142
  312.0000   106.3308   -40.0185     6.6992     6.0192     7.0073    99.1107     7.9556     2.4369     0.3793     0.1462     0.0575
  312.5000   108.3134   -39.3868     6.5464     6.3748     5.1488    98.5201     7.9565     2.4019     0.3501     0.1633     0.1034
  313.0000   105.8902   -38.7653     6.4271     6.8247     5.1458    98.6834     7.9573     2.4255     0.3273     0.1563     0.1159
  313.5000   102.2255   -38.2234     6.4271     7.3138     6.5475    95.6193     7.9582     2.4609     0.3098     0.1344     0.0997
  314.0000    96.8437   -38.0438     7.0497     7.8380     8.3264    89.2756     7.9568     2.4966     0.2990     0.1125     0.0842
  314.5000    94.4249   -37.8595     7.5873     8.3999    10.5802    86.7277     7.9552     2.5196     0.2993     0.0971     0.0590
  315.0000    93.7425   -37.6611     8.1658     9.0021    11.0547    91.8522     7.9536     2.5151     0.2995     0.0988     0.0322
  315.5000    93.9255   -37.1661     8.7885     9.6452    11.0547    93.9151     7.9520     2.5111     0.3113     0.1016     0.0226
  316.0000    94.1433   -36.6668     9.4606    10.1769    11.0547    91.9801     7.9504     2.5125     0.2994     0.1010     0.0234
  316.5000    94.3612   -36.2867     9.8995    10.5792    11.0547    89.7057     7.9488     2.5135     0.2993     0.1003     0.0467
  317.0000    94.6213   -36.3631    10.0376    10.6711    11.0547    89.8624     7.9473     2.5146     0.2992     0.0997     0.0423
  317.5000    94.9551   -36.4306    10.1689    10.7639    11.0282    90.1577     7.9457     2.5158     0.2958     0.0990     0.0353
  318.0000    95.5955   -36.4976    10.3039    10.8574    10.9181    90.9396     7.9441     2.5115     0.2922     0.0988     0.0278
  318.5000    96.4255   -36.5659    10.4406    10.9517    10.8091    93.1263     7.9425     2.5056     0.2938     0.1037     0.0209
  319.0000    96.8043   -36.6292    10.5876    11.0469    10.6990    93.4827     7.9409     2.4997     0.2882     0.1092     0.0166
  319.5000    96.5207   -36.5272    11.6230    11.1429    10.5420    91.4116     7.9394     2.4976     0.2768     0.1102     0.0302
  320.0000    94.6721   -35.8073    13.2764    11.4135    10.5346    86.1629     7.9378     2.5021     0.2655     0.1096     0.0448
  320.5000    92.3068   -35.1098    15.1650    12.5219    12.2610    77.7263     7.9362     2.5096     0.2533     0.1053     0.0597
  321.0000    89.9371   -34.4135    16.9670    14.1280    15.2423    66.1618     7.9346     2.5171     0.2624     0.1003     0.0732
  321.5000    88.6527   -33.7172    17.9330    15.9283    18.9095    53.4743     7.9330     2.5217     0.2724     0.0949     0.0651
  322.0000    90.7597   -33.0209    18.9459    17.9587    23.0625    47.9052     7.9314     2.4887     0.2824     0.0941     0.0498
  322.5000    96.5020   -32.3245    20.0284    19.3407    23.7073    51.0252     7.9299     2.4449     0.2924     0.1246     0.0377
  323.0000   101.8083   -31.6280    21.1595    20.3791    19.7261    55.8693     7.9283     2.4056     0.3036     0.1513     0.0476
  323.5000   106.0869   -30.9219    22.3576    21.4732    19.5456    56.9291     7.9267     2.3839     0.3080     0.1755     0.0720
  324.0000   111.4288   -30.6538    23.6258    22.3908    20.4383    52.7634     7.9251     2.4020     0.3015     0.1753     0.1113
  324.5000   120.8182   -30.5186    24.9658    23.6899    21.2324    52.3088     7.9235     2.4318     0.2920     0.1588     0.1114
