~VERSION INFORMATION
 VERS.                2.0:   CWLS LOG ASCII STANDARD - VERSION 2.0
 WRAP.                 NO:   ONE LINE PER DEPTH STEP
~WELL INFORMATION
#MNEM.UNIT      DATA TYPE    INFORMATION
#----------   ------------   ------------------------------
 STRT.F           20.0000:   START DEPTH
 STOP.F          744.0000:   STOP DEPTH
 STEP.F            0.5000:   STEP LENGTH
 NULL.          -999.2500:   NO VALUE
 COMP. FENIX & SCISSON INCORP.:   COMPANY
 WELL.          SX #53-15:   WELL
 FLD .             TEAPOT:   FIELD
 LOC .      S15 T38N R78W:   LOCATION
 CNTY.            NATRONA:   COUNTY
 STAT.            WYOMING:   STATE
 CTRY. UNITED STATES OF AMERICA:   COUNTRY
 SRVC.              Welex:   SERVICE COMPANY
 DATE.        02-MAR-1977:   LOGDATE
 API .       490251030000:   API NUMBER
~CURVE INFORMATION
#MNEM.UNIT       API CODE    CURVE DESCRIPTION
#----------   ------------   ------------------------------
 DEPT.F                  :   
 SGRD.OHMM   07 220 05 00:   SHALLOW RESISTIVITY
 ILD .OHMM   07 120 46 00:   INDUCTION LOG DEEP
 ILM .OHMM   07 120 44 00:   INDUCTION LOG MEDIUM
 SPR .MV     07 010 01 00:   SPONTANEOUS POTENTIAL
 GRD .GAPI   45 310 01 00:   GAMMA RAY FROM DENSITY LOG
 CALD.IN     45 280 60 00:   CALIPER
 RHOB.G/C3   45 350 01 00:   BULK DENSITY
 DPHI.DEC    45 890 10 00:   DENSITY POROSITY SANDSTONE
 CORR.G/C3   45 356 01 00:   DENSITY CORRECTION
~PARAMETER INFORMATION
#MNEM.UNIT          VALUE    DESCRIPTION
#----------   ------------   ------------------------------
 PD  .                 GL:   PERMANENT DATUM
 EPD .F              5253:   ELEVATION PERMANENT DATUM
 LMF .                 GL:   LOG MEASURED FROM
 DMF .                 GL:   DRILLING MEASURED FROM
 EGL .F              5253:   GROUND LEVEL
 DATE.             3-2-77:   RUN DATE
 RUN .                  1:   RUN NUMBER
 DD  .F               750:   DEPTH DRILLER
 DL  .F               747:   DEPTH LOGGER
 BLI .F               745:   BOTTOM LOG INTERVAL
 TLI .F                44:   TOP LOG INTERVAL
 CS  .IN            8.625:   CASING SIZE
 CBD .F                40:   CASING BOTTOM DRILLER
 CBL .F                44:   CASING BOTTOM LOGGER
 BS  .IN            7.875:   BIT SIZE
 BSD .F               750:   BIT SIZE AT DEPTH
 DFT .           CHEM-GEL:   DRILLING FLUID TYPE
 MSS .          FLOW LINE:   MUD SAMPLE SOURCE
 RMS .OHMM           .425:   RESISTIVITY MUD SAMPLE
 MST .F                56:   MUD SAMPLE TEMPERATURE
 RMF .OHMM           .436:   RESISTIVITY MUD FILTRATE SAMPLE
 MFST.F                56:   MUD FILTRATE SAMPLE TEMPERATURE
 RMC .OHMM           .712:   RESISTIVITY MUD CAKE
 MCST.F                56:   MUD CAKE SAMPLE TEMPERATURE
 MFSS.           MEASURED:   MUD FILTRATE SAMPLE SOURCE
 MCSS.           MEASURED:   MUD CAKE SAMPLE SOURCE
 RMB .OHMM            .35:   RESISTIVITY MUD AT BHT
 BHT .F                68:   BOTTOM HOLE TEMPERATURE
 TCS .HRS               2:   TIME CURCULATED STOPPED
 MRT .F                68:   MAXIMUM RECORDED TEMPERATURE
 LUN .               8611:   LOGGING UNIT NUMBER
 LUL .           GILLETTE:   LOGGING UNIT LOCATION
 ENGI.          D. LAWSON:   RECORDING ENGINEER
 WITN.           S. BURKE:   WITNESSED BY
 CLNT.            A2DTECH:   CLIENT CODE
 ORIG.        2" 5" PRINT:   ORIGIN OF DATA
 UWI .       490251030000:   UNIQUE WELL ID
 DICO. A2D Technologies, Inc.:   DIGITIZING COMPANY
~OTHER INFORMATION
~A   DEPT     SGRD        ILD        ILM        SPR         GRD      CALD         RHOB       DPHI      CORR  
# ...
  713.5000    15.3273    10.9699    13.1063   -21.2451   117.2522     8.3373     2.4419     0.1200     0.0609
  714.0000    14.8262    10.9312    13.5217   -21.2451   117.6342     8.3460     2.4325     0.1232     0.0618
  714.5000    15.1566    10.8926    13.2713   -21.2451   119.6962     8.3390     2.4346     0.1239     0.0626
  715.0000    15.3793    10.8542    12.9780   -21.2451   119.4477     8.3321     2.4375     0.1228     0.0635
  715.5000    14.9336    10.7358    12.6911   -21.2451   117.4124     8.3080     2.4405     0.1216     0.0637
  716.0000    14.6903    10.5726    12.4106   -21.2451   116.0025     8.2814     2.4435     0.1205     0.0634
  716.5000    14.8843    10.4119    12.1362   -21.2451   117.3085     8.2705     2.4440     0.1203     0.0631
  717.0000    14.9634    10.2536    11.8678   -21.2451   120.7965     8.2886     2.4438     0.1205     0.0628
  717.5000    14.2937    10.0978    11.6057   -21.2451   123.9913     8.3082     2.4435     0.1199     0.0625
  718.0000    14.0007    10.0255    11.3458   -21.2451   123.9748     8.3279     2.4451     0.1183     0.0622
  718.5000    13.9331     9.9714    11.1423   -21.2451   121.0614     8.3474     2.4495     0.1168     0.0619
  719.0000    13.8659     9.9177    11.1685   -21.2451   122.0331     8.3403     2.4546     0.1152     0.0639
  719.5000    13.7731     9.8642    11.1930   -21.2451   122.6035     8.3290     2.4625     0.1137     0.0659
  720.0000    13.9161     9.8110    11.2175   -21.2451   121.2544     8.3177     2.4705     0.1113     0.0680
  720.5000    14.1537     9.7581    11.2468   -21.2451   121.8497     8.3064     2.4785     0.1023     0.0701
  721.0000    14.3953     9.7055    11.0913   -21.2451   119.2153     8.2951     2.4866     0.0938     0.0721
  721.5000    14.6903     9.6532    10.7406   -21.2451   116.5464     8.2877     2.4946     0.0930     0.0742
  722.0000    14.5365     9.6012    10.9507   -21.2451   110.8116     8.2795     2.4939     0.0948     0.0758
  722.5000    14.3469     9.5494    11.2578   -21.2451    80.4484     8.2717     2.4829     0.0992     0.0734
  723.0000    14.1589     9.4536    11.2986   -21.2451  -999.2500     8.2639     2.4719     0.1036     0.0710
  723.5000    13.7993     9.3294    11.3502   -21.2451  -999.2500     8.2561     2.4610     0.1080     0.0685
  724.0000    13.4472     9.2066    10.8464   -21.2451  -999.2500     8.2487     2.4502     0.1124     0.0661
  724.5000    13.1041     9.0855    10.1983   -21.2451  -999.2500     8.2435     2.4429     0.1143     0.0639
  725.0000    13.0163     8.9660     9.9664   -21.2451  -999.2500     8.2381     2.4594     0.1134     0.0649
  725.5000    12.9957     8.8481     9.8364   -21.2451  -999.2500     8.2328     2.4728     0.1090     0.0659
  726.0000    12.9751     8.7317     9.7058   -21.2451  -999.2500     8.2275     2.4770     0.1046     0.0669
  726.5000    12.9546     8.6169     9.8281   -21.2451  -999.2500     8.2221     2.4750     0.1011     0.0678
  727.0000    12.9341     8.5036     9.9546   -21.2451  -999.2500     8.2168     2.4729     0.1015     0.0662
  727.5000    12.9131     8.3917    10.0830   -21.2450  -999.2500     8.2115     2.4707     0.1020     0.0643
  728.0000    12.6528     8.2815    10.1639   -21.2442  -999.2500     8.2062     2.4740     0.1025     0.0657
  728.5000    12.3334     8.1725     9.8045   -21.2385  -999.2500     8.2008     2.4813     0.0995     0.0682
  729.0000    12.4056     8.1383     9.5087   -21.4936  -999.2500     8.1957     2.4887     0.0950     0.0708
  729.5000    12.5022     8.1263     9.2219   -21.7965  -999.2500     8.1893     2.4961     0.0906     0.0733
  730.0000    12.5612     8.1142     8.9437   -22.1007  -999.2500     8.1495     2.5035     0.0952     0.0757
  730.5000    12.3014     8.1020     8.6733   -22.4043  -999.2500     8.1074     2.5013     0.0997     0.0718
  731.0000    11.3780     8.0897     8.4095   -22.7077  -999.2500     8.0655     2.4796     0.1042     0.0677
  731.5000    10.0186     8.0729     8.1476   -23.0112  -999.2500     8.0235     2.4633     0.1086     0.0637
  732.0000     8.7706     8.2136     8.5352   -23.3141  -999.2500     7.9819     2.4622     0.1080     0.0596
  732.5000    12.0084     8.4729     8.9600   -23.6172  -999.2500     7.9502     2.4726     0.1022     0.0561
  733.0000    12.5528     8.7403     9.4059   -23.9151  -999.2500     7.9565     2.4843     0.0959     0.0591
  733.5000    12.9123     9.0163     9.8741   -25.0299  -999.2500     7.9619     2.4959     0.0898     0.0620
  734.0000    13.2845     9.3011    10.3655   -26.4693  -999.2500     7.9671     2.4978     0.0904     0.0627
  734.5000    13.7871     9.5946    10.8814   -27.9142  -999.2500     7.9724     2.4959     0.0910     0.0597
  735.0000    14.0341     9.8975    11.4559   -29.3601  -999.2500     7.9777     2.4980     0.0875     0.0579
  735.5000    13.9572    10.0060    11.6222   -30.8123  -999.2500     7.9830     2.5031     0.0839     0.0579
  736.0000    13.9001    10.0444    11.8015   -32.2602  -999.2500     7.9887     2.5082     0.0805     0.0579
  736.5000    14.0049    10.0700    11.9837   -32.6479  -999.2500     7.9794     2.5133     0.0792     0.0578
  737.0000    14.1492     9.8862    12.1686  -999.2500  -999.2500     7.9639     2.5135     0.0791     0.0541
  737.5000    14.2942     9.0754    12.3319  -999.2500  -999.2500     7.9482     2.5033     0.0835     0.0475
  738.0000    14.4221     8.2787    12.3028  -999.2500  -999.2500     7.9326     2.4948     0.0910     0.0409
  738.5000    14.2735     7.5497    12.2772  -999.2500  -999.2500     7.9169     2.4978     0.0886     0.0342
  739.0000    14.1429     6.8884    12.2515  -999.2500  -999.2500     7.9100     2.5143     0.0844     0.0298
  739.5000    14.0135     6.3538    12.2260  -999.2500  -999.2500     7.9105     2.5308     0.0803     0.0302
  740.0000    13.8854     6.1239    12.1068  -999.2500  -999.2500     7.9190     2.5466     0.0670     0.0404
  740.5000    13.7584     6.2435    11.5023  -999.2500  -999.2500  -999.2500  -999.2500  -999.2500  -999.2500
  741.0000    13.6468     6.4135    10.8782  -999.2500  -999.2500  -999.2500  -999.2500  -999.2500  -999.2500
  741.5000    13.7344     6.5889    10.2866  -999.2500  -999.2500  -999.2500  -999.2500  -999.2500  -999.2500
  742.0000    13.9354     6.7690     9.7178  -999.2500  -999.2500  -999.2500  -999.2500  -999.2500  -999.2500
  742.5000    14.2881     6.9537     9.1804  -999.2500  -999.2500  -999.2500  -999.2500  -999.2500  -999.2500
  743.0000    14.1957     7.1619     8.6727  -999.2500  -999.2500  -999.2500  -999.2500  -999.2500  -999.2500
  743.5000    13.6133     7.1619     8.1476  -999.2500  -999.2500  -999.2500  -999.2500  -999.2500  -999.2500
  744.0000    13.4013     7.2316     8.0011  -999.2500  -999.2500  -999.2500  -999.2500  -999.2500  -999.2500
