~VERSION INFORMATION
 VERS.                2.0:   CWLS LOG ASCII STANDARD - VERSION 2.0
 WRAP.                 NO:   ONE LINE PER DEPTH STEP
~WELL INFORMATION
#MNEM.UNIT      DATA TYPE    INFORMATION
#----------   ------------   ------------------------------
 STRT.F           70.0000:   START DEPTH
 STOP.F          865.0000:   STOP DEPTH
 STEP.F            0.5000:   STEP LENGTH
 NULL.          -999.2500:   NO VALUE
 COMP. U S NAVY/INTEX OIL CO:   COMPANY
 WELL.   54S 11 NPR #3-11:   WELL
 FLD .             TEAPOT:   FIELD
 LOC .      S11 T38N R78W:   LOCATION
 CNTY.            NATRONA:   COUNTY
 STAT.            WYOMING:   STATE
 CTRY. UNITED STATES OF AMERICA:   COUNTRY
 SRVC.         Lane Wells:   SERVICE COMPANY
 DATE.        11-MAR-1960:   LOGDATE
 API .       490250634900:   API NUMBER
~CURVE INFORMATION
#MNEM.UNIT       API CODE    CURVE DESCRIPTION
#----------   ------------   ------------------------------
 DEPT.F                  :   
 SPR .MV     05 010 01 00:   SPONTANEOUS POTENTIAL FROM RES.
 ASN .OHMM   05 041 16 00:   AMPLIFIED SHORT NORMAL 16"
 ILD .OHMM   05 120 46 00:   INDUCTION LOG DEEP
 CILD.MMHO   05 110 46 00:   CONDUCTIVITY INDUCTION LOG DEEP
~PARAMETER INFORMATION
#MNEM.UNIT          VALUE    DESCRIPTION
#----------   ------------   ------------------------------
 PD  .                 GL:   PERMANENT DATUM
 EPD .F              5198:   ELEVATION PERMANENT DATUM
 LMF .                 KB:   LOG MEASURED FROM
 DAPD.F                 5:   FEET ABOVE PERMANENT DATUM
 DMF .                 KB:   DRILLING MEASURED FROM
 EKB .F              5203:   KELLING BUSHING
 EGL .F              5198:   GROUND LEVEL
 DATE.            3-11-60:   RUN DATE
 RUN .                  1:   RUN NUMBER
 DD  .F               870:   DEPTH DRILLER
 DL  .F               867:   DEPTH LOGGER
 BLI .F               865:   BOTTOM LOG INTERVAL
 TLI .F                70:   TOP LOG INTERVAL
 CS  .IN            8.625:   CASING SIZE
 CBD .F                12:   CASING BOTTOM DRILLER
 BS  .IN            7.875:   BIT SIZE
 BSD .F               870:   BIT SIZE AT DEPTH
 DFT .   GEL/OIL EMULSION:   DRILLING FLUID TYPE
 DFD .                9.2:   DRILLING FLUID DENSITY
 DFV .                 36:   DRILLING FLUID VISCOSITY
 DFPH.                7.5:   DRILLING FLUID PH
 DFL .                4.4:   DRILLING FLUID LOSS
 MSS .                PIT:   MUD SAMPLE SOURCE
 RMS .OHMM            6.8:   RESISTIVITY MUD SAMPLE
 MST .F                54:   MUD SAMPLE TEMPERATURE
 RMF .OHMM            4.2:   RESISTIVITY MUD FILTRATE SAMPLE
 MFST.F                69:   MUD FILTRATE SAMPLE TEMPERATURE
 RMC .OHMM            5.1:   RESISTIVITY MUD CAKE
 MCST.F                69:   MUD CAKE SAMPLE TEMPERATURE
 MFSS.              PRESS:   MUD FILTRATE SAMPLE SOURCE
 MCSS.              PRESS:   MUD CAKE SAMPLE SOURCE
 RMB .OHMM            5.2:   RESISTIVITY MUD AT BHT
 BHT .F                70:   BOTTOM HOLE TEMPERATURE
 TCS .HRS              .5:   TIME CURCULATED STOPPED
 MRT .F                70:   MAXIMUM RECORDED TEMPERATURE
 LUN .             L-4474:   LOGGING UNIT NUMBER
 LUL .             CASPER:   LOGGING UNIT LOCATION
 ENGI.      GRIGGS/NELSON:   RECORDING ENGINEER
 WITN.   JORGENSEN/HUDSON:   WITNESSED BY
 CLNT.            A2DTECH:   CLIENT CODE
 ORIG.       2", 5" PRINT:   ORIGIN OF DATA
 UWI .       490250634900:   UNIQUE WELL ID
 DICO. A2D Technologies, Inc.:   DIGITIZING COMPANY
~OTHER INFORMATION
~A   DEPT       SPR         ASN        ILD      CILD  
# ...
  362.0000   -10.9127     5.6154     5.4206   216.8255
  362.5000   -11.0980     5.5686     5.4165   216.8255
  363.0000   -11.2792     5.5700     5.4124   216.8255
  363.5000   -11.3222     5.5959     5.4084   216.8255
  364.0000   -11.0528     5.6787     5.4042   216.8255
  364.5000   -10.7875     5.7605     5.4001   216.8255
  365.0000   -10.5184     5.8423     5.3965   216.8255
  365.5000   -10.7070     5.9242     5.4211   214.3525
  366.0000   -10.9540     6.0067     5.4952   211.5311
  366.5000   -11.2016     6.0907     5.5685   208.7098
  367.0000   -11.4457     6.0951     5.6420   205.8884
  367.5000   -11.5186     6.0960     5.7154   203.0670
  368.0000   -11.3520     6.1664     5.7888   200.2457
  368.5000   -11.1882     6.2434     5.8623   198.2344
  369.0000   -11.0226     6.3202     5.9358   197.1864
  369.5000   -10.8635     6.3967     6.0089   196.1385
  370.0000   -10.8807     6.4735     6.0826   195.0906
  370.5000   -10.9064     6.5423     6.1104   194.0426
  371.0000   -10.9313     6.6054     6.0958   192.9947
  371.5000   -10.9559     6.6679     6.0805   191.9467
  372.0000   -10.9805     6.7299     6.0652   191.4681
  372.5000   -11.0050     6.7933     6.0499   192.2030
  373.0000   -11.0319     6.7455     6.0346   193.5410
  373.5000   -11.0437     6.6182     6.0193   194.8765
  374.0000   -11.1919     6.4899     6.0040   196.2102
  374.5000   -10.6183     6.3603     5.9887   197.5440
  375.0000   -10.1127     6.3090     5.9734   198.7042
  375.5000   -10.1962     6.3023     5.9581   198.6308
  376.0000   -10.3081     6.2950     5.9427   198.5612
  376.5000   -10.4190     6.3437     5.9336   198.4884
  377.0000   -10.5308     6.4098     5.9071   198.4165
  377.5000   -10.6377     6.8059     5.8808   198.3446
  378.0000   -10.9348     7.3566     5.8546   198.2727
  378.5000   -11.3005     7.4575     5.8284   198.2008
  379.0000   -11.6901     7.2625     5.8022   198.1288
  379.5000   -11.4730     7.1273     5.7759   198.0569
  380.0000   -11.0695     6.9911     5.7497   197.9850
  380.5000   -10.6614     6.7846     5.7235   197.9131
  381.0000   -10.2533     6.2945     5.6972   197.8412
  381.5000    -9.8305     6.2238     5.6702   197.7693
  382.0000    -9.9656     6.2489     5.6763   197.6973
  382.5000   -10.0238     6.2757     5.6898   197.6254
  383.0000   -10.0854     6.2799     5.7035   197.5535
  383.5000   -10.0735     6.2317     5.7171   197.4816
  384.0000    -9.9003     6.1842     5.7307   197.4097
  384.5000    -9.7299     6.1352     5.7443   197.3378
  385.0000    -9.5593     6.2020     5.7579   197.2658
  385.5000    -9.3885     6.2846     5.7715   197.1939
  386.0000    -9.2161     6.3674     5.7851   197.1220
  386.5000    -9.0420     6.4501     5.7987   197.0501
  387.0000    -9.1181     6.5336     5.8123   196.9782
  387.5000    -9.2149     6.6157     5.8260   196.9018
  388.0000    -9.3107     6.5493     5.8399   199.0049
  388.5000    -9.4060     6.4115     5.8454   201.2463
  389.0000    -9.5014     6.2676     5.7715   203.4877
  389.5000    -9.5968     6.1238     5.6926   205.7291
  390.0000    -9.6921     5.9800     5.6138   207.9706
  390.5000    -9.7875     5.8358     5.5351   210.2120
  391.0000    -9.8829     5.6986     5.4563   212.4534
  391.5000    -9.9782     5.6674     5.3773   214.6948
  392.0000   -10.0736     5.6423     5.3042   216.8255
  392.5000   -10.1689     5.6533     5.3025   217.0066
  393.0000   -10.2645     5.6737     5.3029   217.1690
  393.5000   -10.3594     5.6943     5.3030   217.3340
  394.0000   -10.4573     5.7148     5.3029   217.5007
  394.5000   -10.3567     5.7257     5.3029   217.6674
  395.0000   -10.1372     5.6617     5.3028   217.8341
  395.5000    -9.9152     5.6066     5.3084   218.0008
  396.0000    -9.6936     5.6031     5.3502   218.1675
  396.5000    -9.4672     5.4764     5.3921   218.3342
  397.0000    -9.5164     5.4768     5.4339   218.4985
  397.5000    -9.6874     5.5852     5.4757   218.2162
  398.0000    -9.8619     5.7374     5.5174   215.8379
  398.5000   -10.0363     5.8916     5.5592   213.4756
  399.0000   -10.2105     6.0459     5.6010   211.1138
  399.5000   -10.3847     6.2043     5.6428   208.7519
  400.0000   -10.5590     6.2807     5.6847   206.3900
  400.5000   -10.7326     6.3377     5.7261   204.0281
  401.0000   -10.8709     6.3520     5.7469   202.4851
  401.5000   -10.9140     6.3568     5.7036   203.0126
  402.0000   -10.9577     6.3615     5.6624   203.5402
  402.5000   -11.0014     6.3678     5.6213   204.0677
  403.0000   -11.0452     6.3003     5.5803   204.8552
  403.5000   -11.0889     6.2221     5.5392   206.8216
  404.0000   -11.1331     6.1437     5.4981   208.7931
  404.5000   -11.1789     6.0655     5.4570   210.7639
  405.0000   -11.2152     5.9872     5.4160   212.7335
  405.5000   -10.8722     5.9089     5.3938   214.7030
  406.0000   -10.4952     5.8310     5.4135   216.6726
  406.5000   -10.1463     5.7525     5.4556   218.6368
  407.0000   -10.4033     5.7395     5.4975   216.4930
  407.5000   -10.6861     5.7862     5.5395   214.3549
  408.0000   -10.9632     5.8333     5.5815   212.2169
  408.5000   -11.2418     5.8806     5.6235   210.0789
  409.0000   -11.2535     5.9569     5.6656   207.9409
  409.5000   -11.0115     6.0303     5.7076   205.8029
  410.0000   -10.7608     6.1637     5.7496   203.6649
  410.5000   -10.6943     6.3287     5.7915   201.5269
  411.0000   -10.8177     6.4950     5.8341   199.3888
  411.5000   -10.9423     6.6673     5.8521   198.3974
  412.0000   -11.0666     6.7822     5.8838   197.9357
  412.5000   -11.1913     6.8888     5.9144   197.4727
  413.0000   -11.3142     6.8540     5.9265   197.0046
  413.5000   -11.3679     6.7977     5.8716   196.9124
  414.0000   -11.1907     6.6481     5.8187   197.6351
  414.5000   -11.0213     6.4751     5.7658   200.1740
  415.0000   -10.8519     6.3016     5.7130   202.7129
  415.5000   -10.6822     6.1281     5.6603   205.2518
  416.0000   -10.5141     5.9547     5.6074   207.7907
  416.5000   -10.5342     5.7827     5.5466   210.3307
  417.0000   -10.6469     5.6834     5.4717   212.8715
  417.5000   -10.7587     5.7005     5.3975   215.4074
  418.0000   -10.8704     5.7157     5.4381   216.5539
  418.5000   -10.9821     5.7342     5.4874   215.9384
  419.0000   -11.0937     5.8298     5.5362   215.3229
  419.5000   -11.2053     5.9309     5.5848   213.7867
  420.0000   -11.3170     6.0318     5.6335   211.3247
  420.5000   -11.4289     6.1323     5.6821   208.8628
  421.0000   -11.5434     6.2336     5.7308   206.4008
  421.5000   -11.5709     6.2845     5.7794   203.9388
  422.0000   -11.2409     6.3009     5.8285   201.4769
  422.5000   -10.9158     6.3167     5.8425   200.0998
  423.0000   -10.5929     6.3407     5.8363   199.4074
  423.5000   -10.2705     6.4144     5.8296   198.7144
  424.0000    -9.9481     6.4885     5.8230   198.0225
  424.5000    -9.6253     6.5624     5.8164   197.3301
  425.0000    -9.2907     6.6363     5.8098   196.6377
  425.5000    -9.2157     6.7104     5.8032   195.9453
  426.0000    -9.2143     6.7860     5.7966   195.2528
  426.5000    -9.2152     6.7859     5.7900   195.6874
  427.0000    -9.2153     6.7194     5.7834   196.4615
  427.5000    -9.2153     6.6604     5.7768   197.2402
  428.0000    -9.2154     6.7522     5.7702   198.0182
  428.5000    -9.2160     6.6363     5.7635   198.7957
  429.0000    -9.1908     6.4838     5.7565   199.5731
  429.5000    -9.1622     6.3306     5.7724   200.3506
  430.0000    -9.1334     6.2127     5.7909   201.1281
  430.5000    -9.1045     6.1491     5.8094   201.9055
  431.0000    -9.0760     6.1220     5.8279   201.8502
  431.5000    -9.0508     6.1431     5.8464   200.7690
  432.0000    -9.2129     6.1623     5.8649   199.6791
  432.5000    -9.5862     6.1957     5.8834   198.5917
  433.0000    -9.9576     6.5276     5.9019   197.5056
  433.5000   -10.3289     6.8693     5.9204   196.4194
  434.0000   -10.7054     7.2110     5.9373   195.3333
  434.5000   -10.6711     7.5514     5.9376   194.2515
