~VERSION INFORMATION
 VERS.                2.0:   CWLS LOG ASCII STANDARD - VERSION 2.0
 WRAP.                 NO:   ONE LINE PER DEPTH STEP
~WELL INFORMATION
#MNEM.UNIT      DATA TYPE    INFORMATION
#----------   ------------   ------------------------------
 STRT.F           88.0000:   START DEPTH
 STOP.F          893.0000:   STOP DEPTH
 STEP.F            0.5000:   STEP LENGTH
 NULL.          -999.2500:   NO VALUE
 COMP.          U.S. NAVY:   COMPANY
 WELL. RES 3 TEAPOT DOM #24S-35:   WELL
 FLD .        TEAPOT DOME:   FIELD
 LOC .      S35 T39N R78W:   LOCATION
 CNTY.            NATRONA:   COUNTY
 STAT.            WYOMING:   STATE
 CTRY. UNITED STATES OF AMERICA:   COUNTRY
 SRVC.       Schlumberger:   SERVICE COMPANY
 DATE.        26-JUL-1963:   LOGDATE
 API .       490250654800:   API NUMBER
~CURVE INFORMATION
#MNEM.UNIT       API CODE    CURVE DESCRIPTION
#----------   ------------   ------------------------------
 DEPT.F                  :   
 CALS.IN     60 280 50 00:   CALIPER FROM SONIC LOG
 DT  .US/F   60 520 00 00:   INTERVAL TRANSIT TIME
 GR  .GAPI   30 310 01 00:   GAMMA RAY
 ASN .OHMM   05 041 16 00:   AMPLIFIED SHORT NORMAL 16"
 CILD.MMHO   05 110 46 00:   CONDUCTIVITY INDUCTION LOG DEEP
 ILD .OHMM   05 120 46 00:   INDUCTION LOG DEEP
 SPR .MV     05 010 01 00:   SPONTANEOUS POTENTIAL FROM RES.
~PARAMETER INFORMATION
#MNEM.UNIT          VALUE    DESCRIPTION
#----------   ------------   ------------------------------
 PD  .                 GL:   PERMANENT DATUM
 EPD .F              5116:   ELEVATION PERMANENT DATUM
 LMF .                 KB:   LOG MEASURED FROM
 DAPD.F                 5:   FEET ABOVE PERMANENT DATUM
 DMF .                 KB:   DRILLING MEASURED FROM
 EKB .F              5121:   KELLING BUSHING
 EGL .F              5116:   GROUND LEVEL
 DATE.        26-JUL-1963:   RUN DATE
 RUN .                  1:   RUN NUMBER
 DD  .F               900:   DEPTH DRILLER
 DL  .F               894:   DEPTH LOGGER
 BLI .F               893:   BOTTOM LOG INTERVAL
 TLI .F                88:   TOP LOG INTERVAL
 CBD .F                10:   CASING BOTTOM DRILLER
 BS  .IN             6.75:   BIT SIZE
 BSD .F               900:   BIT SIZE AT DEPTH
 DFT .            GEL-OIL:   DRILLING FLUID TYPE
 DFD .                9.5:   DRILLING FLUID DENSITY
 DFV .                 92:   DRILLING FLUID VISCOSITY
 DFPH.                9.5:   DRILLING FLUID PH
 DFL .                5.8:   DRILLING FLUID LOSS
 MSS .           FLOWLINE:   MUD SAMPLE SOURCE
 RMS .OHMM           4.05:   RESISTIVITY MUD SAMPLE
 MST .F                75:   MUD SAMPLE TEMPERATURE
 RMF .OHMM           3.91:   RESISTIVITY MUD FILTRATE SAMPLE
 MFST.F                75:   MUD FILTRATE SAMPLE TEMPERATURE
 RMC .OHMM           3.54:   RESISTIVITY MUD CAKE
 MCST.F                75:   MUD CAKE SAMPLE TEMPERATURE
 MFSS.               MEAS:   MUD FILTRATE SAMPLE SOURCE
 MCSS.               MEAS:   MUD CAKE SAMPLE SOURCE
 TCS .HRS             0.5:   TIME CURCULATED STOPPED
 LUN .               4507:   LOGGING UNIT NUMBER
 LUL .               CSPR:   LOGGING UNIT LOCATION
 ENGI.             KNOBEL:   RECORDING ENGINEER
 WITN.          JORGENSON:   WITNESSED BY
 CLNT.            A2DTECH:   CLIENT CODE
 ORIG.           5" PRINT:   ORIGIN OF DATA
 UWI .       490250654800:   UNIQUE WELL ID
 DICO. A2D Technologies, Inc.:   DIGITIZING COMPANY
~OTHER INFORMATION
~A   DEPT     CALS         DT         GR          ASN      CILD         ILD      SPR   
# ...
  588.5000     6.7529   100.9781  -999.2500     9.3343   128.3988     8.1516   -15.2935
  589.0000     6.7380   101.0521  -999.2500     9.3797   128.3762     8.2236   -15.4545
  589.5000     6.7383   100.9207  -999.2500     9.4554   127.6238     8.2205   -15.7662
  590.0000     6.7386    97.5771  -999.2500     9.5159   128.3771     8.2169   -15.9296
  590.5000     6.7389    97.0477  -999.2500     9.5008   128.3680     8.1385   -16.0905
  591.0000     6.7392   100.1402  -999.2500     9.3604   128.3607     8.0601   -16.1006
  591.5000     6.7243   101.2708  -999.2500     9.1528   128.3535     8.0572   -16.1107
  592.0000     6.7398   101.9485  -999.2500     9.0166   129.1049     8.0543   -16.1208
  592.5000     6.6793   102.1738  -999.2500     8.9410   130.6151     7.8197   -15.9800
  593.0000     6.5577   102.0210  -999.2500     8.9259   133.6409     7.5191   -15.8393
  593.5000     6.5602   101.9441  -999.2500     8.8956   135.9099     7.2896   -15.8107
  594.0000     6.6195   102.0181  -999.2500     8.7595   138.9375     7.1357   -15.5578
  594.5000     6.6806   101.6287  -999.2500     8.5930   141.9651     6.9817   -15.5704
  595.0000     6.6961   101.4868  -999.2500     8.3661   143.4753     6.9788   -15.4296
  595.5000     6.5748   102.0133  -999.2500     8.3056   144.9855     6.9758   -15.4422
  596.0000     6.3167   102.1631  -999.2500     8.4115   144.9764     6.9723   -15.2989
  596.5000     6.2866   101.5575  -999.2500     8.4894   144.9692     7.0449   -15.1582
  597.0000     6.4237   100.8768  -999.2500     8.5779   144.9619     7.1176   -15.0196
  597.5000     6.5608   100.1961  -999.2500     8.5930   143.4370     7.1147   -15.0302
  598.0000     6.5611    99.2889  -999.2500     8.6384   143.3232     7.1118   -15.0426
  598.5000     6.5614    98.3818  -999.2500     8.6989   141.3505     7.1844   -14.8994
  599.0000     6.5617    98.0030  -999.2500     8.7443   139.6200     7.2570   -15.0628
  599.5000     6.6077    97.9950  -999.2500     8.7944   137.3365     7.2534   -15.0729
  600.0000     6.6535    97.8495  -999.2500     8.8654   136.5706     7.4023   -15.2347
  600.5000     6.6385    98.2232  -999.2500     8.8956   135.8046     7.6230   -15.3970
  601.0000     6.6541    98.2958  -999.2500     8.8651   134.3410     7.7709   -15.5596
  601.5000     6.7000    98.2928  -999.2500     8.9557   134.3625     7.7655   -15.5896
  602.0000     6.7313    98.2868  -999.2500     9.0463   133.6253     7.6857   -15.7357
  602.5000     6.7614    98.2012  -999.2500     9.1067   133.6523     7.6700   -15.6553
  603.0000     6.7618    98.0568  -999.2500     9.1368   134.4325     7.5250   -15.6077
  603.5000     6.7469    97.8274  -999.2500     9.1669   134.4540     7.5207   -15.4683
  604.0000     6.7328    98.0509  -999.2500     9.1516   133.7168     7.4409   -15.3289
  604.5000     6.7018    98.4253  -999.2500     9.1060   133.7437     7.3610   -15.1895
  605.0000     6.6869    98.7997  -999.2500     9.0293   134.5240     7.2802   -15.0529
  605.5000     6.6720    99.4005  -999.2500     8.9242   136.0629     7.2004   -15.0671
  606.0000     6.6876    99.8504  -999.2500     8.8181   137.6733     7.1961   -14.9249
  606.5000     6.6879   100.1493  -999.2500     8.7575   139.9050     7.1918   -14.7883
  607.0000     6.7033   100.3728  -999.2500     8.7120   142.2027     7.1109   -14.6489
  607.5000     6.7047   100.5309  -999.2500     8.6815   143.7417     7.1073   -14.8115
  608.0000     6.7191   100.8317  -999.2500     8.6511   143.7735     7.1024   -14.9744
  608.5000     6.7042   101.3444  -999.2500     8.6103   145.3076     7.1736   -14.9864
  609.0000     6.6893   101.7188  -999.2500     8.5752   142.2942     7.2662   -15.1499
  609.5000     6.7049   101.7920  -999.2500     8.5599   139.2808     7.3906   -15.3122
  610.0000     6.7204   101.7129  -999.2500     8.5597   137.7845     7.4618   -15.4772
  610.5000     6.7359   101.4835  -999.2500     8.6050   137.0477     7.6097   -15.4886
  611.0000     6.7568   101.4051  -999.2500     8.6805   135.5571     7.6798   -15.5000
  611.5000     6.7669   101.1002  -999.2500     8.8215   133.3025     7.8255   -15.3605
  612.0000     6.7672   100.7954  -999.2500     9.0130   131.0478     7.9723   -15.3749
  612.5000     6.7675   100.4906  -999.2500     9.1944   128.7932     8.1477   -15.5371
  613.0000     6.7208   100.1786  -999.2500     9.3607   127.2972     8.3152   -15.6993
  613.5000     6.4946    99.8802  -999.2500     9.5295   125.0480     8.5626   -15.7108
  614.0000     6.3885    99.4998  -999.2500     9.7688   122.7879     8.7104   -15.7385
  614.5000     6.3431    99.1195  -999.2500     9.8897   120.5359     8.8561   -15.8873
  615.0000     6.4347    98.8902  -999.2500     9.9568   118.2840     8.9275   -15.8987
  615.5000     6.5262    98.5853  -999.2500     9.9729   116.0348     8.9986   -15.9101
  616.0000     6.4809    98.2050  -999.2500     9.9890   113.7801     9.0699   -15.9216
  616.5000     6.5268    97.7493  -999.2500    10.0050   113.0429     9.0645   -16.0866
  617.0000     6.6182    97.2180  -999.2500    10.0211   111.1103     9.2113   -16.0980
  617.5000     6.6641    96.6867  -999.2500    10.0372   109.2923     9.3581   -16.4111
  618.0000     6.6948    95.9291  -999.2500    10.0551   107.7964     9.4282   -16.5733
  618.5000     6.7103    96.2280  -999.2500    10.1306   106.3058     9.5005   -17.0401
  619.0000     6.6954    95.9979  -999.2500    10.2061   105.5134     9.5718   -17.2023
  619.5000     6.6350    95.6931  -999.2500    10.4328   104.0727     9.5664   -17.2137
  620.0000     6.5896    95.4637  -999.2500    10.5840   101.8234     9.6377   -17.0739
  620.5000     6.5595    95.3098  -999.2500    10.7351   101.8450     9.6323   -16.9349
  621.0000     6.6359    95.1559  -999.2500    10.8106   101.1077     9.6450   -16.7954
  621.5000     6.6818    95.2284  -999.2500    10.8104   100.3706     9.6994   -16.8097
  622.0000     6.7125    95.3764  -999.2500    10.8859   101.1562     9.6949   -16.8211
  622.5000     6.7128    95.5245  -999.2500    10.8101   101.9365     9.7652   -16.8326
  623.0000     6.6979    95.5970  -999.2500    10.7343   103.4754     9.7613   -16.8468
  623.5000     6.6526    95.6695  -999.2500    10.7342   104.2564     9.7568   -16.8582
  624.0000     6.6073    94.9540  -999.2500    10.7340   104.2826     9.7523   -16.8696
  624.5000     6.5924    94.3798  -999.2500    10.6582   105.0628     9.7470   -16.8102
  625.0000     6.6383    94.3014  -999.2500    10.5068   106.6018     9.6671   -16.7416
  625.5000     6.6994    94.2230  -999.2500    10.4310   107.7858     9.5873   -16.7559
  626.0000     6.7301    93.9181  -999.2500    10.4308   109.6851     9.4320   -17.0689
  626.5000     6.7152    93.4624  -999.2500    10.3551   110.4654     9.2756   -17.3820
  627.0000     6.7003    94.1386  -999.2500    10.3549   110.4869     9.1202   -17.5445
  627.5000     6.7006    95.2678  -999.2500    10.2791   110.5084     9.0404   -17.5585
  628.0000     6.7161    95.5667  -999.2500    10.2789   111.2941     9.0361   -17.5699
  628.5000     6.7316    95.5638  -999.2500    10.2788   111.3126     9.0317   -17.5813
  629.0000     6.7319    95.5608  -999.2500    10.2030   111.3371     9.0265   -17.5928
  629.5000     6.7322    95.5577  -999.2500    10.2785   112.1174     9.0222   -17.4533
  630.0000     6.7174    95.5542  -999.2500    10.2783   112.8983     8.9424   -17.3139
  630.5000     6.7177    95.6274  -999.2500    10.2782   113.6832     8.9381   -17.1773
  631.0000     6.7027    95.7754  -999.2500    10.2781   114.4635     8.8572   -17.0377
  631.5000     6.7183    95.8479  -999.2500    10.2023   114.4850     8.7774   -17.0522
  632.0000     6.7034    95.9205  -999.2500    10.1910   115.3059     8.7731   -17.0636
  632.5000     6.6125    95.9168  -999.2500    10.0507   116.0509     8.6934   -17.0750
  633.0000     6.5520    96.0648  -999.2500     9.8992   116.8311     8.6124   -17.0864
  633.5000     6.5371    96.7411  -999.2500     9.8991   117.6114     8.6088   -17.0980
