~VERSION INFORMATION
 VERS.                2.0:   CWLS LOG ASCII STANDARD - VERSION 2.0
 WRAP.                 NO:   ONE LINE PER DEPTH STEP
~WELL INFORMATION
#MNEM.UNIT      DATA TYPE    INFORMATION
#----------   ------------   ------------------------------
 STRT.F            7.5000:   START DEPTH
 STOP.F         2886.0000:   STOP DEPTH
 STEP.F            0.5000:   STEP LENGTH
 NULL.          -999.2500:   NO VALUE
 COMP. LAWRENCE/ALLISON INC:   COMPANY
 WELL.     16-1 AX #21-21:   WELL
 FLD .             TEAPOT:   FIELD
 LOC .      S21 T39N R78W:   LOCATION
 CNTY.            NATRONA:   COUNTY
 STAT.            WYOMING:   STATE
 CTRY. UNITED STATES OF AMERICA:   COUNTRY
 SRVC.      Dresser Atlas:   SERVICE COMPANY
 DATE.        05-DEC-1986:   LOGDATE
 API .       490251111900:   API NUMBER
~CURVE INFORMATION
#MNEM.UNIT       API CODE    CURVE DESCRIPTION
#----------   ------------   ------------------------------
 DEPT.F                  :   
 GRR .GAPI   07 310 01 00:   GAMMA RAY FROM RES. LOG.
 SPR .MV     07 010 01 00:   SPONTANEOUS POTENTIAL
 RFOC.OHMM   07 220 04 00:   RESISTIVITY FOCUSED LOG
 RILM.OHMM   07 120 44 00:   INDUCTION LOG MEDIUM RESISTIVITY
 RILD.OHMM   07 120 46 00:   INDUCTION LOG DEEP RESISTIVITY
 CALD.IN     45 280 60 00:   CALIPER
 DEN .G/C3   45 350 01 00:   BULK DENSITY
 CORR.G/C3   45 356 01 00:   DENSITY CORRECTION
 CNC .DEC    42 890 03 00:   NEUTRON POROSITY SANDSTONE
 PORD.DEC    45 890 12 00:   DENSITY POROSITY SANDSTONE
~PARAMETER INFORMATION
#MNEM.UNIT          VALUE    DESCRIPTION
#----------   ------------   ------------------------------
 PD  .                 GL:   PERMANENT DATUM
 EPD .F              4992:   ELEVATION PERMANENT DATUM
 LMF .                 KB:   LOG MEASURED FROM
 DAPD.F                12:   FEET ABOVE PERMANENT DATUM
 DMF .                 KB:   DRILLING MEASURED FROM
 EKB .F              5004:   KELLING BUSHING
 EGL .F              4992:   GROUND LEVEL
 DATE.            12-5-86:   RUN DATE
 RUN .                  1:   RUN NUMBER
 DD  .F              2905:   DEPTH DRILLER
 DL  .F              2890:   DEPTH LOGGER
 BLI .F              2884:   BOTTOM LOG INTERVAL
 TLI .F              2200:   TOP LOG INTERVAL
 CS  .IN            8.625:   CASING SIZE
 CBD .F               300:   CASING BOTTOM DRILLER
 CBL .F               300:   CASING BOTTOM LOGGER
 BS  .IN            7.875:   BIT SIZE
 BSD .F              2905:   BIT SIZE AT DEPTH
 DFT .        KCL POLYMER:   DRILLING FLUID TYPE
 DFD .                  9:   DRILLING FLUID DENSITY
 DFV .                 36:   DRILLING FLUID VISCOSITY
 DFPH.                9.5:   DRILLING FLUID PH
 DFL .               11.8:   DRILLING FLUID LOSS
 MSS .            MUDTANK:   MUD SAMPLE SOURCE
 RMS .OHMM            .43:   RESISTIVITY MUD SAMPLE
 MST .F                63:   MUD SAMPLE TEMPERATURE
 RMF .OHMM           .348:   RESISTIVITY MUD FILTRATE SAMPLE
 MFST.F                63:   MUD FILTRATE SAMPLE TEMPERATURE
 RMC .OHMM           .538:   RESISTIVITY MUD CAKE
 MCST.F                63:   MUD CAKE SAMPLE TEMPERATURE
 MFSS.               MEAS:   MUD FILTRATE SAMPLE SOURCE
 MCSS.               CALC:   MUD CAKE SAMPLE SOURCE
 RMB .OHMM           .233:   RESISTIVITY MUD AT BHT
 BHT .F               116:   BOTTOM HOLE TEMPERATURE
 TCS .HRS             3.5:   TIME CURCULATED STOPPED
 MRT .F               116:   MAXIMUM RECORDED TEMPERATURE
 LUN .            HL-6274:   LOGGING UNIT NUMBER
 LUL .           GILLETTE:   LOGGING UNIT LOCATION
 ENGI.             RAUTIO:   RECORDING ENGINEER
 WITN.             STRONG:   WITNESSED BY
 CLNT.            A2DTECH:   CLIENT CODE
 ORIG.       2", 5" PRINT:   ORIGIN OF DATA
 UWI .       490251111900:   UNIQUE WELL ID
 DICO. A2D Technologies, Inc.:   DIGITIZING COMPANY
~OTHER INFORMATION
~A    DEPT     GRR        SPR       RFOC       RILM       RILD       CALD        DEN       CORR        CNC       PORD   
# ...
 1850.0000   103.4788   -65.2463    12.1061     9.1617     8.6510  -999.2500  -999.2500  -999.2500  -999.2500  -999.2500
 1850.5000   101.9387   -64.9550    11.9725     9.3622     8.9346  -999.2500  -999.2500  -999.2500  -999.2500  -999.2500
 1851.0000    98.2211   -64.6621    11.7373     9.5073     9.2473  -999.2500  -999.2500  -999.2500  -999.2500  -999.2500
 1851.5000    98.2212   -64.3677    11.2933     9.3359     9.1125  -999.2500  -999.2500  -999.2500  -999.2500  -999.2500
 1852.0000   101.1116   -64.4502    10.9356     9.2062     8.9702  -999.2500  -999.2500  -999.2500  -999.2500  -999.2500
 1852.5000   104.3077   -64.5788    11.1363     9.0770     8.8274  -999.2500  -999.2500  -999.2500  -999.2500  -999.2500
 1853.0000   107.5069   -64.7068    10.7536     9.0668     8.8174  -999.2500  -999.2500  -999.2500  -999.2500  -999.2500
 1853.5000   110.4708   -64.8342    10.3659     9.0563     8.8073  -999.2500  -999.2500  -999.2500  -999.2500  -999.2500
 1854.0000   107.3705   -64.9614    10.1480     9.0459     8.7972  -999.2500  -999.2500  -999.2500  -999.2500  -999.2500
 1854.5000   102.1542   -65.0881    10.2321     9.0355     8.7870  -999.2500  -999.2500  -999.2500  -999.2500  -999.2500
 1855.0000    98.3721   -65.1615    10.6249     9.0251     8.7769  -999.2500  -999.2500  -999.2500  -999.2500  -999.2500
 1855.5000    99.7981   -65.1618    11.0950     9.0146     8.7668  -999.2500  -999.2500  -999.2500  -999.2500  -999.2500
 1856.0000   100.9400   -65.1521    11.3993     9.0040     8.7566  -999.2500  -999.2500  -999.2500  -999.2500  -999.2500
 1856.5000   100.1238   -64.9793    11.4441     8.9925     8.7456  -999.2500  -999.2500  -999.2500  -999.2500  -999.2500
 1857.0000    97.0588   -65.0153    11.1514     8.8513     8.6598  -999.2500  -999.2500  -999.2500  -999.2500  -999.2500
 1857.5000    93.1855   -65.0790    10.5598     8.6979     8.5659  -999.2500  -999.2500  -999.2500  -999.2500  -999.2500
 1858.0000    89.6108   -65.1434     9.8642     8.5469     8.4310  -999.2500  -999.2500  -999.2500  -999.2500  -999.2500
 1858.5000    90.0468   -65.2666     9.8891     8.3986     8.2209  -999.2500  -999.2500  -999.2500  -999.2500  -999.2500
 1859.0000    92.2910   -65.4119     9.9251     8.2534     8.0165  -999.2500  -999.2500  -999.2500  -999.2500  -999.2500
 1859.5000    94.5813   -65.5572     9.9611     8.1406     7.8644  -999.2500  -999.2500  -999.2500  -999.2500  -999.2500
 1860.0000    98.5065   -65.7033     9.6512     8.0510     7.7861  -999.2500  -999.2500  -999.2500  -999.2500  -999.2500
 1860.5000   102.6260   -65.8000     9.2473     7.9621     7.7085  -999.2500  -999.2500  -999.2500  -999.2500  -999.2500
 1861.0000   103.6810   -65.8643     9.2874     7.8741     7.6317  -999.2500  -999.2500  -999.2500  -999.2500  -999.2500
 1861.5000   100.7867   -65.9258     9.3503     7.7871     7.5556  -999.2500  -999.2500  -999.2500  -999.2500  -999.2500
 1862.0000   102.2917   -65.8680     9.4208     7.7011     7.4798  -999.2500  -999.2500  -999.2500  -999.2500  -999.2500
 1862.5000   104.1958   -65.6376     9.3163     7.6077     7.3976  -999.2500  -999.2500  -999.2500  -999.2500  -999.2500
 1863.0000   103.6387   -65.5633     9.1997     7.6070     7.3989  -999.2500  -999.2500  -999.2500  -999.2500  -999.2500
 1863.5000    99.1415   -65.5619     9.0770     7.6075     7.3982  -999.2500  -999.2500  -999.2500  -999.2500  -999.2500
 1864.0000    94.6629   -65.5621     9.2473     7.6698     7.4134  -999.2500  -999.2500  -999.2500  -999.2500  -999.2500
 1864.5000    90.0426   -65.5622     9.1872     7.7373     7.4573  -999.2500  -999.2500  -999.2500  -999.2500  -999.2500
 1865.0000    88.9996   -65.5625     9.0758     7.8052     7.5015  -999.2500  -999.2500  -999.2500  -999.2500  -999.2500
 1865.5000    93.5591   -65.5621     9.0741     7.8736     7.5563  -999.2500  -999.2500  -999.2500  -999.2500  -999.2500
 1866.0000    99.1526   -65.5648     9.3370     7.9434     7.6553  -999.2500  -999.2500  -999.2500  -999.2500  -999.2500
 1866.5000   104.1705   -65.1876     9.7890     8.0692     7.7557  -999.2500  -999.2500  -999.2500  -999.2500  -999.2500
 1867.0000   104.6069   -65.5770    10.0323     8.2350     7.8573  -999.2500  -999.2500  -999.2500  -999.2500  -999.2500
 1867.5000   101.1842   -65.8645    10.1485     8.4037     7.9604  -999.2500  -999.2500  -999.2500  -999.2500  -999.2500
 1868.0000    97.5810   -66.0482     9.9822     8.4377     8.0651  -999.2500  -999.2500  -999.2500  -999.2500  -999.2500
 1868.5000    98.0903   -66.2286     9.8521     8.4505     8.1191  -999.2500  -999.2500  -999.2500  -999.2500  -999.2500
 1869.0000    99.3271   -66.3614     9.6877     8.4634     8.0956  -999.2500  -999.2500  -999.2500  -999.2500  -999.2500
 1869.5000    97.6927   -66.1569     9.8031     8.4763     8.0795  -999.2500  -999.2500  -999.2500  -999.2500  -999.2500
 1870.0000    95.6679   -65.9512     9.9674     8.4893     8.0636  -999.2500  -999.2500  -999.2500  -999.2500  -999.2500
 1870.5000    97.4858   -65.7652    10.1366     8.5048     8.0440  -999.2500  -999.2500  -999.2500  -999.2500  -999.2500
 1871.0000    97.6079   -65.7621    10.2427     8.4647     8.0577  -999.2500  -999.2500  -999.2500  -999.2500  -999.2500
 1871.5000    96.8479   -65.7643    10.1254     8.4116     8.0759  -999.2500  -999.2500  -999.2500  -999.2500  -999.2500
 1872.0000    95.9686   -65.6812    10.0404     8.3588     8.0940  -999.2500  -999.2500  -999.2500  -999.2500  -999.2500
 1872.5000    94.2878   -65.5667     9.9559     8.3487     8.1186  -999.2500  -999.2500  -999.2500  -999.2500  -999.2500
 1873.0000    92.5450   -65.6075     9.8720     8.3485     8.1043  -999.2500  -999.2500  -999.2500  -999.2500  -999.2500
 1873.5000    93.2934   -65.9494     9.7763     8.3490     8.0801  -999.2500  -999.2500  -999.2500  -999.2500  -999.2500
 1874.0000    97.9782   -66.2900     9.8793     8.3477     8.0557  -999.2500  -999.2500  -999.2500  -999.2500  -999.2500
 1874.5000   102.2227   -66.5740     9.9611     8.4615     8.0428  -999.2500  -999.2500  -999.2500  -999.2500  -999.2500
 1875.0000   102.6513   -66.5320     9.9611     8.5687     8.1981  -999.2500  -999.2500  -999.2500  -999.2500  -999.2500
 1875.5000   100.3411   -66.3232     9.9611     8.6908     8.4414  -999.2500  -999.2500  -999.2500  -999.2500  -999.2500
 1876.0000    97.2711   -66.0597    10.1684     8.9218     8.6722  -999.2500  -999.2500  -999.2500  -999.2500  -999.2500
 1876.5000    93.4344   -65.5393    10.5765     9.1037     8.8274  -999.2500  -999.2500  -999.2500  -999.2500  -999.2500
 1877.0000    92.8807   -65.0241    10.9348     9.1822     8.8274  -999.2500  -999.2500  -999.2500  -999.2500  -999.2500
 1877.5000    91.9738   -65.1294    10.9341     9.2817     8.9708  -999.2500  -999.2500  -999.2500  -999.2500  -999.2500
 1878.0000    89.3197   -65.2905    10.9293     9.4786     9.1617  -999.2500  -999.2500  -999.2500  -999.2500  -999.2500
 1878.5000    88.4185   -65.4428    11.1815     9.5976     9.2473  -999.2500  -999.2500  -999.2500  -999.2500  -999.2500
 1879.0000    88.2147   -65.5938    11.2606     9.4886     9.1947  -999.2500  -999.2500  -999.2500  -999.2500  -999.2500
 1879.5000    86.9086   -65.7444    11.3091     9.3853     9.1272  -999.2500  -999.2500  -999.2500  -999.2500  -999.2500
 1880.0000    86.0035   -65.8954    11.3453     9.2473     8.9930  -999.2500  -999.2500  -999.2500  -999.2500  -999.2500
 1880.5000    89.3545   -66.0492    10.8423     8.9069     8.7098  -999.2500  -999.2500  -999.2500  -999.2500  -999.2500
 1881.0000    92.0642   -66.2091    10.4578     8.5971     8.4506  -999.2500  -999.2500  -999.2500  -999.2500  -999.2500
 1881.5000    91.0272   -66.3538    10.0573     8.2714     8.1989  -999.2500  -999.2500  -999.2500  -999.2500  -999.2500
 1882.0000    86.4949   -66.0907     9.7130     8.1151     7.9558  -999.2500  -999.2500  -999.2500  -999.2500  -999.2500
 1882.5000    82.7843   -65.7103     9.3545     7.9513     7.7229  -999.2500  -999.2500  -999.2500  -999.2500  -999.2500
 1883.0000    85.9903   -65.5648     9.0074     7.8199     7.5384  -999.2500  -999.2500  -999.2500  -999.2500  -999.2500
