~VERSION INFORMATION
 VERS.                2.0:   CWLS LOG ASCII STANDARD - VERSION 2.0
 WRAP.                 NO:   ONE LINE PER DEPTH STEP
~WELL INFORMATION
#MNEM.UNIT      DATA TYPE    INFORMATION
#----------   ------------   ------------------------------
 STRT.F            1.0000:   START DEPTH
 STOP.F          478.0000:   STOP DEPTH
 STEP.F            0.1000:   STEP LENGTH
 NULL.          -999.2500:   NO VALUE
 COMP. LAWRENCE/ALLISON INC:   COMPANY
 WELL.     58-61 SX #58-3:   WELL
 FLD .             TEAPOT:   FIELD
 LOC .       S3 T38N R78W:   LOCATION
 CNTY.            NATRONA:   COUNTY
 STAT.            WYOMING:   STATE
 CTRY. UNITED STATES OF AMERICA:   COUNTRY
 SRVC.           Gearhart:   SERVICE COMPANY
 DATE.        08-JUL-1988:   LOGDATE
 API .       490251123400:   API NUMBER
~CURVE INFORMATION
#MNEM.UNIT       API CODE    CURVE DESCRIPTION
#----------   ------------   ------------------------------
 DEPT.F                  :   
 GRR .GAPI   07 310 01 00:   GAMMA RAY
 RILD.OHMM   07 120 46 00:   INDUCTION LOG DEEP RESISTIVITY
 RILM.OHMM   07 120 44 00:   INDUCTION LOG MEDIUM RESISTIVITY
~PARAMETER INFORMATION
#MNEM.UNIT          VALUE    DESCRIPTION
#----------   ------------   ------------------------------
 PD  .                 GL:   PERMANENT DATUM
 EPD .F              5184:   ELEVATION PERMANENT DATUM
 LMF .                 KB:   LOG MEASURED FROM
 DAPD.F                 5:   FEET ABOVE PERMANENT DATUM
 DMF .                 KB:   DRILLING MEASURED FROM
 EKB .F              5189:   KELLING BUSHING
 EGL .F              5184:   GROUND LEVEL
 DATE.        08-JUL-1988:   RUN DATE
 RUN .                  1:   RUN NUMBER
 DD  .F               485:   DEPTH DRILLER
 DL  .F               486:   DEPTH LOGGER
 BLI .F               478:   BOTTOM LOG INTERVAL
 CS  .IN            9.625:   CASING SIZE
 CBD .F                45:   CASING BOTTOM DRILLER
 CBL .F                44:   CASING BOTTOM LOGGER
 BS  .IN             8.75:   BIT SIZE
 BSD .F               485:   BIT SIZE AT DEPTH
 DFT .                AIR:   DRILLING FLUID TYPE
 TCS .HRS            2200:   TIME CURCULATED STOPPED
 TLAB.HRS            2315:   TIME LOGGER AT BOTTOM
 LUN .               7597:   LOGGING UNIT NUMBER
 LUL .           GILLETTE:   LOGGING UNIT LOCATION
 ENGI.           JOHNSTON:   RECORDING ENGINEER
 WITN.              FIVAS:   WITNESSED BY
 CLNT.            A2DTECH:   CLIENT CODE
 ORIG.           5" PRINT:   ORIGIN OF DATA
 UWI .       490251123400:   UNIQUE WELL ID
 DICO. A2D Technologies, Inc.:   DIGITIZING COMPANY
~OTHER INFORMATION
~A    DEPT     GRR       RILD       RILM   
# ...
  255.8000   149.4228     8.9358     8.9986
  255.9000   149.4246     8.9357     9.0286
  256.0000   148.9409     8.9355     9.0615
  256.1000   148.6351     8.9867     9.0614
  256.2000   148.2607     8.9981     9.0612
  256.3000   147.8416     9.0264     9.1083
  256.4000   147.5641     9.0780     9.1603
  256.5000   146.7044     9.1298     9.1886
  256.6000   146.0868     9.1884     9.2007
  256.7000   145.3480     9.2346     9.2532
  256.8000   144.4231     9.2874     9.3061
  256.9000   143.2638     9.3176     9.3593
  257.0000   142.4645     9.3175     9.4429
  257.1000   141.7865     9.3173     9.5330
  257.2000   141.2176     9.2652     9.5932
  257.3000   140.7257     9.1728     9.7166
  257.4000   140.2339     9.0684     9.8148
  257.5000   139.7420     8.9652     9.9274
  257.6000   138.7563     8.8589    10.0413
  257.7000   138.1513     8.6868    10.1683
  257.8000   138.0601     8.5604    10.3476
  257.9000   138.3087     8.4450    10.4638
  258.0000   138.5372     8.3489    10.5384
  258.1000   138.5393     8.2538    10.5351
  258.2000   138.7513     8.1559    10.4750
  258.3000   138.9999     8.0670    10.4063
  258.4000   139.2486     7.9753    10.2029
  258.5000   139.4568     7.8845    10.1045
  258.6000   139.4587     7.7947     9.9544
  258.7000   139.2298     7.7033     9.7632
  258.8000   138.9848     7.5510     9.5422
  258.9000   138.6224     7.4437     9.3150
  259.0000   138.1305     7.3171     8.9226
  259.1000   137.6427     7.2242     8.5940
  259.2000   137.3977     7.1762     8.3044
  259.3000   137.1526     7.0895     8.0241
  259.4000   136.9076     7.0139     7.7547
  259.5000   136.7435     6.9623     7.4976
  259.6000   136.7211     6.9226     7.3589
  259.7000   136.4439     6.8830     7.1212
  259.8000   136.2311     6.8437     6.8003
  259.9000   136.1438     6.7974     6.4412
  260.0000   136.6515     6.7973     6.2062
  260.1000   137.9765     6.7743     5.9837
  260.2000   139.7913     6.7497     5.7944
  260.3000   141.2014     6.7441     5.6165
  260.4000   142.8621     6.7024     5.4341
  260.5000   144.3488     6.7024     5.2816
  260.6000   145.7142     6.6758     5.1919
  260.7000   147.5091     6.6554     5.1498
  260.8000   151.9421     6.6460     5.1370
  260.9000   154.5211     6.6088     5.1469
  261.0000   156.7404     6.6087     5.1797
  261.1000   158.3083     6.6388     5.2457
  261.2000   160.0667     6.6550     5.2993
  261.3000   162.2697     6.6549     5.3807
  261.4000   163.3637     6.6548     5.4735
  261.5000   164.2761     6.6547     5.5679
  261.6000   164.7029     6.6889     5.6652
  261.7000   164.6076     6.7012     5.7619
  261.8000   164.0996     6.7184     5.8615
  261.9000   163.3852     6.7481     5.9812
  262.0000   162.6464     6.7480     6.1082
  262.1000   161.6567     6.7866     6.2166
  262.2000   160.2868     6.8254     6.3804
  262.3000   158.4525     6.8645     6.5073
  262.4000   153.7921     6.9167     6.6334
  262.5000   152.5797     6.9879     6.5681
  262.6000   150.3722     6.9877     6.7746
  262.7000   147.4809     7.0582     6.8965
  262.8000   144.4032     7.1393     7.0108
  262.9000   141.9650     7.2572     7.1622
  263.0000   139.0730     7.4247     7.3277
  263.1000   136.6956     7.5994     7.4968
  263.2000   134.9414     7.8158     7.6672
  263.3000   133.5674     8.0427     7.8223
  263.4000   132.5657     8.2758     7.9727
  263.5000   131.5964     8.5001     8.2435
  263.6000   131.5415     8.6919     8.5035
  263.7000   131.9197     8.8637     8.6503
  263.8000   132.4881     9.0845     8.8104
  263.9000   133.2142     9.2797     9.1453
  264.0000   133.7909     9.4400     9.4032
  264.1000   134.2052     9.6029     9.6472
  264.2000   134.5509     9.7754     9.9115
  264.3000   134.7065     9.9378    10.1383
  264.4000   134.7084    10.0246    10.3488
  264.5000   134.7103    10.0820    10.4923
  264.6000   134.4854    10.1396    10.6383
  264.7000   134.4103    10.1940    10.7823
  264.8000   134.4121    10.1938    10.9684
  264.9000   134.3573    10.1937    11.1771
  265.0000   134.1123    10.1935    11.2927
  265.1000   133.8673    10.2161    11.3785
  265.2000   133.6223    10.2649    11.4733
  265.3000   133.5108    10.2647    11.5755
  265.4000   133.5126    10.2646    11.5756
  265.5000   133.5549    10.3065    11.5758
  265.6000   134.1235    10.3364    11.4748
  265.7000   134.5459    10.3678    11.3447
  265.8000   135.1953    10.4892    11.2364
  265.9000   136.0348    10.7040    11.1666
  266.0000   136.9428    11.0099    11.0236
  266.1000   137.4708    11.3159    10.9692
  266.2000   137.9338    11.5526    10.9069
  266.3000   138.4293    11.7422    10.8450
  266.4000   139.1596    11.8880    10.7834
  266.5000   140.0273    12.0135    10.7202
  266.6000   140.5147    12.1515    10.6614
  266.7000   140.2657    12.2911    10.6458
  266.8000   139.8264    12.4321    10.6459
  266.9000   139.3346    12.5746    10.6638
  267.0000   138.8427    12.7192    10.7209
  267.1000   138.3509    12.8654    10.7211
  267.2000   137.7945    13.0994    10.7728
  267.3000   137.3671    13.4019    10.8729
  267.4000   136.7174    13.7110    10.9732
  267.5000   135.8776    14.0601    11.0570
  267.6000   134.8475    14.3527    11.2598
  267.7000   133.5546    14.6847    11.3813
  267.8000   132.8522    15.0240    11.6549
  267.9000   132.1136    15.3707    11.9924
  268.0000   130.8893    15.7251    12.3582
  268.1000   128.9687    16.0895    12.7899
  268.2000   126.4942    16.4618    13.4121
  268.3000   123.2471    16.8352    13.6639
  268.4000   121.8606    17.2075    14.0751
  268.5000   119.4262    17.5798    14.5650
  268.6000   116.7208    17.9521    15.0592
  268.7000   114.4168    18.3245    15.5349
  268.8000   111.1164    18.6968    16.1129
  268.9000   106.9663    19.0691    16.7045
  269.0000   102.9254    19.4414    17.1944
  269.1000    99.4352    19.7571    17.5672
  269.2000    96.2768    19.9838    17.8703
  269.3000    93.2195    20.2272    18.1797
  269.4000    91.3110    20.8920    19.2659
  269.5000    89.8847    21.6218    20.2967
  269.6000    88.9033    22.3118    21.0410
  269.7000    88.0271    22.9217    21.6488
  269.8000    86.7580    23.4445    22.3517
  269.9000    84.4295    23.9247    23.0392
  270.0000    82.2054    24.3772    23.6628
  270.1000    78.9094    24.8556    24.2093
  270.2000    74.6743    25.3390    24.7385
  270.3000    70.0751    25.9019    25.1752
  270.4000    69.2639    26.3858    25.4583
  270.5000    69.0430    26.8054    25.9747
  270.6000    68.7980    27.2689    26.4941
  270.7000    68.6622    27.7400    26.9048
  270.8000    68.7166    28.1789    27.2255
  270.9000    68.9694    28.5021    27.7671
  271.0000    69.4567    28.8297    28.0386
  271.1000    70.1385    29.0282    28.3609
  271.2000    71.0104    29.2902    28.8195
  271.3000    72.0723    29.5673    29.4249
  271.4000    73.3080    29.7362    29.7805
  271.5000    74.7469    29.9236    30.1053
  271.6000    76.6058    29.9232    30.4515
  271.7000    78.5297    29.9228    30.8015
  271.8000    80.0732    29.9224    31.1067
  271.9000    81.3820    29.9605    31.2932
  272.0000    83.2536    30.1317    31.7179
  272.1000    84.1618    30.1313    31.8672
  272.2000    85.1508    30.2649    32.1597
  272.3000    85.9133    30.3421    32.4602
  272.4000    86.4654    30.3984    32.6733
  272.5000    87.2079    30.5544    33.0794
  272.6000    87.9502    30.5538    33.2538
  272.7000    88.1220    30.7073    33.4446
  272.8000    88.1238    30.7676    33.6365
  272.9000    88.0487    30.8428    33.8294
  273.0000    87.7835    31.0191    34.0233
  273.1000    87.2191    31.2000    34.2186
  273.2000    87.0103    31.3749    34.4150
  273.3000    86.6115    31.4182    34.6125
  273.4000    86.2167    31.5134    34.7434
  273.5000    85.9312    31.6936    34.7666
  273.6000    85.4071    31.8747    34.9882
  273.7000    84.9474    32.0830    35.1668
  273.8000    84.4556    32.2404    35.3686
  273.9000    83.9637    32.4247    35.4825
