~VERSION INFORMATION
 VERS.                2.0:   CWLS LOG ASCII STANDARD - VERSION 2.0
 WRAP.                 NO:   ONE LINE PER DEPTH STEP
~WELL INFORMATION
#MNEM.UNIT      DATA TYPE    INFORMATION
#----------   ------------   ------------------------------
 STRT.F           35.0000:   START DEPTH
 STOP.F          484.0000:   STOP DEPTH
 STEP.F            0.5000:   STEP LENGTH
 NULL.          -999.2500:   NO VALUE
 COMP. LAWRENCE/ALLISON INC:   COMPANY
 WELL.     73-1 STX #1-10:   WELL
 FLD .              NPR-3:   FIELD
 LOC .      S10 T38N R78W:   LOCATION
 CNTY.            NATRONA:   COUNTY
 STAT.            WYOMING:   STATE
 CTRY. UNITED STATES OF AMERICA:   COUNTRY
 SRVC.              Welex:   SERVICE COMPANY
 DATE.        04-APR-1977:   LOGDATE
 API .       490251032400:   API NUMBER
~CURVE INFORMATION
#MNEM.UNIT       API CODE    CURVE DESCRIPTION
#----------   ------------   ------------------------------
 DEPT.F                  :   
 CALD.IN     45 280 60 00:   CALIPER
 GRD .GAPI   45 310 01 00:   GAMMA RAY FROM DENSITY LOG
 RHOB.G/C3   45 350 01 00:   BULK DENSITY
 DPHI.DEC    45 890 12 00:   DENSITY POROSITY SANDSTONE
 CORR.G/C3   45 356 01 00:   DENSITY CORRECTION
 SPR .MV     07 010 01 00:   SPONTANEOUS POTENTIAL
 SGRD.OHMM   07 220 05 00:   SHALLOW RESISTIVITY
 ILD .OHMM   07 120 46 00:   INDUCTION LOG DEEP
 ILM .OHMM   07 120 44 00:   INDUCTION LOG MEDIUM
~PARAMETER INFORMATION
#MNEM.UNIT          VALUE    DESCRIPTION
#----------   ------------   ------------------------------
 PD  .                 GL:   PERMANENT DATUM
 EPD .F              5170:   ELEVATION PERMANENT DATUM
 LMF .                 GL:   LOG MEASURED FROM
 DMF .                 GL:   DRILLING MEASURED FROM
 EGL .F              5170:   GROUND LEVEL
 DATE.             4-4-77:   RUN DATE
 RUN .                  1:   RUN NUMBER
 DD  .F               490:   DEPTH DRILLER
 DL  .F               487:   DEPTH LOGGER
 BLI .F               485:   BOTTOM LOG INTERVAL
 TLI .F                35:   TOP LOG INTERVAL
 CS  .IN            8.625:   CASING SIZE
 CBD .F                42:   CASING BOTTOM DRILLER
 CBL .F                42:   CASING BOTTOM LOGGER
 BS  .IN            7.875:   BIT SIZE
 BSD .F               490:   BIT SIZE AT DEPTH
 DFT .            KCL MUD:   DRILLING FLUID TYPE
 DFD .                8.4:   DRILLING FLUID DENSITY
 DFV .                 32:   DRILLING FLUID VISCOSITY
 DFPH.                8.5:   DRILLING FLUID PH
 DFL .                 17:   DRILLING FLUID LOSS
 RMS .OHMM            .48:   RESISTIVITY MUD SAMPLE
 MST .F                48:   MUD SAMPLE TEMPERATURE
 RMF .OHMM            .44:   RESISTIVITY MUD FILTRATE SAMPLE
 MFST.F                48:   MUD FILTRATE SAMPLE TEMPERATURE
 RMC .OHMM            .62:   RESISTIVITY MUD CAKE
 MCST.F                48:   MUD CAKE SAMPLE TEMPERATURE
 MFSS.          FANN TEST:   MUD FILTRATE SAMPLE SOURCE
 MCSS.          FANN TEST:   MUD CAKE SAMPLE SOURCE
 BHT .F                58:   BOTTOM HOLE TEMPERATURE
 TCS .HRS               2:   TIME CURCULATED STOPPED
 MRT .F                58:   MAXIMUM RECORDED TEMPERATURE
 LUN .               8611:   LOGGING UNIT NUMBER
 LUL .           GILLETTE:   LOGGING UNIT LOCATION
 ENGI.               DOAK:   RECORDING ENGINEER
 WITN.      B. HARRINGTON:   WITNESSED BY
 CLNT.            A2DTECH:   CLIENT CODE
 ORIG.        2" 5" PRINT:   ORIGIN OF DATA
 UWI .       490251032400:   UNIQUE WELL ID
 DICO. A2D Technologies, Inc.:   DIGITIZING COMPANY
~OTHER INFORMATION
~A   DEPT     CALD        GRD       RHOB       DPHI       CORR        SPR       SGRD        ILD        ILM   
# ...
  217.5000     8.0206   123.7194     2.4224     0.1280    -0.0109   -53.3900    10.1621     6.2164     7.5593
  218.0000     8.0241   122.5375     2.4288     0.1238    -0.0120   -53.3317    10.5660     6.3780     7.7525
  218.5000     8.0276   121.3553     2.4447     0.1196    -0.0149   -53.2736    11.4097     6.5437     7.8432
  219.0000     8.0310   120.1629     2.4299     0.1285    -0.0193   -53.2164    11.3460     6.5861     7.9312
  219.5000     8.0345   118.7911     2.4144     0.1379    -0.0236   -53.1594    11.2714     6.6122     8.0201
  220.0000     8.0378   116.7691     2.3982     0.1439    -0.0252   -53.1023    11.1972     6.6385     8.1100
  220.5000     8.0393   114.8021     2.4095     0.1344    -0.0205   -53.0456    11.0990     6.6648     8.2009
  221.0000     8.0408   113.5687     2.4247     0.1271    -0.0160   -52.9924    11.5152     6.6913     8.2683
  221.5000     8.0422   114.9829     2.4400     0.1199    -0.0116   -52.9458    11.4103     6.7178     8.2909
  222.0000     8.0437   117.8861     2.4551     0.1127    -0.0071   -52.9015    11.1892     6.7531     8.3123
  222.5000     8.0452   121.5795     2.4652     0.1073    -0.0027   -52.8575    10.9738     6.7420     8.3444
  223.0000     8.0466   125.3352     2.4339     0.1267    -0.0050   -52.8135    10.6992     6.7256     8.3135
  223.5000     8.0481   125.9950     2.3970     0.1499    -0.0135   -52.7695    10.7235     6.7093     8.2499
  224.0000     8.0496   124.9124     2.4046     0.1458    -0.0223   -52.7254    10.7648     6.6930     8.1867
  224.5000     8.0510   123.8125     2.4182     0.1399    -0.0196   -52.6814    10.8047     6.6777     8.1240
  225.0000     8.0525   122.6888     2.4321     0.1340    -0.0128   -52.6374    10.8447     6.6322     8.0617
  225.5000     8.0540   121.1511     2.4451     0.1264    -0.0060   -52.5933    10.8848     6.5870     8.0278
  226.0000     8.0554   119.5908     2.4330     0.1341    -0.0027   -52.5492    10.9251     6.5420     8.0061
  226.5000     8.0569   117.9852     2.4214     0.1361    -0.0072   -52.5050    10.9655     6.4974     7.9843
  227.0000     8.0584   118.5573     2.4229     0.1338    -0.0058   -52.4616    11.0061     6.4494     7.9627
  227.5000     8.0598   119.7270     2.4253     0.1329    -0.0006   -52.4181    11.0469     6.4267     7.9411
  228.0000     8.0613   123.0599     2.4587     0.1245     0.0047   -52.4868    11.0990     6.4020     7.9195
  228.5000     8.0627   126.5597     2.4511     0.1188     0.0071   -52.6677    10.9514     6.3355     7.8965
  229.0000     8.0642   128.7737     2.4180     0.1353     0.0054   -52.8486    10.7509     6.1705     7.5558
  229.5000     8.0657   130.0243     2.3843     0.1482     0.0039   -53.0303    10.5029     6.0097     7.2052
  230.0000     8.0671   130.2043     2.3893     0.1545     0.0021   -53.2121    10.6630     5.8532     6.8709
  230.5000     8.0686   129.9197     2.3964     0.1500     0.0035   -53.3966    10.8967     5.7007     6.5521
  231.0000     8.0701   128.5343     2.3963     0.1500     0.0049   -53.5832     9.2478     5.5522     6.2481
  231.5000     8.0715   125.5222     2.4025     0.1469     0.0063   -53.3318     6.9633     5.4076     5.9582
  232.0000     8.0730   122.8427     2.4099     0.1347     0.0072   -53.0355     4.8938     5.2672     5.6699
  232.5000     8.0744   122.1259     2.4078     0.1296     0.0012   -52.7401     9.8478     5.1248     5.9609
  233.0000     8.0759   122.1012     2.4008     0.1433    -0.0042   -52.2402     9.2335     5.1116     6.2813
  233.5000     8.0781   123.1565     2.3990     0.1489     0.0005   -51.5354     9.4780     5.0977     6.6299
  234.0000     8.0450   124.3374     2.4021     0.1444     0.0044   -50.8305    10.1579     5.0843     6.4144
  234.5000     7.9988   125.5055     2.3999     0.1471     0.0078   -50.1243     9.9840     5.0709     6.1991
  235.0000     7.9522   126.6684     2.3918     0.1559     0.0113   -49.4182     9.0386     5.0575     5.9910
  235.5000     7.9057   126.2555     2.3850     0.1518     0.0147   -48.7116     6.8797     5.0444     5.7899
  236.0000     7.8591   124.0940     2.4039     0.1418     0.0182   -48.0048     5.2193     5.0310     5.6699
  236.5000     7.8123   122.1455     2.4237     0.1318     0.0216   -47.3026     9.9639     5.1334     5.9641
  237.0000     7.7659   120.8444     2.4344     0.1235     0.0251   -46.7925    10.0963     5.2391     6.3904
  237.5000     7.8157   119.5340     2.4393     0.1212     0.0285   -46.8091    10.1297     5.3470     6.2164
  238.0000     7.8814   118.2215     2.4402     0.1189     0.0320   -47.1916    10.1404     5.4573     6.3454
  238.5000     7.9474   116.8925     2.4455     0.1166     0.0355   -47.6223    10.1510     5.5699     6.6778
  239.0000     8.0145   117.1690     2.4536     0.1143     0.0412   -47.9874    10.1617     5.6847     7.0275
  239.5000     8.0062   118.5085     2.4611     0.1120     0.0471   -47.6620    10.1724     5.8019     7.3960
  240.0000     7.9573   117.2325     2.4635     0.1096     0.0494   -47.3405    10.1831     5.9917     7.5428
  240.5000     7.9080   115.6035     2.4662     0.1073     0.0490   -47.0304    10.1938     5.9028     7.4526
  241.0000     7.8580   114.4785     2.4689     0.1050     0.0460   -46.9185    10.2044     5.6974     7.2462
  241.5000     7.8531   115.6115     2.4725     0.1027     0.0430   -47.3737    10.2170     5.4993     7.0461
  242.0000     7.8757   116.3018     2.4751     0.1047     0.0400   -47.8058    10.0686     5.3080     6.8530
  242.5000     7.8986   115.0819     2.4592     0.1142     0.0357   -48.2297     9.8387     5.1236     6.6644
  243.0000     7.8775   114.3360     2.4436     0.1236     0.0250   -48.9299     9.2734     4.9456     6.1366
  243.5000     7.8506   115.9245     2.4300     0.1336     0.0143   -49.6009     7.8114     4.8116     5.5932
  244.0000     7.8576   116.9648     2.4350     0.1236     0.0067   -50.2661     4.6309     4.7219     5.2193
  244.5000     7.8885   115.2330     2.4505     0.1104     0.0016   -50.9315     6.3097     4.7584     5.5450
  245.0000     7.9197   113.1231     2.4581     0.1036    -0.0010   -51.6209     9.8478     4.8045     5.8199
  245.5000     7.9517   111.1355     2.4494     0.1145    -0.0037   -51.7887     8.7517     4.9538     6.1085
  246.0000     7.9981   110.5326     2.4436     0.1209    -0.0064   -51.1789     7.5492     5.1624     6.3904
  246.5000     8.0149   109.8273     2.4529     0.1159    -0.0049   -50.4856     9.2937     5.4566     6.9951
  247.0000     8.0105   110.8115     2.4623     0.1108    -0.0026   -49.7935    10.3257     5.7676     7.3915
  247.5000     8.0054   112.3054     2.4701     0.1068    -0.0004   -49.1023    10.6337     6.0963     7.8043
  248.0000     8.0004   113.8585     2.4682     0.1073     0.0019   -48.3905    10.9313     6.4437     7.6913
  248.5000     7.9954   113.5823     2.4660     0.1078     0.0041   -48.1612    11.2154     6.6907     7.5432
  249.0000     7.9905   113.3263     2.4704     0.1056     0.0064   -48.0875    11.5070     6.8174     7.3979
  249.5000     7.9855   113.0729     2.4801     0.1010     0.0066   -48.0185    11.8325     6.9466     7.2689
  250.0000     7.9805   112.9651     2.4773     0.1015     0.0050   -47.7022    11.8030     7.0781     7.5486
  250.5000     7.9593   113.6083     2.4727     0.1044     0.0033   -47.1066    11.7645     7.2122     7.8133
  251.0000     7.9220   114.2551     2.4687     0.1076     0.0017   -46.5132    11.7290     7.3361     8.0872
  251.5000     7.8848   114.7165     2.4623     0.1094     0.0001   -46.2116    11.7864     7.3199     8.1729
  252.0000     7.8473   114.4205     2.4562     0.1120    -0.0062   -46.4276    11.8392     7.3018     8.2356
  252.5000     7.8082   111.9622     2.4532     0.1148    -0.0142   -46.8701    11.8923     7.2838     8.2987
  253.0000     7.8369   109.4723     2.4483     0.1199    -0.0222   -47.5781    11.9456     7.2657     8.3635
  253.5000     7.8974   107.0033     2.4369     0.1270    -0.0305   -48.4089    11.9992     7.2478     8.4236
