~VERSION INFORMATION
 VERS.                2.0:   CWLS LOG ASCII STANDARD - VERSION 2.0
 WRAP.                 NO:   ONE LINE PER DEPTH STEP
~WELL INFORMATION
#MNEM.UNIT      DATA TYPE    INFORMATION
#----------   ------------   ------------------------------
 STRT.F           32.0000:   START DEPTH
 STOP.F          551.0000:   STOP DEPTH
 STEP.F            0.5000:   STEP LENGTH
 NULL.          -999.2500:   NO VALUE
 COMP.    FENIX & SCISSON:   COMPANY
 WELL.   NPR ##3 84-SX-10:   WELL
 FLD .              NPR 3:   FIELD
 LOC .      S10 T38N R78W:   LOCATION
 CNTY.            NATRONA:   COUNTY
 STAT.            WYOMING:   STATE
 CTRY. UNITED STATES OF AMERICA:   COUNTRY
 SRVC.              Welex:   SERVICE COMPANY
 DATE.        25-JAN-1978:   LOGDATE
 API .       490251033700:   API NUMBER
~CURVE INFORMATION
#MNEM.UNIT       API CODE    CURVE DESCRIPTION
#----------   ------------   ------------------------------
 DEPT.F                  :   
 SPR .MV     07 010 01 00:   SPONTANEOUS POTENTIAL FROM RES.
 ILD .OHMM   07 120 46 00:   INDUCTION LOG DEEP
 ILM .OHMM   07 120 44 00:   INDUCTION LOG MEDIUM
 SGRD.OHMM   07 220 05 00:   SHALLOW GUARD RESISTIVITY
 CALD.IN     45 280 60 00:   CALIPER FROM DENSITY LOG
 GRD .GAPI   45 310 01 00:   GAMMA RAY FROM DENSITY LOG
 CORR.G/C3   45 356 01 00:   DENSITY CORRECTION
 RHOB.G/C3   45 350 01 00:   BULK DENSITY
 DPHI.DEC    45 890 12 00:   DENSITY POROSITY SANDSTONE
~PARAMETER INFORMATION
#MNEM.UNIT          VALUE    DESCRIPTION
#----------   ------------   ------------------------------
 CLNT.            A2DTECH:   CLIENT CODE
 ORIG.           5" PRINT:   ORIGIN OF DATA
 UWI .       490251033700:   UNIQUE WELL ID
 DICO. A2D Technologies, Inc.:   DIGITIZING COMPANY
~OTHER INFORMATION
~A   DEPT      SPR        ILD        ILM       SGRD         CALD      GRD       CORR       RHOB       DPHI   
# ...
  105.0000   -37.2523     7.8495     7.9976    13.3674     8.2477   128.9483     0.0417     2.4946     0.1026
  105.5000   -37.4239     7.8491     8.0512    13.1824     8.2472   127.8944     0.0447     2.5013     0.0985
  106.0000   -37.8561     7.8488     8.1052    13.3657     8.2467   126.6904     0.0492     2.5066     0.0906
  106.5000   -38.1579     7.8484     8.1596    13.4579     8.2614   125.3361     0.0537     2.5097     0.0876
  107.0000   -38.4596     7.7939     8.1571    13.5507     8.2609   124.2822     0.0566     2.5133     0.0858
  107.5000   -38.7614     7.7936     8.2119    13.1789     8.2605   123.6786     0.0536     2.5148     0.0849
  108.0000   -38.9130     7.7933     8.1532    12.6410     8.2599   123.9754     0.0476     2.5148     0.0846
  108.5000   -38.6141     7.7930     8.1512    12.7329     8.2595   124.4230     0.0385     2.5110     0.0871
  109.0000   -38.3153     7.7927     8.2060    12.9949     8.2591   125.9217     0.0340     2.5057     0.0921
  109.5000   -38.0164     7.7385     8.1469    13.3594     8.2586   126.6703     0.0280     2.4973     0.0982
  110.0000   -38.1684     7.6848     8.1450    13.5454     8.2582   124.1141     0.0249     2.4869     0.1051
  110.5000   -38.4702     7.7380     8.1430    13.3577     8.2578   127.4138     0.0219     2.4899     0.1063
  111.0000   -38.6218     7.6842     8.1411    13.1729     8.2572   127.8621     0.0204     2.4944     0.1027
  111.5000   -38.7734     7.6839     8.0829    13.0798     8.2720   125.9066     0.0218     2.4846     0.1003
  112.0000   -38.9250     7.6836     7.9694    12.9896     8.2714   125.1530     0.0293     2.4959     0.0994
  112.5000   -39.0766     7.6302     7.9675    12.9888     8.2559   124.8498     0.0278     2.5004     0.1015
  113.0000   -39.0781     7.6299     7.8560    13.0786     8.2555   124.8468     0.0217     2.4861     0.1060
  113.5000   -38.9297     7.5769     7.8541    13.1688     8.2551   124.9935     0.0202     2.4815     0.1063
  114.0000   -38.7806     7.5244     7.8523    13.0767     8.2545   126.4921     0.0187     2.4898     0.1036
  114.5000   -38.6319     7.5241     7.8504    12.7181     8.2541   128.5913     0.0186     2.4981     0.0970
  115.0000   -38.3331     7.5238     7.8480    12.3694     8.2537   127.8377     0.0276     2.5033     0.0910
  115.5000   -38.0342     7.4715     7.7920    12.4547     8.2532   126.4810     0.0336     2.5048     0.0916
  116.0000   -37.7358     7.4712     7.7364    13.0732     8.2528   126.7802     0.0351     2.5063     0.0913
  116.5000   -37.5771     7.4709     7.6812    13.4404     8.2524   129.9305     0.0305     2.5040     0.0922
  117.0000   -37.2882     7.4706     7.5214    12.9813     8.2518   132.4802     0.0275     2.4987     0.0985
  117.5000   -37.1395     7.4703     7.5196    12.5380     8.2514   134.4292     0.0245     2.4807     0.1043
  118.0000   -37.1413     7.4700     7.6227    12.3645     8.2510   135.3273     0.0199     2.4746     0.1097
  118.5000   -37.1428     7.4181     7.6738    12.3636     8.2505   135.7923     0.0184     2.4800     0.1076
  119.0000   -37.1442     7.4178     7.6715    12.4490     8.2501   135.9221     0.0199     2.4836     0.1085
  119.5000   -37.2958     7.3663     7.5642    12.7098     8.2646   135.4681     0.0228     2.4723     0.1121
  120.0000   -37.2973     7.3152     7.4584    12.7976     8.2491   131.2610     0.0273     2.4686     0.1115
  120.5000   -37.2988     7.3149     7.4036    12.4465     8.2487   134.1110     0.0333     2.4813     0.1073
  121.0000   -37.3006     7.3146     7.4029    12.4457     8.2483   133.3473     0.0393     2.4896     0.1024
  121.5000   -37.3020     7.3143     7.5048    12.4447     8.2478   132.1526     0.0438     2.4971     0.0977
  122.0000   -37.3035     7.2635     7.6605    12.4439     8.2474   131.8494     0.0497     2.5046     0.0941
  122.5000   -37.1544     7.2632     7.7119    12.3572     8.2469   131.9974     0.0557     2.5129     0.0914
  123.0000   -37.1562     7.2629     7.8172    12.4426     8.2464   132.1440     0.0602     2.5166     0.0872
  123.5000   -37.1577     7.2626     7.8153    12.4416     8.2310   131.9910     0.0511     2.5196     0.0848
  124.0000   -37.1592     7.2623     7.8677    12.7024     8.2306   130.5567     0.0571     2.5226     0.0833
  124.5000   -37.0104     7.2620     7.9205    12.8788     8.2151   128.3809     0.0631     2.5286     0.0797
  125.0000   -36.8617     7.3630     7.8092    12.8780     8.2147   127.0267     0.0661     2.5416     0.0806
  125.5000   -37.0137     7.4654     7.7000    12.9670     8.1991   125.6724     0.0705     2.5564     0.0788
  126.0000   -36.8646     7.5170     7.7521    13.0562     8.1837   126.5705     0.0705     2.5571     0.0770
  126.5000   -36.7159     7.6216     7.8578    13.1463     8.1832   128.2343     0.0675     2.5563     0.0797
  127.0000   -36.7178     7.7275     7.9189    13.3290     8.1978   129.4169     0.0509     2.5466     0.0797
  127.5000   -36.5691     7.8349     8.0742    13.7031     8.2424   130.6152     0.0404     2.5225     0.0811
  128.0000   -36.5706     7.8891     8.0723    12.8729     8.2872   131.5132     0.0359     2.5042     0.0918
  128.5000   -36.4218     7.8887     8.0703    13.0519     8.3016   132.1110     0.0388     2.5127     0.0897
  129.0000   -36.2731     7.8884     8.0684    13.3255     8.3012   132.5585     0.0433     2.5224     0.0815
  129.5000   -36.2749     7.8881     8.0665    13.4174     8.3008   133.0285     0.0433     2.5269     0.0785
  130.0000   -36.2764     7.8878     8.0088    13.5099     8.3003   134.8043     0.0417     2.5269     0.0797
  130.5000   -36.2779     7.8330     7.8964    13.2223     8.2999   136.7534     0.0402     2.5231     0.0816
  131.0000   -36.2793     7.7249     7.8400    13.0476     8.2994   139.0028     0.0387     2.5170     0.0837
  131.5000   -36.2808     7.6713     7.8381    12.9568     8.2989   140.2011     0.0387     2.5178     0.0846
  132.0000   -36.2826     7.5655     7.8907    13.0462     8.2985   140.3484     0.0371     2.5231     0.0813
  132.5000   -36.1339     7.4611     7.8888    12.9550     8.2981   138.5430     0.0386     2.5163     0.0834
  133.0000   -36.2855     7.4093     7.9418    12.8646     8.2976   137.6392     0.0386     2.5140     0.0858
  133.5000   -36.2869     7.3579     7.8846    12.6866     8.3121   138.9877     0.0400     2.5125     0.0861
  134.0000   -36.4385     7.3068     7.7743    12.5980     8.3117   139.5862     0.0415     2.5118     0.0858
  134.5000   -36.5901     7.2561     7.5079    12.6850     8.3113   138.2312     0.0430     2.5125     0.0867
  135.0000   -36.7417     7.2057     7.4029    12.5093     8.2958   138.9784     0.0451     2.5140     0.0864
  135.5000   -36.8934     7.1557     7.2489    12.3362     8.2954   140.1767     0.0474     2.5200     0.0834
  136.0000   -36.8952     7.1060     7.1972    12.0814     8.2948   141.5252     0.0489     2.5222     0.0807
  136.5000   -37.0468     7.0567     7.1454    11.9143     8.2944   141.9728     0.0489     2.5192     0.0837
  137.0000   -37.0482     7.0077     7.1437    11.8310     8.3090   141.8197     0.0458     2.5176     0.0868
  137.5000   -37.0497     6.9590     7.1920    11.7485     8.2935   140.5905     0.0428     2.5162     0.0865
  138.0000   -37.0511     6.9588     7.1899    11.7477     8.2931   139.5618     0.0398     2.5139     0.0862
  138.5000   -37.0526     7.0068     7.2382    11.7470     8.2927   140.9102     0.0382     2.5109     0.0874
  139.0000   -37.2042     7.0066     7.3373    11.9105     8.2922   141.2077     0.0367     2.5086     0.0901
  139.5000   -37.2060     7.0550     7.5411    12.1600     8.2917   140.1530     0.0367     2.5056     0.0907
  140.0000   -37.3576     7.1530     7.6445    13.0445     8.2913   138.1982     0.0366     2.5169     0.0872
  140.5000   -37.5092     7.2526     7.5899    12.7631     8.2908   136.8432     0.0366     2.5221     0.0829
  141.0000   -37.5107     7.4044     7.5881    12.5865     8.2904   135.3389     0.0381     2.5153     0.0847
