~VERSION INFORMATION
 VERS.                2.0:   CWLS LOG ASCII STANDARD - VERSION 2.0
 WRAP.                 NO:   ONE LINE PER DEPTH STEP
~WELL INFORMATION
#MNEM.UNIT      DATA TYPE    INFORMATION
#----------   ------------   ------------------------------
 STRT.F           14.0000:   START DEPTH
 STOP.F          608.0000:   STOP DEPTH
 STEP.F            0.1000:   STEP LENGTH
 NULL.          -999.2500:   NO VALUE
 COMP. FENIX & SCISSON INC:   COMPANY
 WELL. NAVAL PETROLEUM RESERVE 3 S-15 #72-15:   WELL
 FLD .             TEAPOT:   FIELD
 LOC .      S15 T38N R78W:   LOCATION
 CNTY.            NATRONA:   COUNTY
 STAT.            WYOMING:   STATE
 CTRY. UNITED STATES OF AMERICA:   COUNTRY
 SRVC.           BIRDWELL:   SERVICE COMPANY
 DATE.        21-JUL-1978:   LOGDATE
 API .       490251067300:   API NUMBER
~CURVE INFORMATION
#MNEM.UNIT       API CODE    CURVE DESCRIPTION
#----------   ------------   ------------------------------
 DEPT.F                  :   
 ILD .OHMM   05 120 46 00:   INDUCTION LOG DEEP
 SN  .OHMM   05 040 16 00:   SHORT NORMAL 16"
 SPR .MV     05 010 01 00:   SPONTANEOUS POTENTIAL FROM RES.
 CALD.IN     45 280 60 00:   CALIPER FROM DENSITY LOG
 DPHI.DEC    45 890 12 00:   DENSITY POROSITY SANDSTONE
 DRHO.G/C3   45 356 01 00:   DENSITY CORRECTION
 GRD .GAPI   45 310 01 00:   GAMMA RAY FROM DENSITY LOG
 RHOB.G/C3   45 350 01 00:   BULK DENSITY
~PARAMETER INFORMATION
#MNEM.UNIT          VALUE    DESCRIPTION
#----------   ------------   ------------------------------
 PD  .                 GL:   PERMANENT DATUM
 EPD .F              5238:   ELEVATION PERMANENT DATUM
 LMF .                 KB:   LOG MEASURED FROM
 DAPD.F                 4:   FEET ABOVE PERMANENT DATUM
 DMF .                 KB:   DRILLING MEASURED FROM
 EKB .F              5242:   KELLING BUSHING
 EGL .F              5238:   GROUND LEVEL
 DATE.        21-JUL-1978:   RUN DATE
 RUN .                  1:   RUN NUMBER
 DD  .F               597:   DEPTH DRILLER
 DL  .F               615:   DEPTH LOGGER
 BLI .F               608:   BOTTOM LOG INTERVAL
 TLI .F                35:   TOP LOG INTERVAL
 CS  .IN            8.625:   CASING SIZE
 CBD .F                40:   CASING BOTTOM DRILLER
 CBL .F                35:   CASING BOTTOM LOGGER
 BS  .IN            7.875:   BIT SIZE
 BSD .F               597:   BIT SIZE AT DEPTH
 DFT .                KCL:   DRILLING FLUID TYPE
 DFD .                8.6:   DRILLING FLUID DENSITY
 DFV .                 33:   DRILLING FLUID VISCOSITY
 DFPH.                9.0:   DRILLING FLUID PH
 MSS .            MUD PIT:   MUD SAMPLE SOURCE
 MFSS.               MEAS:   MUD FILTRATE SAMPLE SOURCE
 MCSS.               MEAS:   MUD CAKE SAMPLE SOURCE
 BHT .F                74:   BOTTOM HOLE TEMPERATURE
 TCS .HRS               2:   TIME CURCULATED STOPPED
 MRT .F                74:   MAXIMUM RECORDED TEMPERATURE
 LUN .               2958:   LOGGING UNIT NUMBER
 LUL .             CASPER:   LOGGING UNIT LOCATION
 ENGI.             MILLER:   RECORDING ENGINEER
 WITN.           MCGINLEY:   WITNESSED BY
 CLNT.            A2DTECH:   CLIENT CODE
 ORIG.           5" PRINT:   ORIGIN OF DATA
 UWI .       490251067300:   UNIQUE WELL ID
 DICO. A2D Technologies, Inc.:   DIGITIZING COMPANY
~OTHER INFORMATION
~A   DEPT      ILD         SN        SPR       CALD       DPHI       DRHO         GRD      RHOB   
# ...
  410.9000     8.4451     8.5403   -17.9391     7.7611     0.1128     0.0117    94.6277     2.5012
  411.0000     8.4445     8.5400   -17.9400     7.7610     0.1130     0.0113    93.4310     2.4996
  411.1000     8.4843     8.5396   -17.9940     7.7610     0.1131     0.0109    92.3797     2.4978
  411.2000     8.5021     8.5393   -18.0918     7.7610     0.1133     0.0105    91.5861     2.4960
  411.3000     8.5017     8.5389   -18.0927     7.7609     0.1137     0.0104    91.0058     2.4946
  411.4000     8.4861     8.5386   -18.2129     7.7609     0.1140     0.0104    90.5111     2.4935
  411.5000     8.3841     8.5382   -18.2444     7.7609     0.1142     0.0101    89.9502     2.4931
  411.6000     8.3837     8.5143   -18.3088     7.7608     0.1146     0.0089    89.5219     2.4924
  411.7000     8.3832     8.4428   -18.3961     7.7608     0.1151     0.0089    89.0273     2.4907
  411.8000     8.3605     8.3620   -18.3970     7.7608     0.1156     0.0090    88.5326     2.4901
  411.9000     8.3132     8.3209   -18.3981     7.7608     0.1161     0.0090    88.0885     2.4889
  412.0000     8.2654     8.2595   -18.3988     7.7607     0.1170     0.0090    87.8371     2.4877
  412.1000     8.1726     8.1899   -18.3997     7.7607     0.1180     0.0089    87.8368     2.4868
  412.2000     8.1526     8.1223   -18.4006     7.7607     0.1196     0.0075    87.7422     2.4858
  412.3000     8.0761     8.0639   -18.4015     7.7606     0.1219     0.0064    87.6854     2.4840
  412.4000     7.9698     8.0055   -18.4025     7.7606     0.1247     0.0060    87.7249     2.4826
  412.5000     7.9157     7.9512   -18.4033     7.7606     0.1266     0.0055    87.8356     2.4816
  412.6000     7.7662     7.9065   -18.4888     7.7605     0.1277     0.0043    87.8353     2.4796
  412.7000     7.6526     7.8549   -18.5550     7.7605     0.1289     0.0030    87.9439     2.4772
  412.8000     7.5243     7.8174   -18.5847     7.7605     0.1310     0.0030    88.0672     2.4747
  412.9000     7.3641     7.7601   -18.7067     7.7605     0.1352     0.0030    88.1905     2.4721
  413.0000     7.1592     7.6948   -18.7076     7.7604     0.1431     0.0030    88.3409     2.4698
  413.1000     6.9521     7.6321   -18.8036     7.7604     0.1465     0.0030    88.5879     2.4674
  413.2000     6.7674     7.5841   -18.8594     7.7604     0.1488     0.0031    88.7111     2.4649
  413.3000     6.5532     7.5360   -18.8603     7.7603     0.1505     0.0045    89.0268     2.4623
  413.4000     6.3708     7.4818   -18.8612     7.7603     0.1521     0.0075    89.2593     2.4593
  413.5000     6.2286     7.4450   -18.8621     7.7603     0.1544     0.0119    89.4660     2.4562
  413.6000     6.0895     7.4030   -18.8630     7.7602     0.1608     0.0180    89.8220     2.4527
  413.7000     5.9293     7.3443   -18.8640     7.7602     0.1692     0.0267    90.0944     2.4493
  413.8000     5.7951     7.2693   -18.8648     7.7602     0.1779     0.0376    90.4265     2.4459
  413.9000     5.6527     7.2263   -18.7938     7.7602     0.1854     0.0440    90.8805     2.4415
  414.0000     5.5599     7.1114   -18.7166     7.7601     0.1910     0.0522    91.3746     2.4361
  414.1000     5.5325     7.0206   -18.7175     7.7601     0.1923     0.0607    91.8686     2.4236
  414.2000     5.5322     6.9230   -18.7185     7.7601     0.1930     0.0695    92.3645     2.4067
  414.3000     5.5319     6.8069   -18.6091     7.7600     0.1932     0.0796    92.9820     2.3931
  414.4000     5.5527     6.6949   -18.5703     7.7600     0.1931     0.0855    93.5995     2.3863
  414.5000     5.5696     6.6572   -18.5167     7.7600     0.1928     0.0907    94.2880     2.3813
  414.6000     5.5762     6.6197   -18.4222     7.7599     0.1923     0.0956    95.0292     2.3771
  414.7000     5.6076     6.5823   -18.4231     7.7599     0.1914     0.1004    95.8032     2.3733
  414.8000     5.6073     6.5329   -18.4240     7.7599     0.1904     0.1053    96.8784     2.3654
  414.9000     5.6070     6.4634   -18.4249     7.7598     0.1892     0.1096    98.0052     2.3568
  415.0000     5.6067     6.4225   -18.4258     7.7598     0.1869     0.1146    99.2408     2.3551
  415.1000     5.6160     6.3908   -18.3896     7.7598     0.1827     0.1200   100.5346     2.3611
  415.2000     5.6449     6.3318   -18.2684     7.7598     0.1779     0.1235   102.0176     2.3674
  415.3000     5.6445     6.2754   -18.1288     7.7597     0.1600     0.1246   103.8374     2.3751
  415.4000     5.6443     6.2399   -18.0262     7.7597     0.1482     0.1171   104.7197     2.3840
  415.5000     5.6244     6.2031   -17.9051     7.7597     0.1399     0.1039   104.9196     2.3960
  415.6000     5.6048     6.2363   -17.7839     7.7596     0.1317     0.0827   105.0208     2.4158
  415.7000     5.6045     6.2968   -17.6628     7.7656     0.1239     0.0648   105.0660     2.4339
  415.8000     5.6042     6.3855   -17.5335     7.7907     0.1200     0.0551   105.1711     2.4462
  415.9000     5.6039     6.4936   -17.3067     7.8402     0.1171     0.0452   105.1707     2.4553
  416.0000     5.6036     6.6035   -17.2354     7.9094     0.1145     0.0344   105.0558     2.4639
  416.1000     5.6033     6.7377   -17.1782     8.1404     0.1120     0.0289   104.6698     2.4725
  416.2000     5.6108     6.7986   -17.0571     8.4296     0.1093     0.0259   103.7543     2.4840
  416.3000     5.6421     6.8974   -16.9359     8.5902     0.1066     0.0235   102.0661     2.4967
  416.4000     5.6736     7.0006   -16.8148     8.4392     0.1044     0.0211    99.5154     2.5061
  416.5000     5.6799     7.0837   -16.6936     8.3038     0.1011     0.0197    97.6274     2.5106
  416.6000     5.7340     7.2182   -16.6411     8.1639     0.0969     0.0187    96.7093     2.5135
  416.7000     5.8200     7.3087   -16.6013     8.0278     0.0929     0.0182    95.8211     2.5155
  416.8000     5.8890     7.4115   -16.4801     7.9101     0.0904     0.0187    95.1268     2.5178
  416.9000     6.0011     7.5158   -16.3440     7.8492     0.0892     0.0198    94.5086     2.5202
  417.0000     6.0604     7.6222   -16.3448     7.8196     0.0887     0.0198    93.8552     2.5221
  417.1000     6.1511     7.7330   -16.2667     7.8196     0.0886     0.0209    93.5053     2.5234
  417.2000     6.2703     7.8165   -16.1967     7.8196     0.0888     0.0213    93.2236     2.5253
  417.3000     6.4264     7.9371   -16.1976     7.8195     0.0893     0.0213    92.9141     2.5265
  417.4000     6.6541     8.0716   -16.1985     7.8195     0.0910     0.0213    92.5778     2.5282
  417.5000     6.9119     8.1958   -16.1994     7.8195     0.0939     0.0213    92.3303     2.5290
  417.6000     7.1894     8.2913   -16.2003     7.8195     0.0970     0.0225    92.0434     2.5292
  417.7000     7.4994     8.5162   -16.2012     7.8194     0.0992     0.0228    91.9393     2.5298
  417.8000     7.8053     8.6722   -16.2021     7.8253     0.1002     0.0221    91.8154     2.5305
  417.9000     8.0289     8.8399   -16.2030     7.8345     0.1012     0.0213    91.7409     2.5310
  418.0000     8.3540     8.9720   -16.2041     7.8344     0.1017     0.0213    91.7849     2.5316
  418.1000     8.5495     9.0788   -16.2048     7.8344     0.1023     0.0213    92.0419     2.5320
  418.2000     8.7337     9.2506   -16.2057     7.8344     0.1031     0.0203    92.3969     2.5320
  418.3000     8.8451     9.3426   -16.1623     7.8344     0.1039     0.0191    92.7673     2.5320
  418.4000     8.9012     9.4478   -16.0574     7.8343     0.1049     0.0183    93.2018     2.5314
  418.5000     9.0107     9.5087   -16.0585     7.8343     0.1063     0.0182    93.6591     2.5298
  418.6000     9.0563     9.5289   -16.0594     7.8343     0.1082     0.0169    94.0201     2.5276
  418.7000     9.0722     9.6402   -16.0603     7.8342     0.1099     0.0169    94.3025     2.5256
  418.8000     9.0947     9.6398   -16.0612     7.8342     0.1112     0.0160    94.6196     2.5243
  418.9000     9.1341     9.6791   -16.0621     7.8342     0.1124     0.0154    94.9901     2.5222
