~VERSION INFORMATION
 VERS.                2.0:   CWLS LOG ASCII STANDARD - VERSION 2.0
 WRAP.                 NO:   ONE LINE PER DEPTH STEP
~WELL INFORMATION
#MNEM.UNIT      DATA TYPE    INFORMATION
#----------   ------------   ------------------------------
 STRT.F            9.5000:   START DEPTH
 STOP.F          640.5000:   STOP DEPTH
 STEP.F            0.5000:   STEP LENGTH
 NULL.          -999.2500:   NO VALUE
 COMP. FENIX & SCISSON INC:   COMPANY
 WELL. 27-32 SX 11 WI #27-32 SX:   WELL
 FLD .            WILDCAT:   FIELD
 LOC .      S11 T38N R78W:   LOCATION
 CNTY.            NATRONA:   COUNTY
 STAT.            WYOMING:   STATE
 CTRY. UNITED STATES OF AMERICA:   COUNTRY
 SRVC.      Dresser Atlas:   SERVICE COMPANY
 DATE.        01-AUG-1980:   LOGDATE
 API .       490251083700:   API NUMBER
~CURVE INFORMATION
#MNEM.UNIT       API CODE    CURVE DESCRIPTION
#----------   ------------   ------------------------------
 DEPT.F                  :   
 SPR .MV     07 010 01 00:   SPONTANEOUS POTENTIAL
 SFL .OHMM   07 220 01 00:   SHALLOW FOCUSED LOG RESISTIVITY
 ILD .OHMM   07 120 46 00:   INDUCTION LOG DEEP
 ILM .OHMM   07 120 44 00:   INDUCTION LOG MEDIUM
 GRD .GAPI   45 310 01 00:   GAMMA RAY FROM DENSITY LOG
 CALD.IN     45 280 60 00:   CALIPER
 RHOB.G/C3   45 350 01 00:   BULK DENSITY
 CORR.G/C3   45 356 01 00:   DENSITY CORRECTION
 DPHI.DEC    45 890 12 00:   DENSITY POROSITY SANDSTONE
 NPHI.DEC    42 890 03 00:   NEUTRON POROSITY SANDSTONE
~PARAMETER INFORMATION
#MNEM.UNIT          VALUE    DESCRIPTION
#----------   ------------   ------------------------------
 PD  .                 GL:   PERMANENT DATUM
 EPD .F              5189:   ELEVATION PERMANENT DATUM
 LMF .                 KB:   LOG MEASURED FROM
 DAPD.F                 5:   FEET ABOVE PERMANENT DATUM
 DMF .                 KB:   DRILLING MEASURED FROM
 EKB .F              5194:   KELLING BUSHING
 EGL .F              5189:   GROUND LEVEL
 DATE.             8-1-80:   RUN DATE
 RUN .                  1:   RUN NUMBER
 DD  .F               625:   DEPTH DRILLER
 DL  .F               634:   DEPTH LOGGER
 BLI .F               632:   BOTTOM LOG INTERVAL
 TLI .F                12:   TOP LOG INTERVAL
 BS  .IN            7.875:   BIT SIZE
 BSD .F               625:   BIT SIZE AT DEPTH
 DFT .           CHEM GEL:   DRILLING FLUID TYPE
 DFD .                9.1:   DRILLING FLUID DENSITY
 DFV .                 44:   DRILLING FLUID VISCOSITY
 DFPH.                9.5:   DRILLING FLUID PH
 DFL .                7.6:   DRILLING FLUID LOSS
 MSS .           FLOWLINE:   MUD SAMPLE SOURCE
 RMS .OHMM            .27:   RESISTIVITY MUD SAMPLE
 MST .F                70:   MUD SAMPLE TEMPERATURE
 RMF .OHMM            .16:   RESISTIVITY MUD FILTRATE SAMPLE
 MFST.F                65:   MUD FILTRATE SAMPLE TEMPERATURE
 MFSS.               MEAS:   MUD FILTRATE SAMPLE SOURCE
 MCSS.               MEAS:   MUD CAKE SAMPLE SOURCE
 RMB .OHMM            .21:   RESISTIVITY MUD AT BHT
 BHT .F                94:   BOTTOM HOLE TEMPERATURE
 TCS .HRS            0040:   TIME CURCULATED STOPPED
 MRT .F                94:   MAXIMUM RECORDED TEMPERATURE
 LUN .               6145:   LOGGING UNIT NUMBER
 LUL .              GLTTE:   LOGGING UNIT LOCATION
 ENGI.              HENRY:   RECORDING ENGINEER
 WITN.              AMEND:   WITNESSED BY
 CLNT.            A2DTECH:   CLIENT CODE
 ORIG.     1", 2.5" PRINT:   ORIGIN OF DATA
 UWI .       490251083700:   UNIQUE WELL ID
 DICO. A2D Technologies, Inc.:   DIGITIZING COMPANY
~OTHER INFORMATION
~A    DEPT     SPR         SFL         ILD        ILM      GRD       CALD       RHOB       CORR       DPHI       NPHI   
# ...
   43.0000   -49.4939     3.0709     1.4928     1.3926  -999.2500  -999.2500  -999.2500  -999.2500  -999.2500  -999.2500
   43.5000   -49.1651     3.0709     1.4694     1.3775  -999.2500  -999.2500  -999.2500  -999.2500  -999.2500  -999.2500
   44.0000   -48.8120     3.0709     1.4382     1.3570  -999.2500  -999.2500  -999.2500  -999.2500  -999.2500  -999.2500
   44.5000   -48.4731     2.9038     1.3981     1.3339  -999.2500  -999.2500  -999.2500  -999.2500  -999.2500  -999.2500
   45.0000   -48.1303     2.9038     1.3591     1.3105  -999.2500  -999.2500  -999.2500  -999.2500  -999.2500  -999.2500
   45.5000   -47.7905     2.9038     1.3212     1.2741  -999.2500  -999.2500  -999.2500  -999.2500  -999.2500  -999.2500
   46.0000   -47.4476     2.9038     1.2965     1.2326  -999.2500  -999.2500  -999.2500  -999.2500  -999.2500  -999.2500
   46.5000   -47.3055     2.6937     1.2843     1.1925  -999.2500  -999.2500  -999.2500  -999.2500  -999.2500  -999.2500
   47.0000   -47.2452     2.5162     1.2785     1.1423  -999.2500  -999.2500  -999.2500  -999.2500  -999.2500  -999.2500
   47.5000   -47.1841     2.3505     1.2785     1.1437  -999.2500  -999.2500  -999.2500  -999.2500  -999.2500  -999.2500
   48.0000   -47.1166     2.2788     1.3228     1.1422  -999.2500  -999.2500  -999.2500  -999.2500  -999.2500  -999.2500
   48.5000   -47.0509     2.3442     1.3715     1.1432  -999.2500  -999.2500  -999.2500  -999.2500  -999.2500  -999.2500
   49.0000   -46.9996     2.5361     1.4220     1.2581  -999.2500  -999.2500  -999.2500  -999.2500  -999.2500  -999.2500
   49.5000   -46.7817     2.7436     1.4744     1.3895  -999.2500  -999.2500  -999.2500  -999.2500  -999.2500  -999.2500
   50.0000   -46.2954     3.0142     1.5288     1.5347  -999.2500  -999.2500  -999.2500  -999.2500  -999.2500  -999.2500
   50.5000   -45.8690     3.0142     1.5851     1.6911  -999.2500  -999.2500  -999.2500  -999.2500  -999.2500  -999.2500
   51.0000   -45.3833     2.9422     1.6457     1.7824  -999.2500  -999.2500  -999.2500  -999.2500  -999.2500  -999.2500
   51.5000   -45.8440     2.8320     1.7159     1.8764  -999.2500  -999.2500  -999.2500  -999.2500  -999.2500  -999.2500
   52.0000   -46.4885     2.7259     1.7891     1.9758  -999.2500  -999.2500  -999.2500  -999.2500  -999.2500  -999.2500
   52.5000   -46.5377     2.6238     1.8563     2.0806  -999.2500  -999.2500  -999.2500  -999.2500  -999.2500  -999.2500
   53.0000   -46.5521     2.5485     1.9930     2.1970  -999.2500  -999.2500  -999.2500  -999.2500  -999.2500  -999.2500
   53.5000   -46.5353     2.5485     2.1240     2.3779  -999.2500  -999.2500  -999.2500  -999.2500  -999.2500  -999.2500
   54.0000   -46.5378     2.7642     2.2636     2.5586  -999.2500  -999.2500  -999.2500     0.0510     0.2870  -999.2500
   54.5000   -46.6780     3.1287     2.4123     2.7071    46.8750  -999.2500     2.2400     0.0872     0.2662  -999.2500
   55.0000   -47.2874     2.9585     2.5708     2.8640    75.3562  -999.2500     2.2657     0.1165     0.2454  -999.2500
   55.5000   -47.8830     3.1135     2.7510     3.0299    76.9758     8.1245     2.2924     0.0838     0.2267  -999.2500
   56.0000   -48.4869     3.3686     2.9787     3.1876    75.4234     8.1411     2.3210     0.0522     0.2115  -999.2500
   56.5000   -49.1261     3.6446     3.2256     3.4677    74.1532     8.1578     2.3484     0.0460     0.1984  -999.2500
   57.0000   -49.4245     3.9433     3.4931     3.7473    74.4466     8.1744     2.3617     0.0388     0.1881  -999.2500
   57.5000   -49.5729     4.2664     3.7830     4.0496    72.6038     8.1911     2.3725     0.0353     0.1837  -999.2500
   58.0000   -49.7292     4.6160     4.0976     4.3761    70.7356     8.2077     2.3874     0.0275     0.1705  -999.2500
   58.5000   -49.8912     4.9942     4.4386     4.7291    69.8023     8.2243     2.4135     0.0239     0.1565  -999.2500
   59.0000   -50.0553     5.4736     4.8080     5.1759    71.0328     8.2458     2.4410     0.0257     0.1401  -999.2500
   59.5000   -50.2223     5.4736     5.1846     5.1759    72.1385     8.2496     2.4411     0.0273     0.1430  -999.2500
   60.0000   -50.6613     5.4578     4.7745     5.1759    73.2668     8.2668     2.4268     0.0260     0.1496  -999.2500
   60.5000   -51.0786     5.4002     4.3605     4.9623    74.5767     8.2715     2.4134     0.0193     0.1562  -999.2500
   61.0000   -51.5171     5.3432     3.9825     4.7311    77.7723     8.2450     2.3996     0.0128     0.1633  -999.2500
   61.5000   -51.9399     5.2869     3.6372     4.2514    81.4253     8.2196     2.3868     0.0084     0.1745  -999.2500
   62.0000   -52.3699     4.6104     3.3600     3.6318    85.2035     8.1936     2.3581     0.0095     0.1864  -999.2500
   62.5000   -52.8243     3.8614     3.1654     3.1026    88.8387     8.1666     2.3074     0.0111     0.2104  -999.2500
   63.0000   -53.0720     3.2476     2.9820     2.6504    92.3455     8.1581     2.2323     0.0127     0.2429  -999.2500
   63.5000   -53.0588     3.3864     2.8473     2.4485    95.6775     8.1620     2.2449     0.0249     0.2596  -999.2500
   64.0000   -52.9265     3.5278     2.9049     2.4593    91.6693     8.1650     2.3035     0.0365     0.2270  -999.2500
   64.5000   -52.6263     4.2662     3.3484     3.0550    82.8385     8.1678     2.3574     0.0459     0.1944  -999.2500
   65.0000   -52.3325     6.9749     3.8230     3.7629    76.8918     8.1709     2.4193     0.0588     0.1618  -999.2500
   65.5000   -52.0435     6.9749     4.3643     4.3812    75.7328     8.1739     2.4357     0.0263     0.1481  -999.2500
   66.0000   -51.7495     6.3387     4.8518     4.9838    74.0772     8.1769     2.4445     0.0325     0.1416  -999.2500
   66.5000   -51.4577     6.0085     5.2804     5.6761    76.7148     8.1799     2.4437     0.0375     0.1405  -999.2500
   67.0000   -51.1666     6.2292     5.7475     5.9499    76.3298     8.1828     2.4445     0.0371     0.1409  -999.2500
   67.5000   -50.8730     6.4599     6.2367     6.2367    75.5749     8.1858     2.4372     0.0322     0.1409  -999.2500
   68.0000   -50.5832     6.6992     6.4286     6.3733    78.0885     8.1888     2.4287     0.0272     0.1473  -999.2500
   68.5000   -50.2988     6.9472     6.6189     6.5899    76.7106     8.1918     2.4204     0.0225     0.1534  -999.2500
   69.0000   -50.1046     7.2045     6.8148     6.8137    76.1493     8.1948     2.4130     0.0199     0.1601  -999.2500
   69.5000   -49.9497     7.4714     7.0165     7.0452    76.8288     8.1976     2.4130     0.0217     0.1601  -999.2500
   70.0000   -49.8016     7.7481     7.2242     7.2846    78.5179     8.2009     2.4207     0.0232     0.1549  -999.2500
   70.5000   -49.6536     8.0350     7.4380     7.5321    80.0719     8.2041     2.4295     0.0249     0.1504  -999.2500
   71.0000   -49.5042     8.1351     7.6564     7.7880    81.7497     8.2073     2.4383     0.0272     0.1441  -999.2500
   71.5000   -49.3550     8.1838     7.7693     8.0969    80.5681     8.2105     2.4339     0.0294     0.1468  -999.2500
   72.0000   -49.2070     8.2327     7.8830     8.2474    78.0363     8.2137     2.4252     0.0320     0.1512  -999.2500
   72.5000   -49.0575     8.3810     7.9984     8.4311    75.5927     8.2169     2.4171     0.0317     0.1561  -999.2500
   73.0000   -48.9066     8.5834     8.1154     8.6188    73.3184     8.2201     2.4220     0.0313     0.1534  -999.2500
   73.5000   -48.7642     8.7907     8.2341     8.8108    72.4289     8.2233     2.4265     0.0308     0.1514  -999.2500
   74.0000   -48.6139     9.0031     8.3546     9.0071    73.1221     8.2265     2.4259     0.0303     0.1517  -999.2500
   74.5000   -48.7817     9.2257     8.4769     9.2077    74.4701     8.2297     2.4248     0.0299     0.1521  -999.2500
   75.0000   -49.0629     9.6119     8.6009     9.4128    75.0790     8.2329     2.4318     0.0294     0.1462  -999.2500
   75.5000   -49.3426     9.9861     8.7185     9.6214    75.1523     8.2361     2.4443     0.0289     0.1377  -999.2500
   76.0000   -49.6263    10.3747     8.9007     9.8353    75.2911     8.2393     2.4398     0.0285     0.1432  -999.2500
