~VERSION INFORMATION
 VERS.                2.0:   CWLS LOG ASCII STANDARD - VERSION 2.0
 WRAP.                 NO:   ONE LINE PER DEPTH STEP
~WELL INFORMATION
#MNEM.UNIT      DATA TYPE    INFORMATION
#----------   ------------   ------------------------------
 STRT.F           60.0000:   START DEPTH
 STOP.F         1143.0000:   STOP DEPTH
 STEP.F            0.5000:   STEP LENGTH
 NULL.          -999.2500:   NO VALUE
 COMP. U S NAVY-INTEX OIL:   COMPANY
 WELL.    N.P.R . 3 #63-2:   WELL
 FLD .             TEAPOT:   FIELD
 LOC .       S2 T38N R78W:   LOCATION
 CNTY.            NATRONA:   COUNTY
 STAT.            WYOMING:   STATE
 CTRY. UNITED STATES OF AMERICA:   COUNTRY
 SRVC. Schlumberger Well Surveying Corp:   SERVICE COMPANY
 DATE.        24-MAY-1964:   LOGDATE
 API .       490250645500:   API NUMBER
~CURVE INFORMATION
#MNEM.UNIT       API CODE    CURVE DESCRIPTION
#----------   ------------   ------------------------------
 DEPT.F                  :   
 SPR .MV     05 010 01 00:   SPONTANEOUS POTENTIAL FROM RES.
 ASN .OHMM   05 041 16 00:   AMPLIFIED SHORT NORMAL 16"
 ILD .OHMM   05 120 46 00:   INDUCTION LOG DEEP
 CILD.MMHO   05 110 46 00:   CONDUCTIVITY INDUCTION LOG DEEP
 CALS.IN     60 280 50 00:   CALIPER FROM SONIC LOG
 DT  .US/F   60 520 33 00:   INTERVAL TRANSIT TIME
~PARAMETER INFORMATION
#MNEM.UNIT          VALUE    DESCRIPTION
#----------   ------------   ------------------------------
 PD  .                 GL:   PERMANENT DATUM
 EPD .F              5181:   ELEVATION PERMANENT DATUM
 LMF .                 KB:   LOG MEASURED FROM
 DAPD.F                 5:   FEET ABOVE PERMANENT DATUM
 DMF .                 KB:   DRILLING MEASURED FROM
 EKB .F              5186:   KELLING BUSHING
 EGL .F              5181:   GROUND LEVEL
 DATE.        24-MAY-1964:   RUN DATE
 RUN .                  1:   RUN NUMBER
 DD  .F              1140:   DEPTH DRILLER
 DL  .F              1144:   DEPTH LOGGER
 BLI .F              1143:   BOTTOM LOG INTERVAL
 TLI .F                82:   TOP LOG INTERVAL
 CS  .IN            8.625:   CASING SIZE
 CBD .F                10:   CASING BOTTOM DRILLER
 BS  .IN            7.875:   BIT SIZE
 BSD .F              1140:   BIT SIZE AT DEPTH
 DFT .            GEL/OIL:   DRILLING FLUID TYPE
 DFD .                9.0:   DRILLING FLUID DENSITY
 DFV .                 63:   DRILLING FLUID VISCOSITY
 DFPH.                8.0:   DRILLING FLUID PH
 DFL .                7.6:   DRILLING FLUID LOSS
 MSS .           FLOWLINE:   MUD SAMPLE SOURCE
 RMS .OHMM           0.87:   RESISTIVITY MUD SAMPLE
 MST .F                84:   MUD SAMPLE TEMPERATURE
 RMF .OHMM           0.43:   RESISTIVITY MUD FILTRATE SAMPLE
 MFST.F                84:   MUD FILTRATE SAMPLE TEMPERATURE
 RMC .OHMM           1.52:   RESISTIVITY MUD CAKE
 MCST.F                84:   MUD CAKE SAMPLE TEMPERATURE
 MFSS.                 FP:   MUD FILTRATE SAMPLE SOURCE
 MCSS.                 FP:   MUD CAKE SAMPLE SOURCE
 TCS .HRS               2:   TIME CURCULATED STOPPED
 LUN .               4507:   LOGGING UNIT NUMBER
 LUL .               CSPR:   LOGGING UNIT LOCATION
 ENGI.             DANNER:   RECORDING ENGINEER
 WITN.          JORGENSEN:   WITNESSED BY
 CLNT.            A2DTECH:   CLIENT CODE
 ORIG.       2", 5" PRINT:   ORIGIN OF DATA
 UWI .       490250645500:   UNIQUE WELL ID
 DICO. A2D Technologies, Inc.:   DIGITIZING COMPANY
~OTHER INFORMATION
~A   DEPT      SPR          ASN        ILD      CILD      CALS         DT   
   60.0000   -44.1269     1.1394     5.4054   170.9298  -999.2500  -999.2500
   60.5000   -43.9740     1.1694     5.5037   166.0421  -999.2500  -999.2500
   61.0000   -43.9721     1.1694     5.6306   162.6704  -999.2500  -999.2500
   61.5000   -43.9702     1.1879     5.7501   160.5264  -999.2500  -999.2500
   62.0000   -43.8176     1.2144     5.9484   158.1453  -999.2500  -999.2500
   62.5000   -43.8159     1.2369     6.0811   156.6736  -999.2500  -999.2500
   63.0000   -43.8140     1.2634     6.2700   156.6830  -999.2500  -999.2500
   63.5000   -43.8119     1.3043     6.5434   156.6937  -999.2500  -999.2500
   64.0000   -43.8103     1.3313     6.6817   157.5301  -999.2500  -999.2500
   64.5000   -43.8084     1.3503     6.7568   161.2296  -999.2500  -999.2500
   65.0000   -43.8065     1.3893     6.7505   162.7448  -999.2500  -999.2500
   65.5000   -43.7142     1.3703     6.6066   163.5064  -999.2500  -999.2500
   66.0000   -43.0496     1.3343     6.6066   159.7532  -999.2500  -999.2500
   66.5000   -42.7667     1.3193     6.6066   155.6038  -999.2500  -999.2500
   67.0000   -43.4676     1.3223     6.6066   150.7348  -999.2500  -999.2500
   67.5000   -44.3993     1.3343     6.7036   146.6490  -999.2500  -999.2500
   68.0000   -44.3976     1.3493     6.8318   143.1225  -999.2500  -999.2500
   68.5000   -44.3957     1.3673     6.9069   140.7411  -999.2500  -999.2500
   69.0000   -44.2429     1.4093     7.0734   138.3597  -999.2500  -999.2500
   69.5000   -44.1310     1.4503     7.2823   135.7220  -999.2500  -999.2500
   70.0000   -43.7877     1.4993     7.4325   134.5381  -999.2500  -999.2500
   70.5000   -43.5397     1.5482     7.6683   137.2551  -999.2500  -999.2500
   71.0000   -43.3321     1.5742     7.7327   141.7418  -999.2500  -999.2500
   71.5000   -43.1795     1.5592     7.7008   146.2189  -999.2500  -999.2500
   72.0000   -43.1777     1.5362     7.5075   150.1731  -999.2500  -999.2500
   72.5000   -43.1758     1.5242     7.3574   154.6502  -999.2500  -999.2500
   73.0000   -43.0231     1.4843     7.2560   158.7033  -999.2500  -999.2500
   73.5000   -43.0215     1.4628     7.1321   162.2992  -999.2500  -999.2500
   74.0000   -43.1703     1.4233     7.0095   165.1745  -999.2500  -999.2500
   74.5000   -43.1680     1.3643     6.8862   166.4940  -999.2500  -999.2500
   75.0000   -43.1664     1.3443     6.7568   168.9573  -999.2500  -999.2500
   75.5000   -43.1645     1.3043     6.6398   170.5416  -999.2500  -999.2500
   76.0000   -43.1626     1.2804     6.5165   172.2892  -999.2500  -999.2500
   76.5000   -43.1607     1.2559     6.3814   175.0111  -999.2500  -999.2500
   77.0000   -43.3093     1.2294     6.3063   176.9892  -999.2500  -999.2500
   77.5000   -43.3829     1.2219     6.1562   179.5469  -999.2500  -999.2500
   78.0000   -43.4565     1.1824     6.0811   182.1536  -999.2500  -999.2500
   78.5000   -43.6048     1.1394     6.0060   185.0495  -999.2500  -999.2500
   79.0000   -43.6032     1.1034     5.9272   189.3450  -999.2500  -999.2500
   79.5000   -43.7519     1.0645     5.7936   193.8785  -999.2500  -999.2500
   80.0000   -43.7500     1.0645     5.6056   196.1606  -999.2500  -999.2500
   80.5000   -43.7481     1.2039     5.3822   194.4655  -999.2500  -999.2500
   81.0000   -43.7462     1.4993     5.1802   191.6479  -999.2500  -999.2500
   81.5000   -43.7444     1.9277     5.1051   189.2663  -999.2500  -999.2500
   82.0000   -43.7123     2.6854     5.0125   186.8852  -999.2500  -999.2500
   82.5000   -43.4392     3.4797     4.9550   184.1599  -999.2500  -999.2500
   83.0000   -43.2166     4.2741     4.9550   181.6390  -999.2500  -999.2500
   83.5000   -43.1344     5.0988     4.9550   180.4126  -999.2500  -999.2500
   84.0000   -42.9816     6.0078     5.0300   180.0201  -999.2500  -999.2500
   84.5000   -43.1307     6.5332     5.1051   179.6774  -999.2500  -999.2500
   85.0000   -43.1288     6.9666     5.1051   181.1953  -999.2500  -999.2500
   85.5000   -43.1269     7.0465     5.1802   181.6485  -999.2500  -999.2500
   86.0000   -43.1652     6.8066     5.2828   184.2251  -999.2500  -999.2500
   86.5000   -43.2737     6.6037     5.3303   185.6958  -999.2500  -999.2500
   87.0000   -43.4225     6.5037     5.2815   188.1402  -999.2500  -999.2500
   87.5000   -43.5714     6.5067     5.2553   191.2495  -999.2500  -999.2500
   88.0000   -43.5690     6.6237     5.2553   192.5438  -999.2500  -999.2500
   88.5000   -43.7180     6.7856     5.2553   190.2966  -999.2500  -999.2500
   89.0000   -43.7161     6.9265     5.2553   188.9369  -999.2500  -999.2500
   89.5000   -43.7139     6.9400     5.2553   187.3024  -999.2500  -999.2500
   90.0000   -43.7123     6.8366     5.2553   186.6843  -999.2500  -999.2500
   90.5000   -43.7104     6.7726     5.1802   188.4600  -999.2500  -999.2500
   91.0000   -43.7086     6.7236     5.1802   191.8501  -999.2500  -999.2500
   91.5000   -43.7067     6.6717     5.1802   194.8983  -999.2500  -999.2500
   92.0000   -43.7047     6.6107     5.1802   197.1389  -999.2500  -999.2500
   92.5000   -43.7029     6.5592     5.1802   197.9010  -999.2500  -999.2500
   93.0000   -43.6810     6.4918     5.1802   197.9104  -999.2500  -999.2500
   93.5000   -43.5483     6.4468     5.1051   197.9216  -999.2500  -999.2500
   94.0000   -43.4864     6.5257     5.1051   197.7159  -999.2500  -999.2500
   94.5000   -43.3891     6.6567     5.1051   197.1856  -999.2500  -999.2500
   95.0000   -43.2417     6.7316     5.1051   196.4420  -999.2500  -999.2500
   95.5000   -43.2398     6.8066     5.1051   196.4171  -999.2500  -999.2500
   96.0000   -43.2379     6.8426     5.1201   195.2309  -999.2500  -999.2500
   96.5000   -43.2361     6.8031     5.1802   194.0448  -999.2500  -999.2500
   97.0000   -43.3850     6.7616     5.2165   192.7157  -999.2500  -999.2500
   97.5000   -43.5333     6.7466     5.2647   190.1669  -999.2500  -999.2500
   98.0000   -43.6019     6.7466     5.3303   187.4624  -999.2500  -999.2500
   98.5000   -43.6805     6.7466     5.4054   183.9232  -999.2500  -999.2500
   99.0000   -43.6782     6.8966     5.5593   180.3462  -999.2500  -999.2500
   99.5000   -43.6766     7.1104     5.7057   175.4439  -999.2500  -999.2500
  100.0000   -43.5189     7.2709     5.8836   171.8003  -999.2500  -999.2500
  100.5000   -43.2623     7.3798     6.0198   168.7647  -999.2500  -999.2500
  101.0000   -43.0058     7.4887     6.1561   165.7291  -999.2500  -999.2500
  101.5000   -42.7493     7.5976     6.3063   162.6936  -999.2500  -999.2500
  102.0000   -42.6174     7.7211     6.3063   160.4226  -999.2500  -999.2500
  102.5000   -42.5565     7.7839     6.3063   159.6762  -999.2500  -999.2500
  103.0000   -42.4654     7.7961     6.3063   159.7164  -999.2500  -999.2500
  103.5000   -42.4646     7.7625     6.2851   160.9426  -999.2500  -999.2500
  104.0000   -42.4639     7.6991     6.1562   162.9216  -999.2500  -999.2500
  104.5000   -42.4630     7.6462     6.0811   164.9779  -999.2500  -999.2500
  105.0000   -42.4624     7.5656     6.0060   166.8800  -999.2500  -999.2500
  105.5000   -42.4616     7.4931     5.9309   168.5336  -999.2500  -999.2500
  106.0000   -42.6113     7.4063     5.8304   170.3690  -999.2500  -999.2500
  106.5000   -42.7614     7.3524     5.7808   172.2045  -999.2500  -999.2500
  107.0000   -42.9111     7.2864     5.7057   174.0399  -999.2500  -999.2500
  107.5000   -42.9907     7.2486     5.7057   175.8754  -999.2500  -999.2500
  108.0000   -43.0603     7.2244     5.7808   176.4959  -999.2500  -999.2500
  108.5000   -43.2100     7.1964     5.7808   177.8396  -999.2500  -999.2500
  109.0000   -43.2655     7.1910     5.8559   178.1953  -999.2500  -999.2500
  109.5000   -43.3592     7.1814     5.9025   178.6065  -999.2500  -999.2500
  110.0000   -43.4488     7.1814     5.9309   176.3568  -999.2500  -999.2500
  110.5000   -43.5084     7.1964     5.9309   174.8906  -999.2500  -999.2500
  111.0000   -43.5075     7.2264     5.8967   171.8527  -999.2500  -999.2500
  111.5000   -43.5068     7.2390     5.8508   171.5248  -999.2500  -999.2500
