~VERSION INFORMATION
 VERS.                2.0:   CWLS LOG ASCII STANDARD - VERSION 2.0
 WRAP.                 NO:   ONE LINE PER DEPTH STEP
~WELL INFORMATION
#MNEM.UNIT      DATA TYPE    INFORMATION
#----------   ------------   ------------------------------
 STRT.F           35.0000:   START DEPTH
 STOP.F          977.0000:   STOP DEPTH
 STEP.F            0.5000:   STEP LENGTH
 NULL.          -999.2500:   NO VALUE
 COMP. FENIX & SCISSON INC:   COMPANY
 WELL.  NPR-3 "SX" #52-14:   WELL
 FLD .             TEAPOT:   FIELD
 LOC .      S14 T38N R78W:   LOCATION
 CNTY.            NATRONA:   COUNTY
 STAT.            WYOMING:   STATE
 CTRY. UNITED STATES OF AMERICA:   COUNTRY
 SRVC.            Unknown:   SERVICE COMPANY
 DATE.        13-MAR-1978:   LOGDATE
 API .       490251059900:   API NUMBER
~CURVE INFORMATION
#MNEM.UNIT       API CODE    CURVE DESCRIPTION
#----------   ------------   ------------------------------
 DEPT.F                  :   
 CALD.IN     45 280 60 00:   CALIPER FROM DENSITY LOG
 GRD .GAPI   45 310 01 00:   GAMMA RAY FROM DENSITY LOG
 CORR.G/C3   45 356 01 00:   DENSITY CORRECTION
 RHOB.G/C3   45 350 01 00:   BULK DENSITY
 DPHI.DEC    45 890 12 00:   DENSITY POROSITY SANDSTONE
 SPR .MV     07 010 01 00:   SPONTANEOUS POTENTIAL FROM RES. LOG
 ILD .OHMM   07 120 46 00:   INDUCTION LOG DEEP
 SN  .OHMM   07 040 16 00:   SHORT NORMAL 16'
~PARAMETER INFORMATION
#MNEM.UNIT          VALUE    DESCRIPTION
#----------   ------------   ------------------------------
 PD  .                 GL:   PERMANENT DATUM
 EPD .F              5223:   ELEVATION PERMANENT DATUM
 LMF .                 KB:   LOG MEASURED FROM
 DAPD.F                 4:   FEET ABOVE PERMANENT DATUM
 DMF .                 KB:   DRILLING MEASURED FROM
 EKB .F              5227:   KELLING BUSHING
 EGL .F              5223:   GROUND LEVEL
 DATE.            3-13-78:   RUN DATE
 RUN .                  1:   RUN NUMBER
 DD  .F               975:   DEPTH DRILLER
 DL  .F               977:   DEPTH LOGGER
 BLI .F               971:   BOTTOM LOG INTERVAL
 TLI .F                50:   TOP LOG INTERVAL
 CS  .IN            8.625:   CASING SIZE
 CBD .F                40:   CASING BOTTOM DRILLER
 CBL .F                40:   CASING BOTTOM LOGGER
 BS  .IN            7.875:   BIT SIZE
 BSD .F               975:   BIT SIZE AT DEPTH
 DFT .                KCL:   DRILLING FLUID TYPE
 DFD .                8.6:   DRILLING FLUID DENSITY
 DFV .                 33:   DRILLING FLUID VISCOSITY
 DFPH.               10.5:   DRILLING FLUID PH
 DFL .               11.6:   DRILLING FLUID LOSS
 MSS .          FLOW LINE:   MUD SAMPLE SOURCE
 RMS .OHMM            .34:   RESISTIVITY MUD SAMPLE
 MST .F                60:   MUD SAMPLE TEMPERATURE
 RMF .OHMM            .36:   RESISTIVITY MUD FILTRATE SAMPLE
 MFST.F                62:   MUD FILTRATE SAMPLE TEMPERATURE
 RMC .OHMM            .75:   RESISTIVITY MUD CAKE
 MCST.F                59:   MUD CAKE SAMPLE TEMPERATURE
 MFSS.               MEAS:   MUD FILTRATE SAMPLE SOURCE
 MCSS.               MEAS:   MUD CAKE SAMPLE SOURCE
 RMB .OHMM            .27:   RESISTIVITY MUD AT BHT
 BHT .F                75:   BOTTOM HOLE TEMPERATURE
 TCS .HRS               4:   TIME CURCULATED STOPPED
 MRT .F                75:   MAXIMUM RECORDED TEMPERATURE
 LUN .               2958:   LOGGING UNIT NUMBER
 LUL .               CASP:   LOGGING UNIT LOCATION
 ENGI.             MILLER:   RECORDING ENGINEER
 WITN.            RHOADES:   WITNESSED BY
 CLNT.            A2DTECH:   CLIENT CODE
 ORIG.       2", 5" PRINT:   ORIGIN OF DATA
 UWI .       490251059900:   UNIQUE WELL ID
 DICO. A2D Technologies, Inc.:   DIGITIZING COMPANY
~OTHER INFORMATION
~A   DEPT     CALD         GRD      CORR       RHOB       DPHI        SPR        ILD         SN   
# ...
  278.0000     8.0361    79.5290     0.0084     2.3932     0.1528   -55.7753     5.2394     5.8636
  278.5000     8.0364    72.8544     0.0099     2.4011     0.1525   -56.2281     5.2804     5.7935
  279.0000     8.0375    65.9406    -0.0060     2.3874     0.1623   -56.3598     5.3364     5.7465
  279.5000     8.0386    65.2552    -0.0219     2.3654     0.1780   -56.2576     5.3867     5.7465
  280.0000     8.0397    68.1800    -0.0365     2.3173     0.2085   -56.4189     4.8149     5.7465
  280.5000     8.0408    77.4440    -0.0155     2.2692     0.2406   -57.4593     4.1083     5.5894
  281.0000     8.0419    86.2332     0.0073     2.2211     0.2710   -58.0331     3.5054     4.9118
  281.5000     8.0430    85.4483     0.0154     2.1856     0.2722   -59.0046     3.1233     4.2164
  282.0000     8.0441    84.3750     0.0209     2.1824     0.2588   -57.8375     2.7097     3.5581
  282.5000     8.0452    82.7130     0.0265     2.2071     0.2310   -57.4801     2.7107     3.1751
  283.0000     8.0463    80.1545     0.0068     2.2859     0.2032   -57.7275     2.6881     3.1233
  283.5000     8.0474    78.5033    -0.0015     2.3605     0.1754   -57.3566     2.6688     3.2453
  284.0000     8.0485    77.1465     0.0065     2.3824     0.1539   -56.1649     2.7217     3.4370
  284.5000     8.0496    74.0921     0.0081     2.3918     0.1492   -55.4208     2.8490     3.8213
  285.0000     8.0507    74.2429     0.0096     2.3907     0.1504   -55.7333     2.9823     4.4510
  285.5000     8.0518    78.1354     0.0124     2.3842     0.1536   -55.9794     3.2826     4.8787
  286.0000     8.0529    78.5886     0.0172     2.3779     0.1529   -55.4751     3.7381     5.1299
  286.5000     8.0540    80.1623     0.0220     2.3878     0.1486   -55.0018     4.2569     5.2566
  287.0000     8.0551    81.1006     0.0228     2.4032     0.1444   -55.5001     5.0029     5.2854
  287.5000     8.0562    78.9547     0.0188     2.4048     0.1424   -55.9115     4.9163     5.3148
  288.0000     8.0573    78.3301     0.0136     2.3942     0.1471   -54.6469     4.7642     5.3443
  288.5000     8.0584    80.1650     0.0084     2.3903     0.1555   -55.2978     4.6167     5.3740
  289.0000     8.0595    82.3066     0.0031     2.3784     0.1619   -56.0093     4.5190     5.4039
  289.5000     8.0606    84.4464     0.0038     2.3661     0.1626   -55.5212     4.5191     5.4367
  290.0000     8.0617    85.6021     0.0055     2.3638     0.1638   -55.0536     4.5195     5.3618
  290.5000     8.0628    85.0686     0.0090     2.3621     0.1672   -55.2917     4.5195     5.2881
  291.0000     8.0639    83.3663     0.0160     2.3669     0.1621   -55.5222     4.5195     5.2048
  291.5000     8.0650    81.6731     0.0152     2.3718     0.1599   -55.7557     4.5045     5.1296
  292.0000     8.0661    79.9885     0.0100     2.3606     0.1747   -56.0009     4.4507     5.0555
  292.5000     8.0672    78.6386     0.0081     2.3369     0.1804   -56.5566     4.3971     4.9825
  293.0000     8.0683    79.3676     0.0075     2.3331     0.1870   -57.1182     4.2948     4.8209
  293.5000     8.0694    82.5437     0.0069     2.3170     0.1974   -57.7060     4.0480     4.6178
  294.0000     8.0705    86.0489     0.0074     2.3082     0.2077   -56.8850     3.8152     4.4233
  294.5000     8.0716    87.9796     0.0155     2.2973     0.2091   -55.9842     3.5964     4.2423
  295.0000     8.0727    86.7350     0.0237     2.2880     0.1925   -56.8421     3.3901     4.0875
  295.5000     8.0738    82.6786     0.0295     2.3270     0.1741   -57.3684     3.2661     3.9385
  296.0000     8.0749    78.6218     0.0206     2.3700     0.1556   -56.2858     3.2404     3.7920
  296.5000     8.0760    77.3596     0.0118     2.4042     0.1418   -55.1604     3.2910     3.8840
  297.0000     8.0755    78.9448     0.0096     2.4050     0.1444   -54.1564     3.3570     4.0395
  297.5000     8.0748    85.6508     0.0085     2.4016     0.1464   -54.0625     3.4236     4.2016
  298.0000     8.0741    86.1639     0.0108     2.3989     0.1451   -54.3790     3.5561     4.4893
  298.5000     8.0734    86.0749     0.0141     2.3996     0.1436   -54.8589     3.8600     4.9045
  299.0000     8.0726    85.9365     0.0174     2.4010     0.1420   -54.0111     4.1898     5.3584
  299.5000     8.0719    85.7874     0.0173     2.4040     0.1412   -54.7974     4.5479     5.7320
  300.0000     8.0712    86.5907     0.0155     2.4060     0.1442   -55.5772     4.9365     5.8526
  300.5000     8.0705    87.4343     0.0137     2.4024     0.1516   -54.8229     5.1485     5.9628
  301.0000     8.0697    86.4302     0.0138     2.3881     0.1524   -54.8204     5.1583     5.9628
  301.5000     8.0690    85.7087     0.0229     2.3812     0.1534   -55.2637     5.1683     5.9628
  302.0000     8.0683    85.9245     0.0231     2.3866     0.1645   -55.2703     5.1782     5.9628
  302.5000     8.0676    84.1288     0.0149     2.3485     0.1782   -54.8425     5.1926     5.9313
  303.0000     8.0668    82.7250     0.0105     2.3398     0.1905   -54.8733     5.1010     5.7763
  303.5000     8.0661    83.7975     0.0105     2.3249     0.1992   -55.1899     4.9216     5.4627
  304.0000     8.0654    89.7628     0.0121     2.2959     0.2079   -56.0708     4.5323     5.1134
  304.5000     8.0647    95.0542     0.0242     2.2868     0.2101   -57.0901     4.0857     4.7865
  305.0000     8.0639    94.9563     0.0365     2.2967     0.1930   -57.4016     3.6832     4.4804
  305.5000     8.0632    87.7512     0.0395     2.3201     0.1804   -56.4697     3.4574     4.1940
  306.0000     8.0625    81.4231     0.0072     2.3413     0.1678   -54.7076     3.3628     3.7920
  306.5000     8.0618    80.4422     0.0020     2.3598     0.1627   -54.5955     3.3319     3.8305
  307.0000     8.0611    80.4468     0.0052     2.3730     0.1611   -54.4186     3.3319     3.9128
  307.5000     8.0603    79.7479     0.0084     2.3680     0.1596   -54.7327     3.3319     3.9970
  308.0000     8.0596    78.4300     0.0082     2.3767     0.1548   -55.0293     3.3319     4.3210
  308.5000     8.0589    78.2395     0.0078     2.3860     0.1490   -55.1652     3.3628     4.6707
  309.0000     8.0582    80.4872     0.0075     2.3963     0.1450   -54.5230     3.7224     4.9118
  309.5000     8.0574    81.1748     0.0071     2.4000     0.1436   -53.8354     4.0944     4.9928
  310.0000     8.0567    79.9632     0.0068     2.3979     0.1445   -53.9271     4.4780     5.0702
  310.5000     8.0560    80.9809     0.0064     2.3955     0.1447   -54.1849     4.5663     5.1881
  311.0000     8.0553    84.8175     0.0061     2.3946     0.1452   -54.1942     4.6465     5.3295
  311.5000     8.0546    86.7720     0.0057     2.3965     0.1497   -54.3942     4.6470     5.4415
  312.0000     8.0538    85.6609     0.0054     2.3889     0.1543   -55.2905     4.6465     5.4563
  312.5000     8.0531    82.1197     0.0050     2.3826     0.1575   -55.3900     4.6466     5.4721
  313.0000     8.0524    80.4906     0.0047     2.3797     0.1590   -54.5090     4.6466     5.4871
  313.5000     8.0517    84.4526     0.0043     2.3719     0.1604   -54.6135     4.6465     5.4169
  314.0000     8.0509    87.1764     0.0040     2.3688     0.1653   -54.8692     4.6465     5.3507
  314.5000     8.0502    86.3606     0.0036     2.3582     0.1701   -55.1303     4.5738     5.2881
  315.0000     8.0495    85.5868     0.0033     2.3559     0.1723   -55.3862     4.4137     5.1300
  315.5000     8.0488    83.8520     0.0029     2.3535     0.1761   -55.6114     4.2593     4.9828
  316.0000     8.0480    79.3868     0.0024     2.3413     0.1820   -56.1027     4.1102     4.8398
  316.5000     8.0473    78.6729     0.0073     2.3312     0.1878   -56.6027     3.9712     4.7010
  317.0000     8.0466    78.5695     0.0132     2.3193     0.1936   -57.0953     3.9199     4.5661
  317.5000     8.0459    78.5750     0.0144     2.3087     0.1903   -57.3784     3.8709     4.4351
  318.0000     8.0451    78.5758     0.0061     2.3263     0.1889   -56.9038     3.7920     4.3078
