~VERSION INFORMATION
 VERS.                2.0:   CWLS LOG ASCII STANDARD - VERSION 2.0
 WRAP.                 NO:   ONE LINE PER DEPTH STEP
~WELL INFORMATION
#MNEM.UNIT      DATA TYPE    INFORMATION
#----------   ------------   ------------------------------
 STRT.F            0.0000:   START DEPTH
 STOP.F          701.0000:   STOP DEPTH
 STEP.F            0.5000:   STEP LENGTH
 NULL.          -999.2500:   NO VALUE
 COMP. U S NAVY-INTEX OIL:   COMPANY
 WELL. RES 3 TEAPOT DOM #22-S-2:   WELL
 FLD .             TEAPOT:   FIELD
 LOC .       S2 T38N R78W:   LOCATION
 CNTY.            NATRONA:   COUNTY
 STAT.            WYOMING:   STATE
 CTRY. UNITED STATES OF AMERICA:   COUNTRY
 SRVC.      NL McCullough:   SERVICE COMPANY
 DATE.        23-AUG-1961:   LOGDATE
 API .       490250647200:   API NUMBER
~CURVE INFORMATION
#MNEM.UNIT       API CODE    CURVE DESCRIPTION
#----------   ------------   ------------------------------
 DEPT.F                  :   
 GRN .GAPI   35 310 01 00:   GAMMA RAY
 NEUT.NAPI   35 330 01 00:   NEUTRON
~PARAMETER INFORMATION
#MNEM.UNIT          VALUE    DESCRIPTION
#----------   ------------   ------------------------------
 PD  .                 GL:   PERMANENT DATUM
 EPD .F              5115:   ELEVATION PERMANENT DATUM
 LMF .                 KB:   LOG MEASURED FROM
 DAPD.F                 6:   FEET ABOVE PERMANENT DATUM
 DMF .                 KB:   DRILLING MEASURED FROM
 EKB .F              5121:   KELLING BUSHING
 EGL .F              5115:   GROUND LEVEL
 DATE.          8-23-1961:   RUN DATE
 RUN .                  1:   RUN NUMBER
 DL  .F               676:   DEPTH LOGGER
 BLI .F               674:   BOTTOM LOG INTERVAL
 TLI .F               450:   TOP LOG INTERVAL
 DFT .                OIL:   DRILLING FLUID TYPE
 TCS .HRS              30:   TIME CURCULATED STOPPED
 ENGI.            JACKSON:   RECORDING ENGINEER
 WITN.             HUDSON:   WITNESSED BY
 CLNT.            A2DTECH:   CLIENT CODE
 ORIG.           5" PRINT:   ORIGIN OF DATA
 UWI .       490250647200:   UNIQUE WELL ID
 DICO. A2D Technologies, Inc.:   DIGITIZING COMPANY
~OTHER INFORMATION
~A    DEPT       GRN     NEUT   
# ...
  607.5000     4.5063   857.4412
  608.0000     4.6698   799.2717
  608.5000     4.8163   742.1202
  609.0000     4.7538   693.6111
  609.5000     4.6511   660.7103
  610.0000     4.6428   655.5968
  610.5000     4.6902   655.8328
  611.0000     4.7288   659.1337
  611.5000     4.6581   667.1716
  612.0000     4.5648   699.7141
  612.5000     4.7673   688.6619
  613.0000     4.8007   641.9814
  613.5000     4.9199   656.5499
  614.0000     4.8824   643.7749
  614.5000     4.8531   607.5778
  615.0000     5.0422   632.8936
  615.5000     4.9889   637.3731
  616.0000     4.7116   657.9673
  616.5000     4.6909   687.0361
  617.0000     4.7869   689.7640
  617.5000     4.8723   667.8599
  618.0000     4.8162   675.6666
  618.5000     4.7476   702.9645
  619.0000     4.8884   723.9803
  619.5000     4.8408   697.4095
  620.0000     4.6888   673.5009
  620.5000     4.6549   696.3925
  621.0000     4.6591   687.8547
  621.5000     4.6223   708.7817
  622.0000     4.6076   687.6038
  622.5000     4.8948   707.5543
  623.0000     4.9052   729.0648
  623.5000     4.9511   745.4940
  624.0000     4.9639   692.6984
  624.5000     5.0165   670.3588
  625.0000     5.0102   658.8953
  625.5000     5.0035   681.7415
  626.0000     4.9932   665.8757
  626.5000     4.9855   654.6478
  627.0000     4.9684   652.8065
  627.5000     4.9264   654.5133
  628.0000     4.8283   680.8763
  628.5000     4.7315   653.1469
  629.0000     4.9075   642.9104
  629.5000     5.0646   641.2581
  630.0000     5.3323   625.6244
  630.5000     5.1715   600.8044
  631.0000     5.0163   578.3774
  631.5000     4.8288   579.3623
  632.0000     4.8198   591.7703
  632.5000     4.9351   598.2732
  633.0000     4.9882   590.1184
  633.5000     4.9536   655.0746
  634.0000     4.9227   678.6212
  634.5000     4.9774   709.1359
  635.0000     5.0510   699.5590
  635.5000     4.9957   669.6429
  636.0000     4.9302   647.1686
  636.5000     4.8557   619.9567
  637.0000     4.8952   712.7167
  637.5000     5.0081   684.3591
  638.0000     5.0411   658.7158
  638.5000     4.9772   638.5710
  639.0000     4.9251   618.0386
  639.5000     4.7987   602.3337
  640.0000     4.6355   590.9097
  640.5000     4.5798   670.2442
  641.0000     4.5114   659.8824
  641.5000     4.3577   656.7448
  642.0000     4.1800   675.7750
  642.5000     3.9942   715.8264
  643.0000     3.9348   671.9655
  643.5000     3.9484   676.4294
  644.0000     3.9676   702.2448
  644.5000     4.0052   692.6075
  645.0000     4.1090   683.6948
  645.5000     4.2373   693.4723
  646.0000     4.3723   686.7497
  646.5000     4.4101   670.0765
  647.0000     4.3884   686.8397
  647.5000     4.4229   675.5578
  648.0000     4.5718   649.0223
  648.5000     4.5173   647.0665
  649.0000     4.4718   636.4153
  649.5000     4.4210   623.6756
  650.0000     4.3350   636.6321
  650.5000     4.2207   631.9970
  651.0000     4.2152   623.7903
  651.5000     4.1711   635.1844
  652.0000     4.1384   617.1773
  652.5000     4.2215   651.3135
  653.0000     4.3034   645.6061
  653.5000     4.3731   629.0239
  654.0000     4.4661   652.1237
  654.5000     4.5452   713.2526
  655.0000     4.4794   651.6001
  655.5000     4.4393   645.9385
  656.0000     4.3906   636.5263
  656.5000     4.6319   632.4736
  657.0000     4.5390   629.0324
  657.5000     4.6426   625.9474
  658.0000     4.7153   595.5761
  658.5000     4.7400   600.5220
  659.0000     4.7393   621.3858
  659.5000     4.7329   616.4684
  660.0000     4.6735   611.7981
  660.5000     4.6246   590.0730
  661.0000     4.7114   574.8419
  661.5000     4.7010   595.7783
  662.0000     4.6184   614.9595
  662.5000     4.5583   628.8102
  663.0000     4.5580   623.0052
  663.5000     4.5535   613.1501
  664.0000     4.4678   604.2160
  664.5000     4.4118   599.0955
  665.0000     4.4606   642.4683
  665.5000     4.5198   661.3039
  666.0000     4.5640   673.0824
  666.5000     4.7902   673.5829
  667.0000     4.7446   666.7278
  667.5000     4.7150   628.6028
  668.0000     4.9084   599.0782
  668.5000     5.0119   621.3441
  669.0000     5.0612   641.4485
  669.5000     5.2039   651.8770
  670.0000     5.1838   659.1850
  670.5000     5.0990   707.0997
  671.0000     5.0168   696.3198
  671.5000     4.9361   674.4302
  672.0000     4.8579   723.9636
  672.5000     4.7905   675.0731
  673.0000     4.7272   683.4502
  673.5000     4.6604   705.7408
  674.0000     4.5974   726.3418
  674.5000     4.5550   741.6881
  675.0000     4.6887   715.1016
  675.5000     4.6723   694.9712
  676.0000     4.6488   674.4157
  676.5000     4.6153   707.5950
  677.0000     4.6089   736.7301
  677.5000     4.6541   748.7410
  678.0000     4.6823   761.1334
  678.5000     4.6889   769.4474
  679.0000     4.6990   752.5313
  679.5000     4.7342   718.9457
  680.0000     4.7684   710.1404
  680.5000     4.8069   718.2629
  681.0000     4.8426   726.1316
  681.5000     4.9319   759.7578
  682.0000     5.0114   780.1271
  682.5000     5.0944   756.4976
  683.0000     5.0974   735.9551
  683.5000     5.0293   747.1954
  684.0000     4.9359   772.4111
  684.5000     4.8431   766.4910
  685.0000     4.7756   736.4547
  685.5000     4.7823   702.3394
  686.0000     4.7842   680.7556
  686.5000     4.9599   674.0695
  687.0000     5.1667   667.2794
  687.5000     5.2112   677.2382
  688.0000     5.2329   697.7694
  688.5000     5.4579   715.9478
  689.0000     5.3994   734.8521
  689.5000     5.1526   712.5126
  690.0000     5.0633   683.2957
  690.5000     5.1191   671.0576
  691.0000     5.1476   651.0406
  691.5000     5.2963   640.3871
  692.0000     5.2495   654.1324
  692.5000     5.1884   610.5074
  693.0000     5.1819   622.1201
  693.5000     5.3501   639.0546
  694.0000     5.4245   623.6849
  694.5000     5.4627   628.5985
  695.0000     5.4577   689.9619
  695.5000     5.3766   719.8363
  696.0000     5.3598   745.2403
  696.5000     5.3606   736.0425
  697.0000     5.3606   688.1972
  697.5000     5.3603   673.1266
  698.0000     5.3604   660.5161
  698.5000     5.3603   652.8203
  699.0000     5.3603   638.1536
  699.5000     5.3604   619.9265
  700.0000     5.3604   608.4307
  700.5000  -999.2500   614.1404
  701.0000  -999.2500   597.9535
