~VERSION INFORMATION
 VERS.                2.0:   CWLS LOG ASCII STANDARD - VERSION 2.0
 WRAP.                 NO:   ONE LINE PER DEPTH STEP
~WELL INFORMATION
#MNEM.UNIT      DATA TYPE    INFORMATION
#----------   ------------   ------------------------------
 STRT.F           20.0000:   START DEPTH
 STOP.F          677.0000:   STOP DEPTH
 STEP.F            0.5000:   STEP LENGTH
 NULL.          -999.2500:   NO VALUE
 COMP. FENIX & SCISSON INC:   COMPANY
 WELL. 11 WI NPR 3 #36-26 SX:   WELL
 FLD .             TEAPOT:   FIELD
 LOC .      S11 T38N R78W:   LOCATION
 CNTY.            NATRONA:   COUNTY
 STAT.            WYOMING:   STATE
 CTRY. UNITED STATES OF AMERICA:   COUNTRY
 SRVC.      Dresser Atlas:   SERVICE COMPANY
 DATE.        06-AUG-1980:   LOGDATE
 API .       490251084100:   API NUMBER
~CURVE INFORMATION
#MNEM.UNIT       API CODE    CURVE DESCRIPTION
#----------   ------------   ------------------------------
 DEPT.F                  :   
 SPR .MV     07 010 01 00:   SPONTANEOUS POTENTIAL
 SFL .OHMM   07 220 01 00:   SHALLOW FOCUSED LOG RESISTIVITY
 ILD .OHMM   07 120 46 00:   INDUCTION LOG DEEP
 ILM .OHMM   07 120 44 00:   INDUCTION LOG MEDIUM
 GRD .GAPI   45 310 01 00:   GAMMA RAY FROM DENSITY LOG
 RHOB.G/C3   45 350 01 00:   BULK DENSITY
 CALD.IN     45 280 60 00:   CALIPER
 CORR.G/C3   45 356 01 00:   DENSITY CORRECTION
 DPOR.DEC    45 890 12 00:   DENSITY POROSITY SANDSTONE
 NPOR.DEC    42 890 03 00:   NEUTRON POROSITY SANDSTONE
~PARAMETER INFORMATION
#MNEM.UNIT          VALUE    DESCRIPTION
#----------   ------------   ------------------------------
 PD  .                 GL:   PERMANENT DATUM
 EPD .F              5191:   ELEVATION PERMANENT DATUM
 LMF .                 KB:   LOG MEASURED FROM
 DAPD.F                 5:   FEET ABOVE PERMANENT DATUM
 DMF .                 KB:   DRILLING MEASURED FROM
 EKB .F              5196:   KELLING BUSHING
 EGL .F              5191:   GROUND LEVEL
 DATE.             8-6-80:   RUN DATE
 RUN .                  1:   RUN NUMBER
 DD  .F               680:   DEPTH DRILLER
 DL  .F               679:   DEPTH LOGGER
 BLI .F               676:   BOTTOM LOG INTERVAL
 TLI .F                20:   TOP LOG INTERVAL
 BS  .IN            7.875:   BIT SIZE
 BSD .F               680:   BIT SIZE AT DEPTH
 DFT .                KCL:   DRILLING FLUID TYPE
 DFD .                9.4:   DRILLING FLUID DENSITY
 DFV .                 45:   DRILLING FLUID VISCOSITY
 DFPH.                 12:   DRILLING FLUID PH
 MSS .           FLOWLINE:   MUD SAMPLE SOURCE
 RMS .OHMM            .11:   RESISTIVITY MUD SAMPLE
 MST .F                65:   MUD SAMPLE TEMPERATURE
 RMF .OHMM             .1:   RESISTIVITY MUD FILTRATE SAMPLE
 MFST.F                60:   MUD FILTRATE SAMPLE TEMPERATURE
 RMC .OHMM            .17:   RESISTIVITY MUD CAKE
 MCST.F                65:   MUD CAKE SAMPLE TEMPERATURE
 MFSS.               MEAS:   MUD FILTRATE SAMPLE SOURCE
 MCSS.              CHART:   MUD CAKE SAMPLE SOURCE
 TCS .HRS              .5:   TIME CURCULATED STOPPED
 MRT .F               100:   MAXIMUM RECORDED TEMPERATURE
 LUN .               6240:   LOGGING UNIT NUMBER
 LUL .               RVTN:   LOGGING UNIT LOCATION
 ENGI.            K. RALL:   RECORDING ENGINEER
 WITN.     AMAND/MCINTYRE:   WITNESSED BY
 CLNT.            A2DTECH:   CLIENT CODE
 ORIG.        2" 5" PRINT:   ORIGIN OF DATA
 UWI .       490251084100:   UNIQUE WELL ID
 DICO. A2D Technologies, Inc.:   DIGITIZING COMPANY
~OTHER INFORMATION
~A   DEPT       SPR       SFL         ILD         ILM      GRD       RHOB       CALD       CORR       DPOR       NPOR   
# ...
  187.5000   -69.2153     7.8965     7.6815     6.9445   112.7916     2.4246     8.1208    -0.0106     0.1535     0.3123
  188.0000   -69.0169     7.7728     7.4841     6.8509   113.3872     2.4338     8.1196    -0.0032     0.1496     0.3142
  188.5000   -69.0407     7.5462     7.3524     6.7586   112.2636     2.4461     8.1185     0.0058     0.1414     0.2952
  189.0000   -69.1275     7.3243     7.2230     6.6676   110.1322     2.4614     8.1173     0.0152     0.1338     0.2883
  189.5000   -69.2157     7.2410     7.0959     6.5778   108.8448     2.4636     8.1162     0.0181     0.1274     0.2869
  190.0000   -69.3032     7.2014     7.0245     6.4892   109.2063     2.4627     8.1150     0.0191     0.1274     0.2795
  190.5000   -69.3906     7.0630     6.9670     6.4018   110.1704     2.4553     8.1139     0.0201     0.1322     0.2571
  191.0000   -69.4785     6.9336     6.8519     6.2923   110.0960     2.4485     8.1127     0.0211     0.1373     0.2571
  191.5000   -69.5694     6.8066     6.6947     6.0887   109.7688     2.4522     8.1116     0.0258     0.1361     0.2669
  192.0000   -69.4677     6.6299     6.5402     5.8908   110.3474     2.4510     8.1104     0.0308     0.1346     0.2780
  192.5000   -69.3367     6.6527     6.4487     5.7744   110.7747     2.4288     8.1092     0.0105     0.1487     0.3046
  193.0000   -69.2054     6.6922     6.5013     5.8511   108.7998     2.4052     8.1081    -0.0123     0.1637     0.3289
  193.5000   -69.0749     6.7319     6.5647     5.9439   106.6634     2.4014     8.1069    -0.0121     0.1637     0.3204
  194.0000   -68.9443     6.7718     6.6285     6.0385   107.4234     2.4294     8.1058    -0.0005     0.1445     0.3080
  194.5000   -68.8116     6.8155     6.6929     6.1343   111.9691     2.4355     8.1046     0.0105     0.1439     0.3058
  195.0000   -68.5756     6.9368     6.7579     6.2316   113.9641     2.4423     8.1034     0.0149     0.1425     0.2945
  195.5000   -68.2947     7.0720     6.8236     6.3305   114.2046     2.4549     8.1023     0.0194     0.1293     0.2838
  196.0000   -68.0129     7.2101     6.8899     6.4309   113.6010     2.4628     8.1011     0.0177     0.1400     0.2799
  196.5000   -67.7338     7.3506     6.9569     6.5329   113.7483     2.4254     8.1000    -0.0128     0.1581     0.2942
  197.0000   -67.6099     7.4039     7.0245     6.6299   115.1355     2.4148     8.0988    -0.0338     0.1585     0.3098
  197.5000   -67.7113     7.3170     7.0905     6.6834   117.2569     2.4339     8.0977    -0.0319     0.1430     0.3098
  198.0000   -67.9042     7.2571     7.1522     6.7341   117.3514     2.4527     8.0965    -0.0169     0.1339     0.2994
  198.5000   -68.2712     7.2023     7.2145     6.7852   115.0593     2.4532     8.0954    -0.0021     0.1340     0.2963
  199.0000   -68.3733     7.3649     7.2773     6.8367   112.9254     2.4526     8.0942     0.0096     0.1343     0.2953
  199.5000   -68.3222     7.5189     7.3406     6.8885   111.8297     2.4512     8.0931     0.0075     0.1345     0.3022
  200.0000   -68.0365     7.6753     7.4046     6.9408   110.9624     2.4493     8.0919     0.0055     0.1377     0.3146
  200.5000   -67.7583     7.7510     7.4724     6.9934   110.5006     2.4499     8.0907     0.0133     0.1346     0.3030
  201.0000   -67.4769     7.7121     7.4999     7.0197   110.3894     2.4606     8.0896     0.0242     0.1288     0.2935
  201.5000   -67.4671     7.6815     7.5287     7.0375   110.5568     2.4718     8.0884     0.0355     0.1210     0.2801
  202.0000   -67.6211     7.6989     7.5578     7.0553   111.0132     2.4921     8.0878     0.0441     0.1110     0.2782
  202.5000   -67.7791     7.7195     7.5868     7.0710   114.0485     2.5105     8.0891     0.0547     0.1006     0.2946
  203.0000   -67.9431     7.7400     7.6111     6.9551   116.3596     2.5080     8.0903     0.0470     0.1022     0.3142
  203.5000   -67.8688     7.7534     7.4826     6.8536   117.1475     2.4768     8.0915     0.0283     0.1194     0.3206
  204.0000   -67.7353     7.5975     7.3742     6.7535   115.4374     2.4441     8.0927     0.0093     0.1421     0.3113
  204.5000   -67.6008     7.4720     7.2675     6.6550   110.7592     2.4398     8.0939    -0.0002     0.1404     0.3015
  205.0000   -67.4669     7.3486     7.1623     6.5578   108.9851     2.4449     8.0951     0.0016     0.1381     0.2940
  205.5000   -67.3331     7.2272     7.0584     6.4621   108.3242     2.4325     8.0963    -0.0071     0.1444     0.2866
  206.0000   -67.1993     7.1364     6.9419     6.3904   108.4434     2.4108     8.0976    -0.0184     0.1558     0.2874
  206.5000   -67.0653     7.1364     6.9641     6.3987   108.6327     2.4176     8.0988    -0.0136     0.1609     0.2910
  207.0000   -66.9318     7.2728     6.9980     6.4055   108.7410     2.4399     8.1000     0.0016     0.1443     0.3105
  207.5000   -66.7939     7.3668     7.0062     6.4123   107.9371     2.4617     8.1012     0.0221     0.1302     0.3322
  208.0000   -66.8682     7.4039     6.9402     6.4191   106.3029     2.4797     8.1024     0.0453     0.1170     0.3429
  208.5000   -66.9449     7.2226     6.8785     6.4259   106.3453     2.4800     8.1036     0.0394     0.1229     0.3345
  209.0000   -66.8309     7.1364     6.8921     6.4327   108.6137     2.4573     8.1048     0.0234     0.1320     0.3128
  209.5000   -66.7214     7.1868     6.9116     6.4395   109.6061     2.4534     8.1060     0.0215     0.1373     0.3051
  210.0000   -66.6091     7.2796     6.9312     6.4463   109.4050     2.4675     8.1072     0.0285     0.1210     0.2998
  210.5000   -66.6786     7.3736     6.9508     6.4531   110.6161     2.4745     8.1085     0.0267     0.1241     0.2962
  211.0000   -66.8616     7.4689     6.9706     6.4599   112.6486     2.4622     8.1099     0.0193     0.1297     0.2862
  211.5000   -67.0451     7.5653     6.9903     6.4668   115.5081     2.4537     8.1113     0.0118     0.1331     0.2784
  212.0000   -67.1836     7.6815     7.0097     6.4736   117.4076     2.4591     8.1126     0.0056     0.1289     0.2844
  212.5000   -67.2225     7.5936     7.0269     6.4805   117.4509     2.4622     8.1140     0.0082     0.1304     0.2976
  213.0000   -67.2632     7.4544     7.0443     6.4873   115.4945     2.4573     8.1154     0.0107     0.1341     0.3114
  213.5000   -67.3035     7.3350     7.0617     6.4942   114.5536     2.4516     8.1168     0.0129     0.1345     0.3090
  214.0000   -67.3434     7.3632     7.0792     6.5010   114.1486     2.4543     8.1182     0.0200     0.1317     0.3038
  214.5000   -67.3698     7.4116     7.0967     6.5071   111.8847     2.4564     8.1195     0.0234     0.1374     0.3032
  215.0000   -67.3694     7.4605     7.1142     6.5690   109.7991     2.4459     8.1209     0.0225     0.1447     0.3062
  215.5000   -67.3696     7.5096     7.1319     6.6405   110.4016     2.4346     8.1223     0.0058     0.1446     0.3086
  216.0000   -67.3697     7.5507     7.1515     6.7131   112.0154     2.4337     8.1237    -0.0024     0.1377     0.3037
  216.5000   -67.3724     7.5767     7.1938     6.7865   112.3009     2.4428     8.1251     0.0089     0.1308     0.3018
  217.0000   -67.2434     7.6027     7.2364     6.8610   112.1812     2.4597     8.1264     0.0219     0.1277     0.3068
  217.5000   -67.0782     7.6289     7.2793     6.9415   112.9417     2.4647     8.1279     0.0254     0.1309     0.3119
  218.0000   -66.9123     7.6552     7.3225     6.9838   114.9017     2.4617     8.1274     0.0240     0.1324     0.3150
  218.5000   -66.7468     7.6815     7.3658     7.0298   117.8470     2.4574     8.1261     0.0182     0.1297     0.3180
  219.0000   -66.5813     7.7080     7.4095     7.0761   119.0115     2.4572     8.1247     0.0125     0.1297     0.3180
  219.5000   -66.4158     7.7345     7.4534     7.1227   115.8466     2.4605     8.1233     0.0158     0.1297     0.2997
  220.0000   -66.2503     7.7766     7.4976     7.1696   113.7787     2.4613     8.1220     0.0215     0.1231     0.2893
  220.5000   -66.0848     7.9670     7.5420     7.2168   115.2600     2.4643     8.1206     0.0235     0.1154     0.2715
