~VERSION INFORMATION
 VERS.                2.0:   CWLS LOG ASCII STANDARD - VERSION 2.0
 WRAP.                 NO:   ONE LINE PER DEPTH STEP
~WELL INFORMATION
#MNEM.UNIT      DATA TYPE    INFORMATION
#----------   ------------   ------------------------------
 STRT.F            8.0000:   START DEPTH
 STOP.F          866.5000:   STOP DEPTH
 STEP.F            0.5000:   STEP LENGTH
 NULL.          -999.2500:   NO VALUE
 COMP. LAWRENCE/ALLISON INC:   COMPANY
 WELL.    42-11 SX #11-11:   WELL
 FLD .              NPR 3:   FIELD
 LOC .      S11 T38N R78W:   LOCATION
 CNTY.            NATRONA:   COUNTY
 STAT.            WYOMING:   STATE
 CTRY. UNITED STATES OF AMERICA:   COUNTRY
 SRVC.           Gearhart:   SERVICE COMPANY
 DATE.        17-MAY-1987:   LOGDATE
 API .       490251112700:   API NUMBER
~CURVE INFORMATION
#MNEM.UNIT       API CODE    CURVE DESCRIPTION
#----------   ------------   ------------------------------
 DEPT.F                  :   
 GRR .GAPI   07 310 01 00:   GAMMA RAY FROM RES. LOG.
 RILD.OHMM   07 120 46 00:   INDUCTION LOG DEEP RESISTIVITY
 RILM.OHMM   07 120 44 00:   INDUCTION LOG MEDIUM RESISTIVITY
~PARAMETER INFORMATION
#MNEM.UNIT          VALUE    DESCRIPTION
#----------   ------------   ------------------------------
 PD  .                 GL:   PERMANENT DATUM
 EPD .F              5166:   ELEVATION PERMANENT DATUM
 LMF .                 KB:   LOG MEASURED FROM
 DAPD.F                 8:   FEET ABOVE PERMANENT DATUM
 DMF .                 KB:   DRILLING MEASURED FROM
 EKB .F              5174:   KELLING BUSHING
 EDF .F              5174:   DRILLING FLOOR
 EGL .F              5166:   GROUND LEVEL
 DATE.            5-17-87:   RUN DATE
 RUN .                  1:   RUN NUMBER
 DD  .F               891:   DEPTH DRILLER
 DL  .F               874:   DEPTH LOGGER
 BLI .F               865:   BOTTOM LOG INTERVAL
 TLI .F                44:   TOP LOG INTERVAL
 CS  .IN            8.625:   CASING SIZE
 CBD .F                49:   CASING BOTTOM DRILLER
 CBL .F                44:   CASING BOTTOM LOGGER
 BS  .IN            7.875:   BIT SIZE
 BSD .F               891:   BIT SIZE AT DEPTH
 DFT .           AIR FOAM:   DRILLING FLUID TYPE
 TCS .HRS            0300:   TIME CURCULATED STOPPED
 TLAB.HRS            1255:   TIME LOGGER AT BOTTOM
 MRT .F                80:   MAXIMUM RECORDED TEMPERATURE
 LUN .               7597:   LOGGING UNIT NUMBER
 LUL .           GILLETTE:   LOGGING UNIT LOCATION
 ENGI.            WANGLER:   RECORDING ENGINEER
 WITN.             STRONG:   WITNESSED BY
 CLNT.            A2DTECH:   CLIENT CODE
 ORIG.       2", 5" PRINT:   ORIGIN OF DATA
 UWI .       490251112700:   UNIQUE WELL ID
 DICO. A2D Technologies, Inc.:   DIGITIZING COMPANY
~OTHER INFORMATION
~A    DEPT      GRR      RILD       RILM   
# ...
  645.0000    72.2045    21.2314    20.7702
  645.5000    73.2208    20.9396    20.2851
  646.0000    73.6029    20.5240    19.9220
  646.5000    73.4059    20.1162    19.5654
  647.0000    73.5857    19.7166    19.1495
  647.5000    74.7772    19.3088    18.7076
  648.0000    77.1864    18.8720    18.2759
  648.5000    79.6511    18.4451    17.8542
  649.0000    81.2389    18.1063    17.5664
  649.5000    81.4674    17.8857    17.3647
  650.0000    79.7272    17.5783    17.1654
  650.5000    78.4205    17.2628    16.9970
  651.0000    78.1596    16.9528    16.8882
  651.5000    78.3869    16.7140    16.7801
  652.0000    79.6181    16.7857    16.6728
  652.5000    81.2497    16.8448    16.5569
  653.0000    83.4460    16.9041    16.5995
  653.5000    83.6441    16.9636    16.6462
  654.0000    83.1581    17.0234    16.6931
  654.5000    82.3836    17.0832    16.7401
  655.0000    81.6160    17.1432    16.7873
  655.5000    80.8549    17.2228    16.8348
  656.0000    80.0713    17.4132    16.9204
  656.5000    81.1494    17.6518    17.1794
  657.0000    83.0162    18.2107    17.4431
  657.5000    81.8746    18.7871    18.7453
  658.0000    79.0611    19.3823    20.6401
  658.5000    76.2290    19.9966    22.7264
  659.0000    74.0043    20.6289    25.0342
  659.5000    71.7565    21.1324    27.1871
  660.0000    66.1072    21.3672    29.1832
  660.5000    62.7531    21.3672    28.9088
  661.0000    62.2303    20.7702    27.1701
  661.5000    64.2510    19.7503    24.4374
  662.0000    68.3320    18.7954    21.7747
  662.5000    74.5875    17.8341    19.7419
  663.0000    80.9697    16.9221    17.6954
  663.5000    85.9955    16.1798    16.9078
  664.0000    87.4749    15.8819    16.4087
  664.5000    87.2608    15.5795    16.0888
  665.0000    86.0619    15.3599    15.7752
  665.5000    84.5685    15.1712    15.5663
  666.0000    84.1988    14.9857    15.4316
  666.5000    85.4892    14.8024    15.2982
  667.0000    86.7749    14.7822    15.1860
  667.5000    84.9729    14.7823    15.1182
  668.0000    81.9968    14.7896    15.0644
  668.5000    79.0147    14.8264    15.1299
  669.0000    78.5435    14.8629    15.1845
  669.5000    79.8182    14.8995    15.2392
  670.0000    81.5629    14.9362    15.2942
  670.5000    83.3264    14.9730    15.3494
  671.0000    84.7144    15.0099    15.4049
  671.5000    83.8709    15.0631    15.4612
  672.0000    82.1426    15.0457    15.4972
  672.5000    81.1058    15.0104    15.3667
  673.0000    83.1133    14.9755    15.2695
  673.5000    85.2141    14.9425    15.1728
  674.0000    86.9428    14.8293    15.0767
  674.5000    87.3549    14.7097    14.9813
  675.0000    86.1104    14.6102    14.9052
  675.5000    86.5577    14.5113    14.8594
  676.0000    89.5310    14.4132    14.8138
  676.5000    90.0584    14.3159    14.7825
  677.0000    87.0430    14.2083    14.7517
  677.5000    83.8466    14.0480    14.5618
  678.0000    80.7193    13.8892    14.3745
  678.5000    78.9672    13.7324    14.1895
  679.0000    79.5275    13.5773    14.0069
  679.5000    80.3009    13.4239    13.8266
  680.0000    80.3158    13.2723    13.6487
  680.5000    79.8238    13.0742    13.4494
  681.0000    80.8689    13.0856    13.4615
  681.5000    83.9084    13.1026    13.4790
  682.0000    86.7765    13.1196    13.4967
  682.5000    86.5019    13.1366    13.5142
  683.0000    86.4018    13.1535    13.5317
  683.5000    88.0281    13.1704    13.5493
  684.0000    87.9171    13.1884    13.5666
  684.5000    83.7519    13.1981    13.5762
  685.0000    79.8637    13.0498    13.4940
  685.5000    77.6711    12.9429    13.4097
  686.0000    79.1018    12.8372    13.2621
  686.5000    80.6483    12.7323    13.1161
  687.0000    82.1853    12.6283    12.9716
  687.5000    83.2486    12.5253    12.8287
  688.0000    83.6673    12.4222    12.6874
  688.5000    84.5294    12.3148    12.5475
  689.0000    85.8121    12.1942    12.4098
  689.5000    87.0779    12.0748    12.3232
  690.0000    87.5614    11.9859    12.2733
  690.5000    85.2125    11.9347    12.2376
  691.0000    85.0846    11.8838    12.2099
  691.5000    85.1081    11.8328    12.1005
  692.0000    84.7215    11.7841    12.0645
  692.5000    84.2661    11.7711    12.0273
  693.0000    85.0741    11.7439    11.9904
  693.5000    86.7678    11.7165    11.9536
  694.0000    89.2143    11.6890    11.9170
  694.5000    88.0467    11.6730    11.8957
  695.0000    86.0777    11.7314    11.9859
  695.5000    86.3263    11.8009    12.0599
  696.0000    87.4448    11.8708    12.1343
  696.5000    88.2244    11.9411    12.2094
  697.0000    87.2630    12.0086    12.2844
  697.5000    87.4704    12.0086    12.3557
  698.0000    87.8794    11.8546    12.2151
  698.5000    87.6702    11.7964    12.0634
  699.0000    86.0950    11.6565    11.9124
  699.5000    84.2191    11.4959    11.7636
  700.0000    82.5251    11.3376    11.6167
  700.5000    82.7471    11.1814    11.4716
  701.0000    85.2581    11.0267    11.3282
  701.5000    88.4796    10.8777    11.1866
  702.0000    90.7124    10.7210    11.0471
  702.5000    91.7439    10.6188    10.9261
  703.0000    92.4354    10.6319    10.9261
  703.5000    92.5973    10.6977    10.9523
  704.0000    90.6863    10.7641    11.0174
  704.5000    83.8764    10.8303    11.0829
  705.0000    79.7265    10.8968    11.1488
  705.5000    78.5296    10.9280    11.2196
  706.0000    79.7983    10.7216    11.8868
  706.5000    84.8820    11.6543    11.6939
  707.0000    89.3632    12.3739    11.5625
  707.5000    90.9743    13.1997    11.9290
  708.0000    90.5642    14.0807    12.6621
  708.5000    88.6304    15.0204    13.6075
  709.0000    83.9738    16.0943    14.7575
  709.5000    79.2250    17.4214    16.1508
  710.0000    76.0275    19.1446    17.6771
  710.5000    74.0505    20.4466    19.3354
  711.0000    73.0832    21.4478    21.0772
  711.5000    72.7077    22.4066    21.9157
  712.0000    72.5870    23.3216    22.8186
  712.5000    73.0223    24.2020    23.7525
  713.0000    73.4316    25.1156    24.7244
  713.5000    73.1114    26.1193    25.7350
  714.0000    71.9421    26.8046    26.8070
  714.5000    70.1491    26.4169    29.1454
  715.0000    68.3436    26.0982    30.6718
  715.5000    66.5589    25.6188    31.7728
  716.0000    66.5715    25.1411    30.2602
  716.5000    69.5803    24.5277    28.3037
  717.0000    73.4979    23.7396    26.4736
  717.5000    77.2032    22.9443    24.6199
  718.0000    79.6179    22.0768    23.4005
  718.5000    79.7887    21.2363    22.3288
  719.0000    78.8295    20.5879    21.6054
  719.5000    76.7019    20.1684    20.9673
  720.0000    74.6486    19.7805    20.4890
  720.5000    73.6764    19.5474    20.2733
  721.0000    72.6995    19.3170    20.0816
  721.5000    71.7237    19.0893    19.8917
  722.0000    70.7353    18.8643    19.7036
  722.5000    70.6500    18.5980    19.5173
  723.0000    73.9774    18.2566    19.1768
  723.5000    78.6972    17.9215    18.7361
  724.0000    82.5305    17.6174    18.3032
  724.5000    81.1994    17.3762    17.9081
  725.0000    79.9743    17.1401    17.5548
  725.5000    79.1694    16.9061    17.3577
  726.0000    79.7062    16.8402    17.1945
  726.5000    80.9781    16.8025    17.1945
  727.0000    82.2880    16.7652    17.2476
  727.5000    82.6169    16.7273    17.3188
  728.0000    78.9961    16.6380    17.3577
  728.5000    76.3993    16.5210    17.1945
  729.0000    76.9203    16.4014    16.9861
  729.5000    81.2091    16.1179    16.7638
  730.0000    86.9448    15.8321    16.5604
  730.5000    87.0033    15.6011    16.2442
  731.0000    84.9094    15.3485    15.8959
  731.5000    82.6204    15.0702    15.5924
  732.0000    82.4830    14.7970    15.3197
  732.5000    84.6161    14.5288    15.0517
  733.0000    86.7447    14.2633    14.7885
  733.5000    88.8866    14.0795    14.5298
  734.0000    90.1441    13.9590    14.2757
  734.5000    85.7745    13.8396    14.1833
  735.0000    81.2807    13.7212    14.1223
  735.5000    78.4111    13.6038    14.0619
