~VERSION INFORMATION
 VERS.                2.0:   CWLS LOG ASCII STANDARD - VERSION 2.0
 WRAP.                 NO:   ONE LINE PER DEPTH STEP
~WELL INFORMATION
#MNEM.UNIT      DATA TYPE    INFORMATION
#----------   ------------   ------------------------------
 STRT.F           15.0000:   START DEPTH
 STOP.F          692.0000:   STOP DEPTH
 STEP.F            0.5000:   STEP LENGTH
 NULL.          -999.2500:   NO VALUE
 COMP.    FENIX & SCISSON:   COMPANY
 WELL. S 15 NPR #3 #73-15:   WELL
 FLD .             TEAPOT:   FIELD
 LOC .      S15 T38N R78W:   LOCATION
 CNTY.            NATRONA:   COUNTY
 STAT.            WYOMING:   STATE
 CTRY. UNITED STATES OF AMERICA:   COUNTRY
 SRVC.              Welex:   SERVICE COMPANY
 DATE.        23-FEB-1977:   LOGDATE
 API .       490251057900:   API NUMBER
~CURVE INFORMATION
#MNEM.UNIT       API CODE    CURVE DESCRIPTION
#----------   ------------   ------------------------------
 DEPT.F                  :   
 SPR .MV     07 010 01 00:   SPONTANEOUS POTENTIAL
 SGRD.OHMM   07 220 05 00:   SHALLOW GUARD RESISTIVITY
 ILD .OHMM   07 120 46 00:   INDUCTION LOG DEEP
 ILM .OHMM   07 120 44 00:   INDUCTION LOG MEDIUM
 CALD.IN     45 280 60 00:   CALIPER
 GRD .GAPI   45 310 01 00:   GAMMA RAY FROM DENSITY LOG
 CORR.G/C3   45 356 01 00:   DENSITY CORRECTION
 DPHI.DEC    45 890 10 00:   DENSITY POROSITY SANDSTONE
 RHOB.G/C3   45 350 01 00:   BULK DENSITY
~PARAMETER INFORMATION
#MNEM.UNIT          VALUE    DESCRIPTION
#----------   ------------   ------------------------------
 PD  .                 GL:   PERMANENT DATUM
 EPD .F              5251:   ELEVATION PERMANENT DATUM
 LMF .                 GL:   LOG MEASURED FROM
 DMF .                 GL:   DRILLING MEASURED FROM
 EGL .F              5251:   GROUND LEVEL
 DATE.            2-23-77:   RUN DATE
 RUN .                  1:   RUN NUMBER
 DD  .F               686:   DEPTH DRILLER
 DL  .F               695:   DEPTH LOGGER
 BLI .F               693:   BOTTOM LOG INTERVAL
 TLI .F                42:   TOP LOG INTERVAL
 CS  .IN            8.625:   CASING SIZE
 CBD .F                42:   CASING BOTTOM DRILLER
 CBL .F                42:   CASING BOTTOM LOGGER
 BS  .IN            7.875:   BIT SIZE
 BSD .F               686:   BIT SIZE AT DEPTH
 DFT .           CHEM GEL:   DRILLING FLUID TYPE
 DFD .                8.8:   DRILLING FLUID DENSITY
 DFV .                 33:   DRILLING FLUID VISCOSITY
 DFPH.                  7:   DRILLING FLUID PH
 DFL .               11.2:   DRILLING FLUID LOSS
 MSS .          FLOW LINE:   MUD SAMPLE SOURCE
 RMS .OHMM            .32:   RESISTIVITY MUD SAMPLE
 MST .F                68:   MUD SAMPLE TEMPERATURE
 RMF .OHMM            .28:   RESISTIVITY MUD FILTRATE SAMPLE
 MFST.F                68:   MUD FILTRATE SAMPLE TEMPERATURE
 RMC .OHMM            .61:   RESISTIVITY MUD CAKE
 MCST.F                68:   MUD CAKE SAMPLE TEMPERATURE
 MFSS.           MEASURED:   MUD FILTRATE SAMPLE SOURCE
 MCSS.           MEASURED:   MUD CAKE SAMPLE SOURCE
 RMB .OHMM           .410:   RESISTIVITY MUD AT BHT
 BHT .F                53:   BOTTOM HOLE TEMPERATURE
 TCS .HRS               2:   TIME CURCULATED STOPPED
 MRT .F                53:   MAXIMUM RECORDED TEMPERATURE
 LUN .               8611:   LOGGING UNIT NUMBER
 LUL .           GILLETTE:   LOGGING UNIT LOCATION
 ENGI.            C. DOAK:   RECORDING ENGINEER
 WITN.         STUEBINGER:   WITNESSED BY
 CLNT.            A2DTECH:   CLIENT CODE
 ORIG. 1", 2.5", 5" PRINT:   ORIGIN OF DATA
 UWI .       490251057900:   UNIQUE WELL ID
 DICO. A2D Technologies, Inc.:   DIGITIZING COMPANY
~OTHER INFORMATION
~A   DEPT      SPR       SGRD        ILD        ILM       CALD         GRD      CORR       DPHI       RHOB   
# ...
  416.5000   -54.9603    10.1027     6.4651     9.2519     8.3334   127.9504     0.0698     0.1024     2.4799
  417.0000   -54.9603    10.1027     6.4317     9.0554     8.3345   131.8479     0.0707     0.1033     2.4773
  417.5000   -54.9602    10.0053     6.3986     8.8631     8.3371   135.5116     0.0714     0.1060     2.4735
  418.0000   -54.9602     9.6622     6.3685     8.6738     8.3417   139.1961     0.0722     0.1088     2.4696
  418.5000   -54.9602     9.3310     6.2458     8.4880     8.3452   139.8065     0.0730     0.1088     2.4680
  419.0000   -54.9599     9.0436     6.1351     8.3962     8.3489   138.2507     0.0738     0.1044     2.4725
  419.5000   -54.9603     9.0436     6.0263     8.3956     8.3527   136.7799     0.0746     0.1008     2.4783
  420.0000   -54.9600     9.0436     5.9194     8.4049     8.3565   136.4351     0.0754     0.0971     2.4839
  420.5000   -54.9586     8.9528     5.8071     8.1100     8.3603   141.7918     0.0760     0.0941     2.4876
  421.0000   -54.9798     8.6794     5.6953     7.8632     8.3641   138.7533     0.0785     0.0926     2.4902
  421.5000   -55.0471     8.4144     5.4909     7.6256     8.3680   135.1747     0.0834     0.0912     2.4927
  422.0000   -55.1140     8.1575     5.2939     7.3927     8.3695   137.7396     0.0878     0.0887     2.4968
  422.5000   -55.1807     7.9084     5.1039     7.1670     8.3655   137.3281     0.0925     0.0852     2.5027
  423.0000   -55.2454     7.6670     4.9207     6.9482     8.3617   136.2681     0.0971     0.0816     2.5088
  423.5000   -55.3206     6.9909     4.7400     6.7360     8.3577   135.3750     0.0996     0.0781     2.5128
  424.0000   -55.3676     5.7503     4.7400     6.5304     8.3538   136.1958     0.0955     0.0847     2.5063
  424.5000   -55.5142     5.1032     4.8283     6.4871     8.3499   137.2951     0.0921     0.0903     2.4947
  425.0000   -55.6723     6.1377     4.8538     6.4871     8.3460   135.5195     0.0885     0.0958     2.4835
  425.5000   -55.8365     7.3927     4.9846     6.6080     8.3421   137.2941     0.0849     0.1014     2.4726
  426.0000   -55.9958     8.1766     5.1189     6.9431     8.3381   140.4198     0.0814     0.1080     2.4643
  426.5000   -56.1584     8.5659     5.2567     7.3045     8.3343   143.8946     0.0777     0.1088     2.4738
  427.0000   -56.3183     8.9738     5.3983     7.6847     8.3310   140.7371     0.0768     0.1013     2.4850
  427.5000   -56.4757     9.4010     5.5437     8.0847     8.3350   136.9561     0.0777     0.0943     2.4967
  428.0000   -56.6473     9.7365     5.7235     8.4087     8.3387   133.4442     0.0785     0.0872     2.5087
  428.5000   -56.7907     9.6346     5.9267     8.4443     8.3427   133.9357     0.0790     0.0809     2.5141
  429.0000   -56.9148     9.4132     6.1371     8.4801     8.3466   135.4442     0.0799     0.0824     2.5093
  429.5000   -56.4605     9.2121     6.3550     8.5160     8.3505   136.9705     0.0813     0.0844     2.5061
  430.0000   -56.0256     9.3577     6.6080     8.5564     8.3544   138.1531     0.0843     0.0843     2.5064
  430.5000   -55.7407     9.5779     6.6338     8.6572     8.3583   136.9401     0.0817     0.0827     2.5075
  431.0000   -56.1655     9.8033     6.6633     8.7730     8.3623   135.8081     0.0800     0.0817     2.5073
  431.5000   -56.5857    10.2909     6.6928     8.8904     8.3661   136.2147     0.0781     0.0828     2.5051
  432.0000   -56.9338    10.1991     6.7226     9.0093     8.3703   136.9310     0.0761     0.0846     2.5031
  432.5000   -56.9449    10.0705     6.7524     9.2121     8.3730   134.5730     0.0742     0.0864     2.5011
  433.0000   -56.9105     9.9436     6.7824     9.2057     8.3760   134.3458     0.0722     0.0882     2.4997
  433.5000   -56.8345     9.8182     6.8135     9.1863     8.3789   136.0641     0.0703     0.0880     2.5020
  434.0000   -56.7660     9.7365     6.8557     9.1669     8.3818   133.9062     0.0687     0.0846     2.5057
  434.5000   -56.6983     9.7552     6.8227     9.1475     8.3847   135.5542     0.0699     0.0809     2.5090
  435.0000   -56.6275     9.7749     6.7593     9.1282     8.3876   138.9638     0.0711     0.0809     2.5119
  435.5000   -56.5582     9.7947     6.6964     9.1089     8.3905   142.2509     0.0723     0.0816     2.5108
  436.0000   -56.4890     9.8145     6.6340     9.0897     8.3934   145.3373     0.0735     0.0825     2.5093
  436.5000   -56.4195     9.8344     6.5723     9.0705     8.3963   145.4178     0.0747     0.0834     2.5077
  437.0000   -56.3497     9.8541     6.4871     9.0449     8.3992   143.5713     0.0760     0.0843     2.5062
  437.5000   -56.2828     9.8742     6.4904     9.0618     8.4021   141.8080     0.0772     0.0849     2.5046
  438.0000   -56.2095     9.8942     6.5072     9.0965     8.4051   141.3734     0.0784     0.0849     2.5038
  438.5000   -56.1419     9.9143     6.5241     9.1312     8.4079   142.3288     0.0796     0.0843     2.5051
  439.0000   -55.9873     9.9343     6.5410     9.1656     8.4101   139.2128     0.0806     0.0835     2.5081
  439.5000   -55.8462     9.9544     6.5579     9.1999     8.4067   136.6046     0.0811     0.0827     2.5107
  440.0000   -55.7020     9.9750     6.5749     9.2342     8.4038   133.7307     0.0816     0.0819     2.5139
  440.5000   -55.5616     9.9960     6.5919     9.2681     8.4006   131.7460     0.0820     0.0812     2.5120
  441.0000   -55.4031    10.0150     6.6080     9.3028     8.3976   134.0568     0.0825     0.0832     2.5074
  441.5000   -55.4408    10.0353     6.4918     9.3375     8.3945   138.5491     0.0830     0.0864     2.5026
  442.0000   -55.6247    10.0556     6.3837     9.3837     8.3914   142.4871     0.0834     0.0872     2.5005
  442.5000   -55.7702    10.0760     6.2774     9.3037     8.3883   145.1073     0.0838     0.0864     2.5034
  443.0000   -55.8449    10.1027     6.1728     9.1864     8.3852   143.6582     0.0844     0.0895     2.4998
  443.5000   -55.9259     9.8736     6.0700     9.0706     8.3822   141.5561     0.0832     0.0936     2.4940
  444.0000   -56.0022     9.5509     5.9689     8.9563     8.3791   139.2384     0.0805     0.0976     2.4884
  444.5000   -56.0795     9.2121     5.8695     8.8434     8.3760   137.4160     0.0778     0.0970     2.4841
  445.0000   -56.1577     9.2737     5.7717     8.7319     8.3729   138.8627     0.0770     0.0940     2.4904
  445.5000   -56.2346     9.3328     5.6756     8.6219     8.3701   141.2916     0.0786     0.0905     2.4959
  446.0000   -56.3114     9.3879     5.5811     8.5132     8.3682   143.8418     0.0803     0.0905     2.4958
  446.5000   -56.3908     8.8576     5.4881     8.4000     8.3663   143.7943     0.0788     0.0935     2.4929
  447.0000   -56.4644     8.1904     5.3967     8.3418     8.3644   140.3939     0.0758     0.0960     2.4901
  447.5000   -56.5415     7.5540     5.3068     8.2366     8.3624   137.1680     0.0730     0.1021     2.4841
  448.0000   -56.4974     6.3875     5.2184     8.1328     8.3605   134.2633     0.0702     0.1076     2.4714
  448.5000   -56.4475     5.3375     5.1983     8.0303     8.3586   135.7077     0.0674     0.1131     2.4573
  449.0000   -56.3926     7.4434     5.1983     7.9475     8.3567   140.4271     0.0646     0.1186     2.4462
  449.5000   -56.3405     9.2121     5.3223     8.1102     8.3548   143.0547     0.0615     0.1207     2.4447
  450.0000   -56.2878     9.2526     5.4294     8.2503     8.3529   138.4470     0.0623     0.1107     2.4586
  450.5000   -56.2348     9.2937     5.5388     8.3929     8.3510   134.0693     0.0660     0.1006     2.4732
  451.0000   -56.1821     9.3350     5.6503     8.5380     8.3491   131.0609     0.0694     0.0925     2.4879
  451.5000   -56.1293     9.3764     5.7640     8.6856     8.3471   131.9235     0.0727     0.0908     2.5014
  452.0000   -56.0766     9.4180     5.8071     8.8357     8.3452   133.6098     0.0761     0.0889     2.5018
  452.5000   -56.0240     9.4599     5.7354     9.0436     8.3433   132.2079     0.0795     0.0889     2.5004
