~VERSION INFORMATION
 VERS.                2.0:   CWLS LOG ASCII STANDARD - VERSION 2.0
 WRAP.                 NO:   ONE LINE PER DEPTH STEP
~WELL INFORMATION
#MNEM.UNIT      DATA TYPE    INFORMATION
#----------   ------------   ------------------------------
 STRT.F            0.0000:   START DEPTH
 STOP.F          547.0000:   STOP DEPTH
 STEP.F            0.1000:   STEP LENGTH
 NULL.          -999.2500:   NO VALUE
 COMP.       F D SERV INC:   COMPANY
 WELL.    87-5 SX 3 #87-3:   WELL
 FLD .             TEAPOT:   FIELD
 LOC .       S3 T38N R78W:   LOCATION
 CNTY.            NATRONA:   COUNTY
 STAT.            WYOMING:   STATE
 CTRY. UNITED STATES OF AMERICA:   COUNTRY
 SRVC.     Atlas Wireline:   SERVICE COMPANY
 DATE.        31-OCT-1992:   LOGDATE
 API .       490252254800:   API NUMBER
~CURVE INFORMATION
#MNEM.UNIT       API CODE    CURVE DESCRIPTION
#----------   ------------   ------------------------------
 DEPT.F                  :   
 GRR .GAPI   07 310 01 00:   GAMMA RAY
 RILD.OHMM   07 120 46 00:   INDUCTION LOG DEEP RESISTIVITY
 RILM.OHMM   07 120 44 00:   INDUCTION LOG MEDIUM RESISTIVITY
~PARAMETER INFORMATION
#MNEM.UNIT          VALUE    DESCRIPTION
#----------   ------------   ------------------------------
 PD  .                 GL:   PERMANENT DATUM
 EPD .F              5119:   ELEVATION PERMANENT DATUM
 LMF .                 KB:   LOG MEASURED FROM
 DAPD.F                10:   FEET ABOVE PERMANENT DATUM
 DMF .                 KB:   DRILLING MEASURED FROM
 EKB .F              5129:   KELLING BUSHING
 EDF .F              5128:   DRILLING FLOOR
 EGL .F              5119:   GROUND LEVEL
 DATE.        31-OCT-1992:   RUN DATE
 RUN .                  1:   RUN NUMBER
 DD  .F               568:   DEPTH DRILLER
 DL  .F               555:   DEPTH LOGGER
 BLI .F               547:   BOTTOM LOG INTERVAL
 TLI .F                71:   TOP LOG INTERVAL
 CS  .IN            8.625:   CASING SIZE
 CBD .F                70:   CASING BOTTOM DRILLER
 CBL .F                71:   CASING BOTTOM LOGGER
 BS  .IN            7.875:   BIT SIZE
 BSD .F               568:   BIT SIZE AT DEPTH
 DFT .           AIR FOAM:   DRILLING FLUID TYPE
 TCS .HRS               2:   TIME CURCULATED STOPPED
 MRT .F                64:   MAXIMUM RECORDED TEMPERATURE
 LUN .            HL-6274:   LOGGING UNIT NUMBER
 LUL .             CASPER:   LOGGING UNIT LOCATION
 ENGI.        P.RASHUSSEN:   RECORDING ENGINEER
 WITN.     BRUCE ANDERSON:   WITNESSED BY
 CLNT.            A2DTECH:   CLIENT CODE
 ORIG.           5" PRINT:   ORIGIN OF DATA
 UWI .       490252254800:   UNIQUE WELL ID
 DICO. A2D Technologies, Inc.:   DIGITIZING COMPANY
~OTHER INFORMATION
~A    DEPT      GRR      RILD       RILM   
# ...
  127.4000   145.3358     8.4615     8.3788
  127.5000   146.2064     8.4612     8.3785
  127.6000   147.2211     8.4610     8.3783
  127.7000   148.0690     8.4608     8.3781
  127.8000   148.6094     8.4605     8.3778
  127.9000   149.4160     8.4603     8.3776
  128.0000   149.8918     8.4601     8.3774
  128.1000   150.2088     8.4598     8.3771
  128.2000   150.6011     8.4596     8.3769
  128.3000   151.0169     8.4593     8.3767
  128.4000   151.2692     8.4591     8.4098
  128.5000   151.5295     8.4296     8.4349
  128.6000   151.7738     8.3997     8.4347
  128.7000   151.2395     8.4097     8.4388
  128.8000   150.0335     8.4582     8.4933
  128.9000   148.3110     8.4579     8.4930
  129.0000   146.3734     8.4984     8.4928
  129.1000   144.8419     8.5168     8.4926
  129.2000   143.3223     8.5382     8.5072
  129.3000   142.5051     8.5881     8.5568
  129.4000   141.4867     8.6382     8.6113
  129.5000   140.4684     8.6962     8.6567
  129.6000   139.5618     8.7396     8.6711
  129.7000   139.0517     8.7567     8.6969
  129.8000   138.4555     8.7565     8.7314
  129.9000   138.2428     8.7703     8.7312
  130.0000   137.8250     8.8215     8.7309
  130.1000   137.4274     8.8789     8.7307
  130.2000   137.1715     8.8787     8.7674
  130.3000   136.9155     8.9146     8.7914
  130.4000   136.6237     8.9405     8.8080
  130.5000   136.4036     8.9402     8.8525
  130.6000   136.1477     8.9400     8.8522
  130.7000   136.0115     8.9397     8.9004
  130.8000   135.9393     8.9395     8.9138
  130.9000   135.7044     8.9392     8.9135
  131.0000   135.7024     8.9390     8.9312
  131.1000   135.7008     8.9387     8.9755
  131.2000   136.0518     8.9462     8.9752
  131.3000   136.5582     9.0009     8.9750
  131.4000   137.0647     9.0007     8.9747
  131.5000   137.5711     9.0004     8.9745
  131.6000   138.1194     9.0002     8.9742
  131.7000   138.5839     8.9999     8.9824
  131.8000   139.0903     8.9997     9.0366
  131.9000   139.5967     8.9994     9.0363
  132.0000   140.1031     8.9991     9.0361
  132.1000   140.5740     8.9989     9.0358
  132.2000   140.8400     8.9986     9.0356
  132.3000   141.0786     8.9984     9.0353
  132.4000   141.5219     8.9981     9.0351
  132.5000   141.7451     8.9979     9.0865
  132.6000   141.8355     8.9976     9.0979
  132.7000   142.0878     8.9974     9.0976
  132.8000   142.3465     8.9971     9.0974
  132.9000   142.5924     9.0201     9.1072
  133.0000   142.8447     9.0597     9.1606
  133.1000   142.9481     9.0595     9.1604
  133.2000   142.9463     9.0592     9.1601
  133.3000   142.9445     9.0590     9.1598
  133.4000   142.9426     9.0587     9.1596
  133.5000   142.9405     9.0585     9.1702
  133.6000   142.9390     9.0731     9.2233
  133.7000   142.7810     9.1215     9.2230
  133.8000   142.5250     9.1212     9.2227
  133.9000   142.2116     9.1210     9.2225
  134.0000   141.7177     9.1207     9.2222
  134.1000   141.7156     9.1205     9.2220
  134.2000   141.2884     9.1202     9.2217
  134.3000   140.9418     9.1199     9.2214
  134.4000   140.6859     9.1197     9.2657
  134.5000   140.4299     9.1194     9.2856
  134.6000   140.1740     9.1192     9.2853
  134.7000   139.8838     9.1189     9.2850
  134.8000   139.8822     9.1187     9.2848
  134.9000   139.7097     9.1184     9.2845
  135.0000   139.4537     9.1181     9.2843
  135.1000   139.2698     9.1179     9.2494
  135.2000   139.2680     9.1176     9.2431
  135.3000   139.2660     9.0869     9.2702
  135.4000   139.0370     9.0336     9.2186
  135.5000   138.9590     8.9903     9.2183
  135.6000   138.8285     8.9901     9.2181
  135.7000   138.6519     8.9272     9.2179
  135.8000   138.6501     8.8853     9.2176
  135.9000   138.6481     8.8020     9.2173
  136.0000   138.6464     8.7413     9.2171
  136.1000   138.6446     8.7411     9.2168
  136.2000   138.6428     8.7394     9.1701
  136.3000   138.6410     8.6797     9.1522
  136.4000   138.6764     8.6795     9.1268
  136.5000   138.9407     8.6468     9.0734
  136.6000   139.1810     8.6185     9.0204
  136.7000   139.2407     8.6183     8.9614
  136.8000   139.3821     8.6150     8.9612
  136.9000   139.6344     8.5578     8.9253
  137.0000   139.9312     8.5576     8.8732
  137.1000   140.4473     8.5237     8.8213
  137.2000   140.6948     8.4975     8.7697
  137.3000   141.1470     8.4973     8.7131
  137.4000   141.5029     8.4970     8.7129
  137.5000   141.8564     8.4968     8.6773
  137.6000   142.3628     8.4519     8.6266
  137.7000   142.8667     8.4371     8.5762
  137.8000   143.1657     8.4116     8.5260
  137.9000   143.3714     8.3623     8.4717
  138.0000   143.4659     8.3193     8.4715
  138.1000   143.5725     8.3191     8.4712
  138.2000   143.8248     8.2735     8.4456
  138.3000   144.0674     8.2607     8.3808
  138.4000   144.0653     8.2605     8.2891
  138.5000   144.0637     8.2432     8.2370
  138.6000   144.2270     8.2025     8.2368
  138.7000   144.3636     8.2023     8.2017
  138.8000   144.2954     8.2020     8.1538
  138.9000   144.0395     8.1280     8.1061
  139.0000   143.7509     8.0878     8.0587
  139.1000   143.5276     8.0693     8.0087
  139.2000   143.0992     8.0310     8.0085
  139.3000   142.8352     8.0307     8.0083
  139.4000   142.6861     7.9746     7.9828
  139.5000   142.2003     7.9368     7.9361
  139.6000   141.9191     7.8621     7.8897
  139.7000   141.6884     7.8085     7.8414
  139.8000   141.4325     7.7979     7.8412
  139.9000   141.1765     7.7522     7.8065
  140.0000   141.0015     7.6995     7.7862
  140.1000   140.9997     7.6615     7.7860
  140.2000   140.9977     7.6166     7.7858
  140.3000   141.2324     7.5920     7.7855
  140.4000   141.4847     7.5918     7.7853
  140.5000   141.7370     7.5916     7.7851
  140.6000   141.9893     7.5913     7.7849
  140.7000   142.2415     7.5912     7.7847
  140.8000   142.5043     7.5909     7.7845
  140.9000   142.7462     7.5691     7.7842
  141.0000   142.8042     7.5377     7.7840
  141.1000   142.8024     7.5374     7.7838
  141.2000   142.8006     7.5372     7.7836
  141.3000   142.7988     7.5370     7.7834
  141.4000   142.7969     7.5054     7.7832
  141.5000   142.7951     7.4841     7.7829
  141.6000   142.5918     7.4983     7.7827
  141.7000   142.3359     7.5362     7.7825
  141.8000   141.9771     7.5360     7.7823
  141.9000   141.5205     7.5358     7.8005
  142.0000   141.2605     7.5687     7.8364
  142.1000   140.6595     7.5882     7.8362
  142.2000   140.4492     7.5880     7.8359
  142.3000   140.0338     7.5952     7.8357
  142.4000   139.5237     7.6407     7.8355
  142.5000   139.0137     7.6843     7.8353
  142.6000   138.5149     7.7292     7.8351
  142.7000   138.2207     7.7744     7.8349
  142.8000   138.0030     7.8018     7.8346
  142.9000   137.9138     7.8015     7.8724
  143.0000   137.9120     7.8013     7.8891
  143.1000   137.9102     7.8558     7.8889
  143.2000   137.9083     7.8556     7.8996
  143.3000   137.9063     7.8841     7.9437
  143.4000   137.9047     7.9301     7.9434
  143.5000   137.7289     7.9655     7.9824
  143.6000   137.4729     7.9672     7.9987
  143.7000   137.1418     8.0209     8.0194
  143.8000   136.6317     8.0207     8.0661
  143.9000   136.0745     8.0204     8.1130
  144.0000   135.1503     8.0202     8.1671
  144.1000   134.4945     8.0200     8.1669
  144.2000   133.7206     8.0233     8.3135
  144.3000   132.9499     8.0758     8.3619
  144.4000   132.6940     8.1174     8.3975
  144.5000   132.4217     8.1320     8.4006
  144.6000   132.4200     8.1554     8.4559
  144.7000   132.2296     8.1885     8.4556
  144.8000   132.1129     8.1935     8.4554
  144.9000   132.0212     8.2455     8.4552
  145.0000   131.8058     8.2453     8.4549
  145.1000   131.8039     8.2800     8.4588
  145.2000   131.8021     8.3026     8.5137
  145.3000   131.8003     8.3187     8.5576
  145.4000   131.6520     8.3673     8.5729
  145.5000   131.4932     8.4188     8.5973
