~VERSION INFORMATION
 VERS.                2.0:   CWLS LOG ASCII STANDARD - VERSION 2.0
 WRAP.                 NO:   ONE LINE PER DEPTH STEP
~WELL INFORMATION
#MNEM.UNIT      DATA TYPE    INFORMATION
#----------   ------------   ------------------------------
 STRT.F           20.0000:   START DEPTH
 STOP.F          610.0000:   STOP DEPTH
 STEP.F            0.5000:   STEP LENGTH
 NULL.          -999.2500:   NO VALUE
 COMP. LAWRENCE/ALLISON INC:   COMPANY
 WELL.    44-55 SX #10-10:   WELL
 FLD .             TEAPOT:   FIELD
 LOC .      S10 T38N R78W:   LOCATION
 CNTY.            NATRONA:   COUNTY
 STAT.            WYOMING:   STATE
 CTRY. UNITED STATES OF AMERICA:   COUNTRY
 SRVC.            Unknown:   SERVICE COMPANY
 DATE.        29-AUG-1984:   LOGDATE
 API .       490251098300:   API NUMBER
~CURVE INFORMATION
#MNEM.UNIT       API CODE    CURVE DESCRIPTION
#----------   ------------   ------------------------------
 DEPT.F                  :   
 AC  .US/F   60 520 00 00:   ACOUSTIC SONIC
 SPR .MV     07 010 01 00:   SPONTANEOUS POTENTIAL
 RILD.OHMM   07 120 46 00:   INDUCTION LOG DEEP RESISTIVITY
 RILM.OHMM   07 120 44 00:   INDUCTION LOG MEDIUM RESISTIVITY
 RFOC.OHMM   07 220 04 00:   RESISTIVITY FOCUSED LOG
 GRD .GAPI   45 310 01 00:   GAMMA RAY FROM DENSITY LOG
 CALD.IN     45 280 60 00:   CALIPER
 DEN .G/C3   45 350 01 00:   COMPENSATED BULK DENSTIY
 CNC .DEC    42 890 03 00:   NEUTRON POROSITY SANDSTONE
 PORD.DEC    45 890 12 00:   DENSITY POROSITY SANDSTONE
 CORR.G/C3   45 356 01 00:   DENSITY CORRECTION
~PARAMETER INFORMATION
#MNEM.UNIT          VALUE    DESCRIPTION
#----------   ------------   ------------------------------
 PD  .                 GL:   PERMANENT DATUM
 EPD .F              5247:   ELEVATION PERMANENT DATUM
 LMF .                 KB:   LOG MEASURED FROM
 DAPD.F                13:   FEET ABOVE PERMANENT DATUM
 DMF .                 KB:   DRILLING MEASURED FROM
 EKB .F              5260:   KELLING BUSHING
 EGL .F              5247:   GROUND LEVEL
 DATE.        29-AUG-1984:   RUN DATE
 RUN .                  1:   RUN NUMBER
 DD  .F               613:   DEPTH DRILLER
 DL  .F               607:   DEPTH LOGGER
 BLI .F               607:   BOTTOM LOG INTERVAL
 TLI .F                42:   TOP LOG INTERVAL
 CBL .F                42:   CASING BOTTOM LOGGER
 BS  .IN            7.875:   BIT SIZE
 BSD .F               613:   BIT SIZE AT DEPTH
 DFT .          KCL WATER:   DRILLING FLUID TYPE
 MSS .               TANK:   MUD SAMPLE SOURCE
 RMS .OHMM           .295:   RESISTIVITY MUD SAMPLE
 MST .F                75:   MUD SAMPLE TEMPERATURE
 TCS .HRS               3:   TIME CURCULATED STOPPED
 MRT .F               100:   MAXIMUM RECORDED TEMPERATURE
 LUN .               4082:   LOGGING UNIT NUMBER
 LUL .               ROOS:   LOGGING UNIT LOCATION
 ENGI.             MILLER:   RECORDING ENGINEER
 WITN.            JOHNSON:   WITNESSED BY
 CLNT.            A2DTECH:   CLIENT CODE
 ORIG.       2", 5" PRINT:   ORIGIN OF DATA
 UWI .       490251098300:   UNIQUE WELL ID
 DICO. A2D Technologies, Inc.:   DIGITIZING COMPANY
~OTHER INFORMATION
~A   DEPT       AC        SPR       RILD       RILM       RFOC         GRD      CALD        DEN        CNC       PORD       CORR   
# ...
  325.0000   132.9934   -30.3884    26.2364    24.3702    22.0574    55.9716     7.9220     2.4522     0.2856     0.1439     0.0926
  325.5000   135.8057   -30.2574    24.8654    23.0060    22.9148    57.4711     7.9204     2.4589     0.2825     0.1324     0.0744
  326.0000   138.6179   -30.1261    23.4331    22.2299    23.9224    56.6611     7.9188     2.4466     0.2828     0.1348     0.0560
  326.5000   141.6467   -29.9944    22.2299    22.6643    24.8588    52.6018     7.9172     2.4057     0.2865     0.1499     0.0522
  327.0000   140.4491   -29.8608    22.2299    22.6138    26.2322    47.2068     7.9156     2.3662     0.2902     0.1695     0.0596
  327.5000   134.2340   -29.7312    25.4628    24.4717    27.6831    43.9158     7.9141     2.3433     0.2939     0.1929     0.0561
  328.0000   133.6999   -30.0117    28.2330    26.1027    29.2886    43.1749     7.9125     2.3307     0.2976     0.2033     0.0471
  328.5000   133.0616   -30.3309    31.3046    27.8554    28.3249    43.9808     7.9109     2.3245     0.3023     0.2108     0.0634
  329.0000   132.2646   -30.6443    34.2423    29.8531    27.0475    45.3958     7.9093     2.3212     0.3099     0.2126     0.1061
  329.5000   132.0181   -30.9737    29.8320    29.8438    25.8278    47.1620     7.9077     2.3182     0.3045     0.2125     0.1620
  330.0000   132.1635   -30.7229    30.6181    28.5022    24.8223    49.8563     7.9061     2.3206     0.2977     0.2149     0.1817
  330.5000   130.9028   -31.0191    31.3431    27.1472    26.2567    49.6038     7.9046     2.3336     0.2854     0.2135     0.1126
  331.0000   125.4790   -31.2911    31.8107    25.8566    28.3245    48.8111     7.9030     2.3413     0.2867     0.2047     0.0536
  331.5000   113.2068   -31.5597    30.4913    25.0224    30.9584    48.1610     7.9014     2.3658     0.2880     0.2001    -0.0046
  332.0000   102.6277   -31.8307    29.5392    24.8307    30.5730    49.4773     7.8998     2.4004     0.2805     0.1589    -0.0163
  332.5000    99.6307   -32.0943    28.6180    24.6405    29.5253    49.6187     7.8983     2.4128     0.2742     0.1605     0.0180
  333.0000   103.2059   -31.9862    27.7266    24.4517    28.5096    49.7149     7.8967     2.3762     0.2829     0.1712     0.0523
  333.5000   107.9142   -31.8555    26.8631    24.2644    27.5310    49.8213     7.8951     2.3541     0.2954     0.1884     0.0863
  334.0000   109.6780   -31.7262    26.0264    24.1472    26.5870    50.0635     7.8935     2.3496     0.2874     0.1961     0.1062
  334.5000   110.1098   -31.5973    25.4722    24.4702    25.6754    52.1534     7.8919     2.3585     0.2730     0.1928     0.1019
  335.0000   108.1083   -31.4681    25.2215    24.8071    24.7951    54.9501     7.8903     2.3690     0.2733     0.1846     0.0967
  335.5000   103.9432   -31.3348    24.9734    25.1486    23.9449    57.7514     7.8888     2.3855     0.2724     0.1757     0.0834
  336.0000   100.1372   -31.3837    24.8223    25.4948    23.2731    59.7701     7.8872     2.4026     0.2676     0.1667     0.0703
  336.5000    98.9383   -31.4714    25.2798    25.8458    23.8727    55.9047     7.8856     2.4099     0.2601     0.1609     0.0619
  337.0000    99.8327   -31.7595    25.6716    26.7929    24.7683    52.1261     7.8840     2.3986     0.2526     0.1657     0.0605
  337.5000   100.7195   -32.1734    26.0695    28.2025    25.5078    50.5908     7.8824     2.3842     0.2467     0.1755     0.0591
  338.0000   100.9214   -32.5892    26.4736    29.6861    24.5952    56.4092     7.8809     2.3793     0.2465     0.1787     0.0542
  338.5000    98.3932   -33.0053    26.7164    31.5235    25.5051    61.3425     7.8793     2.4027     0.2501     0.1676     0.0435
  339.0000    96.2625   -33.4214    26.7164    30.0921    27.0819    58.6227     7.8760     2.4218     0.2542     0.1542     0.0329
  339.5000    94.6039   -33.8372    26.7164    27.8850    27.7170    55.5532     7.8720     2.4179     0.2778     0.1563     0.0247
  340.0000    95.2923   -34.2509    26.7164    25.8347    24.1815    55.3707     7.8679     2.4122     0.2862     0.1601     0.0262
  340.5000    96.4016   -34.4964    26.2484    23.9331    22.4352    58.5487     7.8638     2.4066     0.2849     0.1613     0.0312
  341.0000    97.3034   -34.4966    25.6892    22.2299    22.2299    59.4227     7.8597     2.4040     0.2806     0.1625     0.0365
  341.5000    97.6183   -34.4447    25.1420    22.2299    22.4413    59.4552     7.8556     2.3880     0.2812     0.1723     0.0503
  342.0000    97.8343   -34.2948    24.6064    23.7466    21.9561    59.7588     7.8515     2.3712     0.2791     0.1832     0.0647
  342.5000    97.8343   -34.1465    24.0814    24.8680    21.4795    60.4219     7.8474     2.3589     0.2770     0.1915     0.0790
  343.0000    97.5256   -34.0037    23.5700    26.0424    21.0381    61.0983     7.8433     2.3596     0.2797     0.1911     0.0898
  343.5000    97.1936   -33.8607    23.1788    26.4720    21.2197    61.3310     7.8392     2.3664     0.2810     0.1877     0.0928
  344.0000    96.8616   -33.7167    22.8175    25.0604    21.4007    58.8539     7.8351     2.3820     0.2758     0.1762     0.0880
  344.5000    96.4493   -33.7380    22.4608    23.7836    21.5820    56.4355     7.8310     2.4029     0.2746     0.1634     0.0800
  345.0000    95.8663   -33.7853    22.1096    22.6424    21.8330    54.5189     7.8269     2.4242     0.2746     0.1521     0.0671
  345.5000    95.2687   -33.8338    21.7640    22.1661    21.4685    55.7769     7.8228     2.4344     0.2734     0.1469     0.0502
  346.0000    94.6711   -33.8783    21.4238    21.7258    20.7293    58.0085     7.8191     2.4357     0.2718     0.1462     0.0331
  346.5000    94.1417   -34.0815    21.0889    21.2943    20.0080    60.2666     7.8191     2.4356     0.2790     0.1455     0.0349
  347.0000    94.2782   -34.3507    20.7509    20.8713    19.3668    62.5335     7.8191     2.4346     0.2810     0.1460     0.0400
  347.5000    94.4276   -34.6230    20.4556    20.6539    19.3668    64.7939     7.8191     2.4295     0.2804     0.1499     0.0450
  348.0000    94.5761   -34.8954    20.4698    21.1052    19.3668    67.0199     7.8191     2.4193     0.2794     0.1546     0.0499
  348.5000    94.7395   -35.1675    20.4062    21.3110    19.3668    67.4372     7.8191     2.4232     0.2686     0.1529     0.0540
  349.0000    94.6550   -35.4397    20.3207    21.5180    19.3668    64.5244     7.8191     2.4275     0.2587     0.1500     0.0515
  349.5000    94.5615   -35.7121    20.2691    21.7184    19.3668    61.6812     7.8191     2.4235     0.2558     0.1524     0.0493
  350.0000    94.4678   -35.9866    20.2396    21.9032    19.3668    63.7994     7.8191     2.4152     0.2626     0.1580     0.0369
  350.5000    94.5491   -36.2678    20.2106    22.0911    19.3668    67.2506     7.8191     2.4070     0.2673     0.1641     0.0143
  351.0000    94.7059   -36.2845    20.1816    22.2807    19.3668    67.7303     7.8191     2.3987     0.2677     0.1702    -0.0034
  351.5000    94.8634   -36.2828    20.1525    22.4697    19.3668    63.1731     7.8191     2.3916     0.2657     0.1711     0.0079
  352.0000    94.9435   -36.2823    20.1234    22.7207    19.3665    63.0511     7.8191     2.3960     0.2589     0.1691     0.0207
  352.5000    94.7970   -36.2823    20.0921    23.4299    19.3641    64.6045     7.8191     2.3979     0.2558     0.1698     0.0335
  353.0000    93.7133   -36.2823    20.7719    24.7911    19.3689    66.1974     7.8191     2.3921     0.2633     0.1737     0.0463
  353.5000    91.9210   -36.2823    21.7529    27.6747    19.3668    67.4878     7.8191     2.3896     0.2654     0.1733     0.0591
  354.0000    89.8503   -36.2824    22.7802    30.8938    20.2025    68.2100     7.8191     2.4019     0.2518     0.1645     0.0720
  354.5000    87.1890   -36.2837    23.9262    32.7042    20.6539    68.2514     7.8191     2.4156     0.2305     0.1585     0.0847
  355.0000    85.3593   -36.2798    23.9262    30.1075    20.8446    66.8582     7.8191     2.4199     0.2297     0.1553     0.0787
