~VERSION INFORMATION
 VERS.                2.0:   CWLS LOG ASCII STANDARD - VERSION 2.0
 WRAP.                 NO:   ONE LINE PER DEPTH STEP
~WELL INFORMATION
#MNEM.UNIT      DATA TYPE    INFORMATION
#----------   ------------   ------------------------------
 STRT.F           20.0000:   START DEPTH
 STOP.F          744.0000:   STOP DEPTH
 STEP.F            0.5000:   STEP LENGTH
 NULL.          -999.2500:   NO VALUE
 COMP. FENIX & SCISSON INCORP.:   COMPANY
 WELL.          SX #53-15:   WELL
 FLD .             TEAPOT:   FIELD
 LOC .      S15 T38N R78W:   LOCATION
 CNTY.            NATRONA:   COUNTY
 STAT.            WYOMING:   STATE
 CTRY. UNITED STATES OF AMERICA:   COUNTRY
 SRVC.              Welex:   SERVICE COMPANY
 DATE.        02-MAR-1977:   LOGDATE
 API .       490251030000:   API NUMBER
~CURVE INFORMATION
#MNEM.UNIT       API CODE    CURVE DESCRIPTION
#----------   ------------   ------------------------------
 DEPT.F                  :   
 SGRD.OHMM   07 220 05 00:   SHALLOW RESISTIVITY
 ILD .OHMM   07 120 46 00:   INDUCTION LOG DEEP
 ILM .OHMM   07 120 44 00:   INDUCTION LOG MEDIUM
 SPR .MV     07 010 01 00:   SPONTANEOUS POTENTIAL
 GRD .GAPI   45 310 01 00:   GAMMA RAY FROM DENSITY LOG
 CALD.IN     45 280 60 00:   CALIPER
 RHOB.G/C3   45 350 01 00:   BULK DENSITY
 DPHI.DEC    45 890 10 00:   DENSITY POROSITY SANDSTONE
 CORR.G/C3   45 356 01 00:   DENSITY CORRECTION
~PARAMETER INFORMATION
#MNEM.UNIT          VALUE    DESCRIPTION
#----------   ------------   ------------------------------
 PD  .                 GL:   PERMANENT DATUM
 EPD .F              5253:   ELEVATION PERMANENT DATUM
 LMF .                 GL:   LOG MEASURED FROM
 DMF .                 GL:   DRILLING MEASURED FROM
 EGL .F              5253:   GROUND LEVEL
 DATE.             3-2-77:   RUN DATE
 RUN .                  1:   RUN NUMBER
 DD  .F               750:   DEPTH DRILLER
 DL  .F               747:   DEPTH LOGGER
 BLI .F               745:   BOTTOM LOG INTERVAL
 TLI .F                44:   TOP LOG INTERVAL
 CS  .IN            8.625:   CASING SIZE
 CBD .F                40:   CASING BOTTOM DRILLER
 CBL .F                44:   CASING BOTTOM LOGGER
 BS  .IN            7.875:   BIT SIZE
 BSD .F               750:   BIT SIZE AT DEPTH
 DFT .           CHEM-GEL:   DRILLING FLUID TYPE
 MSS .          FLOW LINE:   MUD SAMPLE SOURCE
 RMS .OHMM           .425:   RESISTIVITY MUD SAMPLE
 MST .F                56:   MUD SAMPLE TEMPERATURE
 RMF .OHMM           .436:   RESISTIVITY MUD FILTRATE SAMPLE
 MFST.F                56:   MUD FILTRATE SAMPLE TEMPERATURE
 RMC .OHMM           .712:   RESISTIVITY MUD CAKE
 MCST.F                56:   MUD CAKE SAMPLE TEMPERATURE
 MFSS.           MEASURED:   MUD FILTRATE SAMPLE SOURCE
 MCSS.           MEASURED:   MUD CAKE SAMPLE SOURCE
 RMB .OHMM            .35:   RESISTIVITY MUD AT BHT
 BHT .F                68:   BOTTOM HOLE TEMPERATURE
 TCS .HRS               2:   TIME CURCULATED STOPPED
 MRT .F                68:   MAXIMUM RECORDED TEMPERATURE
 LUN .               8611:   LOGGING UNIT NUMBER
 LUL .           GILLETTE:   LOGGING UNIT LOCATION
 ENGI.          D. LAWSON:   RECORDING ENGINEER
 WITN.           S. BURKE:   WITNESSED BY
 CLNT.            A2DTECH:   CLIENT CODE
 ORIG.        2" 5" PRINT:   ORIGIN OF DATA
 UWI .       490251030000:   UNIQUE WELL ID
 DICO. A2D Technologies, Inc.:   DIGITIZING COMPANY
~OTHER INFORMATION
~A   DEPT     SGRD        ILD        ILM        SPR         GRD      CALD         RHOB       DPHI      CORR  
# ...
  604.0000    16.8030    11.8857    16.4070   -26.1038    92.3008     8.3903     2.4195     0.1345     0.0758
  604.5000    16.6524    11.8509    14.0291   -26.0758    93.1626     8.3819     2.4206     0.1338     0.0749
  605.0000    16.5418    11.7824    14.8496   -26.0478    94.4052     8.3720     2.4236     0.1322     0.0739
  605.5000    16.4304    11.7144    15.6686   -26.0198    95.6667     8.3621     2.4267     0.1305     0.0730
  606.0000    16.3198    11.6472    14.6990   -25.9918    96.9156     8.3522     2.4275     0.1314     0.0720
  606.5000    16.2100    11.5619    14.0054   -25.9638    97.4996     8.3423     2.4280     0.1319     0.0711
  607.0000    16.1009    11.7111    13.3444   -25.9358    96.7337     8.3323     2.4285     0.1311     0.0702
  607.5000    15.9925    11.9195    12.7947   -25.9078    95.9204     8.3226     2.4289     0.1307     0.0676
  608.0000    15.8849    12.1317    13.8076   -25.8798    95.2104     8.3145     2.4301     0.1295     0.0645
  608.5000    15.8136    12.3476    14.7710   -25.8518    94.6153     8.2934     2.4366     0.1259     0.0613
  609.0000    16.1412    12.5674    15.2416   -25.8238    94.2411     8.3051     2.4477     0.1223     0.0583
  609.5000    16.3914    12.7911    14.4490   -25.7958    92.8232     8.3272     2.4592     0.1188     0.0582
  610.0000    16.6455    13.0326    13.8826   -25.7678    88.6028     8.3600     2.4707     0.1152     0.0585
  610.5000    17.0684    15.8802    13.5217   -25.7398    84.5206     8.3930     2.4766     0.1118     0.0589
  611.0000    18.7681    19.1132    13.9075   -25.7118    80.7279     8.4261     2.4745     0.1130     0.0592
  611.5000    45.1620    19.8320    14.2022   -25.6838    77.3282     8.4593     2.4558     0.1306     0.0596
  612.0000    45.1056    20.4658    14.5033   -25.6558    78.9774     8.4887     2.4226     0.1477     0.0597
  612.5000    21.7786    17.5760    14.8262   -25.6278    81.5313     8.4670     2.3821     0.1633     0.0556
  613.0000    15.7627    15.3852    13.9005   -25.5994    82.3338     8.4448     2.3578     0.1735     0.0512
  613.5000    13.1532    13.3977    12.9876   -25.5711    83.0906     8.4229     2.3512     0.1782     0.0468
  614.0000    13.9005    12.7003    12.1386   -25.5423    83.8364     8.4100     2.3563     0.1729     0.0468
  614.5000    12.8290    12.0082    11.5583   -25.5134    84.0966     8.4193     2.3604     0.1701     0.0478
  615.0000    11.7966    11.3701    11.3484   -25.4845    84.8492     8.4340     2.3621     0.1704     0.0489
  615.5000    11.3509    10.8971    11.5394   -25.4556    85.9608     8.4488     2.3639     0.1695     0.0501
  616.0000    16.7121    10.6513    11.8833   -25.4268    87.0780     8.4638     2.3691     0.1651     0.0519
  616.5000    16.7121    10.4081    12.1068   -25.3979    88.3671     8.4698     2.3776     0.1607     0.0536
  617.0000    12.2188    10.1707    11.9018   -25.3690    89.9637     8.4594     2.3860     0.1563     0.0553
  617.5000    13.4272    10.0700    11.7518   -25.3401    91.5344     8.4298     2.3944     0.1519     0.0571
  618.0000    14.5556    10.1314    11.6032   -25.3113    92.2249     8.4166     2.4028     0.1485     0.0588
  618.5000    11.9958    10.2987    11.4568   -25.2824    90.5319     8.4408     2.4057     0.1455     0.0606
  619.0000    13.1350    10.4687    11.6855   -25.2535    87.6410     8.4641     2.4020     0.1461     0.0619
  619.5000    13.8296    10.6415    11.9288   -25.2246    85.1306     8.4733     2.3984     0.1485     0.0619
  620.0000    14.1524    10.8172    12.1764   -25.1957    84.9501     8.4782     2.3948     0.1509     0.0619
  620.5000    14.4221    10.9958    12.4287   -25.1669    86.6320     8.4828     2.3933     0.1509     0.0619
  621.0000    14.3437    11.1492    12.6862   -25.1380    88.1059     8.4874     2.3969     0.1491     0.0626
  621.5000    15.3826    11.1792    12.9491   -25.1091    86.9030     8.4844     2.4005     0.1473     0.0644
  622.0000    14.6890    11.2092    13.2174   -25.0802    85.7963     8.4728     2.3953     0.1493     0.0662
  622.5000    13.7932    11.2393    13.3630   -25.0513    85.9642     8.4612     2.3882     0.1528     0.0680
  623.0000    13.1048    11.2695    13.5213   -25.0225    86.2169     8.4495     2.3810     0.1564     0.0699
  623.5000    12.6774    11.2998    13.4829   -24.9936    87.6161     8.4379     2.3738     0.1601     0.0670
  624.0000    16.1076    11.3301    13.4148   -24.9647    88.9487     8.4262     2.3667     0.1682     0.0633
  624.5000    15.1190    11.3606    13.3479   -24.9358    88.9500     8.4143     2.3620     0.1712     0.0599
  625.0000    13.0326    11.3911    13.2815   -24.9069    87.6752     8.3943     2.3635     0.1687     0.0579
  625.5000    13.7756    11.4217    13.2154   -24.8781    87.5625     8.3544     2.3573     0.1723     0.0557
  626.0000    15.1152    11.4524    13.1496   -24.8492    88.1577     8.3147     2.3492     0.1780     0.0535
  626.5000    14.2953    11.4831    13.0842   -24.8203    88.0797     8.2751     2.3545     0.1736     0.0519
  627.0000    12.8083    11.5140    12.9083   -24.7914    87.9864     8.2358     2.3642     0.1670     0.0542
  627.5000    14.3267    11.5449    12.3262   -24.7626    88.2669     8.2145     2.3740     0.1603     0.0564
  628.0000    16.3878    11.5759    11.7704   -24.7337    88.5483     8.2480     2.3837     0.1552     0.0586
  628.5000    14.4374    11.6070    11.3509   -24.7048    87.5755     8.2809     2.3877     0.1549     0.0608
  629.0000    14.8974    11.6384    11.8378   -24.6759    86.4972     8.3139     2.3834     0.1565     0.0630
  629.5000    15.5249    11.6688    12.2546   -24.6470    86.6243     8.3241     2.3837     0.1581     0.0643
  630.0000    14.7696    11.6530    12.6861   -24.6182    88.4559     8.3133     2.3855     0.1545     0.0651
  630.5000    14.0536    11.6370    13.1329   -24.5893    89.4604     8.3025     2.3815     0.1576     0.0658
  631.0000    13.5217    11.6212    13.5954   -24.5604    90.2167     8.2912     2.3733     0.1624     0.0632
  631.5000    14.4215    11.6054    14.0731   -24.5315    90.8962     8.2490     2.3651     0.1679     0.0603
  632.0000    15.5088    11.5897    14.5587   -24.5026    91.5106     8.2027     2.3570     0.1734     0.0575
  632.5000    14.3067    11.5740    14.9742   -24.4738    94.8527     8.1567     2.3488     0.1790     0.0547
  633.0000    15.1803    11.5619    15.3311   -24.4449    97.4166     8.1583     2.3447     0.1816     0.0519
  633.5000    16.2457    11.7274    15.6589   -24.4160    96.7348     8.2210     2.3495     0.1776     0.0490
  634.0000    15.2713    11.8634    14.3033   -24.3871    94.5561     8.2715     2.3561     0.1744     0.0462
  634.5000    14.5707    12.0011    13.1654   -24.3583    92.1328     8.2700     2.3628     0.1680     0.0475
  635.0000    16.0396    12.1907    15.4356   -24.3294    89.9920     8.2699     2.3811     0.1612     0.0499
  635.5000    16.4867    12.5474    18.0358   -24.3005    90.3873     8.2698     2.4009     0.1513     0.0523
  636.0000    16.9495    12.9146    20.2782   -24.2716    91.3756     8.2708     2.4207     0.1401     0.0547
  636.5000    17.0228    13.2924    17.4524   -24.2428    92.3502     8.3067     2.4302     0.1279     0.0571
  637.0000    17.0228    13.6814    14.8262   -24.2148    92.3896     8.3446     2.4252     0.1269     0.0595
  637.5000    17.0228    13.9005    15.1319   -24.1661    92.3914     8.3824     2.4204     0.1283     0.0576
  638.0000    17.0228    13.8091    15.6156   -24.1150    92.5870     8.4207     2.4166     0.1285     0.0564
  638.5000    17.0708    13.7465    16.1147   -24.0637    93.2833     8.4403     2.4186     0.1285     0.0593
  639.0000    17.1269    13.6841    16.6297   -24.0126    93.9562     8.4547     2.4202     0.1285     0.0622
  639.5000    17.1835    13.6220    17.0269   -23.9614    93.5419     8.4687     2.4154     0.1296     0.0650
  640.0000    17.2403    13.5601    17.0433   -23.9102    92.5187     8.4827     2.4101     0.1316     0.0679
