~VERSION INFORMATION
 VERS.                2.0:   CWLS LOG ASCII STANDARD - VERSION 2.0
 WRAP.                 NO:   ONE LINE PER DEPTH STEP
~WELL INFORMATION
#MNEM.UNIT      DATA TYPE    INFORMATION
#----------   ------------   ------------------------------
 STRT.F            2.0000:   START DEPTH
 STOP.F          547.0000:   STOP DEPTH
 STEP.F            0.5000:   STEP LENGTH
 NULL.          -999.2500:   NO VALUE
 COMP. LAWRENCE/ALLISON INC:   COMPANY
 WELL. NPR # #3 68-61-SX-10:   WELL
 FLD .             TEAPOT:   FIELD
 LOC .      S10 T38N R78W:   LOCATION
 CNTY.            NATRONA:   COUNTY
 STAT.            WYOMING:   STATE
 CTRY. UNITED STATES OF AMERICA:   COUNTRY
 SRVC.           Gearhart:   SERVICE COMPANY
 DATE.        24-JUN-1987:   LOGDATE
 API .       490251114500:   API NUMBER
~CURVE INFORMATION
#MNEM.UNIT       API CODE    CURVE DESCRIPTION
#----------   ------------   ------------------------------
 DEPT.F                  :   
 GRR .GAPI   07 310 01 00:   GAMMA RAY FROM RES. LOG.
 RILD.OHMM   07 120 46 00:   INDUCTION LOG DEEP RESISTIVITY
 RILM.OHMM   07 120 44 00:   INDUCTION LOG MEDIUM RESISTIVITY
~PARAMETER INFORMATION
#MNEM.UNIT          VALUE    DESCRIPTION
#----------   ------------   ------------------------------
 PD  .                 GL:   PERMANENT DATUM
 EPD .F              5203:   ELEVATION PERMANENT DATUM
 LMF .                 KB:   LOG MEASURED FROM
 DAPD.F                 8:   FEET ABOVE PERMANENT DATUM
 DMF .                 KB:   DRILLING MEASURED FROM
 EKB .F              5211:   KELLING BUSHING
 EDF .F              5209:   DRILLING FLOOR
 EGL .F              5203:   GROUND LEVEL
 DATE.            6-24-87:   RUN DATE
 RUN .                  1:   RUN NUMBER
 DD  .F               565:   DEPTH DRILLER
 DL  .F               557:   DEPTH LOGGER
 BLI .F               549:   BOTTOM LOG INTERVAL
 TLI .F                48:   TOP LOG INTERVAL
 CS  .IN            8.625:   CASING SIZE
 CBD .F                50:   CASING BOTTOM DRILLER
 CBL .F                48:   CASING BOTTOM LOGGER
 BS  .IN             7.87:   BIT SIZE
 BSD .F               565:   BIT SIZE AT DEPTH
 DFT .                AIR:   DRILLING FLUID TYPE
 TCS .HRS            0715:   TIME CURCULATED STOPPED
 TLAB.HRS            0904:   TIME LOGGER AT BOTTOM
 LUN .               7597:   LOGGING UNIT NUMBER
 LUL .           GILLETTE:   LOGGING UNIT LOCATION
 ENGI.           JOHNSTON:   RECORDING ENGINEER
 CLNT.            A2DTECH:   CLIENT CODE
 ORIG.       2", 5" PRINT:   ORIGIN OF DATA
 UWI .       490251114500:   UNIQUE WELL ID
 DICO. A2D Technologies, Inc.:   DIGITIZING COMPANY
~OTHER INFORMATION
~A    DEPT      GRR      RILD       RILM   
# ...
  184.0000   102.2443     7.3921     7.2113
  184.5000   102.7840     7.2135     7.0816
  185.0000   103.3191     7.1472     7.0165
  185.5000   103.8391     7.2598     7.1068
  186.0000   104.2244     7.3519     7.2127
  186.5000   104.2285     7.4452     7.3190
  187.0000   104.9126     7.5397     7.4277
  187.5000   106.3244     7.7154     7.5375
  188.0000   107.7875     7.9099     7.6940
  188.5000   106.7463     8.0819     7.8618
  189.0000   105.5148     8.1758     8.0333
  189.5000   104.2865     8.2709     8.1223
  190.0000   103.0782     8.3613     8.1978
  190.5000   102.0669     8.3298     8.2084
  191.0000   101.5146     8.3002     8.0997
  191.5000   102.5362     8.2435     8.0145
  192.0000   104.0979     8.1560     7.9303
  192.5000   105.6986     8.0694     7.8469
  193.0000   107.3345     7.9838     7.7644
  193.5000   107.6925     7.8990     7.6828
  194.0000   107.4644     7.7963     7.6242
  194.5000   106.7452     7.6460     7.4461
  195.0000   106.2012     7.4986     7.2480
  195.5000   107.0095     7.3547     6.9618
  196.0000   108.1103     7.1051     6.5916
  196.5000   108.4531     6.7308     6.2411
  197.0000   105.2701     6.3775     5.9092
  197.5000   102.1320     6.0421     5.5950
  198.0000   100.7470     5.7239     5.2974
  198.5000   102.9035     5.5708     5.0157
  199.0000   103.2335     5.5196     4.9410
  199.5000   100.0198     5.5708     4.9410
  200.0000    97.7738     5.8144     5.2242
  200.5000    96.4698     6.1152     5.6293
  201.0000    99.4443     6.4315     6.1094
  201.5000   102.4229     6.7642     6.4573
  202.0000   105.3601     7.1472     6.6934
  202.5000   107.8921     7.3604     6.9640
  203.0000   107.0913     7.6025     7.2455
  203.5000   104.3584     7.8526     7.5384
  204.0000   101.5387     8.1330     7.8382
  204.5000   101.4000     8.1744     8.0623
  205.0000   102.9508     8.2199     8.0582
  205.5000   104.6595     8.2656     8.0584
  206.0000   106.3557     8.3118     8.0582
  206.5000   107.7712     8.3610     8.0827
  207.0000   106.9078     8.4128     8.1296
  207.5000   106.0705     8.4683     8.1771
  208.0000   105.2063     8.5170     8.2088
  208.5000   105.9330     8.5170     8.2083
  209.0000   107.6379     8.5170     8.2353
  209.5000   109.3698     8.5287     8.2591
  210.0000   110.0763     8.6171     8.2845
  210.5000   110.7468     8.7061     8.3649
  211.0000   110.6620     8.7961     8.4513
  211.5000   109.0865     8.8869     8.5386
  212.0000   105.6755     8.9787     8.6344
  212.5000   103.2846     9.0020     8.7460
  213.0000   103.1642     8.8373     8.8591
  213.5000   103.5418     8.5302     8.9736
  214.0000   103.1926     7.7827     9.0854
  214.5000   101.3711     6.8756     8.3840
  215.0000    99.8300     6.0743     7.2371
  215.5000    98.8024     5.3664     6.2458
  216.0000    98.7695     4.7410     5.3250
  216.5000    98.9769     4.2929     4.2895
  217.0000    98.6558     4.0570     3.5287
  217.5000    98.2930     3.8341     3.2858
  218.0000    97.9318     3.5771     3.0281
  218.5000    97.4164     3.6088     3.0833
  219.0000    99.7726     3.7051     3.1797
  219.5000   103.0709     3.8936     3.2907
  220.0000   107.5020     4.2035     3.5930
  220.5000   112.0943     4.5407     3.9729
  221.0000   111.9638     4.9047     4.3930
  221.5000   111.5325     5.2977     4.8571
  222.0000   111.0814     5.7240     5.3506
  222.5000   112.2886     6.0541     5.7947
  223.0000   115.4023     6.2062     5.9826
  223.5000   118.5944     6.3606     6.1461
  224.0000   121.5048     6.5169     6.2809
  224.5000   119.2860     6.5780     6.3392
  225.0000   117.1370     6.3020     5.9793
  225.5000   117.4641     6.0936     5.7343
  226.0000   119.7837     5.8921     5.4994
  226.5000   122.0682     5.6973     5.3052
  227.0000   124.2262     5.5089     5.2356
  227.5000   123.6379     5.3267     5.1662
  228.0000   120.6376     5.2223     5.1262
  228.5000   115.5697     5.2986     5.1242
  229.0000   111.5230     5.4521     5.2707
  229.5000   110.6783     5.6746     5.4851
  230.0000   111.0575     5.9063     5.7045
  230.5000   113.6327     6.1474     5.9328
  231.0000   116.4673     6.3984     6.1701
  231.5000   119.0721     6.6596     6.4170
  232.0000   120.6324     6.9315     6.6737
  232.5000   120.2834     7.2144     6.9341
  233.0000   119.8757     7.5090     7.1954
  233.5000   119.4334     7.8155     7.4665
  234.0000   118.0982     8.0582     7.7479
  234.5000   116.9699     8.0582     7.9590
  235.0000   116.6992     8.0582     8.0702
  235.5000   117.3046     8.0582     8.1330
  236.0000   117.7755     7.9158     8.0350
  236.5000   115.7822     7.6993     7.9678
  237.0000   113.8457     7.6242     7.9011
  237.5000   113.1379     7.5509     7.8382
  238.0000   114.2901     7.4501     7.7361
  238.5000   115.3139     7.2898     7.6178
  239.0000   116.3371     7.1342     7.5013
  239.5000   116.6914     6.8698     7.3478
  240.0000   115.6042     6.5594     6.9563
  240.5000   114.3690     6.2630     6.5920
  241.0000   113.4914     6.0533     6.2437
  241.5000   113.9757     5.9244     5.9113
  242.0000   116.7698     5.8404     5.5970
  242.5000   119.5443     5.7816     5.3196
  243.0000   122.2988     5.7779     5.3196
  243.5000   124.5232     5.9494     5.3825
  244.0000   124.9450     6.1065     5.5088
  244.5000   121.7993     6.3419     5.8492
  245.0000   118.6586     6.5864     6.2098
  245.5000   116.2672     6.8403     6.5903
  246.0000   115.4155     7.1040     6.8681
  246.5000   117.0850     7.3779     7.1379
  247.0000   118.6701     7.6624     7.4183
  247.5000   120.2517     7.7815     7.6460
  248.0000   121.8318     7.8803     7.7226
  248.5000   123.4508     7.9803     7.7992
  249.0000   123.6136     8.0815     7.8767
  249.5000   120.9154     8.1297     7.9552
  250.0000   118.0254     8.2121     8.0344
  250.5000   115.0959     8.1800     8.0590
  251.0000   114.2450     8.1612     8.0145
  251.5000   115.4961     8.1425     7.9661
  252.0000   117.0989     8.1188     7.9180
  252.5000   117.6584     8.0901     7.8702
  253.0000   116.7119     8.0615     7.8226
  253.5000   116.8355     8.0329     7.7754
  254.0000   120.4493     8.0045     7.7284
  254.5000   122.2877     7.9844     7.6948
  255.0000   122.2948     7.9981     7.7437
  255.5000   122.6417     8.0090     7.7820
  256.0000   123.7585     8.0198     7.8205
  256.5000   123.7464     8.0306     7.8592
  257.0000   122.5664     8.0415     7.8980
  257.5000   121.4894     8.0524     7.9109
  258.0000   121.2204     8.0592     7.7660
  258.5000   121.3621     7.9807     7.6539
  259.0000   121.9600     7.9191     7.5434
  259.5000   122.0201     7.7808     7.3716
  260.0000   121.5213     7.5070     7.1331
  260.5000   122.0800     7.2429     6.9023
  261.0000   123.2370     6.9881     6.6789
  261.5000   124.2707     6.7422     6.4628
  262.0000   124.0290     6.5167     6.2537
  262.5000   124.3851     6.4405     6.1827
  263.0000   125.4812     6.3689     6.1354
  263.5000   126.4841     6.2981     6.0885
  264.0000   125.8771     6.2279     6.0420
  264.5000   124.7182     6.1585     5.9977
  265.0000   124.7339     6.0900     5.8472
  265.5000   125.7302     5.9977     5.7064
  266.0000   126.7620     6.0330     5.5196
  266.5000   126.3662     6.0888     5.6284
  267.0000   125.2379     6.1452     5.8038
  267.5000   124.0920     6.2761     5.9848
  268.0000   122.9450     6.4545     6.1962
  268.5000   121.7977     6.6382     6.4325
  269.0000   120.6580     6.8276     6.6771
  269.5000   119.6969     7.0165     6.9303
  270.0000   120.9778     7.0165     7.1472
  270.5000   122.2368     6.8522     7.2135
  271.0000   122.0617     6.6196     7.1687
  271.5000   121.0737     6.3948     6.9653
  272.0000   119.9572     6.1777     6.5099
  272.5000   117.1970     5.9680     5.9406
  273.0000   112.5417     5.8060     5.5811
  273.5000   107.9231     5.7005     5.2518
  274.0000   104.0148     5.6352     4.9380
  274.5000   103.1948     5.5708     4.9377
