~VERSION INFORMATION
 VERS.                2.0:   CWLS LOG ASCII STANDARD - VERSION 2.0
 WRAP.                 NO:   ONE LINE PER DEPTH STEP
~WELL INFORMATION
#MNEM.UNIT      DATA TYPE    INFORMATION
#----------   ------------   ------------------------------
 STRT.F           80.0000:   START DEPTH
 STOP.F          718.5000:   STOP DEPTH
 STEP.F            0.5000:   STEP LENGTH
 NULL.          -999.2500:   NO VALUE
 COMP. U S NAVY-INTEX OIL:   COMPANY
 WELL. RES 3 TEAPOT DOM #21-S-2:   WELL
 FLD .        TEAPOT DOME:   FIELD
 LOC .       S2 T38N R78W:   LOCATION
 CNTY.            NATRONA:   COUNTY
 STAT.            WYOMING:   STATE
 CTRY. UNITED STATES OF AMERICA:   COUNTRY
 SRVC. Schlumberger Well Surveying Corp:   SERVICE COMPANY
 DATE.        18-JUL-1962:   LOGDATE
 API .       490250648100:   API NUMBER
~CURVE INFORMATION
#MNEM.UNIT       API CODE    CURVE DESCRIPTION
#----------   ------------   ------------------------------
 DEPT.F                  :   
 CALM.IN     15 280 01 00:   CALIPER FROM MICRO LOG
 SPR .MV     05 010 01 00:   SPONTANEOUS POTENTIAL FROM RES.
 ASN .OHMM   05 041 16 00:   AMPLIFIED SHORT NORMAL 16"
 ILD .OHMM   05 120 46 00:   INDUCTION LOG DEEP
 CILD.MMHO   05 110 46 00:   CONDUCTIVITY INDUCTION LOG DEEP
~PARAMETER INFORMATION
#MNEM.UNIT          VALUE    DESCRIPTION
#----------   ------------   ------------------------------
 LMF .                 KB:   LOG MEASURED FROM
 DMF .                 KB:   DRILLING MEASURED FROM
 EKB .F              5116:   KELLING BUSHING
 EGL .F              5111:   GROUND LEVEL
 DATE.          7-18-1962:   RUN DATE
 RUN .                  1:   RUN NUMBER
 DD  .F               719:   DEPTH DRILLER
 DL  .F               719:   DEPTH LOGGER
 BLI .F               718:   BOTTOM LOG INTERVAL
 TLI .F                90:   TOP LOG INTERVAL
 BS  .IN             6.75:   BIT SIZE
 BSD .F               719:   BIT SIZE AT DEPTH
 DFT .           OIL EMUL:   DRILLING FLUID TYPE
 DFD .                 10:   DRILLING FLUID DENSITY
 DFV .                 45:   DRILLING FLUID VISCOSITY
 DFL .                2.8:   DRILLING FLUID LOSS
 RMS .OHMM           3.87:   RESISTIVITY MUD SAMPLE
 MST .F                94:   MUD SAMPLE TEMPERATURE
 RMF .OHMM           2.93:   RESISTIVITY MUD FILTRATE SAMPLE
 MFST.F                94:   MUD FILTRATE SAMPLE TEMPERATURE
 RMC .OHMM           3.95:   RESISTIVITY MUD CAKE
 MCST.F                94:   MUD CAKE SAMPLE TEMPERATURE
 TCS .HRS              .5:   TIME CURCULATED STOPPED
 LUN .               2503:   LOGGING UNIT NUMBER
 LUL .              CSPR.:   LOGGING UNIT LOCATION
 ENGI.             DANNER:   RECORDING ENGINEER
 WITN.          JORGENSEN:   WITNESSED BY
 CLNT.            A2DTECH:   CLIENT CODE
 ORIG.      2" , 5" PRINT:   ORIGIN OF DATA
 UWI .       490250648100:   UNIQUE WELL ID
 DICO. A2D Technologies, Inc.:   DIGITIZING COMPANY
~OTHER INFORMATION
~A   DEPT     CALM        SPR          ASN        ILD      CILD  
# ...
  141.0000  -999.2500   -60.2292     3.4432     2.5626   357.1457
  141.5000  -999.2500   -60.4645     3.3963     2.5649   349.9297
  142.0000  -999.2500   -60.6895     3.3311     2.6909   340.0711
  142.5000  -999.2500   -60.9141     3.5074     2.9909   313.0756
  143.0000  -999.2500   -61.1392     3.7238     3.2884   283.2604
  143.5000  -999.2500   -61.3627     3.9268     3.5870   254.7739
  144.0000  -999.2500   -61.4149     3.9625     3.8810   241.8515
  144.5000  -999.2500   -61.4413     4.0988     4.0757   231.3769
  145.0000  -999.2500   -61.4676     4.2501     4.0721   229.0955
  145.5000  -999.2500   -61.4941     4.3578     4.0966   228.2546
  146.0000  -999.2500   -61.5207     4.4146     4.1354   227.4137
  146.5000  -999.2500   -61.5475     4.4138     4.1679   226.6332
  147.0000  -999.2500   -61.5737     4.3871     4.1147   229.5446
  147.5000  -999.2500   -61.5802     4.3617     4.0616   232.2613
  148.0000  -999.2500   -61.5255     4.2594     4.0073   238.1852
  148.5000  -999.2500   -61.4732     4.1275     3.9044   247.4774
  149.0000  -999.2500   -61.4210     3.9938     3.6298   257.0536
  149.5000  -999.2500   -61.3688     3.8602     3.3644   272.4839
  150.0000  -999.2500   -61.3165     3.7271     3.1000   291.1916
  150.5000  -999.2500   -61.2643     3.5931     2.8526   309.5907
  151.0000  -999.2500   -61.2121     3.4827     2.8168   326.7628
  151.5000  -999.2500   -61.1599     3.3902     2.7756   330.2883
  152.0000  -999.2500   -61.1077     3.3380     2.7335   331.3977
  152.5000  -999.2500   -61.0555     3.3184     2.6914   334.0287
  153.0000  -999.2500   -61.0032     3.2669     2.6493   339.7612
  153.5000  -999.2500   -60.9510     3.1461     2.6071   345.5228
  154.0000  -999.2500   -60.8988     3.0778     2.5651   350.9624
  154.5000  -999.2500   -60.8466     3.1192     2.5228   356.0503
  155.0000  -999.2500   -60.7944     3.1203     2.4814   361.1055
  155.5000  -999.2500   -60.7422     3.0450     2.3553   371.6597
  156.0000  -999.2500   -60.6899     2.9710     2.1662   391.5245
  156.5000  -999.2500   -60.6374     2.8869     1.9766   424.3745
  157.0000  -999.2500   -60.5864     2.7857     1.7868   457.2396
  157.5000  -999.2500   -60.5843     2.6844     1.5968   490.2765
  158.0000  -999.2500   -60.5846     2.5826     1.4077   515.3663
  158.5000  -999.2500   -60.5847     2.5061     1.2620   541.1773
  159.0000  -999.2500   -60.5847     2.4342     1.3194   541.4138
  159.5000  -999.2500   -60.5846     2.4229     1.3731   525.6281
  160.0000  -999.2500   -60.5844     2.4713     1.4285   496.9849
  160.5000  -999.2500   -60.5847     2.5575     1.5906   474.8744
  161.0000  -999.2500   -60.6088     2.6003     1.9108   441.8730
  161.5000  -999.2500   -60.7313     2.7509     2.2285   409.7031
  162.0000  -999.2500   -60.8508     3.0015     2.5475   367.2943
  162.5000  -999.2500   -60.9701     3.2495     2.8671   325.1256
  163.0000  -999.2500   -61.0896     3.3479     3.1591   301.0050
  163.5000  -999.2500   -61.2088     3.3754     3.1236   290.6915
  164.0000  -999.2500   -61.3268     3.3481     3.0802   292.4508
  164.5000  -999.2500   -61.3304     3.3214     3.0588   301.8392
  165.0000  -999.2500   -61.1995     3.2954     2.9141   314.6734
  165.5000  -999.2500   -61.0700     3.2398     2.7712   328.0009
  166.0000  -999.2500   -60.9398     3.1731     2.6292   341.3285
  166.5000  -999.2500   -60.8098     3.1057     2.4873   354.6560
  167.0000  -999.2500   -60.6798     3.0348     2.3454   373.3668
  167.5000  -999.2500   -60.5496     2.9559     2.2035   402.0511
  168.0000  -999.2500   -60.4141     2.8750     2.0616   433.7615
  168.5000  -999.2500   -60.4011     2.7963     1.9197   457.7444
  169.0000  -999.2500   -60.4251     2.7518     1.7777   475.4305
  169.5000  -999.2500   -60.4502     2.7060     1.6352   484.0829
  170.0000  -999.2500   -60.4750     2.7299     1.4841   479.9438
  170.5000  -999.2500   -60.4997     2.7800     1.6779   455.3412
  171.0000  -999.2500   -60.5245     2.8477     1.9730   432.5247
  171.5000  -999.2500   -60.5492     2.9141     2.2706   407.9420
  172.0000  -999.2500   -60.5738     3.0662     2.5675   381.3387
  172.5000  -999.2500   -60.6207     3.3125     2.8642   343.9297
  173.0000  -999.2500   -60.6839     3.7090     3.1609   306.5206
  173.5000  -999.2500   -60.7473     3.8957     3.4577   272.4955
  174.0000  -999.2500   -60.8108     4.0340     3.7543   253.7910
  174.5000  -999.2500   -60.8744     4.1709     4.0519   237.5134
  175.0000  -999.2500   -60.9375     4.3083     4.2762   231.3938
  175.5000  -999.2500   -60.9808     4.4453     4.4549   225.2743
  176.0000  -999.2500   -60.9326     4.5896     4.6328   219.1547
  176.5000  -999.2500   -60.8863     4.7632     4.8106   211.9297
  177.0000  -999.2500   -60.8402     4.9809     4.9884   203.1494
  177.5000  -999.2500   -60.7941     5.1980     5.1663   194.3692
  178.0000  -999.2500   -60.7480     5.4153     5.3442   185.5890
  178.5000  -999.2500   -60.7019     5.6323     5.5220   178.2642
  179.0000  -999.2500   -60.6558     5.8421     5.7000   171.7645
  179.5000  -999.2500   -60.6097     6.0088     5.8785   165.2498
  180.0000  -999.2500   -60.5636     6.1708     6.0571   162.8723
  180.5000  -999.2500   -60.5175     6.3229     6.0647   161.1898
  181.0000  -999.2500   -60.4714     6.3941     6.0460   160.0380
  181.5000  -999.2500   -60.4253     6.3958     6.0269   159.4763
  182.0000  -999.2500   -60.3792     6.3882     6.0081   159.5176
  182.5000  -999.2500   -60.3331     6.3805     5.9894   159.9772
  183.0000  -999.2500   -60.2870     6.3730     5.9707   160.4367
  183.5000  -999.2500   -60.2408     6.3654     5.9519   160.8963
  184.0000  -999.2500   -60.1910     6.3620     5.9332   161.3518
  184.5000  -999.2500   -60.2718     6.3801     5.9145   161.7730
  185.0000  -999.2500   -60.3978     6.4004     5.8958   162.1943
  185.5000  -999.2500   -60.5251     6.4209     5.8770   162.6156
  186.0000  -999.2500   -60.6532     6.4411     5.8583   163.0368
  186.5000  -999.2500   -60.7795     6.4267     5.8396   163.4581
  187.0000  -999.2500   -60.7105     6.4097     5.8208   163.8794
  187.5000  -999.2500   -60.6273     6.3926     5.8019   164.3216
  188.0000  -999.2500   -60.5447     6.3755     5.7804   162.4739
  188.5000  -999.2500   -60.4625     6.3703     5.8863   160.5296
  189.0000  -999.2500   -60.3802     6.4546     6.0273   158.3719
  189.5000  -999.2500   -60.2980     6.6577     6.1691   155.8442
  190.0000  -999.2500   -60.2158     6.8594     6.3103   153.3166
  190.5000  -999.2500   -60.1335     7.0245     6.4495   148.7812
  191.0000  -999.2500   -60.0513     7.1247     6.7288   142.8068
  191.5000  -999.2500   -59.9691     7.2260     7.0415   136.8323
  192.0000  -999.2500   -59.8869     7.3271     7.3544   130.8579
  192.5000  -999.2500   -59.8046     7.4285     7.6701   125.4591
  193.0000  -999.2500   -59.7220     7.5293     7.7872   122.2421
  193.5000  -999.2500   -59.6403     7.6045     7.7894   119.0955
  194.0000  -999.2500   -59.5919     7.5712     7.7903   118.5226
  194.5000  -999.2500   -59.6788     7.5120     7.7480   118.1759
  195.0000  -999.2500   -59.7555     7.3354     7.7036   120.6721
  195.5000  -999.2500   -60.1438     7.1630     7.4294   123.1847
  196.0000  -999.2500   -60.5793     6.9958     7.1160   127.1566
  196.5000  -999.2500   -60.9815     6.7281     6.6778   142.8238
  197.0000  -999.2500   -60.9911     6.4483     5.7804   157.6318
  197.5000  -999.2500   -60.9878     6.1046     4.9088   199.6361
  198.0000  -999.2500   -60.9197     5.6280     4.0405   256.3509
  198.5000  -999.2500   -60.6188     4.9193     3.1713   314.7163
  199.0000  -999.2500   -60.3286     4.2321     2.2998   373.0818
  199.5000  -999.2500   -60.0387     3.5982     1.7424   431.4472
  200.0000  -999.2500   -59.7484     3.3298     1.5067   484.6911
  200.5000  -999.2500   -59.4434     3.0930     1.2696   531.8015
  201.0000  -999.2500   -59.5331     3.0482     1.1889   562.4918
  201.5000  -999.2500   -59.7516     3.0624     1.4534   541.3296
