~VERSION INFORMATION
 VERS.                2.0:   CWLS LOG ASCII STANDARD - VERSION 2.0
 WRAP.                 NO:   ONE LINE PER DEPTH STEP
~WELL INFORMATION
#MNEM.UNIT      DATA TYPE    INFORMATION
#----------   ------------   ------------------------------
 STRT.F            1.0000:   START DEPTH
 STOP.F          708.0000:   STOP DEPTH
 STEP.F            0.5000:   STEP LENGTH
 NULL.          -999.2500:   NO VALUE
 COMP. LAWRENCE/ALLISON INC:   COMPANY
 WELL. NPR 3 68-61 SX #34-34:   WELL
 FLD .             TEAPOT:   FIELD
 LOC .      S34 T39N R78W:   LOCATION
 CNTY.            NATRONA:   COUNTY
 STAT.            WYOMING:   STATE
 CTRY. UNITED STATES OF AMERICA:   COUNTRY
 SRVC.           Gearhart:   SERVICE COMPANY
 DATE.        22-SEP-1988:   LOGDATE
 API .       490251125200:   API NUMBER
~CURVE INFORMATION
#MNEM.UNIT       API CODE    CURVE DESCRIPTION
#----------   ------------   ------------------------------
 DEPT.F                  :   
 GRR .GAPI   07 310 01 00:   GAMMA RAY
 RILD.OHMM   07 120 46 00:   INDUCTION LOG DEEP RESISTIVITY
 RILM.OHMM   07 120 44 00:   INDUCTION LOG MEDIUM RESISTIVITY
~PARAMETER INFORMATION
#MNEM.UNIT          VALUE    DESCRIPTION
#----------   ------------   ------------------------------
 PD  .                 GL:   PERMANENT DATUM
 EPD .F              5067:   ELEVATION PERMANENT DATUM
 LMF .                 KB:   LOG MEASURED FROM
 DAPD.F                10:   FEET ABOVE PERMANENT DATUM
 DMF .                 KB:   DRILLING MEASURED FROM
 EKB .F              5077:   KELLING BUSHING
 EGL .F              5067:   GROUND LEVEL
 DATE.        22-SEP-1988:   RUN DATE
 RUN .                  1:   RUN NUMBER
 DD  .F               705:   DEPTH DRILLER
 DL  .F               716:   DEPTH LOGGER
 BLI .F             707.5:   BOTTOM LOG INTERVAL
 TLI .F                50:   TOP LOG INTERVAL
 CS  .IN            9.625:   CASING SIZE
 CBD .F                50:   CASING BOTTOM DRILLER
 CBL .F                50:   CASING BOTTOM LOGGER
 BS  .IN             8.75:   BIT SIZE
 BSD .F               705:   BIT SIZE AT DEPTH
 DFT .                AIR:   DRILLING FLUID TYPE
 TCS .HRS            2400:   TIME CURCULATED STOPPED
 TLAB.HRS            0251:   TIME LOGGER AT BOTTOM
 MRT .F                70:   MAXIMUM RECORDED TEMPERATURE
 LUN .               7597:   LOGGING UNIT NUMBER
 LUL .           GILLETTE:   LOGGING UNIT LOCATION
 ENGI.          HUCKFRIDT:   RECORDING ENGINEER
 WITN.             STRONG:   WITNESSED BY
 CLNT.            A2DTECH:   CLIENT CODE
 ORIG.           5" PRINT:   ORIGIN OF DATA
 UWI .       490251125200:   UNIQUE WELL ID
 DICO. A2D Technologies, Inc.:   DIGITIZING COMPANY
~OTHER INFORMATION
~A    DEPT      GRR      RILD       RILM   
# ...
  274.0000   119.9155     9.0455     7.9224
  274.5000   121.7354     9.0424     7.9203
  275.0000   122.9262     9.0394     7.9180
  275.5000   122.9226     9.0363     7.9155
  276.0000   122.6180     9.0333     7.9133
  276.5000   122.6150     8.9678     7.8565
  277.0000   122.3112     8.8953     7.8000
  277.5000   124.1175     8.7765     7.6904
  278.0000   124.4163     8.7129     7.6883
  278.5000   124.4133     8.5306     7.6863
  279.0000   124.4103     8.4688     7.6310
  279.5000   124.1051     8.2916     7.5156
  280.0000   122.5938     8.2315     7.4176
  280.5000   123.1950     8.1154     7.2125
  281.0000   124.3987     8.0551     7.0620
  281.5000   125.6016     7.9428     7.0113
  282.0000   126.5038     7.9396     7.0094
  282.5000   125.5958     7.9921     7.0075
  283.0000   124.0000     7.9895     7.0056
  283.5000   121.9693     7.9868     7.0037
  284.0000   119.8548     7.9841     7.0017
  284.5000   119.5502     8.0369     6.9994
  285.0000   119.8489     8.0901     7.0467
  285.5000   120.1484     8.2628     7.1428
  286.0000   120.4465     8.5058     7.2912
  286.5000   120.4434     8.7826     7.5466
  287.0000   120.4404     8.9650     7.8110
  287.5000   119.5319     9.0236     7.8632
  288.0000   115.9090     9.0841     7.8611
  288.5000   115.9061     9.0803     7.8589
  289.0000   117.1098     9.0145     7.8563
  289.5000   118.6152     8.9491     7.8542
  290.0000   119.5174     8.9461     7.8521
  290.5000   119.5143     8.8805     7.8500
  291.0000   120.4504     8.8776     7.7936
  291.5000   123.7310     8.8746     7.7915
  292.0000   125.2371     8.8716     7.7894
  292.5000   124.3284     8.8686     7.7334
  293.0000   124.3255     8.8043     7.6777
  293.5000   124.3226     8.7405     7.6222
  294.0000   124.6214     8.7376     7.6201
  294.5000   123.1101     8.7345     7.6180
  295.0000   123.4689     8.7309     7.6160
  295.5000   125.8184     8.7280     7.6139
  296.0000   127.6255     8.7251     7.6119
  296.5000   126.7176     8.8447     7.6098
  297.0000   124.3014     8.9032     7.6078
  297.5000   123.0918     9.0866     7.6056
  298.0000   123.0889     9.1468     7.6031
  298.5000   122.1810     9.3359     7.7078
  299.0000   121.5224     9.3977     7.8129
  299.5000   121.8727     9.5921     7.8652
  300.0000   123.0772     9.6673     8.0302
  300.5000   121.8577     9.8122     8.3677
  301.0000   120.6394     9.8501     8.6010
  301.5000   116.2289     9.9246     8.7271
  302.0000   113.6750    10.0491     8.9614
  302.5000   114.5683    10.1150     9.1475
  303.0000   116.9700    10.3235     9.2728
  303.5000   118.4666    10.6086     9.5313
  304.0000   116.9467    10.9787     9.7293
  304.5000   114.5217    11.2131    10.0005
  305.0000   112.0361    11.5143    10.2793
  305.5000   107.2557    11.5910    10.5652
  306.0000   106.3420    11.8288    10.8597
  306.5000   108.1374    11.9075    11.0852
  307.0000   108.4274    12.1519    11.1595
  307.5000   108.4158    12.2315    11.1565
  308.0000   109.6108    12.2254    11.2312
  308.5000   109.2658    12.2205    11.2274
  309.0000   106.5679    12.2156    11.3033
  309.5000   102.6347    12.2107    11.2996
  310.0000   103.5281    12.2058    11.2184
  310.5000   105.6280    12.1166    11.1378
  311.0000   107.1247    12.0268    11.1261
  311.5000   108.3197    11.8564    10.8264
  312.0000   108.9113    11.6884    10.4543
  312.5000   108.2934    11.5228    10.2361
  313.0000   108.2818    11.5182    10.1626
  313.5000   108.2701    11.3550    10.1599
  314.0000   106.7502    11.2718    10.1572
  314.5000   104.3253    11.1885    10.1538
  315.0000   100.9954    11.1840    10.1511
  315.5000   100.0785    11.1795    10.1484
  316.0000   101.8741    11.1751    10.1457
  316.5000   104.8791    11.0934    10.1430
  317.0000   106.9820    11.0888    10.1403
  317.5000   106.9674    10.9307    10.1374
  318.0000   106.6541    10.8508    10.1342
  318.5000   106.6424    10.7715    10.0614
  319.0000   106.9325    10.5455     9.7833
  319.5000   109.0295    10.3961     9.5791
  320.0000   111.7328    10.2487     9.3792
  320.5000   112.0257    10.1728     9.1199
  321.0000   111.4078    10.0985     8.8673
  321.5000   110.4912    10.0944     8.6222
  322.0000   109.8762    10.0904     8.5603
  322.5000   109.5629    10.0864     8.5580
  323.0000   111.0567    10.0823     8.5557
  323.5000   111.6513    10.0773     8.6130
  324.0000   112.2429    10.0733     8.6101
  324.5000   111.3234    10.0692     8.6683
  325.0000   107.9935    10.0652     8.7264
  325.5000   105.5686     9.9226     8.7848
  326.0000   103.6742     9.9186     8.7819
  326.5000   102.8274     9.9145     8.7795
  327.0000   102.8158     9.9097     8.7695
  327.5000   103.1087     9.9057     8.5934
  328.0000   103.9991     9.9018     8.5317
  328.5000   106.7024     9.8978     8.4704
  329.0000   110.0090     9.8938     8.4096
  329.5000   109.0176     9.8898     8.4074
  330.0000   106.6645     9.8849     8.4637
  330.5000   104.2396     9.8810     8.5203
  331.0000   106.0379     9.8770     8.5774
  331.5000   107.8391     9.8731     8.7549
  332.0000   108.1267     9.8691     8.8141
  332.5000   108.1146     9.7924     8.7502
  333.0000   107.8009     9.5242     8.5676
  333.5000   106.8817     9.3243     8.5060
  334.0000   105.3618     9.0029     8.3280
  334.5000   106.2551     8.6325     8.0978
  335.0000   109.2601     8.3930     7.7655
  335.5000   111.3600     8.2139     7.4467
  336.0000   112.8567     7.9880     7.2409
  336.5000   113.4483     7.8749     7.0847
  337.0000   112.5288     7.8717     7.0384
  337.5000   111.0089     7.8686     7.0365
  338.0000   108.2823     7.8654     7.0346
  338.5000   105.5586     7.8623     7.0822
  339.0000   107.3540     7.9218     7.1789
  339.5000   110.9623     8.0211     7.2269
  340.0000   113.7055     8.0737     7.2748
  340.5000   112.1427     8.1259     7.4259
  341.0000   109.7178     8.2369     7.4239
  341.5000   107.5945     8.3478     7.4741
  342.0000   106.6788     8.5199     7.5241
  342.5000   116.9207     8.5749     7.5740
  343.0000   119.0207     8.6912     7.5793
  343.5000   119.6152     8.6877     7.6227
  344.0000   117.4891     8.6842     7.6202
  344.5000   115.9691     8.6807     7.7246
  345.0000   114.7508     8.6772     7.7768
  345.5000   114.1359     8.6729     7.8284
  346.0000   115.9313     8.6694     7.8263
  346.5000   115.9196     8.6660     7.8237
  347.0000   115.6063     8.6625     7.8216
  347.5000   115.2930     8.6590     7.8195
  348.0000   114.6780     8.6556     7.8174
  348.5000   116.4763     8.6513     7.8153
  349.0000   118.3167     8.6478     7.8132
  349.5000   120.6763     8.6443     7.8656
  350.0000   121.5677     8.6230     7.9734
  350.5000   120.6511     8.5195     7.8058
  351.0000   119.4328     8.5172     7.8032
  351.5000   117.2326     8.5149     7.8006
  352.0000   113.3735     8.4538     7.7980
  352.5000   113.3618     8.4515     7.7954
  353.0000   113.9536     8.4487     7.7921
  353.5000   116.9585     8.4465     7.7895
  354.0000   118.7893     8.4442     7.7330
  354.5000   116.9352     8.4420     7.6770
  355.0000   115.1108     8.4397     7.6213
  355.5000   114.4959     8.3189     7.5661
  356.0000   116.8975     8.1472     7.5635
  356.5000   119.9025     8.0328     7.5006
  357.0000   121.7037     7.9751     7.3509
  357.5000   118.9723     7.9179     7.2976
  358.0000   116.8491     7.9158     7.1946
  358.5000   115.3292     7.9137     7.1424
  359.0000   114.1109     7.9115     7.1400
  359.5000   113.4960     7.9645     7.1376
  360.0000   113.8058     7.9068     7.0858
  360.5000   114.0761     7.7419     6.9370
  361.0000   114.9665     7.4760     6.7448
  361.5000   115.8599     7.2696     6.5579
  362.0000   115.5466     7.0186     6.3762
  362.5000   114.0267     6.9133     6.1995
  363.0000   112.5067     6.8237     6.0277
  363.5000   111.2885     6.8699     5.8606
  364.0000   114.2906     6.9158     5.8583
  364.5000   114.8852     6.9135     5.8563
