~VERSION INFORMATION
 VERS.                2.0:   CWLS LOG ASCII STANDARD - VERSION 2.0
 WRAP.                 NO:   ONE LINE PER DEPTH STEP
~WELL INFORMATION
#MNEM.UNIT      DATA TYPE    INFORMATION
#----------   ------------   ------------------------------
 STRT.F           27.0000:   START DEPTH
 STOP.F          670.0000:   STOP DEPTH
 STEP.F            0.5000:   STEP LENGTH
 NULL.          -999.2500:   NO VALUE
 COMP. LAWRENCE/ALLISON INC:   COMPANY
 WELL. SX 11 WP 26 #26-11:   WELL
 FLD .           N.P.R #3:   FIELD
 LOC .      S11 T38N R78W:   LOCATION
 CNTY.            NATRONA:   COUNTY
 STAT.            WYOMING:   STATE
 CTRY. UNITED STATES OF AMERICA:   COUNTRY
 SRVC.            Unknown:   SERVICE COMPANY
 DATE.        11-SEP-1984:   LOGDATE
 API .       490251097700:   API NUMBER
~CURVE INFORMATION
#MNEM.UNIT       API CODE    CURVE DESCRIPTION
#----------   ------------   ------------------------------
 DEPT.F                  :   
 CNC .DEC    42 890 03 00:   NEUTRON POROSITY SANDSTONE
 AC  .US/F   60 520 00 00:   ACCOUSTIC SONIC
 SPR .MV     07 010 01 00:   SPONTANEOUS POTENTIAL
 RILD.OHMM   07 120 46 00:   INDUCTION LOG DEEP RESISTIVITY
 RILM.OHMM   07 120 44 00:   INDUCTION LOG MEDIUM RESISTIVITY
 RFOC.OHMM   07 220 04 00:   RESISTIVITY FOCUSED LOG
 GRD .GAPI   45 310 01 00:   GAMMA RAY FROM DENSITY LOG
 CALD.IN     45 280 60 00:   CALIPER FROM DENSITY LOG
 DEN .G/C3   45 350 01 00:   COMPENSATED BULK DENSTIY
 CORR.G/C3   45 356 01 00:   DENSITY CORRECTION
 PORD.DEC    45 890 12 00:   POROSITY DENSITY SANDSTONE
~PARAMETER INFORMATION
#MNEM.UNIT          VALUE    DESCRIPTION
#----------   ------------   ------------------------------
 PD  .                 GL:   PERMANENT DATUM
 EPD .F              5186:   ELEVATION PERMANENT DATUM
 LMF .                 GL:   LOG MEASURED FROM
 DMF .                 GL:   DRILLING MEASURED FROM
 EGL .F              5186:   GROUND LEVEL
 DATE.            9-11-84:   RUN DATE
 RUN .                  1:   RUN NUMBER
 DD  .F               672:   DEPTH DRILLER
 DL  .F               668:   DEPTH LOGGER
 BLI .F               668:   BOTTOM LOG INTERVAL
 TLI .F                45:   TOP LOG INTERVAL
 CS  .IN            8.625:   CASING SIZE
 CBD .F                42:   CASING BOTTOM DRILLER
 CBL .F                45:   CASING BOTTOM LOGGER
 BS  .IN            7.875:   BIT SIZE
 BSD .F               672:   BIT SIZE AT DEPTH
 DFT .          KCL WATER:   DRILLING FLUID TYPE
 MSS .               TANK:   MUD SAMPLE SOURCE
 RMS .OHMM            .36:   RESISTIVITY MUD SAMPLE
 MST .F                82:   MUD SAMPLE TEMPERATURE
 MFSS.                  C:   MUD FILTRATE SAMPLE SOURCE
 MCSS.                  C:   MUD CAKE SAMPLE SOURCE
 TCS .HRS               3:   TIME CURCULATED STOPPED
 MRT .F               100:   MAXIMUM RECORDED TEMPERATURE
 LUN .            HL 6307:   LOGGING UNIT NUMBER
 LUL .           GILLETTE:   LOGGING UNIT LOCATION
 ENGI.      FAHLSING/MACK:   RECORDING ENGINEER
 WITN.            JOHNSON:   WITNESSED BY
 CLNT.            A2DTECH:   CLIENT CODE
 ORIG.       2", 5" PRINT:   ORIGIN OF DATA
 UWI .       490251097700:   UNIQUE WELL ID
 DICO. A2D Technologies, Inc.:   DIGITIZING COMPANY
~OTHER INFORMATION
~A   DEPT      CNC          AC       SPR       RILD       RILM       RFOC        GRD       CALD        DEN       CORR       PORD   
# ...
  240.5000     0.3199   105.1640   -42.9620     6.8310     7.0940     8.9340   113.1790     8.0430     2.4990     0.0360     0.1100
  241.0000     0.3211   104.8760   -43.3170     6.9060     7.1800     9.1930   110.1580     8.0430     2.5000     0.0530     0.1100
  241.5000     0.3180   104.5880   -43.4610     6.9800     7.2660     9.4550   105.8900     8.0440     2.5010     0.0700     0.1090
  242.0000     0.3133   104.3000   -43.3110     7.0550     7.3510     9.7180   101.3350     8.0440     2.5020     0.0720     0.1080
  242.5000     0.3136   104.0120   -43.1640     7.1300     7.4370     9.9780   103.2730     8.0450     2.5040     0.0680     0.1060
  243.0000     0.3149   103.7240   -43.0170     7.2050     7.5230     9.9780   107.4110     8.0450     2.5080     0.0650     0.1040
  243.5000     0.3084   103.5170   -42.8710     7.2800     7.6090     9.9080   111.0660     8.0460     2.5130     0.0690     0.1010
  244.0000     0.3023   103.2560   -42.7450     7.3550     7.6940     9.8510   109.8470     8.0460     2.5190     0.0730     0.0970
  244.5000     0.2987   102.3110   -42.3360     7.4290     7.7800     9.7960   108.4140     8.0460     2.5240     0.0720     0.0940
  245.0000     0.2951   101.3660   -41.8880     7.5040     7.8660     9.9050   106.9860     8.0470     2.5260     0.0630     0.0930
  245.5000     0.2811   100.4220   -41.4370     7.5790     7.9520    10.1570   105.5650     8.0470     2.5270     0.0530     0.0930
  246.0000     0.2733    99.4120   -40.9830     7.6540     8.1480    10.5450   104.1420     8.0480     2.5240     0.0440     0.0950
  246.5000     0.2838    99.9210   -40.8580     7.7100     8.0540    10.4670   102.6930     8.0480     2.5200     0.0360     0.0970
  247.0000     0.3318   100.4660   -41.1090     7.7100     7.9790    10.2950   101.5790     8.0480     2.5170     0.0440     0.0980
  247.5000     0.3070   101.0120   -41.3160     7.7810     7.9040    10.1240   102.2570     8.0490     2.5110     0.0530     0.1020
  248.0000     0.3021   101.6040   -40.9800     7.6760     7.8290     9.9530   103.6920     8.0490     2.5040     0.0450     0.1070
  248.5000     0.2966   101.6900   -40.7350     7.5780     7.7540     9.7960   105.1600     8.0500     2.4980     0.0350     0.1130
  249.0000     0.2819   101.7850   -40.9420     7.4800     7.6790     9.8770   106.6570     8.0500     2.4960     0.0250     0.1110
  249.5000     0.2797   101.8790   -41.1710     7.3820     7.6040     9.9690   105.4910     8.0500     2.5000     0.0290     0.1070
  250.0000     0.3367   101.9740   -41.4000     7.2830     7.5290    10.0700   104.0920     8.0510     2.5040     0.0360     0.1070
  250.5000     0.3407   102.2670   -41.6290     7.1850     7.4310    10.0700   102.6670     8.0510     2.4970     0.0420     0.1120
  251.0000     0.3447   102.6460   -41.8580     7.0960     7.4880    10.0280   101.2680     8.0520     2.4870     0.0480     0.1150
  251.5000     0.3465   103.0240   -42.0870     7.1380     7.5710     9.9670   100.5400     8.0520     2.4870     0.0550     0.1170
  252.0000     0.3366   103.4030   -42.3160     7.1990     7.6550     9.9060   109.7690     8.0520     2.4870     0.0590     0.1170
  252.5000     0.3156   103.7810   -42.5230     7.2600     7.7380     9.7960   108.9190     8.0530     2.4840     0.0480     0.1170
  253.0000     0.3004   104.1930   -42.3090     7.3210     7.8210     9.7960   106.0380     8.0530     2.4810     0.0380     0.1180
  253.5000     0.2998   104.0570   -42.0570     7.3820     7.9040     9.8590   103.1170     8.0540     2.4780     0.0310     0.1210
  254.0000     0.2992   103.8940   -41.8040     7.4430     7.9870     9.9180   102.4800     8.0540     2.4760     0.0380     0.1220
  254.5000     0.2985   103.2660   -41.5520     7.4990     8.0700     9.9770   108.0150     8.0540     2.4820     0.0440     0.1190
  255.0000     0.2873   102.5800   -41.2990     7.6140     8.1530    10.0360   111.1970     8.0550     2.4890     0.0500     0.1160
  255.5000     0.2849   101.8940   -41.0460     7.7220     8.2360    10.0950   109.5060     8.0550     2.4920     0.0540     0.1120
  256.0000     0.2978   101.4510   -40.7940     7.8290     8.3190    10.1540   107.6710     8.0560     2.4910     0.0490     0.1130
  256.5000     0.3069   101.1010   -40.5410     7.9370     8.4020    10.2130   106.0280     8.0560     2.4900     0.0440     0.1130
  257.0000     0.3013   100.7520   -40.2880     8.0440     8.4850    10.2570   105.4330     8.0560     2.4940     0.0410     0.1100
  257.5000     0.2982   100.4030   -40.0350     8.1520     8.6210    10.3730   105.2150     8.0570     2.4980     0.0450     0.1080
  258.0000     0.2930    99.9180   -39.7820     8.2600     8.8220    10.6350   104.2790     8.0570     2.5010     0.0490     0.1050
  258.5000     0.2778    99.3840   -39.5300     8.3940     9.0240    10.8960   103.7490     8.0580     2.5050     0.0510     0.1030
  259.0000     0.2812    98.8150   -39.2770     8.6120     9.2250    10.9400   106.1490     8.0580     2.5090     0.0460     0.1010
  259.5000     0.2876    98.1720   -39.0240     8.8310     9.4270    10.9400   108.3340     8.0580     2.5120     0.0410     0.1010
  260.0000     0.2919    97.4860   -38.7710     9.0490     9.6290    11.3420   106.5030     8.0580     2.5150     0.0350     0.1010
  260.5000     0.2941    96.8000   -38.5190     9.2670     9.8300    11.8780   103.7480     8.0580     2.5140     0.0300     0.1020
  261.0000     0.2934    96.1140   -38.2660     9.4860    10.0320    11.8440   100.9930     8.0580     2.5070     0.0250     0.1030
  261.5000     0.2912    95.4840   -38.0120     9.7040    10.2340    11.7770    98.2380     8.0580     2.5010     0.0250     0.1060
  262.0000     0.2804    95.1000   -37.7630     9.9230    10.4350    12.1190    95.4850     8.0580     2.4940     0.0260     0.1130
  262.5000     0.2705    94.2270   -37.8670    10.1410    10.6370    12.5420    92.9270     8.0580     2.4890     0.0400     0.1140
  263.0000     0.2717    93.3540   -37.9910    10.3590    10.8380    12.9650    94.0700     8.0580     2.4940     0.0540     0.1110
  263.5000     0.2661    92.4400   -38.1150    10.4480    11.0420    13.3880    96.8400     8.0580     2.4990     0.0500     0.1070
  264.0000     0.2589    92.5400   -38.2370    10.4480    11.1440    13.6470    99.5770     8.0580     2.5040     0.0430     0.1040
  264.5000     0.2697    93.1410   -38.3580    10.3560    10.9790    13.1280    99.9120     8.0580     2.5070     0.0360     0.1040
  265.0000     0.2762    93.7710   -38.4870    10.2630    10.8400    12.6910    98.4360     8.0580     2.5040     0.0380     0.1050
  265.5000     0.2743    94.4000   -38.2660    10.1710    10.7010    12.3320    98.9120     8.0580     2.5020     0.0480     0.1080
  266.0000     0.2740    95.0290   -38.0590    10.0780    10.6000    12.5610    99.4880     8.0580     2.4950     0.0380     0.1120
  266.5000     0.2811    95.5190   -37.8490     9.9850    10.5270    12.4700    99.1890     8.0580     2.4890     0.0260     0.1150
  267.0000     0.2860    95.7690   -37.6350     9.8920    10.4540    12.3090    96.8260     8.0580     2.4820     0.0140     0.1180
  267.5000     0.2844    96.0260   -37.4210     9.7960    10.3810    12.1490    94.5260     8.0580     2.4760     0.0130     0.1240
  268.0000     0.2801    96.4130   -37.2060     9.7740    10.3080    11.9880    92.2260     8.0580     2.4690     0.0200     0.1290
  268.5000     0.2785    96.8120   -36.9920     9.7150    10.2350    11.8280    92.2350     8.0580     2.4650     0.0290     0.1290
  269.0000     0.2797    97.2120   -36.7770     9.6560    10.1620    11.6670    95.5150     8.0580     2.4660     0.0350     0.1280
  269.5000     0.2812    97.6110   -36.5630     9.6170    10.0700    11.5620    98.8280     8.0580     2.4670     0.0310     0.1270
  270.0000     0.2879    98.0180   -36.3490     9.6600    10.0770    11.6420    98.7190     8.0580     2.4680     0.0270     0.1280
  270.5000     0.2917    97.8320   -36.1390     9.6920    10.0870    11.7270    94.1740     8.0580     2.4660     0.0340     0.1290
