~VERSION INFORMATION
 VERS.                2.0:   CWLS LOG ASCII STANDARD - VERSION 2.0
 WRAP.                 NO:   ONE LINE PER DEPTH STEP
~WELL INFORMATION
#MNEM.UNIT      DATA TYPE    INFORMATION
#----------   ------------   ------------------------------
 STRT.F           80.0000:   START DEPTH
 STOP.F          964.0000:   STOP DEPTH
 STEP.F            0.5000:   STEP LENGTH
 NULL.          -999.2500:   NO VALUE
 COMP. U S NAVY-INTEX OIL:   COMPANY
 WELL. N.P.R. #3` #57-S-2:   WELL
 FLD .        TEAPOT DOME:   FIELD
 LOC .       S2 T38N R78W:   LOCATION
 CNTY.            NATRONA:   COUNTY
 STAT.            WYOMING:   STATE
 CTRY. UNITED STATES OF AMERICA:   COUNTRY
 SRVC.       Schlumberger:   SERVICE COMPANY
 DATE.        04-AUG-1961:   LOGDATE
 API .       490250640500:   API NUMBER
~CURVE INFORMATION
#MNEM.UNIT       API CODE    CURVE DESCRIPTION
#----------   ------------   ------------------------------
 DEPT.F                  :   
 GR  .GAPI   30 310 01 00:   GAMMA RAY
 ASN .OHMM   05 041 16 00:   AMPLIFIED SHORT NORMAL 16"
 CILD.MMHO   05 110 46 00:   CONDUCTIVITY INDUCTION LOG DEEP
 ILD .OHMM   05 120 46 00:   INDUCTION LOG DEEP
 SPR .MV     05 010 01 00:   SPONTANEOUS POTENTIAL FROM RES.
~PARAMETER INFORMATION
#MNEM.UNIT          VALUE    DESCRIPTION
#----------   ------------   ------------------------------
 LMF .                 KB:   LOG MEASURED FROM
 DMF .                 KB:   DRILLING MEASURED FROM
 EKB .F              5205:   KELLING BUSHING
 EGL .F              5200:   GROUND LEVEL
 DATE.        04-AUG-1961:   RUN DATE
 RUN .                  1:   RUN NUMBER
 DD  .F               965:   DEPTH DRILLER
 DL  .F               965:   DEPTH LOGGER
 BLI .F               954:   BOTTOM LOG INTERVAL
 TLI .F               150:   TOP LOG INTERVAL
 BS  .IN             6.75:   BIT SIZE
 BSD .F               965:   BIT SIZE AT DEPTH
 DFT .       OIL EMULSION:   DRILLING FLUID TYPE
 DFD .                9.4:   DRILLING FLUID DENSITY
 DFV .                 65:   DRILLING FLUID VISCOSITY
 MSS .           FLOWLINE:   MUD SAMPLE SOURCE
 RMS .OHMM            1.0:   RESISTIVITY MUD SAMPLE
 MST .F                80:   MUD SAMPLE TEMPERATURE
 TCS .HRS               1:   TIME CURCULATED STOPPED
 LUN .               2544:   LOGGING UNIT NUMBER
 LUL .                 NC:   LOGGING UNIT LOCATION
 ENGI.            EARNEST:   RECORDING ENGINEER
 WITN.          JORGENSEN:   WITNESSED BY
 CLNT.            A2DTECH:   CLIENT CODE
 ORIG.        2" 5" PRINT:   ORIGIN OF DATA
 UWI .       490250640500:   UNIQUE WELL ID
 DICO. A2D Technologies, Inc.:   DIGITIZING COMPANY
~OTHER INFORMATION
~A   DEPT       GR        ASN       CILD        ILD        SPR   
# ...
  324.0000  -999.2500     3.8248   351.4712     3.0302   -67.2905
  324.5000  -999.2500     3.5731   360.7578     2.9552   -67.0703
  325.0000  -999.2500     3.3794   360.7357     3.0371   -66.9772
  325.5000  -999.2500     3.3746   360.1277     3.2572   -66.9431
  326.0000  -999.2500     3.4496   351.6790     3.4317   -67.3780
  326.5000  -999.2500     3.7133   336.9967     3.6344   -67.5812
  327.0000  -999.2500     4.0456   305.8708     3.7919   -67.5797
  327.5000  -999.2500     4.1977   269.0569     3.9721   -67.2802
  328.0000  -999.2500     4.2986   246.4460     4.2380   -66.9804
  328.5000  -999.2500     4.4224   228.4441     4.4935   -66.7722
  329.0000  -999.2500     4.5465   220.9861     4.6157   -66.5306
  329.5000  -999.2500     4.6544   216.3889     4.8593   -66.5291
  330.0000  -999.2500     4.8715   219.3652     5.0100   -66.7461
  330.5000  -999.2500     4.9887   219.3468     5.1435   -67.1221
  331.0000  -999.2500     5.0064   219.3233     5.1787   -67.2697
  331.5000  -999.2500     5.0067   219.3018     5.1442   -67.2683
  332.0000  -999.2500     4.9618   219.2793     5.0693   -67.5645
  332.5000  -999.2500     4.7979   219.2534     4.8726   -67.6093
  333.0000  -999.2500     4.6133   223.9039     4.5429   -67.8598
  333.5000  -999.2500     4.4298   234.2265     4.3116   -67.8584
  334.0000  -999.2500     4.2305   253.0133     4.0803   -67.8569
  334.5000  -999.2500     4.0926   281.1111     3.8664   -67.8552
  335.0000  -999.2500     3.9021   306.2287     3.7626   -67.7968
  335.5000  -999.2500     3.7405   310.4980     3.6412   -67.5544
  336.0000  -999.2500     3.5468   313.8139     3.5954   -67.5529
  336.5000  -999.2500     3.4394   318.6312     3.5494   -67.2533
  337.0000  -999.2500     3.4247   323.8438     3.4165   -67.1027
  337.5000  -999.2500     3.4099   330.1409     3.4168   -67.0330
  338.0000  -999.2500     3.3952   334.5846     3.4116   -66.6528
  338.5000  -999.2500     3.3771   339.2543     3.3422   -66.5019
  339.0000  -999.2500     3.3060   342.0830     3.3426   -66.3517
  339.5000  -999.2500     3.1691   348.0180     3.2677   -66.3501
  340.0000  -999.2500     3.0643   357.0561     3.1878   -66.4282
  340.5000  -999.2500     3.0077   384.8733     3.0955   -66.6674
  341.0000  -999.2500     2.9455   420.8346     2.8171   -66.9417
  341.5000  -999.2500     2.7989   457.5869     2.6098   -66.9404
  342.0000  -999.2500     2.6478   477.3572     2.3660   -67.0879
  342.5000  -999.2500     2.5562   502.5900     2.2157   -67.1771
  343.0000  -999.2500     2.5417   499.5399     2.2161   -67.2342
  343.5000  -999.2500     2.5714   478.8282     2.3671   -67.3814
  344.0000  -999.2500     2.6655   449.9676     2.5110   -67.5291
  344.5000  -999.2500     3.0601   427.6928     2.7546   -67.6767
  345.0000  -999.2500     3.4223   400.9015     3.0460   -67.6748
  345.5000  -999.2500     3.7872   370.4126     3.3396   -67.6292
  346.0000  -999.2500     3.9026   331.9209     3.7244   -67.2250
  346.5000  -999.2500     3.9987   266.6726     3.9549   -66.9958
  347.0000  -999.2500     4.0713   244.1392     4.1877   -66.7536
  347.5000  -999.2500     4.0681   242.6066     4.1774   -66.6242
  348.0000  -999.2500     4.0425   254.5907     4.0743   -66.8276
  348.5000  -999.2500     3.9831   272.0691     3.9522   -67.0685
  349.0000  -999.2500     3.9169   286.0803     3.7864   -67.2161
  349.5000  -999.2500     3.8040   295.3978     3.6942   -67.5129
  350.0000  -999.2500     3.6697   304.3048     3.4262   -67.6601
  350.5000  -999.2500     3.5503   338.5630     3.3175   -67.6587
  351.0000  -999.2500     3.4339   340.0450     3.1210   -67.6572
  351.5000  -999.2500     3.3136   341.5266     2.9756   -67.6554
  352.0000  -999.2500     3.1773   347.6079     2.8032   -67.5052
  352.5000  -999.2500     3.0788   367.6039     2.6751   -67.5036
  353.0000  -999.2500     2.9675   418.0307     2.6360   -67.3532
  353.5000  -999.2500     2.8377   435.2002     2.5252   -67.2027
  354.0000  -999.2500     2.6933   424.7747     2.6763   -67.2010
  354.5000  -999.2500     2.6764   405.3931     2.7043   -67.1448
  355.0000  -999.2500     3.0331   372.3477     2.8276   -67.0492
  355.5000  -999.2500     3.2967   320.3214     3.0236   -66.9585
  356.0000  -999.2500     4.3002   284.1237     3.3122   -66.8972
  356.5000  -999.2500     4.5015   253.9364     3.6570   -67.0445
  357.0000  -999.2500     4.5846   233.1644     4.0921   -67.0432
  357.5000  -999.2500     4.4224   222.0844     4.6542   -67.1908
  358.0000  -999.2500     4.1723   215.1044     5.0904   -67.1893
  358.5000  -999.2500     2.5076   210.3828     5.3586   -67.4861
  359.0000  -999.2500     1.7867   205.5205     5.6920   -67.7823
  359.5000  -999.2500     2.9988   198.5181     5.8067   -68.0072
  360.0000  -999.2500     4.2108   192.1924     6.0040   -68.2464
  360.5000  -999.2500     5.6938   184.8922     6.1450   -68.5229
  361.0000  -999.2500     5.9018   176.1262     6.1453   -68.6706
  361.5000  -999.2500     6.0658   170.6982     6.1457   -68.5201
  362.0000  -999.2500     6.3162   165.3732     6.1461   -68.5186
  362.5000  -999.2500     6.6299   165.3528     6.1465   -68.3681
  363.0000  -999.2500     6.7631   166.8328     6.1469   -68.3665
  363.5000  -999.2500     6.7998   169.8079     6.1472   -68.3651
  364.0000  -999.2500     6.8149   171.7317     6.1516   -68.2066
  364.5000  -999.2500     6.8152   175.7719     6.2736   -68.0641
  365.0000  -999.2500     6.8154   178.0280     6.2989   -67.8713
  365.5000  -999.2500     6.8104   178.7330     6.2993   -67.7629
  366.0000  -999.2500     6.7860   177.2036     6.2997   -67.5360
  366.5000  -999.2500     6.7477   175.1552     6.2247   -67.1639
  367.0000  -999.2500     6.7210   172.6572     6.2252   -67.3112
  367.5000  -999.2500     6.6820   172.6351     6.2525   -67.4590
  368.0000  -999.2500     6.6673   172.6126     6.3012   -67.6065
  368.5000  -999.2500     6.6525   172.5873     6.3016   -67.8418
  369.0000  -999.2500     6.6432   173.1832     6.2866   -68.0810
  369.5000  -999.2500     6.6380   175.5806     6.2270   -68.1982
  370.0000  -999.2500     6.6383   177.0270     6.1521   -68.3458
  370.5000  -999.2500     6.6313   177.0045     6.1525   -68.3443
  371.0000  -999.2500     6.6074   175.4785     6.1529   -68.3428
  371.5000  -999.2500     6.5343   174.0516     6.0570   -68.3413
  372.0000  -999.2500     6.4849   172.1922     6.0030   -68.3397
  372.5000  -999.2500     6.5049   167.9011     6.0034   -68.3383
  373.0000  -999.2500     6.6452   165.4704     6.0976   -68.3368
  373.5000  -999.2500     6.8336   161.8532     6.3807   -68.3351
  374.0000  -999.2500     6.9988   158.0380     6.6115   -68.3338
  374.5000  -999.2500     7.0762   153.8862     6.6073   -68.3323
  375.0000  -999.2500     7.1637   148.2698     6.8901   -68.0079
  375.5000  -999.2500     7.2363   144.7047     7.1501   -67.7037
  376.0000  -999.2500     7.2939   142.2218     7.2862   -67.5825
  376.5000  -999.2500     7.3587   138.3183     7.3618   -67.7303
  377.0000  -999.2500     7.4105   135.8759     7.4408   -67.7352
  377.5000  -999.2500     7.4638   133.1430     7.5132   -67.9744
  378.0000  -999.2500     7.4491   133.1231     7.5136   -68.2136
  378.5000  -999.2500     7.4018   133.1482     7.5140   -68.3204
  379.0000  -999.2500     7.3299   135.5455     7.5143   -68.6920
  379.5000  -999.2500     7.2237   139.8273     7.5147   -69.0979
  380.0000  -999.2500     7.0772   143.5417     7.2892   -69.3592
  380.5000  -999.2500     6.7775   150.8985     7.0602   -69.1048
  381.0000  -999.2500     6.4393   174.1893     6.6122   -68.7600
  381.5000  -999.2500     5.8363   211.0394     6.2878   -68.4372
  382.0000  -999.2500     5.4982   241.2699     5.6074   -68.1321
  382.5000  -999.2500     4.6110   313.0995     4.6555   -67.7122
  383.0000  -999.2500     4.4145   384.9333     3.6160   -67.4988
  383.5000  -999.2500     4.0305   424.4470     2.6811   -67.1133
  384.0000  -999.2500     3.5355   445.1618     2.1486   -66.9170
  384.5000  -999.2500     3.3084   469.1266     2.0967   -66.5832
