~VERSION INFORMATION
 VERS.                2.0:   CWLS LOG ASCII STANDARD - VERSION 2.0
 WRAP.                 NO:   ONE LINE PER DEPTH STEP
~WELL INFORMATION
#MNEM.UNIT      DATA TYPE    INFORMATION
#----------   ------------   ------------------------------
 STRT.F            0.5000:   START DEPTH
 STOP.F          696.0000:   STOP DEPTH
 STEP.F            0.5000:   STEP LENGTH
 NULL.          -999.2500:   NO VALUE
 COMP. LAWRENCE/ALLISON INC:   COMPANY
 WELL. SX 11 WP #26-44-11:   WELL
 FLD .             TEAPOT:   FIELD
 LOC .      S11 T38N R78W:   LOCATION
 CNTY.            NATRONA:   COUNTY
 STAT.            WYOMING:   STATE
 CTRY. UNITED STATES OF AMERICA:   COUNTRY
 SRVC.      Dresser Atlas:   SERVICE COMPANY
 DATE.        08-SEP-1984:   LOGDATE
 API .       490251097600:   API NUMBER
~CURVE INFORMATION
#MNEM.UNIT       API CODE    CURVE DESCRIPTION
#----------   ------------   ------------------------------
 DEPT.F                  :   
 AC  .US/F   60 520 00 00:   ACCOUSTIC
 SPR .MV     07 010 01 00:   SPONTANEOUS POTENTIAL FROM RES.
 RILD.OHMM   07 120 46 00:   RESISTIVITY INDUCTION LOG DEEP
 RILM.OHMM   07 120 44 00:   RESISTIVITY INDUCTION LOG MEDIUM
 RFOC.OHMM   07 220 04 00:   RESISTIVITY FOCUSED LOG
 GRR .GAPI   07 310 01 00:   GAMMA RAY FROM RESISTIVITY
 CALD.IN     45 280 60 00:   CALIPER FROM DENSITY LOG
 DEN .G/C3   45 350 01 00:   COMPENSATED BULK DENSTIY
 CORR.G/C3   45 356 01 00:   DENSITY CORRECTION
 PORD.DEC    45 890 12 00:   POROSITY DENSITY SANDSTONE
 CNC .DEC    42 890 03 00:   NEUTRON POROSITY SANDSTONE
~PARAMETER INFORMATION
#MNEM.UNIT          VALUE    DESCRIPTION
#----------   ------------   ------------------------------
 PD  .                 GL:   PERMANENT DATUM
 EPD .F              5186:   ELEVATION PERMANENT DATUM
 LMF .                 GL:   LOG MEASURED FROM
 DMF .                 GL:   DRILLING MEASURED FROM
 EGL .F              5186:   GROUND LEVEL
 DATE.         8-SEP-1984:   RUN DATE
 RUN .                  1:   RUN NUMBER
 DD  .F               712:   DEPTH DRILLER
 DL  .F               695:   DEPTH LOGGER
 BLI .F               693:   BOTTOM LOG INTERVAL
 CS  .IN            8.625:   CASING SIZE
 CBD .F                40:   CASING BOTTOM DRILLER
 CBL .F                45:   CASING BOTTOM LOGGER
 BS  .IN            7.875:   BIT SIZE
 BSD .F               712:   BIT SIZE AT DEPTH
 DFT .          KCL WATER:   DRILLING FLUID TYPE
 MSS .           FLOWLINE:   MUD SAMPLE SOURCE
 RMS .OHMM            .22:   RESISTIVITY MUD SAMPLE
 MST .F                72:   MUD SAMPLE TEMPERATURE
 RMF .OHMM            .17:   RESISTIVITY MUD FILTRATE SAMPLE
 MFST.F                72:   MUD FILTRATE SAMPLE TEMPERATURE
 RMC .OHMM            .28:   RESISTIVITY MUD CAKE
 MCST.F                72:   MUD CAKE SAMPLE TEMPERATURE
 MFSS.               CALC:   MUD FILTRATE SAMPLE SOURCE
 MCSS.               CALC:   MUD CAKE SAMPLE SOURCE
 RMB .OHMM            .18:   RESISTIVITY MUD AT BHT
 BHT .F                90:   BOTTOM HOLE TEMPERATURE
 TCS .HRS               3:   TIME CURCULATED STOPPED
 MRT .F                90:   MAXIMUM RECORDED TEMPERATURE
 LUN .               6274:   LOGGING UNIT NUMBER
 LUL .               GLTE:   LOGGING UNIT LOCATION
 ENGI.             RAUTIO:   RECORDING ENGINEER
 WITN.           JENNINGS:   WITNESSED BY
 CLNT.            A2DTECH:   CLIENT CODE
 ORIG. 1", 2', 2.5", 5" PRNT:   ORIGIN OF DATA
 UWI .       490251097600:   UNIQUE WELL ID
 DICO. A2D Technologies, Inc.:   DIGITIZING COMPANY
~OTHER INFORMATION
~A    DEPT      AC        SPR       RILD       RILM       RFOC         GRR      CALD        DEN       CORR       PORD        CNC   
# ...
  580.0000    91.7710   -18.0440    11.3160    11.0850    11.5210    72.0935     7.7830     2.4360     0.0090     0.1470     0.2389
  580.5000    91.9510   -18.3430    11.2590    11.0530    11.4630    74.4867     7.7820     2.4410     0.0200     0.1440     0.2431
  581.0000    92.1300   -18.6400    11.2020    11.0210    11.4060    77.7687     7.7810     2.4470     0.0280     0.1400     0.2474
  581.5000    92.2910   -18.9360    11.1450    10.9880    11.3490    80.4582     7.7800     2.4530     0.0240     0.1360     0.2634
  582.0000    92.2400   -19.1700    11.0880    10.9560    11.2920    82.5551     7.7790     2.4610     0.0150     0.1310     0.2594
  582.5000    92.1950   -19.3170    11.0310    10.9230    11.2350    83.7670     7.7780     2.4690     0.0070     0.1270     0.2506
  583.0000    92.1490   -19.4650    10.9550    10.8910    11.1780    84.9750     7.7770     2.4670     0.0000     0.1270     0.2472
  583.5000    92.1040   -19.6130    10.9620    10.8530    11.1570    83.8126     7.7750     2.4660     0.0050     0.1280     0.2483
  584.0000    92.0580   -19.7600    10.9740    10.8810    11.1570    81.7576     7.7740     2.4680     0.0130     0.1270     0.2615
  584.5000    92.0120   -19.8970    10.9870    10.9150    11.1570    79.4176     7.7730     2.4710     0.0120     0.1260     0.2605
  585.0000    91.9670   -19.9010    11.0000    10.9490    11.2650    78.5516     7.7730     2.4710     0.0150     0.1250     0.2595
  585.5000    91.9210   -19.9010    11.0120    10.9820    11.3700    78.8707     7.7750     2.4740     0.0310     0.1250     0.2610
  586.0000    91.9300   -19.9000    11.0250    11.0160    11.4750    83.0417     7.7760     2.4780     0.0430     0.1220     0.2604
  586.5000    92.0300   -19.8760    11.0370    11.0550    11.5750    82.4757     7.7780     2.4780     0.0370     0.1200     0.2600
  587.0000    92.1310   -19.8190    11.0540    10.9760    11.4950    81.3134     7.7800     2.4730     0.0320     0.1240     0.2606
  587.5000    92.2310   -19.7620    11.0250    10.8820    11.4200    79.5546     7.7820     2.4690     0.0310     0.1260     0.2620
  588.0000    92.3310   -19.7060    10.9800    10.7890    11.3440    78.3922     7.7840     2.4710     0.0300     0.1260     0.2583
  588.5000    92.4320   -19.6490    10.9340    10.6960    11.2680    78.7152     7.7860     2.4740     0.0260     0.1230     0.2576
  589.0000    92.5140   -19.5910    10.8890    10.6030    11.1930    79.3344     7.7880     2.4800     0.0240     0.1200     0.2569
  589.5000    92.5690   -19.5340    10.8430    10.5090    11.1170    80.2461     7.7900     2.4860     0.0240     0.1180     0.2563
  590.0000    92.6250   -19.3850    10.7980    10.4160    11.0410    80.5652     7.7920     2.4860     0.0240     0.1150     0.2519
  590.5000    92.6890   -19.1240    10.7530    10.3460    10.9650    79.6992     7.7870     2.4840     0.0270     0.1150     0.2506
  591.0000    93.0300   -18.8630    10.7070    10.3030    10.8900    80.3184     7.7810     2.4810     0.0320     0.1190     0.2499
  591.5000    93.4320   -18.5900    10.6620    10.2610    10.8140    81.8227     7.7750     2.4800     0.0300     0.1190     0.2496
  592.0000    93.8330   -18.6390    10.5900    10.2180    10.7380    84.2121     7.7720     2.4800     0.0210     0.1200     0.2563
  592.5000    94.2830   -18.8150    10.4910    10.1760    10.6630    82.7573     7.7720     2.4790     0.0170     0.1200     0.2599
  593.0000    94.4300   -18.8680    10.3930    10.1330    10.5870    81.3024     7.7720     2.4770     0.0180     0.1210     0.2589
  593.5000    94.5980   -18.7790    10.2940    10.0900    10.5110    79.8438     7.7720     2.4740     0.0110     0.1230     0.2586
  594.0000    94.7650   -18.7180    10.1960    10.0480    10.4360    81.0518     7.7720     2.4700     0.0050     0.1250     0.2582
  594.5000    94.9320   -18.8490    10.0970    10.0050    10.3660    84.0376     7.7730     2.4690     0.0040     0.1260     0.2548
  595.0000    95.1000   -19.4000     9.9980     9.8350    10.2110    85.8382     7.7770     2.4750     0.0200     0.1240     0.2495
  595.5000    95.2790   -19.9370     9.9000     9.6050    10.0670    87.3425     7.7810     2.4810     0.0350     0.1210     0.2485
  596.0000    95.8000   -20.4710     9.8100     9.3750     9.9230    86.7689     7.7850     2.4860     0.0460     0.1180     0.2688
  596.5000    96.3610   -21.0080     9.6250     9.1450     9.7790    86.7994     7.7890     2.4890     0.0430     0.1150     0.2702
  597.0000    96.9220   -21.2840     9.4550     8.9140     9.6350    86.5221     7.7920     2.4870     0.0280     0.1150     0.2640
  597.5000    97.4830   -21.2840     9.2850     8.7050     9.4910    86.5525     7.7880     2.4820     0.0140     0.1180     0.2661
  598.0000    98.0440   -21.2860     9.0160     8.4530     9.3470    90.4272     7.7840     2.4760     0.0090     0.1230     0.2676
  598.5000    98.6050   -21.2890     8.6450     8.2220     9.2030    91.6352     7.7800     2.4740     0.0150     0.1230     0.2700
  599.0000    99.0640   -21.4900     8.2750     8.0140     9.0590    90.7692     7.7760     2.4770     0.0210     0.1220     0.2826
  599.5000   102.6170   -21.9920     7.9400     7.3080     8.9150    87.2402     7.7730     2.4780     0.0230     0.1200     0.2937
  600.0000   105.6210   -22.5530     7.1060     6.6640     8.7850    83.4117     7.7750     2.4760     0.0130     0.1210     0.3010
  600.5000   108.6250   -23.1150     6.3450     6.0200     8.3650    83.7335     7.7780     2.4720     0.0020     0.1240     0.3038
  601.0000   107.8780   -23.6780     5.5850     5.3760     7.9830    88.4997     7.7810     2.4620     0.0000     0.1290     0.3057
  601.5000   105.5810   -24.2440     5.0210     4.9440     7.0760    94.1591     7.7840     2.4440     0.0110     0.1390     0.2903
  602.0000   100.9560   -24.8290     4.8340     4.8340     5.6640    96.5549     7.7870     2.4290     0.0220     0.1500     0.2841
  602.5000    96.3320   -24.5020     4.9270     4.7890     4.7020    94.2058     7.7900     2.4260     0.0300     0.1540     0.2735
  603.0000    94.1830   -24.0230     5.1060     4.9960     5.6950    90.3837     7.7920     2.4570     0.0280     0.1360     0.2562
  603.5000    93.9980   -23.5410     5.2990     5.6370     7.0120    85.0801     7.7920     2.4860     0.0260     0.1200     0.2522
  604.0000    94.2830   -23.0600     5.5650     6.2780     8.3290    82.7310     7.7920     2.5020     0.0310     0.1080     0.2620
  604.5000    94.5670   -22.5780     6.0310     6.9200     9.6450    83.6496     7.7920     2.5050     0.0340     0.1050     0.2724
  605.0000    94.7450   -22.1010     6.8530     7.5610    10.1190    85.7535     7.7920     2.5040     0.0340     0.1040     0.2735
  605.5000    94.8520   -21.6400     7.6760     8.2380    10.2710    86.3716     7.7920     2.5020     0.0300     0.1040     0.2704
  606.0000    94.9590   -21.4560     8.4980     8.5630    10.2520    87.2859     7.7950     2.4980     0.0230     0.1080     0.2642
  606.5000    95.0650   -21.2440     8.8160     8.9070    10.2170    88.4966     7.7990     2.4940     0.0170     0.1120     0.2567
  607.0000    95.1720   -20.9980     8.9650     9.1980    10.1820    87.6375     7.8030     2.4960     0.0100     0.1120     0.2514
  607.5000    95.2790   -20.7470     9.0950     9.3360    10.1480    86.4778     7.8060     2.4990     0.0080     0.1090     0.2504
  608.0000    95.0650   -20.4370     9.2100     9.4800    10.1130    85.3139     7.8100     2.5000     0.0150     0.1080     0.2553
  608.5000    94.8520   -19.9850     9.3470     9.6240    10.0840    86.2325     7.8100     2.4980     0.0230     0.1090     0.2627
  609.0000    94.6810   -19.5350     9.5210     9.7680    10.2220    86.2622     7.8060     2.4970     0.0320     0.1100     0.2601
  609.5000    94.1940   -19.0900     9.6950     9.9130    10.3400    85.9829     7.8020     2.4970     0.0300     0.1100     0.2591
  610.0000    93.7890   -18.7160     9.8690    10.0570    10.4580    88.6836     7.7980     2.4980     0.0200     0.1100     0.2668
