~VERSION INFORMATION
 VERS.                2.0:   CWLS LOG ASCII STANDARD - VERSION 2.0
 WRAP.                 NO:   ONE LINE PER DEPTH STEP
~WELL INFORMATION
#MNEM.UNIT      DATA TYPE    INFORMATION
#----------   ------------   ------------------------------
 STRT.F           66.0000:   START DEPTH
 STOP.F         1030.5000:   STOP DEPTH
 STEP.F            0.5000:   STEP LENGTH
 NULL.          -999.2500:   NO VALUE
 COMP. U S NAVY/INTEX OIL CO:   COMPANY
 WELL.      NRP-3 #68S-11:   WELL
 FLD .             TEAPOT:   FIELD
 LOC .      S11 T38N R78W:   LOCATION
 CNTY.            NATRONA:   COUNTY
 STAT.            WYOMING:   STATE
 CTRY. UNITED STATES OF AMERICA:   COUNTRY
 SRVC.       Schlumberger:   SERVICE COMPANY
 DATE.        07-JUL-1962:   LOGDATE
 API .       490250632700:   API NUMBER
~CURVE INFORMATION
#MNEM.UNIT       API CODE    CURVE DESCRIPTION
#----------   ------------   ------------------------------
 DEPT.F                  :   
 SPR .MV     05 010 01 00:   SPONTANEOUS POTENTIAL FROM RES.
 ASN .OHMM   05 041 16 00:   AMPLIFIED SHORT NORMAL 16"
 ILD .OHMM   05 120 46 00:   INDUCTION LOG DEEP
 CILD.MMHO   05 110 46 00:   CONDUCTIVITY INDUCTION LOG DEEP
 GRN .GAPI   35 310 30 00:   GAMMA RAY
 GR  .GAPI   81 310 01 00:   GAMMA RAY
~PARAMETER INFORMATION
#MNEM.UNIT          VALUE    DESCRIPTION
#----------   ------------   ------------------------------
 LMF .                 KB:   LOG MEASURED FROM
 DMF .                 KB:   DRILLING MEASURED FROM
 EKB .F              5226:   KELLING BUSHING
 EGL .F              5221:   GROUND LEVEL
 DATE.           7-7-1962:   RUN DATE
 RUN .                  1:   RUN NUMBER
 DD  .F              1030:   DEPTH DRILLER
 DL  .F              1031:   DEPTH LOGGER
 BLI .F              1030:   BOTTOM LOG INTERVAL
 TLI .F                90:   TOP LOG INTERVAL
 CBD .F                10:   CASING BOTTOM DRILLER
 BS  .IN             6.75:   BIT SIZE
 BSD .F              1030:   BIT SIZE AT DEPTH
 DFT .            GEL-OIL:   DRILLING FLUID TYPE
 DFD .               10.2:   DRILLING FLUID DENSITY
 DFV .                 50:   DRILLING FLUID VISCOSITY
 DFL .                3.6:   DRILLING FLUID LOSS
 RMS .OHMM           5.06:   RESISTIVITY MUD SAMPLE
 MST .F                71:   MUD SAMPLE TEMPERATURE
 RMF .OHMM           4.89:   RESISTIVITY MUD FILTRATE SAMPLE
 MFST.F                71:   MUD FILTRATE SAMPLE TEMPERATURE
 RMC .OHMM           4.85:   RESISTIVITY MUD CAKE
 MCST.F                71:   MUD CAKE SAMPLE TEMPERATURE
 MFSS.                  M:   MUD FILTRATE SAMPLE SOURCE
 MCSS.                  M:   MUD CAKE SAMPLE SOURCE
 RMB .OHMM           4.54:   RESISTIVITY MUD AT BHT
 BHT .F                82:   BOTTOM HOLE TEMPERATURE
 TCS .HRS               1:   TIME CURCULATED STOPPED
 MRT .F                82:   MAXIMUM RECORDED TEMPERATURE
 LUN .               2503:   LOGGING UNIT NUMBER
 LUL .              CSPR.:   LOGGING UNIT LOCATION
 ENGI.             KNOBEL:   RECORDING ENGINEER
 WITN.          JORGENSEN:   WITNESSED BY
 CLNT.            A2DTECH:   CLIENT CODE
 ORIG.      2" & 5" PRINT:   ORIGIN OF DATA
 UWI .       490250632700:   UNIQUE WELL ID
 DICO. A2D Technologies, Inc.:   DIGITIZING COMPANY
~OTHER INFORMATION
~A   DEPT      SPR        ASN        ILD       CILD        GRN          GR  
# ...
  274.0000   -46.5391     6.5770     6.6017   167.4380  -999.2500   113.9797
  274.5000   -46.6543     6.5620     6.5318   168.4523  -999.2500   118.5837
  275.0000   -46.7002     6.5459     6.4621   169.4580  -999.2500   122.2022
  275.5000   -46.6290     6.4955     6.3924   171.4630  -999.2500   123.5696
  276.0000   -46.5596     6.4398     6.3228   174.3856  -999.2500   121.8313
  276.5000   -46.4899     6.3546     6.2531   177.3187  -999.2500   119.0311
  277.0000   -46.4202     6.2591     6.1833   180.2508  -999.2500   115.8520
  277.5000   -46.3506     6.1636     6.1133   183.1978  -999.2500   110.8777
  278.0000   -46.2809     6.0829     6.0471   184.6204  -999.2500   105.9044
  278.5000   -46.2113     6.0287     6.0450   183.9742  -999.2500   107.0817
  279.0000   -46.1416     6.0274     6.0453   183.3048  -999.2500   109.2456
  279.5000   -46.0718     6.0364     6.0453   182.6168  -999.2500   111.1428
  280.0000   -46.0020     6.0753     6.0452   181.9726  -999.2500   109.5022
  280.5000   -45.9340     6.1127     6.0452   181.6161  -999.2500   107.9211
  281.0000   -45.9836     6.1501     6.0572   179.8541  -999.2500   106.3930
  281.5000   -46.0675     6.1905     6.1469   178.0497  -999.2500   107.2859
  282.0000   -46.1516     6.2336     6.2373   176.9421  -999.2500   111.5578
  282.5000   -46.2394     6.2766     6.3298   176.9317  -999.2500   115.7305
  283.0000   -46.3364     6.3195     6.2760   176.9373  -999.2500   118.9690
  283.5000   -45.9589     6.3623     6.1929   176.9358  -999.2500   115.4566
  284.0000   -45.7062     6.3835     6.1932   175.7909  -999.2500   111.8945
  284.5000   -45.4492     6.3772     6.3030   172.6187  -999.2500   109.0151
  285.0000   -45.4323     6.3711     6.4137   167.7720  -999.2500   106.6438
  285.5000   -45.5981     6.3765     6.5718   162.9254  -999.2500   107.5254
  286.0000   -45.7662     6.4645     6.7530   158.0787  -999.2500   109.0375
  286.5000   -45.9348     6.6379     6.9343   153.0420  -999.2500   111.7406
  287.0000   -46.1034     6.8791     7.1158   149.6882  -999.2500   114.1149
  287.5000   -46.2715     7.1206     7.2969   146.1975  -999.2500   107.2960
  288.0000   -46.4382     7.3622     7.4605   142.7067  -999.2500    95.5670
  288.5000   -46.4481     7.6035     7.5523   142.6134  -999.2500    84.3411
  289.0000   -46.2786     7.7178     7.6350   143.2712  -999.2500    83.0820
  289.5000   -46.1110     7.6808     7.5943   143.9965  -999.2500    95.0162
  290.0000   -45.9424     7.5246     7.5513   146.4537  -999.2500   108.1921
  290.5000   -45.7744     7.3687     7.5090   149.1417  -999.2500   121.3503
  291.0000   -45.6045     7.2135     7.4663   151.8298  -999.2500   124.1902
  291.5000   -45.5656     7.0692     7.3913   154.5190  -999.2500   119.7450
  292.0000   -45.6130     7.0044     7.2518   157.2102  -999.2500   115.4777
  292.5000   -45.6618     6.9643     7.1130   159.8904  -999.2500   114.2275
  293.0000   -45.7108     6.9250     6.9733   161.8197  -999.2500   113.4489
  293.5000   -45.7597     6.8861     6.8496   160.9734  -999.2500   114.3426
  294.0000   -45.8086     6.8882     6.9720   160.1272  -999.2500   115.2502
  294.5000   -45.8574     6.9448     7.1004   159.2810  -999.2500   113.5969
  295.0000   -45.9063     7.0262     7.2276   157.0990  -999.2500   111.4158
  295.5000   -45.9552     7.2026     7.3545   154.3064  -999.2500   109.3076
  296.0000   -46.0042     7.3192     7.4815   151.5138  -999.2500   108.3820
  296.5000   -46.0530     7.3927     7.6084   148.7212  -999.2500   107.4288
  297.0000   -46.1005     7.4634     7.7353   145.1521  -999.2500   107.4561
  297.5000   -46.0721     7.6505     7.8623   141.3440  -999.2500   110.2744
  298.0000   -45.9209     7.8479     7.9892   137.5359  -999.2500   112.9949
  298.5000   -45.7715     7.9740     8.1158   133.7279  -999.2500   114.4877
  299.0000   -45.6213     8.0975     8.2390   130.1438  -999.2500   110.0424
  299.5000   -45.4706     8.2631     8.3608   129.3199  -999.2500   105.7904
  300.0000   -45.3461     8.4308     8.4796   128.5417  -999.2500   102.0518
  300.5000   -45.4988     8.5962     8.6051   128.6504  -999.2500   103.2242
  301.0000   -45.6502     8.7175     8.5692   129.6460  -999.2500   106.7006
  301.5000   -45.8003     8.6685     8.4781   130.6416  -999.2500   107.4702
  302.0000   -45.9278     8.5520     8.3071   134.2132  -999.2500   108.3232
  302.5000   -45.7587     8.1470     8.0478   140.1547  -999.2500   108.3835
  303.0000   -45.5966     7.7509     7.7911   146.3532  -999.2500   106.9552
  303.5000   -45.4365     7.3621     7.5336   151.1615  -999.2500   105.5603
  304.0000   -45.2764     7.0722     7.2761   156.0288  -999.2500   104.1095
  304.5000   -45.1147     7.3460     7.0055   155.1327  -999.2500   105.6215
  305.0000   -44.9475     7.3056     7.0193   154.1372  -999.2500   108.6716
  305.5000   -44.9966     7.1697     7.1244   153.1416  -999.2500   111.7545
  306.0000   -45.0616     7.2612     7.2338   152.1460  -999.2500   111.6142
  306.5000   -45.1261     7.4959     7.3426   151.1504  -999.2500   110.8654
  307.0000   -45.1901     7.7286     7.4388   150.0540  -999.2500   110.9004
  307.5000   -45.2539     7.7120     7.3745   150.6214  -999.2500   112.9147
  308.0000   -45.3224     7.5288     7.3138   151.2480  -999.2500   117.3065
  308.5000   -45.2627     7.2273     7.2542   151.9754  -999.2500   117.0008
  309.0000   -45.1601     7.3663     7.1959   152.6865  -999.2500   111.1080
  309.5000   -45.0555     7.4674     7.1265   156.6623  -999.2500   105.0979
  310.0000   -44.9509     7.1726     6.8934   163.9029  -999.2500   101.6976
  310.5000   -44.8465     6.8849     6.6656   170.2513  -999.2500   102.0127
  311.0000   -44.7421     6.6704     6.4389   174.9447  -999.2500   102.5825
  311.5000   -44.6376     6.5130     6.2019   175.9403  -999.2500   103.0822
  312.0000   -44.5332     6.3552     6.1779   176.9358  -999.2500   106.2197
  312.5000   -44.4286     6.3122     6.2211   175.8407  -999.2500   109.2194
  313.0000   -44.3238     6.3049     6.2669   174.8451  -999.2500   108.3771
  313.5000   -44.2217     6.3872     6.3124   173.8496  -999.2500   107.4581
  314.0000   -44.1815     6.4038     6.3579   172.8540  -999.2500   110.3763
  314.5000   -44.3312     6.5266     6.4036   171.9580  -999.2500   116.1567
  315.0000   -44.4728     6.5840     6.4408   173.2674  -999.2500   116.9021
  315.5000   -44.6145     6.6116     6.3633   174.4577  -999.2500   112.8395
  316.0000   -44.7562     6.6134     6.2888   175.6481  -999.2500   107.8937
  316.5000   -44.9054     6.5274     6.2150   176.8385  -999.2500   103.7337
  317.0000   -44.8846     6.3712     6.1411   178.0288  -999.2500   102.8678
  317.5000   -44.8087     6.2181     6.0645   179.2192  -999.2500   103.5820
  318.0000   -44.7305     6.0959     6.0259   180.4095  -999.2500   104.2580
  318.5000   -44.6526     6.0606     5.9981   181.5999  -999.2500   107.9212
  319.0000   -44.5748     6.0259     5.9706   182.9093  -999.2500   111.7720
  319.5000   -44.4970     6.0107     5.9450   182.0797  -999.2500   113.6119
  320.0000   -44.4192     6.0401     5.9457   181.1578  -999.2500   103.2238
  320.5000   -44.3416     6.0846     5.9458   180.2360  -999.2500    95.8529
  321.0000   -44.2620     6.1300     5.9458   179.3142  -999.2500    91.9400
  321.5000   -44.1797     6.1746     5.9460   178.3923  -999.2500    92.1208
  322.0000   -43.9353     6.2019     5.9458   179.4248  -999.2500    93.8057
  322.5000   -43.9820     6.1775     5.9442   183.5730  -999.2500    95.7828
  323.0000   -44.0373     6.1337     5.8580   188.8827  -999.2500    98.9637
  323.5000   -44.0899     6.0670     5.6818   194.1925  -999.2500   102.0976
  324.0000   -44.1448     5.8967     5.5067   198.5334  -999.2500   105.2067
  324.5000   -44.1523     5.6848     5.3309   201.9055  -999.2500   105.8972
  325.0000   -43.9774     5.5342     5.1553   205.2776  -999.2500   103.8529
  325.5000   -43.7884     5.3854     4.9794   208.6497  -999.2500   102.2935
