~VERSION INFORMATION
 VERS.                2.0:   CWLS LOG ASCII STANDARD - VERSION 2.0
 WRAP.                 NO:   ONE LINE PER DEPTH STEP
~WELL INFORMATION
#MNEM.UNIT      DATA TYPE    INFORMATION
#----------   ------------   ------------------------------
 STRT.F           34.0000:   START DEPTH
 STOP.F          662.0000:   STOP DEPTH
 STEP.F            0.5000:   STEP LENGTH
 NULL.          -999.2500:   NO VALUE
 COMP. FENIX & SCISSON INC:   COMPANY
 WELL.     55 S 34 #34-34:   WELL
 FLD .          N.P.R. #3:   FIELD
 LOC .      S34 T39N R78W:   LOCATION
 CNTY.            NATRONA:   COUNTY
 STAT.            WYOMING:   STATE
 CTRY. UNITED STATES OF AMERICA:   COUNTRY
 SRVC.       Schlumberger:   SERVICE COMPANY
 DATE.        15-MAR-1977:   LOGDATE
 API .       490251030500:   API NUMBER
~CURVE INFORMATION
#MNEM.UNIT       API CODE    CURVE DESCRIPTION
#----------   ------------   ------------------------------
 DEPT.F                  :   
 GRD .GAPI   45 310 01 00:   GAMMA RAY FROM DENSITY LOG
 CORR.G/C3   45 356 01 00:   DENSITY CORRECTION
 RHOB.G/C3   45 350 01 00:   BULK DENSITY
 DPOR.DEC    45 890 12 00:   DENSITY POROSITY SANDSTONE
 SPR .MV     07 010 01 00:   SPONTANEOUS POTENTIAL
 LL8 .OHMM   07 220 08 00:   LATEROLOG-8 RES.
 ILD .OHMM   07 120 46 00:   INDUCTION LOG DEEP
 ILM .OHMM   07 120 44 00:   INDUCTION LOG MEDIUM
 CALD.IN     45 280 60 00:   CALIPER
~PARAMETER INFORMATION
#MNEM.UNIT          VALUE    DESCRIPTION
#----------   ------------   ------------------------------
 PD  .                 GL:   PERMANENT DATUM
 EPD .F              5087:   ELEVATION PERMANENT DATUM
 LMF .                 GL:   LOG MEASURED FROM
 DMF .                 GL:   DRILLING MEASURED FROM
 EKB .F              5091:   KELLING BUSHING
 EGL .F              5087:   GROUND LEVEL
 DATE.            3-15-77:   RUN DATE
 RUN .                  1:   RUN NUMBER
 DD  .F               670:   DEPTH DRILLER
 DL  .F               663:   DEPTH LOGGER
 BLI .F               657:   BOTTOM LOG INTERVAL
 TLI .F                40:   TOP LOG INTERVAL
 CS  .IN            8.625:   CASING SIZE
 CBD .F                40:   CASING BOTTOM DRILLER
 CBL .F                40:   CASING BOTTOM LOGGER
 BS  .IN            7.875:   BIT SIZE
 BSD .F               670:   BIT SIZE AT DEPTH
 DFT .                KCL:   DRILLING FLUID TYPE
 DFD .                8.6:   DRILLING FLUID DENSITY
 DFV .                 31:   DRILLING FLUID VISCOSITY
 DFPH.                  8:   DRILLING FLUID PH
 DFL .                8.8:   DRILLING FLUID LOSS
 MSS .                PIT:   MUD SAMPLE SOURCE
 RMS .OHMM           .246:   RESISTIVITY MUD SAMPLE
 MST .F                76:   MUD SAMPLE TEMPERATURE
 RMF .OHMM           .243:   RESISTIVITY MUD FILTRATE SAMPLE
 MFST.F                76:   MUD FILTRATE SAMPLE TEMPERATURE
 MFSS.                  M:   MUD FILTRATE SAMPLE SOURCE
 RMB .OHMM           .267:   RESISTIVITY MUD AT BHT
 BHT .F                70:   BOTTOM HOLE TEMPERATURE
 TCS .HRS            1800:   TIME CURCULATED STOPPED
 TLAB.HRS            2200:   TIME LOGGER AT BOTTOM
 MRT .F                70:   MAXIMUM RECORDED TEMPERATURE
 LUN .               5642:   LOGGING UNIT NUMBER
 LUL .               CSPR:   LOGGING UNIT LOCATION
 ENGI.             MARTIN:   RECORDING ENGINEER
 WITN.              BURKE:   WITNESSED BY
 CLNT.            A2DTECH:   CLIENT CODE
 ORIG. 2", 2.5", 5" PRINT:   ORIGIN OF DATA
 UWI .       490251030500:   UNIQUE WELL ID
 DICO. A2D Technologies, Inc.:   DIGITIZING COMPANY
~OTHER INFORMATION
~A   DEPT       GRD      CORR       RHOB       DPOR        SPR        LL8        ILD        ILM       CALD   
# ...
  545.0000    93.3920     0.0045     2.4998     0.0931   -46.1918    16.9706    13.6227    14.3433     8.3682
  545.5000    91.6396     0.0113     2.5020     0.0870   -46.4902    19.2092    13.6932    14.2895     8.4134
  546.0000    89.7363     0.0182     2.4930     0.0904   -46.5021    20.3536    13.5463    14.1604     8.4591
  546.5000    91.3691     0.0121     2.4664     0.1096   -46.5002    17.4128    13.4239    14.0324     8.5125
  547.0000    92.6127     0.0149     2.4395     0.1197   -46.5000    15.0931    13.3035    13.9056     8.5153
  547.5000    92.5182     0.0188     2.4262     0.1205   -46.5000    14.2075    13.1963    13.8019     8.5038
  548.0000    93.1066     0.0239     2.4447     0.1166   -46.5000    14.2929    13.0704    13.6588     8.4921
  548.5000    94.2549     0.0159     2.4449     0.1184   -46.5000    14.4510    12.9346    13.5173     8.4805
  549.0000    95.0303     0.0061     2.4353     0.1186   -46.4999    14.6058    12.8005    13.3772     8.4690
  549.5000    93.8827     0.0083     2.4479     0.1146   -46.4990    14.6058    12.6677    13.2386     8.4574
  550.0000    92.6193     0.0129     2.4360     0.1116   -46.5010    14.4562    12.5385    13.1014     8.4460
  550.5000    91.3973     0.0173     2.4236     0.1259   -46.7319    14.3382    12.3788    12.9564     8.4352
  551.0000    93.0743     0.0146     2.4125     0.1274   -46.9906    14.2213    12.4918    13.0764     8.3914
  551.5000    93.3280     0.0126     2.4166     0.1279   -47.2490    14.1052    12.3064    12.8492     8.3422
  552.0000    92.4533     0.0146     2.4255     0.1232   -47.5070    13.9902    12.1208    12.6554     8.3163
  552.5000    95.3658     0.0098     2.4343     0.1194   -47.7650    13.9479    11.9381    12.4645     8.3159
  553.0000    97.0622     0.0025     2.4349     0.1197   -48.0253    13.8200    11.7581    12.2795     8.3338
  553.5000    97.9376    -0.0030     2.4344     0.1195   -48.2879    13.8738    11.5997    12.1362     8.3598
  554.0000    97.9784     0.0043     2.4426     0.1182   -48.2351    13.9102    11.3878    11.9251     8.3854
  554.5000    96.0716     0.0196     2.4526     0.1136   -48.1590    13.9479    11.4648    12.0227     8.4152
  555.0000    94.1951     0.0282     2.4562     0.1130   -48.0154    14.0031    11.5997    12.1523     8.4155
  555.5000    92.3606     0.0179     2.4548     0.1197   -47.5799    14.1463    11.5997    12.1421     8.3989
  556.0000    88.7704     0.0099     2.4424     0.1283   -46.8638    14.2910    11.9745    12.3184     8.3730
  556.5000    84.2218     0.0018     2.4251     0.1362   -45.7568    14.4615    12.8538    12.5964     8.3469
  557.0000    80.7598    -0.0010     2.3978     0.1503   -44.7475    15.3631    13.8128    12.8786     8.3208
  557.5000    77.6777     0.0034     2.3335     0.1746   -43.6279    16.3548    14.5948    13.4430     8.3114
  558.0000    73.7579     0.0149     2.2918     0.2005   -42.3357    19.3474    16.4506    14.7091     8.3055
  558.5000    69.7842     0.0290     2.2668     0.2310   -41.0831    23.6611    18.6411    16.1667     8.2998
  559.0000    65.9116     0.0326     2.2517     0.2399   -40.0235    28.9322    21.1233    18.5355     8.2967
  559.5000    66.1117     0.0214     2.2457     0.2453   -39.4013    33.3963    23.9360    21.2364     8.2802
  560.0000    68.0424     0.0154     2.2847     0.2315   -39.2030    36.0032    27.1233    24.3250     8.2602
  560.5000    69.9815     0.0344     2.3199     0.1992   -39.0046    38.8032    30.2538    27.8629     8.2400
  561.0000    70.4599     0.0215     2.3380     0.1908   -38.8064    36.1612    32.4628    31.9153     8.2198
  561.5000    68.2009     0.0113     2.4062     0.1669   -38.6102    32.2703    35.0386    36.5571     8.1996
  562.0000    66.1264     0.0057     2.4737     0.1129   -38.5663    31.1021    37.8034    41.8740     8.1795
  562.5000    64.0122     0.0190     2.5420     0.0517   -38.7148    68.7173    40.6334    47.9642     8.1593
  563.0000    62.2766     0.0102     2.6002     0.0333   -38.8625    77.0027    41.3894    50.6944     8.1390
  563.5000    63.2955     0.0171     2.6017     0.0335   -39.0063   125.9150    40.2690    51.1639     8.1189
  564.0000    66.3057     0.0355     2.5651     0.0411   -38.9634   196.5317    39.5251    49.0172     8.1002
  564.5000    69.1959     0.0533     2.4956     0.0802   -38.5956    55.5894    37.7970    43.8281     8.0776
  565.0000    70.4021     0.0171     2.4164     0.1144   -38.2350    46.2304    36.0447    39.1883     8.0921
  565.5000    69.1266     0.0234     2.3830     0.1450   -37.8773    40.7459    33.8069    35.3586     8.1072
  566.0000    69.2746     0.0121     2.3466     0.1756   -37.3404    35.0616    30.9812    32.3090     8.1227
  566.5000    71.0668     0.0184     2.3376     0.1898   -36.8220    32.3000    28.3916    29.5224     8.1382
  567.0000    73.2627     0.0187     2.3314     0.1926   -36.3041    29.1502    26.0185    26.9747     8.1535
  567.5000    75.6694     0.0069     2.3317     0.1955   -36.0036    28.3771    23.8438    24.6439     8.1689
  568.0000    76.6200     0.0183     2.3465     0.1838   -35.8371    26.7693    21.8508    22.5311     8.1717
  568.5000    76.6629     0.0318     2.3543     0.1775   -35.6737    25.2088    20.5611    21.5448     8.1612
  569.0000    74.8721     0.0107     2.3404     0.1880   -35.5102    24.7007    19.7412    21.1348     8.1506
  569.5000    73.4972     0.0044     2.3263     0.1962   -35.3464    24.0270    18.9541    20.7326     8.1400
  570.0000    75.0325     0.0226     2.3224     0.2004   -35.1825    23.6317    18.5614    20.3380     8.1293
  570.5000    77.2308     0.0177     2.3242     0.1962   -35.0187    23.0539    18.4121    19.9510     8.1188
  571.0000    79.2989     0.0101     2.3250     0.1940   -34.8549    22.0897    18.2035    19.5711     8.1318
  571.5000    79.7122     0.0135     2.3235     0.1989   -34.6911    21.5110    17.9973    19.1982     8.1488
  572.0000    78.7181     0.0356     2.3337     0.1995   -34.5272    21.1766    17.7934    18.8334     8.1659
  572.5000    78.7173     0.0695     2.3607     0.1714   -34.3633    21.1181    17.5918    18.5614     8.1830
  573.0000    79.5803     0.0548     2.3412     0.1823   -34.2002    21.9113    17.5603    18.7505     8.2003
  573.5000    80.4399     0.0027     2.3282     0.1922   -34.0662    20.9143    17.6707    18.9744     8.2154
  574.0000    81.3615     0.0124     2.3395     0.1868   -33.9841    19.7979    17.8332    19.2009     8.1836
  574.5000    82.4435     0.0188     2.3458     0.1838   -33.8789    19.6179    17.9956    19.4368     8.1500
  575.0000    84.2919     0.0144     2.3393     0.1893   -33.3537    19.7580    18.1584    19.2361     8.1474
  575.5000    85.4951     0.0141     2.3498     0.1811   -32.8152    19.8625    18.2223    19.0283     8.1635
  576.0000    84.8820     0.0200     2.3638     0.1736   -32.6984    19.9675    17.5656    18.8237     8.1773
  576.5000    82.4330     0.0268     2.3782     0.1683   -32.7645    20.1796    17.0837    18.6217     8.1735
  577.0000    84.2266     0.0332     2.3816     0.1692   -33.1568    19.6585    17.0590    18.4219     8.1677
  577.5000    86.6119     0.0111     2.3544     0.1771   -33.5418    19.2561    17.0239    18.2242     8.1619
  578.0000    87.5353     0.0052     2.3599     0.1744   -33.9264    19.3551    16.9888    18.0287     8.1561
  578.5000    86.1399     0.0118     2.3583     0.1788   -34.3109    19.6168    16.9537    17.8352     8.1503
  579.0000    84.1783     0.0221     2.3543     0.1763   -34.6954    19.6168    16.9269    17.7253     8.1445
  579.5000    82.6395     0.0179     2.3628     0.1711   -35.0798    19.3338    16.7022    17.4373     8.1385
  580.0000    82.8493     0.0116     2.3728     0.1642   -35.4645    18.9067    16.4400    17.1627     8.1367
  580.5000    84.7345     0.0331     2.3831     0.1581   -35.8497    18.4890    16.1819    16.8931     8.1334
  581.0000    85.1181     0.0202     2.3883     0.1616   -36.2294    17.8895    15.9277    16.6279     8.1301
