~VERSION INFORMATION
 VERS.                2.0:   CWLS LOG ASCII STANDARD - VERSION 2.0
 WRAP.                 NO:   ONE LINE PER DEPTH STEP
~WELL INFORMATION
#MNEM.UNIT      DATA TYPE    INFORMATION
#----------   ------------   ------------------------------
 STRT.F           31.0000:   START DEPTH
 STOP.F          590.0000:   STOP DEPTH
 STEP.F            0.1000:   STEP LENGTH
 NULL.          -999.2500:   NO VALUE
 COMP. LAWRENCE/ALLISON INC:   COMPANY
 WELL. NPR 3 73-61 SX #3-3:   WELL
 FLD .             TEAPOT:   FIELD
 LOC .       S3 T38N R78W:   LOCATION
 CNTY.            NATRONA:   COUNTY
 STAT.            WYOMING:   STATE
 CTRY. UNITED STATES OF AMERICA:   COUNTRY
 SRVC.           Gearhart:   SERVICE COMPANY
 DATE.        14-AUG-1988:   LOGDATE
 API .       490251124200:   API NUMBER
~CURVE INFORMATION
#MNEM.UNIT       API CODE    CURVE DESCRIPTION
#----------   ------------   ------------------------------
 DEPT.F                  :   
 GRR .GAPI   07 310 01 00:   GAMMA RAY
 RILD.OHMM   07 120 46 00:   INDUCTION LOG DEEP RESISTIVITY
 RILM.OHMM   07 120 44 00:   INDUCTION LOG MEDIUM RESISTIVITY
~PARAMETER INFORMATION
#MNEM.UNIT          VALUE    DESCRIPTION
#----------   ------------   ------------------------------
 PD  .                 GL:   PERMANENT DATUM
 EPD .F              5136:   ELEVATION PERMANENT DATUM
 LMF .                 KB:   LOG MEASURED FROM
 DAPD.F                10:   FEET ABOVE PERMANENT DATUM
 DMF .                 KB:   DRILLING MEASURED FROM
 EKB .F              5146:   KELLING BUSHING
 EDF .F              5144:   DRILLING FLOOR
 EGL .F              5136:   GROUND LEVEL
 DATE.        14-AUG-1988:   RUN DATE
 RUN .                  1:   RUN NUMBER
 DD  .F               597:   DEPTH DRILLER
 DL  .F               598:   DEPTH LOGGER
 BLI .F               590:   BOTTOM LOG INTERVAL
 TLI .F                50:   TOP LOG INTERVAL
 CS  .IN            9.625:   CASING SIZE
 CBD .F                50:   CASING BOTTOM DRILLER
 CBL .F                50:   CASING BOTTOM LOGGER
 BS  .IN             8.75:   BIT SIZE
 BSD .F               597:   BIT SIZE AT DEPTH
 DFT .                AIR:   DRILLING FLUID TYPE
 TCS .HRS            1930:   TIME CURCULATED STOPPED
 TLAB.HRS            2030:   TIME LOGGER AT BOTTOM
 MRT .F                70:   MAXIMUM RECORDED TEMPERATURE
 LUN .               7597:   LOGGING UNIT NUMBER
 LUL .           GILLETTE:   LOGGING UNIT LOCATION
 ENGI.         WEATHERMON:   RECORDING ENGINEER
 WITN.             STRONG:   WITNESSED BY
 CLNT.            A2DTECH:   CLIENT CODE
 ORIG.           5" PRINT:   ORIGIN OF DATA
 UWI .       490251124200:   UNIQUE WELL ID
 DICO. A2D Technologies, Inc.:   DIGITIZING COMPANY
~OTHER INFORMATION
~A   DEPT       GRR      RILD       RILM   
# ...
  322.2000   123.3730     6.7684     6.4527
  322.3000   123.9369     6.7679     6.4521
  322.4000   124.3971     6.7891     6.4654
  322.5000   124.7281     6.8141     6.4958
  322.6000   125.1195     6.8136     6.4951
  322.7000   125.5455     6.8132     6.4944
  322.8000   125.7644     6.7739     6.5242
  322.9000   125.7675     6.7652     6.5384
  323.0000   126.0161     6.7647     6.5378
  323.1000   126.0756     6.7479     6.5371
  323.2000   126.0785     6.7170     6.5365
  323.3000   125.9784     6.7151     6.5357
  323.4000   125.7825     6.6696     6.5352
  323.5000   125.7773     6.6692     6.5346
  323.6000   125.4869     6.6431     6.5339
  323.7000   125.4895     6.6222     6.5226
  323.8000   125.3248     6.6108     6.4875
  323.9000   125.0732     6.5719     6.4868
  324.0000   124.8943     6.5295     6.4863
  324.1000   124.8973     6.4948     6.4587
  324.2000   124.9006     6.4565     6.4205
  324.3000   124.9034     6.4185     6.3950
  324.4000   124.7218     6.3807     6.3890
  324.5000   124.4703     6.3432     6.3496
  324.6000   124.3082     6.3044     6.3490
  324.7000   124.3112     6.2687     6.3201
  324.8000   124.3143     6.2318     6.2827
  324.9000   124.3173     6.1951     6.2456
  325.0000   124.5216     6.1445     6.2087
  325.1000   124.7793     6.0801     6.1723
  325.2000   125.0369     6.0442     6.1716
  325.3000   125.2944     6.0027     6.1417
  325.4000   125.5631     5.9446     6.1054
  325.5000   126.1485     5.8971     6.0694
  325.6000   126.5877     5.8470     6.0335
  325.7000   127.0999     5.7876     5.9956
  325.8000   127.6120     5.7510     5.9166
  325.9000   128.1241     5.6763     5.8861
  326.0000   128.6931     5.6176     5.8282
  326.1000   129.7918     5.5747     5.7766
  326.2000   130.7354     5.5254     5.7324
  326.3000   131.3815     5.4711     5.6690
  326.4000   132.1742     5.4348     5.6330
  326.5000   133.0101     5.3678     5.5722
  326.6000   133.5672     5.3379     5.5306
  326.7000   134.3414     5.3065     5.4806
  326.8000   134.9492     5.2812     5.4277
  326.9000   135.5656     5.2607     5.3904
  327.0000   136.0181     5.2401     5.3259
  327.1000   136.3853     5.2196     5.2652
  327.2000   136.8355     5.1990     5.2037
  327.3000   137.1075     5.1785     5.1607
  327.4000   137.6862     5.1579     5.1181
  327.5000   137.9105     5.1374     5.0646
  327.6000   137.9940     5.1168     5.0338
  327.7000   137.9970     5.0963     4.9656
  327.8000   137.9211     5.0757     4.9410
  327.9000   137.6382     5.0552     4.8933
  328.0000   137.0999     5.0346     4.8490
  328.1000   136.6258     5.0141     4.8203
  328.2000   135.9289     4.9935     4.7896
  328.3000   135.1683     4.9730     4.7275
  328.4000   134.3117     4.9462     4.7026
  328.5000   133.2959     4.9171     4.6748
  328.6000   132.2810     4.8979     4.6472
  328.7000   131.0791     4.9020     4.6198
  328.8000   130.2502     4.9312     4.5925
  328.9000   128.7536     4.9309     4.5638
  329.0000   126.9750     4.9530     4.5383
  329.1000   125.2617     4.9816     4.5314
  329.2000   123.7201     5.0105     4.5309
  329.3000   121.7315     5.0394     4.5304
  329.4000   119.9361     5.0685     4.5300
  329.5000   118.4337     5.1027     4.5296
  329.6000   117.0339     5.1273     4.5291
  329.7000   115.8386     5.1570     4.5501
  329.8000   115.3326     5.2007     4.5598
  329.9000   114.8008     5.2531     4.5822
  330.0000   114.5619     5.2859     4.6355
  330.1000   114.5045     5.3544     4.6880
  330.2000   114.3610     5.3820     4.7188
  330.3000   114.2085     5.4354     4.7660
  330.4000   114.2632     5.4988     4.8026
  330.5000   114.5288     5.5523     4.8575
  330.6000   115.4265     5.5889     4.9427
  330.7000   116.2738     5.6575     5.0263
  330.8000   117.4588     5.7202     5.0899
  330.9000   118.7343     5.7869     5.1714
  331.0000   120.0783     5.8349     5.2400
  331.1000   121.5669     5.8818     5.3010
  331.2000   122.6952     5.9504     5.3626
  331.3000   123.6101     6.0198     5.4249
  331.4000   124.6311     6.1030     5.4903
  331.5000   125.5194     6.1612     5.5518
  331.6000   126.2009     6.2102     5.6165
  331.7000   126.6754     6.2785     5.6818
  331.8000   126.9427     6.3699     5.7509
  331.9000   127.1905     6.4091     5.8249
  332.0000   127.4482     6.4934     5.8990
  332.1000   127.4060     6.5597     5.9731
  332.2000   127.1545     6.6363     6.0472
  332.3000   126.9030     6.6941     6.1213
  332.4000   126.6514     6.7450     6.1954
  332.5000   126.3600     6.8189     6.2694
  332.6000   125.9339     6.8610     6.3435
  332.7000   125.4279     6.9356     6.4176
  332.8000   125.0409     6.9861     6.4917
  332.9000   124.7175     7.0494     6.5658
  333.0000   124.2356     7.1164     6.6398
  333.1000   123.9610     7.1649     6.7139
  333.2000   123.5012     7.2495     6.7880
  333.3000   122.9950     7.2909     6.8621
  333.4000   122.6252     7.3674     6.9362
  333.5000   122.2851     7.4268     7.0127
  333.6000   121.8200     7.4697     7.0902
  333.7000   121.5620     7.5129     7.1463
  333.8000   121.0687     7.5563     7.2025
  333.9000   120.5627     7.6063     7.2586
  334.0000   120.0566     7.6440     7.3148
  334.1000   119.6558     7.6882     7.3709
  334.2000   119.4041     7.7327     7.4271
  334.3000   119.1423     7.7773     7.4832
  334.4000   118.5624     7.8177     7.5394
  334.5000   118.3474     7.8171     7.5955
  334.6000   118.0958     7.8584     7.6517
  334.7000   117.8443     7.8705     7.7078
  334.8000   117.6677     7.8699     7.7640
  334.9000   117.6980     7.8694     7.7935
  335.0000   117.9761     7.8688     7.7928
  335.1000   118.2133     7.8683     7.7880
  335.2000   118.8445     7.8677     7.7373
  335.3000   119.6114     7.8672     7.7367
  335.4000   120.3784     7.8667     7.7360
  335.5000   121.1892     7.8476     7.7118
  335.6000   122.2236     7.8112     7.6810
  335.7000   123.4357     7.8107     7.6802
  335.8000   124.0497     7.8100     7.6794
  335.9000   124.8163     7.7715     7.6363
  336.0000   125.4743     7.7551     7.6249
  336.1000   125.9867     7.7337     7.6242
  336.2000   126.4987     7.7004     7.6065
  336.3000   127.0789     7.6999     7.5700
  336.4000   127.5234     7.6993     7.5692
  336.5000   127.6889     7.6587     7.5161
  336.6000   127.6919     7.6450     7.4800
  336.7000   127.6948     7.6215     7.4628
  336.8000   127.6979     7.5911     7.4433
  336.9000   127.7011     7.5844     7.4098
  337.0000   127.2285     7.5376     7.4066
  337.1000   126.7225     7.5371     7.3571
  337.2000   126.2165     7.5031     7.3195
  337.3000   125.7102     7.4840     7.3049
  337.4000   125.1086     7.4666     7.2835
  337.5000   124.0937     7.4227     7.2530
  337.6000   122.8888     7.3794     7.2478
  337.7000   122.0629     7.3787     7.2014
  337.8000   121.5262     7.3431     7.1623
  337.9000   121.1627     7.2999     7.1200
  338.0000   120.6567     7.2569     7.0780
  338.1000   120.1841     7.2249     7.0361
  338.2000   120.1877     7.2216     7.0010
  338.3000   120.4144     7.1739     7.0003
  338.4000   120.6719     7.1368     6.9602
  338.5000   121.1873     7.0948     6.9191
  338.6000   121.8729     7.0530     6.8782
  338.7000   122.3849     6.9988     6.8375
  338.8000   122.9246     6.9221     6.7971
  338.9000   123.1684     6.8787     6.7578
  339.0000   123.4260     6.8409     6.7571
  339.1000   123.6836     6.8006     6.7238
  339.2000   123.9411     6.7387     6.6592
  339.3000   124.1480     6.6743     6.5986
  339.4000   124.1510     6.6349     6.5596
  339.5000   124.1546     6.5956     6.5208
  339.6000   124.3673     6.5042     6.4779
  339.7000   124.4622     6.4734     6.4440
  339.8000   124.4653     6.4124     6.3801
  339.9000   124.5360     6.3532     6.3241
  340.0000   124.7936     6.3071     6.2867
  340.1000   125.0789     6.2334     6.2449
  340.2000   125.3088     6.1506     6.1674
  340.3000   125.5664     6.0889     6.0998
