~VERSION INFORMATION
 VERS.                2.0:   CWLS LOG ASCII STANDARD - VERSION 2.0
 WRAP.                 NO:   ONE LINE PER DEPTH STEP
~WELL INFORMATION
#MNEM.UNIT      DATA TYPE    INFORMATION
#----------   ------------   ------------------------------
 STRT.F          610.5000:   START DEPTH
 STOP.F         2311.0000:   STOP DEPTH
 STEP.F            0.5000:   STEP LENGTH
 NULL.          -999.2500:   NO VALUE
 COMP. BROWN JOHN E&C INC:   COMPANY
 WELL.  48-1SHX-34 #48-34:   WELL
 FLD .             TEAPOT:   FIELD
 LOC .      S34 T39N R78W:   LOCATION
 CNTY.            NATRONA:   COUNTY
 STAT.            WYOMING:   STATE
 CTRY. UNITED STATES OF AMERICA:   COUNTRY
 SRVC.            Unknown:   SERVICE COMPANY
 DATE.        16-SEP-1991:   LOGDATE
 API .       490251109000:   API NUMBER
~CURVE INFORMATION
#MNEM.UNIT       API CODE    CURVE DESCRIPTION
#----------   ------------   ------------------------------
 DEPT.F                  :   
 ROP .MIN/FT 91 810 01 00:   RAT OF DRILLING PENETRATION
 TGAS.UNITS  91 830 01 00:   TOTAL GAS FROM HOTWIRE
~PARAMETER INFORMATION
#MNEM.UNIT          VALUE    DESCRIPTION
#----------   ------------   ------------------------------
 EKB .F              5163:   KELLING BUSHING
 EGL .F              5152:   GROUND LEVEL
 DATE.            9-16-91:   RUN DATE
 DD  .F              2311:   DEPTH DRILLER
 TCS .HRS            0200:   TIME CURCULATED STOPPED
 TLAB.HRS            0115:   TIME LOGGER AT BOTTOM
 ENGI.             HENDRY:   RECORDING ENGINEER
 WITN.               HUSK:   WITNESSED BY
 CLNT.            A2DTECH:   CLIENT CODE
 ORIG.           5" PRINT:   ORIGIN OF DATA
 UWI .       490251109000:   UNIQUE WELL ID
 DICO. A2D Technologies, Inc.:   DIGITIZING COMPANY
~OTHER INFORMATION
~A   DEPT        ROP       TGAS 
# ...
 1096.5000     1.1301     4.3765
 1097.0000     1.1712     4.3656
 1097.5000     1.2124     4.3547
 1098.0000     1.2424     4.3437
 1098.5000     1.2675     4.3328
 1099.0000     1.2931     4.3219
 1099.5000     1.3000     4.3110
 1100.0000     1.2844     4.2999
 1100.5000     1.2193     4.2894
 1101.0000     1.1568     4.2630
 1101.5000     1.0951     4.2310
 1102.0000     1.0457     4.1987
 1102.5000     1.0249     4.1663
 1103.0000     1.0260     4.1340
 1103.5000     1.0275     4.1017
 1104.0000     1.0292     4.0693
 1104.5000     1.0309     4.0370
 1105.0000     1.0325     4.0047
 1105.5000     1.0342     3.9723
 1106.0000     1.0356     3.9400
 1106.5000     1.0664     3.9077
 1107.0000     1.1604     3.8753
 1107.5000     1.2516     3.8430
 1108.0000     1.2403     3.8107
 1108.5000     1.2124     3.7783
 1109.0000     1.1695     3.7460
 1109.5000     1.1249     3.7137
 1110.0000     1.0803     3.6813
 1110.5000     1.0340     3.6490
 1111.0000     1.0347     3.6167
 1111.5000     1.0490     3.5843
 1112.0000     1.0639     3.5520
 1112.5000     1.0951     3.5197
 1113.0000     1.1677     3.4873
 1113.5000     1.2405     3.4550
 1114.0000     1.2646     3.4227
 1114.5000     1.2682     3.3903
 1115.0000     1.2712     3.3579
 1115.5000     1.2735     3.3258
 1116.0000     1.3149     3.2932
 1116.5000     1.3667     3.3275
 1117.0000     1.4423     3.4262
 1117.5000     1.5104     3.5250
 1118.0000     1.4683     3.6240
 1118.5000     1.4224     3.7229
 1119.0000     1.3770     3.8218
 1119.5000     1.3314     3.9208
 1120.0000     1.3112     4.0197
 1120.5000     1.3076     4.1186
 1121.0000     1.3044     4.2175
 1121.5000     1.3015     4.3164
 1122.0000     1.2768     4.4153
 1122.5000     1.2455     4.5143
 1123.0000     1.1914     4.6134
 1123.5000     1.1293     4.7121
 1124.0000     1.0668     4.7918
 1124.5000     1.0410     4.7901
 1125.0000     1.0482     4.7899
 1125.5000     1.0559     4.7899
 1126.0000     1.0639     4.7899
 1126.5000     1.0712     4.7899
 1127.0000     1.0940     4.7899
 1127.5000     1.1533     4.7899
 1128.0000     1.2158     4.7899
 1128.5000     1.2737     4.7899
 1129.0000     1.2690     4.7899
 1129.5000     1.2626     4.7899
 1130.0000     1.2569     4.7899
 1130.5000     1.2462     4.7899
 1131.0000     1.1238     4.7899
 1131.5000     1.0733     4.7899
 1132.0000     1.0694     4.7899
 1132.5000     1.0665     4.7899
 1133.0000     1.0637     4.7899
 1133.5000     1.0608     4.7899
 1134.0000     1.0579     4.7899
 1134.5000     1.0550     4.7899
 1135.0000     1.0521     4.7899
 1135.5000     1.0499     4.7899
 1136.0000     1.0137     4.7899
 1136.5000     0.9658     4.7899
 1137.0000     0.9174     4.7899
 1137.5000     0.8696     4.7899
 1138.0000     0.8390     4.7899
 1138.5000     0.8567     4.7899
 1139.0000     0.9222     4.7899
 1139.5000     0.9782     4.7899
 1140.0000     0.9935     4.7899
 1140.5000     1.0090     4.7899
 1141.0000     1.0246     4.7899
 1141.5000     1.0401     4.7899
 1142.0000     1.0556     4.7899
 1142.5000     1.0701     4.7899
 1143.0000     1.1296     4.7899
 1143.5000     1.1985     4.7899
 1144.0000     1.1866     4.7899
 1144.5000     1.1252     4.7899
 1145.0000     1.0634     4.7899
 1145.5000     1.0262     4.7899
 1146.0000     1.0347     4.7899
 1146.5000     1.0424     4.7900
 1147.0000     1.0473     4.7965
 1147.5000     1.0331     4.8167
 1148.0000     1.0068     4.8367
 1148.5000     0.9538     4.8567
 1149.0000     0.9015     4.8768
 1149.5000     0.8488     4.8968
 1150.0000     0.8265     4.9168
 1150.5000     0.8553     4.9368
 1151.0000     0.8849     4.9568
 1151.5000     0.9146     4.9769
 1152.0000     0.9444     4.9969
 1152.5000     0.9737     5.0169
 1153.0000     0.9352     5.0369
 1153.5000     0.8871     5.0569
 1154.0000     0.8386     5.0770
 1154.5000     0.7901     5.0970
 1155.0000     0.8089     5.1170
 1155.5000     0.8360     5.1370
 1156.0000     0.8633     5.1570
 1156.5000     0.8905     5.1771
 1157.0000     0.9181     5.1971
 1157.5000     0.9159     5.2171
 1158.0000     0.8963     5.2363
 1158.5000     0.8767     5.2540
 1159.0000     0.8571     5.2905
 1159.5000     0.8377     5.6821
 1160.0000     0.8354     6.2275
 1160.5000     0.8320     6.3045
 1161.0000     0.8273     6.3035
 1161.5000     0.8226     6.3027
 1162.0000     0.8178     6.3024
 1162.5000     0.8134     6.3024
 1163.0000     0.8281     6.3075
 1163.5000     0.8725     6.3483
 1164.0000     0.9169     6.3894
 1164.5000     0.9589     6.4304
 1165.0000     0.9728     6.4714
 1165.5000     0.9068     6.5124
 1166.0000     0.8313     6.5533
 1166.5000     0.7983     6.5943
 1167.0000     0.7977     6.6353
 1167.5000     0.7978     6.6763
 1168.0000     0.7983     6.7173
 1168.5000     0.7751     6.7583
 1169.0000     0.7479     6.7999
 1169.5000     0.7211     6.8067
 1170.0000     0.6906     6.8068
 1170.5000     0.6615     6.8067
 1171.0000     0.7034     6.8067
 1171.5000     0.7518     6.8067
 1172.0000     0.7999     6.8067
 1172.5000     0.8480     6.8067
 1173.0000     0.8961     6.8067
 1173.5000     0.9443     6.8067
 1174.0000     0.9925     6.8067
 1174.5000     0.9949     6.8067
 1175.0000     0.9903     6.8067
 1175.5000     0.9857     6.8067
 1176.0000     0.9811     6.8067
 1176.5000     0.9762     6.8067
 1177.0000     0.9519     6.8067
 1177.5000     0.8920     6.8067
 1178.0000     0.8320     6.8067
 1178.5000     0.8084     6.8067
 1179.0000     0.8044     6.8067
 1179.5000     0.8008     6.8067
 1180.0000     0.7988     6.8067
 1180.5000     0.8182     6.8067
 1181.0000     0.8373     6.8067
 1181.5000     0.8556     6.8067
 1182.0000     0.9012     6.8067
 1182.5000     0.9095     6.8067
 1183.0000     0.9189     6.8067
 1183.5000     0.9284     6.8067
 1184.0000     0.9378     6.8067
 1184.5000     0.9467     6.8067
 1185.0000     0.9711     6.8067
 1185.5000     0.9969     6.8067
 1186.0000     1.0227     6.8067
 1186.5000     1.0241     6.8067
 1187.0000     1.0239     6.8067
 1187.5000     1.0240     6.8067
 1188.0000     1.0246     6.8067
 1188.5000     0.9955     6.8067
 1189.0000     0.9610     6.8067
 1189.5000     0.9265     6.8068
 1190.0000     0.8919     6.8112
 1190.5000     0.8553     6.8223
 1191.0000     0.8861     6.8334
 1191.5000     0.9384     6.8445
 1192.0000     0.9695     6.8555
 1192.5000     0.9853     6.8666
 1193.0000     1.0008     6.8777
 1193.5000     1.0163     6.8887
 1194.0000     1.0315     6.8998
 1194.5000     1.0454     6.9109
 1195.0000     1.0915     6.9219
 1195.5000     1.1865     6.9330
 1196.0000     1.2424     6.9441
 1196.5000     1.2118     6.9551
 1197.0000     1.1447     6.9662
 1197.5000     1.0747     6.9773
 1198.0000     1.0360     6.9883
 1198.5000     1.0365     6.9994
 1199.0000     1.0363     7.0105
 1199.5000     1.0368     7.0215
 1200.0000     1.0152     7.0326
 1200.5000     0.9849     7.0437
 1201.0000     0.9475     7.0547
 1201.5000     0.8808     7.0658
 1202.0000     0.8397     7.0769
 1202.5000     0.8563     7.0879
 1203.0000     0.8719     7.0990
 1203.5000     0.8875     7.1101
 1204.0000     0.9032     7.1211
 1204.5000     0.9107     7.1322
 1205.0000     0.9108     7.1433
 1205.5000     0.9110     7.1543
 1206.0000     0.9188     7.1654
 1206.5000     0.9269     7.1765
 1207.0000     0.9350     7.1875
 1207.5000     0.9431     7.1986
 1208.0000     0.9512     7.2097
 1208.5000     0.9593     7.2207
 1209.0000     0.9674     7.2318
 1209.5000     0.9755     7.2429
 1210.0000     0.9836     7.2539
 1210.5000     0.9917     7.2650
 1211.0000     0.9998     7.2761
 1211.5000     1.0079     7.2871
 1212.0000     1.0160     7.2982
 1212.5000     1.0241     7.3092
 1213.0000     1.0322     7.3178
 1213.5000     1.0368     7.3258
 1214.0000     1.0156     7.3339
 1214.5000     0.9840     7.3420
 1215.0000     0.9520     7.3500
 1215.5000     0.9200     7.3581
 1216.0000     0.8881     7.3662
 1216.5000     0.8564     7.3742
 1217.0000     0.8341     7.3823
 1217.5000     0.8314     7.3904
