~VERSION INFORMATION
 VERS.                2.0:   CWLS LOG ASCII STANDARD - VERSION 2.0
 WRAP.                 NO:   ONE LINE PER DEPTH STEP
~WELL INFORMATION
#MNEM.UNIT      DATA TYPE    INFORMATION
#----------   ------------   ------------------------------
 STRT.F            6.0000:   START DEPTH
 STOP.F          458.0000:   STOP DEPTH
 STEP.F            0.5000:   STEP LENGTH
 NULL.          -999.2500:   NO VALUE
 COMP. BROWN JOHN E&C INC:   COMPANY
 WELL.   73-61 X10 #61-10:   WELL
 FLD .             TEAPOT:   FIELD
 LOC .      S10 T38N R78W:   LOCATION
 CNTY.            NATRONA:   COUNTY
 STAT.            WYOMING:   STATE
 CTRY. UNITED STATES OF AMERICA:   COUNTRY
 SRVC.           Gearhart:   SERVICE COMPANY
 DATE.        12-JUN-1987:   LOGDATE
 API .       490251113200:   API NUMBER
~CURVE INFORMATION
#MNEM.UNIT       API CODE    CURVE DESCRIPTION
#----------   ------------   ------------------------------
 DEPT.F                  :   
 GRR .GAPI   07 310 01 00:   GAMMA RAY FROM RES. LOG.
 RILD.OHMM   07 120 46 00:   INDUCTION LOG DEEP RESISTIVITY
 RILM.OHMM   07 120 44 00:   INDUCTION LOG MEDIUM RESISTIVITY
~PARAMETER INFORMATION
#MNEM.UNIT          VALUE    DESCRIPTION
#----------   ------------   ------------------------------
 PD  .                 GL:   PERMANENT DATUM
 EPD .F              5170:   ELEVATION PERMANENT DATUM
 LMF .                 KB:   LOG MEASURED FROM
 DAPD.F                 8:   FEET ABOVE PERMANENT DATUM
 DMF .                 KB:   DRILLING MEASURED FROM
 EKB .F              5178:   KELLING BUSHING
 EDF .F              5176:   DRILLING FLOOR
 EGL .F              5170:   GROUND LEVEL
 DATE.            6-12-87:   RUN DATE
 RUN .                  1:   RUN NUMBER
 DD  .F               560:   DEPTH DRILLER
 DL  .F               466:   DEPTH LOGGER
 BLI .F               463:   BOTTOM LOG INTERVAL
 TLI .F                46:   TOP LOG INTERVAL
 CS  .IN            8.625:   CASING SIZE
 CBD .F                50:   CASING BOTTOM DRILLER
 CBL .F                46:   CASING BOTTOM LOGGER
 BS  .IN             7.87:   BIT SIZE
 BSD .F               560:   BIT SIZE AT DEPTH
 DFT .               FOAM:   DRILLING FLUID TYPE
 TCS .HRS            0645:   TIME CURCULATED STOPPED
 TLAB.HRS            0845:   TIME LOGGER AT BOTTOM
 LUN .               7597:   LOGGING UNIT NUMBER
 LUL .           GILLETTE:   LOGGING UNIT LOCATION
 ENGI.           JOHNSTON:   RECORDING ENGINEER
 WITN.             STRONG:   WITNESSED BY
 CLNT.            A2DTECH:   CLIENT CODE
 ORIG.       2", 5" PRINT:   ORIGIN OF DATA
 UWI .       490251113200:   UNIQUE WELL ID
 DICO. A2D Technologies, Inc.:   DIGITIZING COMPANY
~OTHER INFORMATION
~A    DEPT      GRR      RILD       RILM   
# ...
  279.0000   116.0313     9.7609     9.4826
  279.5000   113.2670     9.2058     9.3934
  280.0000   110.4781     8.3401     9.4714
  280.5000   108.3632     7.6308     9.5726
  281.0000   108.3132     7.3286     8.0406
  281.5000   112.8869     7.1425     6.7049
  282.0000   118.7629     7.2113     5.6401
  282.5000   124.5809     7.2892     5.6936
  283.0000   125.2172     7.3683     5.9199
  283.5000   120.2093     7.4392     6.5395
  284.0000   115.1091     7.9269     7.2695
  284.5000   110.4351     8.8555     8.2230
  285.0000   107.2019     9.9254     8.9601
  285.5000   104.4644    10.9122     9.8478
  286.0000   104.7020    11.6375    10.8234
  286.5000   108.5740    12.0405    11.6730
  287.0000   112.2956    12.1476    11.9097
  287.5000   112.3694    12.2557    11.9567
  288.0000   110.7038    12.3538    12.0063
  288.5000   109.8788    12.9607    12.1267
  289.0000   109.2464    13.5382    12.2645
  289.5000   108.1728    14.1005    12.6192
  290.0000   104.8564    15.6446    13.5456
  290.5000   101.5807    17.1945    14.6435
  291.0000    98.0914    19.0002    16.4109
  291.5000    89.6105    21.2617    19.8120
  292.0000    80.7589    23.7924    23.5674
  292.5000    71.9286    26.6243    28.5807
  293.0000    63.0897    29.4602    34.5922
  293.5000    55.1354    32.2643    41.7859
  294.0000    49.5173    34.8382    48.0187
  294.5000    48.2496    37.6619    49.5973
  295.0000    52.3271    38.7444    47.4273
  295.5000    57.7897    39.5053    46.0842
  296.0000    60.8809    39.4706    45.0662
  296.5000    63.8851    38.3801    44.0944
  297.0000    65.3082    37.3078    43.6520
  297.5000    65.9161    37.3078    43.3438
  298.0000    64.6127    37.9090    43.0378
  298.5000    63.2796    38.4639    42.7340
  299.0000    63.2023    38.7444    42.5829
  299.5000    63.2209    38.2626    44.2238
  300.0000    62.6288    37.9446    45.9257
  300.5000    61.1686    37.6619    45.2026
  301.0000    60.3617    37.6619    43.7959
  301.5000    61.0395    37.6619    42.6746
  302.0000    63.1331    37.6619    41.2963
  302.5000    65.2603    37.6619    39.8582
  303.0000    67.3894    37.6619    39.5693
  303.5000    69.4929    37.6619    39.0771
  304.0000    71.0864    37.6619    40.1858
  304.5000    71.1265    37.6619    42.5004
  305.0000    70.1459    37.6620    45.0812
  305.5000    67.4281    37.6621    44.2583
  306.0000    64.7014    37.6662    42.7787
  306.5000    62.3106    37.5725    41.3384
  307.0000    63.4116    37.3193    40.5708
  307.5000    65.5766    37.0671    39.9933
  308.0000    68.3355    36.8167    39.4294
  308.5000    69.9327    36.5683    38.8736
  309.0000    67.6508    36.3210    37.8106
  309.5000    65.0020    36.0094    36.6095
  310.0000    62.7369    35.6800    36.2386
  310.5000    62.9740    35.3540    35.8625
  311.0000    64.6326    35.0310    35.4903
  311.5000    66.5222    34.7109    35.1220
  312.0000    67.4199    34.3938    34.7575
  312.5000    67.6720    33.9192    34.3967
  313.0000    67.5372    33.3450    34.0397
  313.5000    67.3873    32.7806    33.6865
  314.0000    67.3564    32.2257    33.3368
  314.5000    69.1325    31.6803    32.9963
  315.0000    71.4855    31.0469    32.0820
  315.5000    73.7772    30.3674    31.2066
  316.0000    75.3182    29.7027    29.1061
  316.5000    76.8196    29.0520    28.1489
  317.0000    78.2334    28.4151    27.5709
  317.5000    77.8058    27.5760    26.9927
  318.0000    77.2625    27.6582    26.5388
  318.5000    76.7627    27.7975    26.7687
  319.0000    74.4931    27.9347    26.9850
  319.5000    71.9806    28.0721    27.1991
  320.0000    69.7979    28.2102    27.4149
  320.5000    70.9317    28.3489    27.6325
  321.0000    73.6305    28.3902    27.8517
  321.5000    76.2843    28.4383    28.0727
  322.0000    76.3546    28.4865    28.1010
  322.5000    75.8150    28.5347    27.8836
  323.0000    75.7638    28.5828    27.7371
  323.5000    77.4497    28.6319    27.5913
  324.0000    79.3340    28.6344    27.5751
  324.5000    79.9062    28.6421    28.5082
  325.0000    78.5988    28.0195    29.3907
  325.5000    78.4682    27.5751    30.0220
  326.0000    79.0123    27.1951    29.5242
  326.5000    80.2200    26.7811    28.8324
  327.0000    80.0186    26.3733    28.1568
  327.5000    79.7090    25.9718    27.4971
  328.0000    79.4043    25.5764    26.9133
  328.5000    79.1021    25.1870    26.4649
  329.0000    78.8000    24.8536    26.0244
  329.5000    78.2922    24.8290    25.5635
  330.0000    77.6123    24.7812    25.5915
  330.5000    77.1904    24.7346    25.6609
  331.0000    78.4348    24.6881    25.7305
  331.5000    79.3847    24.6408    25.8004
  332.0000    78.0813    24.4359    25.8704
  332.5000    74.3070    24.1070    25.9406
  333.0000    72.4290    23.7826    26.0110
  333.5000    70.7506    23.4625    26.0556
  334.0000    69.8738    23.1468    25.3276
  334.5000    68.9667    22.8279    24.3263
  335.0000    68.0411    22.8279    23.3376
  335.5000    67.2640    22.8279    22.3890
  336.0000    67.7075    22.8281    21.9814
  336.5000    68.8134    22.8253    22.2115
  337.0000    70.7054    22.9567    22.4251
  337.5000    72.6076    23.1777    22.5505
  338.0000    72.9499    23.9831    22.6767
  338.5000    72.2956    25.2454    22.8279
  339.0000    71.5813    26.5535    22.6133
  339.5000    70.0313    27.7566    25.0762
  340.0000    65.2938    29.0024    27.3107
  340.5000    60.6414    30.0220    29.7443
  341.0000    55.9493    30.0220    32.0744
  341.5000    54.2929    29.3136    31.7288
  342.0000    54.2559    27.8666    31.3962
  342.5000    53.8894    26.2974    31.0671
  343.0000    52.9867    24.8303    29.7803
  343.5000    54.0953    23.4475    27.4258
  344.0000    57.8807    22.1417    25.2574
  344.5000    61.6273    20.9086    23.2605
  345.0000    64.5686    19.8120    21.8705
  345.5000    64.8572    19.2293    20.7870
  346.0000    65.1500    18.7203    19.7572
  346.5000    67.2226    18.7478    19.5603
  347.0000    69.2476    18.7796    19.4842
  347.5000    68.6485    18.8114    19.4102
  348.0000    68.0039    18.8433    19.3359
  348.5000    67.7123    18.8753    19.2618
  349.0000    68.3150    18.8979    19.1878
  349.5000    68.9051    18.5280    19.1166
  350.0000    69.2576    18.2464    18.9432
  350.5000    68.1935    17.9690    18.6768
  351.0000    66.7287    17.6959    18.4000
  351.5000    65.6074    17.4269    18.1131
  352.0000    65.8261    17.1620    17.8308
  352.5000    69.0517    16.9012    17.5528
  353.0000    72.2319    16.7642    17.2792
  353.5000    73.8424    16.6430    17.0328
  354.0000    70.6486    16.5569    16.7217
  354.5000    67.0587    16.5569    16.4404
  355.0000    66.7572    16.5569    16.1637
  355.5000    69.6832    16.3135    15.8918
  356.0000    72.9691    16.0411    15.6418
  356.5000    73.7673    15.7930    15.6476
  357.0000    73.8158    15.7930    15.4942
  357.5000    74.3285    15.9429    15.4352
  358.0000    74.1536    16.1506    15.3862
  358.5000    73.2854    16.3619    15.3482
  359.0000    72.3867    16.5763    15.3452
  359.5000    72.1446    16.7931    16.1637
  360.0000    71.3106    17.0130    16.8344
  360.5000    67.7292    17.2367    17.5345
  361.0000    63.1425    17.3833    18.2623
  361.5000    60.4344    17.5240    18.3699
  362.0000    58.7235    17.5249    18.3699
  362.5000    61.7770    17.4064    17.0328
  363.0000    65.4418    16.9510    16.6836
  363.5000    69.1071    16.5074    16.2817
  364.0000    72.0575    16.0943    15.8895
  364.5000    73.0612    15.8486    15.5068
  365.0000    74.0871    15.6169    15.1333
  365.5000    75.1049    15.3885    14.7819
  366.0000    76.1223    15.1635    14.5948
  366.5000    77.0651    14.9418    14.4166
  367.0000    77.0148    14.7233    14.2404
  367.5000    75.8485    14.6435    14.0664
  368.0000    74.7430    14.6435    13.8366
  368.5000    73.6327    14.7612    13.8366
  369.0000    72.5367    15.2924    14.1005
  369.5000    71.6031    16.2911    14.3502
