~VERSION INFORMATION
 VERS.                2.0:   CWLS LOG ASCII STANDARD - VERSION 2.0
 WRAP.                 NO:   ONE LINE PER DEPTH STEP
~WELL INFORMATION
#MNEM.UNIT      DATA TYPE    INFORMATION
#----------   ------------   ------------------------------
 STRT.F           38.0000:   START DEPTH
 STOP.F          890.0000:   STOP DEPTH
 STEP.F            0.5000:   STEP LENGTH
 NULL.          -999.2500:   NO VALUE
 COMP. FENIX & SCISSON INC:   COMPANY
 WELL.       43 SX #14-14:   WELL
 FLD .             TEAPOT:   FIELD
 LOC .      S14 T38N R78W:   LOCATION
 CNTY.            NATRONA:   COUNTY
 STAT.            WYOMING:   STATE
 CTRY. UNITED STATES OF AMERICA:   COUNTRY
 SRVC.            Unknown:   SERVICE COMPANY
 DATE.        28-APR-1978:   LOGDATE
 API .       490251063600:   API NUMBER
~CURVE INFORMATION
#MNEM.UNIT       API CODE    CURVE DESCRIPTION
#----------   ------------   ------------------------------
 DEPT.F                  :   
 SPR .MV     05 010 01 00:   SPONTANEOUS POTENTIAL FROM RES.
 SN  .OHMM   05 040 16 00:   SHORT NORMAL 16"
 ILD .OHMM   05 120 46 00:   INDUCTION LOG DEEP
 CILD.MMHO   05 110 46 00:   CONDUCTIVITY INDUCTION LOG DEEP
 CALD.IN     45 280 60 00:   CALIPER FROM DENSITY LOG
 GRD .GAPI   45 310 01 00:   GAMMA RAY FROM DENSITY LOG
 CORR.G/C3   45 356 01 00:   DENSITY CORRECTION
 DPHI.DEC    45 890 12 00:   DENSITY POROSITY SANDSTONE
 DEN .G/C3   45 350 01 00:   COMPENSATED BULK DENSTIY
~PARAMETER INFORMATION
#MNEM.UNIT          VALUE    DESCRIPTION
#----------   ------------   ------------------------------
 PD  .                 GL:   PERMANENT DATUM
 EPD .F              5217:   ELEVATION PERMANENT DATUM
 LMF .                 KB:   LOG MEASURED FROM
 DMF .                 KB:   DRILLING MEASURED FROM
 EKB .F              5221:   KELLING BUSHING
 EGL .F              5217:   GROUND LEVEL
 DATE.        28-APR-1978:   RUN DATE
 RUN .                  1:   RUN NUMBER
 DD  .F               890:   DEPTH DRILLER
 DL  .F               890:   DEPTH LOGGER
 BLI .F               884:   BOTTOM LOG INTERVAL
 TLI .F                40:   TOP LOG INTERVAL
 CS  .IN            8.625:   CASING SIZE
 CBD .F                40:   CASING BOTTOM DRILLER
 CBL .F                40:   CASING BOTTOM LOGGER
 BS  .IN            7.875:   BIT SIZE
 BSD .F               890:   BIT SIZE AT DEPTH
 DFT .                KCL:   DRILLING FLUID TYPE
 DFD .                8.7:   DRILLING FLUID DENSITY
 DFV .                 34:   DRILLING FLUID VISCOSITY
 DFL .                4.8:   DRILLING FLUID LOSS
 MSS .            MUD PIT:   MUD SAMPLE SOURCE
 RMS .OHMM             .4:   RESISTIVITY MUD SAMPLE
 MST .F                56:   MUD SAMPLE TEMPERATURE
 RMF .OHMM            .38:   RESISTIVITY MUD FILTRATE SAMPLE
 MFST.F                64:   MUD FILTRATE SAMPLE TEMPERATURE
 RMC .OHMM              1:   RESISTIVITY MUD CAKE
 MCST.F                66:   MUD CAKE SAMPLE TEMPERATURE
 MFSS.               MEAS:   MUD FILTRATE SAMPLE SOURCE
 RMB .OHMM             .3:   RESISTIVITY MUD AT BHT
 BHT .F                74:   BOTTOM HOLE TEMPERATURE
 TCS .HRS            0100:   TIME CURCULATED STOPPED
 MRT .F                74:   MAXIMUM RECORDED TEMPERATURE
 LUN .               2958:   LOGGING UNIT NUMBER
 LUL .               CASP:   LOGGING UNIT LOCATION
 ENGI.             MILLER:   RECORDING ENGINEER
 WITN.           MCGINLEY:   WITNESSED BY
 CLNT.            A2DTECH:   CLIENT CODE
 ORIG.           5" PRINT:   ORIGIN OF DATA
 UWI .       490251063600:   UNIQUE WELL ID
 DICO. A2D Technologies, Inc.:   DIGITIZING COMPANY
~OTHER INFORMATION
~A   DEPT      SPR         SN        ILD       CILD       CALD        GRD       CORR       DPHI        DEN   
# ...
  695.0000   -27.7594    13.4257    16.5883    52.2752     7.9776    55.2646     0.0463     0.1399     2.3783
  695.5000   -27.7579    13.4349    16.4811    52.2152     8.1885    55.2777     0.0404     0.1366     2.3971
  696.0000   -27.9052    13.5353    16.3763    52.1552     8.2653    55.1377     0.0345     0.1356     2.4055
  696.5000   -28.0520    13.5428    16.3830    52.8443     8.2834    55.0042     0.0346     0.1368     2.4078
  697.0000   -28.0502    13.5503    16.2754    53.5334     8.2975    54.4177     0.0362     0.1383     2.4041
  697.5000   -28.0487    13.5578    16.0591    54.2225     8.2988    54.2804     0.0378     0.1395     2.3988
  698.0000   -28.0472    13.4702    15.8455    54.9265     8.3151    54.2941     0.0379     0.1391     2.3952
  698.5000   -28.0457    13.3869    15.3162    55.6156     8.3011    54.4672     0.0350     0.1349     2.3945
  699.0000   -28.0443    13.3004    14.8030    57.0388     8.3028    55.5602     0.0335     0.1235     2.3984
  699.5000   -27.8944    13.2163    14.5057    57.7279     8.2891    56.5857     0.0321     0.1162     2.4105
  700.0000   -27.8793    13.2236    14.1973    57.8085     8.2754    61.1692     0.0292     0.1087     2.4353
  700.5000   -27.7116    13.1552    14.1032    59.3151     8.2920    62.1935     0.0324     0.1177     2.4520
  701.0000   -27.5846    13.0966    14.0091    60.8217     8.2468    63.4183     0.0340     0.1222     2.4490
  701.5000   -27.7270    13.0641    13.8522    61.9476     8.1460    65.1854     0.0401     0.1221     2.4333
  702.0000   -28.0198    12.8941    13.4856    63.3708     8.0877    66.0982     0.0402     0.1203     2.4333
  702.5000   -28.4594    12.5503    13.4940    64.7928     8.0590    65.8116     0.0403     0.1182     2.4334
  703.0000   -28.7478    12.1318    13.4075    66.2157     8.0610    65.0752     0.0388     0.1170     2.4357
  703.5000   -28.4416    12.0534    13.4179    66.1406     8.0626    64.3388     0.0375     0.1166     2.4395
  704.0000   -27.9902    12.0618    13.3319    66.0654     8.0643    64.0489     0.0331     0.1175     2.4403
  704.5000   -27.5430    12.0684    13.4346    65.9903     8.0659    63.9122     0.0317     0.1271     2.4359
  705.0000   -27.5371    12.1586    13.5360    65.9151     8.0675    64.0786     0.0303     0.1313     2.4254
  705.5000   -27.5312    12.1653    13.5445    65.8399     8.0691    64.0919     0.0304     0.1367     2.4112
  706.0000   -27.5193    12.0868    13.5529    65.7648     8.0707    64.1051     0.0320     0.1391     2.3992
  706.5000   -27.3709    12.0951    13.5613    65.6896     8.0573    64.1184     0.0321     0.1378     2.3963
  707.0000   -27.5134    12.1018    13.5698    65.6145     8.0590    64.1319     0.0337     0.1363     2.3964
  707.5000   -27.5074    12.1085    13.5782    65.5393     8.0606    64.1481     0.0338     0.1357     2.4011
  708.0000   -27.5015    12.1151    13.5866    65.4642     8.0772    64.1613     0.0339     0.1363     2.4017
  708.5000   -27.4956    12.1218    13.5951    65.3890     8.0789    64.4744     0.0340     0.1365     2.4010
  709.0000   -27.6381    12.0435    13.6036    65.3138     8.0958    64.9374     0.0341     0.1371     2.4018
  709.5000   -27.6320    12.1352    13.5163    65.2387     8.1274    66.0001     0.0342     0.1365     2.4042
  710.0000   -27.6261    12.1419    13.5252    65.1635     8.1290    66.9129     0.0358     0.1332     2.4035
  710.5000   -27.6202    12.1486    13.4401    65.8562     8.1153    66.9261     0.0344     0.1328     2.3990
  711.0000   -27.6142    12.1553    13.4489    65.7623     8.1173    66.6362     0.0345     0.1334     2.4066
  711.5000   -27.5970    12.2462    13.3643    66.4550     8.1189    66.6527     0.0346     0.1283     2.4134
  712.0000   -27.4540    12.2529    13.3730    67.1289     8.1356    66.6659     0.0348     0.1304     2.4187
  712.5000   -27.4481    12.1738    13.3813    67.0349     8.1371    66.6792     0.0349     0.1316     2.4198
  713.0000   -27.4421    12.2665    13.2972    67.7276     8.1387    66.6927     0.0365     0.1267     2.4159
  713.5000   -27.4362    12.2732    13.3979    67.6337     8.1250    66.7061     0.0366     0.1255     2.4174
  714.0000   -27.4441    12.2800    13.4062    66.8032     8.1270    66.7222     0.0382     0.1215     2.4250
  714.5000   -27.5871    12.2868    13.4146    66.7343     8.1286    66.2856     0.0383     0.1130     2.4235
  715.0000   -27.7153    12.3786    13.4229    66.6591     8.1153    65.9957     0.0384     0.1113     2.4251
  715.5000   -27.8577    12.4711    13.4312    65.8349     8.1019    64.8128     0.0385     0.1104     2.4432
  716.0000   -28.0002    12.6513    13.4396    65.7598     8.1036    61.5277     0.0386     0.0914     2.4448
  716.5000   -28.1426    12.8340    13.5517    64.9356     8.1056    58.9922     0.0402     0.0818     2.4667
  717.0000   -28.3017    13.2001    13.8430    64.1113     8.0918    57.2030     0.0373     0.0685     2.4923
  717.5000   -28.5758    13.4834    14.4364    63.2871     8.0785    57.0663     0.0344     0.0427     2.4953
  718.0000   -28.5697    14.5537    15.2742    59.4666     8.0501    57.2328     0.0345     0.0280     2.5450
  718.5000   -28.5638    15.6010    16.2515    54.8971     8.0522    57.0961     0.0346     0.0219     2.5917
  719.0000   -28.5579    16.4947    17.1932    49.5785     8.0238    54.0751     0.0362     0.0240     2.6030
  719.5000   -28.5519    17.3198    18.3137    45.7580     7.9951    52.4749     0.0378     0.0342     2.6054
  720.0000   -28.5460    18.4386    19.0702    42.6866     7.9822    53.9907     0.0379     0.0522     2.5964
  720.5000   -28.5401    19.2279    19.2142    41.8624     7.9389    56.7025     0.0381     0.0678     2.5791
  721.0000   -28.5341    18.9751    19.3592    41.7872     7.8207    61.3634     0.0397     0.0825     2.5514
  721.5000   -28.5282    18.2163    18.9624    42.4799     7.6876    63.9254     0.0413     0.0946     2.5092
  722.0000   -28.5223    17.0122    17.3386    46.1313     7.5845    64.2385     0.0384     0.1081     2.4651
  722.5000   -28.6649    15.9975    15.8674    49.8015     7.5112    64.5515     0.0354     0.1263     2.4320
  723.0000   -28.6588    14.6343    14.8236    54.2207     7.4670    64.7147     0.0340     0.1256     2.4336
  723.5000   -28.5042    13.2952    14.0376    59.3890     7.4377    64.8779     0.0342     0.1268     2.4344
  724.0000   -28.4985    12.5887    13.3634    66.0554     7.4263    64.7406     0.0298     0.1304     2.4232
  724.5000   -28.4918    12.0853    12.7683    70.4746     7.4283    64.4545     0.0284     0.1364     2.4082
  725.0000   -28.4866    11.6020    12.3400    71.9164     7.4599    64.0180     0.0315     0.1402     2.4023
  725.5000   -28.4805    11.4039    12.0928    73.3393     7.4764    63.8813     0.0347     0.1408     2.3993
  726.0000   -28.4748    11.2908    12.1023    74.0132     7.5230    63.8951     0.0392     0.1390     2.4009
  726.5000   -28.4688    11.1777    12.0246    74.6872     7.5845    64.0610     0.0378     0.1357     2.4092
  727.0000   -28.3145    11.0037    12.0340    74.5932     7.6460    64.8238     0.0364     0.1350     2.4100
  727.5000   -28.3086    10.7844    12.0415    74.5181     7.7075    65.1336     0.0350     0.1374     2.4040
  728.0000   -28.3027    10.6426    12.0490    73.6938     7.7690    63.8008     0.0411     0.1377     2.3988
  728.5000   -28.3249    10.6485    12.0565    73.6187     7.8005    63.3610     0.0517     0.1377     2.3967
  729.0000   -28.4395    10.5797    12.0640    73.5435     7.8321    63.3775     0.0518     0.1367     2.3967
  729.5000   -28.5819    10.6603    12.0715    73.4684     7.8636    63.3907     0.0549     0.1352     2.3983
  730.0000   -28.8712    10.7399    11.9941    73.4082     7.9251    63.5539     0.0610     0.1317     2.4179
  730.5000   -29.0151    10.8202    12.0034    73.3333     7.9877    63.4168     0.0596     0.1268     2.4368
  731.0000   -29.1561    10.8262    11.9264    74.0075     8.0332    62.9805     0.0552     0.1207     2.4376
