~VERSION INFORMATION
 VERS.                2.0:   CWLS LOG ASCII STANDARD - VERSION 2.0
 WRAP.                 NO:   ONE LINE PER DEPTH STEP
~WELL INFORMATION
#MNEM.UNIT      DATA TYPE    INFORMATION
#----------   ------------   ------------------------------
 STRT.F           14.0000:   START DEPTH
 STOP.F          692.5000:   STOP DEPTH
 STEP.F            0.5000:   STEP LENGTH
 NULL.          -999.2500:   NO VALUE
 COMP. FENIX & SCISSON INC:   COMPANY
 WELL. NPR #3 #27-51 SX 11 WP:   WELL
 FLD .        TEAPOT DOME:   FIELD
 LOC .      S11 T38N R78W:   LOCATION
 CNTY.            NATRONA:   COUNTY
 STAT.            WYOMING:   STATE
 CTRY. UNITED STATES OF AMERICA:   COUNTRY
 SRVC.      Dresser Atlas:   SERVICE COMPANY
 DATE.        16-AUG-1980:   LOGDATE
 API .       490251083900:   API NUMBER
~CURVE INFORMATION
#MNEM.UNIT       API CODE    CURVE DESCRIPTION
#----------   ------------   ------------------------------
 DEPT.F                  :   
 RHOB.G/C3   45 350 01 00:   BULK DENSITY
 CORR.G/C3   45 356 01 00:   DENSITY CORRECTION
 GRD .GAPI   45 310 01 00:   GAMMA RAY FROM DENSITY LOG
 CALD.IN     45 280 60 00:   CALIPER
 NPOR.DEC    42 890 03 00:   NEUTRON POROSITY SANDSTONE
 DPOR.DEC    45 890 12 00:   DENSITY POROSITY SANDSTONE
 SPR .MV     07 010 01 00:   SPONTANEOUS POTENTIAL
 SFL .OHMM   07 220 01 00:   SHALLOW FOCUSED LOG RESISTIVITY
 ILM .OHMM   07 120 44 00:   INDUCTION LOG MEDIUM
 ILD .OHMM   07 120 46 00:   INDUCTION LOG DEEP
~PARAMETER INFORMATION
#MNEM.UNIT          VALUE    DESCRIPTION
#----------   ------------   ------------------------------
 PD  .                 GL:   PERMANENT DATUM
 EPD .F              5194:   ELEVATION PERMANENT DATUM
 LMF .                 KB:   LOG MEASURED FROM
 DAPD.F                 5:   FEET ABOVE PERMANENT DATUM
 DMF .                 KB:   DRILLING MEASURED FROM
 EKB .F              5199:   KELLING BUSHING
 EGL .F              5194:   GROUND LEVEL
 DATE.            8-16-80:   RUN DATE
 RUN .                  1:   RUN NUMBER
 DD  .F               685:   DEPTH DRILLER
 DL  .F               693:   DEPTH LOGGER
 BLI .F               692:   BOTTOM LOG INTERVAL
 TLI .F                25:   TOP LOG INTERVAL
 BS  .IN            7.875:   BIT SIZE
 BSD .F               685:   BIT SIZE AT DEPTH
 DFT .                KCL:   DRILLING FLUID TYPE
 DFD .                9.4:   DRILLING FLUID DENSITY
 DFV .                 45:   DRILLING FLUID VISCOSITY
 DFPH.                 11:   DRILLING FLUID PH
 DFL .                7.2:   DRILLING FLUID LOSS
 MSS .           FLOWLINE:   MUD SAMPLE SOURCE
 RMS .OHMM            .74:   RESISTIVITY MUD SAMPLE
 MST .F                60:   MUD SAMPLE TEMPERATURE
 RMF .OHMM            .44:   RESISTIVITY MUD FILTRATE SAMPLE
 MFST.F                60:   MUD FILTRATE SAMPLE TEMPERATURE
 RMC .OHMM           1.35:   RESISTIVITY MUD CAKE
 MCST.F                60:   MUD CAKE SAMPLE TEMPERATURE
 MFSS.               MEAS:   MUD FILTRATE SAMPLE SOURCE
 MCSS.               MEAS:   MUD CAKE SAMPLE SOURCE
 TCS .HRS               1:   TIME CURCULATED STOPPED
 LUN .               6180:   LOGGING UNIT NUMBER
 LUL .               CODY:   LOGGING UNIT LOCATION
 ENGI.              HOYER:   RECORDING ENGINEER
 WITN.           MCINTYRE:   WITNESSED BY
 CLNT.            A2DTECH:   CLIENT CODE
 ORIG.      2" 2.5" PRINT:   ORIGIN OF DATA
 UWI .       490251083900:   UNIQUE WELL ID
 DICO. A2D Technologies, Inc.:   DIGITIZING COMPANY
~OTHER INFORMATION
~A   DEPT     RHOB       CORR        GRD       CALD       NPOR       DPOR        SPR        SFL         ILM       ILD   
# ...
  650.5000     2.4971     0.0285   113.9578     7.8993     0.2488     0.1056   -60.0099    10.2593     9.6152    10.0222
  651.0000     2.5011     0.0321   115.9145     7.8969     0.2538     0.1048   -59.9774    10.0959     9.4728     9.9013
  651.5000     2.5017     0.0357   116.5361     7.8945     0.2586     0.1053   -59.9755     9.9527     9.3327     9.7715
  652.0000     2.4979     0.0397   116.0618     7.8921     0.2594     0.1064   -59.6356     9.9527     9.1944     9.7715
  652.5000     2.4933     0.0435   115.6890     7.8897     0.2594     0.1042   -59.2583     9.8608     9.0565     9.7715
  653.0000     2.5022     0.0473   115.8352     7.8874     0.2568     0.0993   -58.8802     9.8627     8.9159     9.7544
  653.5000     2.5168     0.0511   116.0440     7.8850     0.2544     0.0968   -58.5041     9.7502     8.9975     9.6171
  654.0000     2.5116     0.0523   115.8642     7.8826     0.2519     0.1023   -58.1746     9.6303     8.9151     9.4816
  654.5000     2.5045     0.0522   115.2126     7.8802     0.2494     0.1073   -58.1814     9.5044     8.6982     9.3481
  655.0000     2.4953     0.0522   114.5801     7.8778     0.2468     0.1124   -58.1756     9.5912     8.5598     9.2164
  655.5000     2.4877     0.0522   113.9896     7.8751     0.2459     0.1161   -58.5389     9.7563     8.4237     9.0794
  656.0000     2.4799     0.0522   115.1145     7.8703     0.2520     0.1144   -58.9995     9.8617     8.2815     9.0794
  656.5000     2.4877     0.0521   117.7908     7.8643     0.2574     0.1167   -59.3432     9.3969     8.2834     9.0794
  657.0000     2.4832     0.0523   120.1455     7.8584     0.2628     0.1192   -59.0359     9.2477     8.2827     9.0794
  657.5000     2.4806     0.0525   122.4342     7.8526     0.2682     0.1144   -58.7378     9.5410     8.2828     9.0794
  658.0000     2.4946     0.0624   123.4715     7.8467     0.2715     0.1059   -58.4372     9.7635     8.2827     9.0795
  658.5000     2.5095     0.0748   122.7193     7.8408     0.2627     0.0974   -58.3835     9.9911     8.2830     9.0798
  659.0000     2.5255     0.0870   120.8112     7.8349     0.2538     0.0889   -58.3795    10.1371     8.2686     9.0802
  659.5000     2.5419     0.0994   118.8405     7.8290     0.2449     0.0837   -58.1967    10.0963     8.1862     9.0803
  660.0000     2.5418     0.0995   118.0152     7.8230     0.2364     0.0857   -57.7331     9.8662     8.1046     8.9120
  660.5000     2.5239     0.0878   116.4590     7.8172     0.2416     0.0950   -57.2737     9.7726     8.0239     8.7718
  661.0000     2.5071     0.0767   114.8437     7.8115     0.2466     0.1072   -56.8130     9.7727     7.9437     8.6339
  661.5000     2.4897     0.0655   115.6196     7.8050     0.2482     0.1184   -56.3518     9.6403     7.8243     8.4982
  662.0000     2.4727     0.0561   117.4353     7.7998     0.2482     0.1269   -55.9709     9.4207     7.6784     8.3646
  662.5000     2.4553     0.0592   119.1810     7.7963     0.2543     0.1353   -55.6324     9.3316     7.5356     8.2331
  663.0000     2.4486     0.0656   119.7237     7.8246     0.2634     0.1293   -55.7306     9.3323     7.3954     8.1401
  663.5000     2.4667     0.0763   118.5848     7.8506     0.2659     0.1162   -55.8973     9.3337     7.2578     8.0578
  664.0000     2.4828     0.0719   117.3938     7.8782     0.2611     0.1166   -55.9099     9.2028     7.1511     7.9607
  664.5000     2.4778     0.0536   117.0627     7.9053     0.2560     0.1190   -55.6283     8.9964     7.1511     7.8655
  665.0000     2.4690     0.0491   119.1119     7.9323     0.2508     0.1210   -54.9342     8.9964     7.0860     7.7716
  665.5000     2.4801     0.0511   120.7811     7.9592     0.2467     0.1148   -54.2643     8.9964     6.9330     7.6798
  666.0000     2.4982     0.0515   119.4915     7.9869     0.2508     0.1082   -54.3213     8.9964     6.7832     7.5305
  666.5000     2.4911     0.0355   117.1166     7.9968     0.2579     0.1134   -54.4705     8.9965     6.6367     7.3133
  667.0000     2.4837     0.0171   116.5637     7.9960     0.2650     0.1104   -54.6209     8.9957     6.4934     7.0893
  667.5000     2.4944     0.0084   120.1103     7.9960     0.2704     0.1117   -54.7693     8.9977     6.3531     6.8327
  668.0000     2.4873     0.0031   115.6156     7.9961     0.2740     0.1147   -54.9188     9.1632     6.2159     6.5853
  668.5000     2.4806     0.0070   117.5276     7.9960     0.2710     0.1176   -54.9876     8.4261     6.0616     6.4049
  669.0000     2.4758     0.0126   116.3054     7.9960     0.2659     0.1165   -55.0012     7.6297     6.1175     6.5089
  669.5000     2.4846     0.0180   113.4786     7.9960     0.2681     0.1121   -54.6162     7.0857     6.1175     6.6968
  670.0000     2.4994     0.0235   110.5388     7.9960     0.2707     0.1072   -54.1246     7.9968     6.2761     6.9058
  670.5000     2.5134     0.0289   111.9411     7.9960     0.2647     0.0989   -53.6185     8.7520     6.4313     7.1503
  671.0000     2.5273     0.0345   114.1351     7.9960     0.2578     0.0894   -53.3961     8.9084     6.5932     7.4385
  671.5000     2.5363     0.0359   116.5588     7.9960     0.2510     0.0848   -53.4028     9.0794     6.8925     7.7381
  672.0000     2.5339     0.0342   118.8329     7.9960     0.2436     0.0880   -52.9304     9.0794     7.2803     8.0519
  672.5000     2.5409     0.0325   120.9191     7.9960     0.2428     0.0852   -52.2296     9.3225     7.6900     8.3728
  673.0000     2.5466     0.0312   121.3471     7.9960     0.2431     0.0832   -51.5179     9.6933     7.9818     8.7121
  673.5000     2.5356     0.0293   120.8044     7.9960     0.2434     0.0851   -50.8124    10.0445     8.1303     8.9120
  674.0000     2.5366     0.0274   120.5378     7.9960     0.2436     0.0885   -50.4013    10.0460     8.2816     9.0965
  674.5000     2.5166     0.0178   120.6255     7.9960     0.2410     0.0942   -50.0017    10.0428     8.4357     9.2848
  675.0000     2.5119     0.0089   122.1570     7.9960     0.2364     0.0995   -49.6320    10.2041     8.5927     9.4191
  675.5000     2.5096     0.0031   121.6535     7.9960     0.2318     0.1044   -49.2626    10.3274     8.6720     9.4191
  676.0000     2.5005     0.0079   120.8241     7.9960     0.2274     0.1072   -48.8929    10.2049     8.6567     9.4191
  676.5000     2.5069     0.0152  -999.2500     7.9960     0.2279     0.1020   -48.5429    10.0976     8.6069     9.4191
  677.0000     2.5202     0.0200  -999.2500     7.9960     0.2300     0.0970   -48.0479    10.0315     8.5927     9.4191
  677.5000     2.5184     0.0183  -999.2500     7.9960     0.2293     0.0963   -47.1918     9.9939     8.5135     9.4192
  678.0000     2.5127     0.0166  -999.2500     7.9960     0.2273     0.1008   -46.3376     9.9527     8.5149     9.4192
  678.5000     2.5065     0.0146  -999.2500     7.9960     0.2298     0.1056   -46.2068     9.8999     8.4338     9.4192
  679.0000     2.5042     0.0127  -999.2500     7.9960     0.2344     0.1056   -46.1998     9.7401     8.3735     9.4127
  679.5000     2.5036     0.0108  -999.2500     7.9960     0.2395     0.1064   -45.8636     9.5818     8.3137     9.3627
  680.0000     2.4982     0.0088  -999.2500     7.9960     0.2395     0.1088   -45.0905     9.4170     8.2543     9.3130
  680.5000     2.4887     0.0078  -999.2500     7.9960     0.2387     0.1156   -44.3229     9.5243     8.1953     9.2635
  681.0000     2.4797     0.0106  -999.2500     7.9960     0.2387     0.1184   -43.6218     9.7214     8.1368     9.2144
  681.5000     2.4891     0.0160  -999.2500     7.9960     0.2456     0.1092  -999.2500     9.7715     8.0786     9.1632
  682.0000     2.5083     0.0160  -999.2500     7.9960     0.2507     0.1024  -999.2500     9.3920     8.0215     8.9517
  682.5000     2.5064     0.0161  -999.2500     7.9960     0.2420     0.1059  -999.2500     9.1632     7.9841     8.7349
  683.0000     2.5022     0.0158  -999.2500     7.9960     0.2283     0.1090  -999.2500     9.1632     7.6949     8.5233
  683.5000     2.4969     0.0185  -999.2500     7.9960     0.2315     0.1081  -999.2500     9.2509     7.4064     8.3169
