~VERSION INFORMATION
 VERS.                2.0:   CWLS LOG ASCII STANDARD - VERSION 2.0
 WRAP.                 NO:   ONE LINE PER DEPTH STEP
~WELL INFORMATION
#MNEM.UNIT      DATA TYPE    INFORMATION
#----------   ------------   ------------------------------
 STRT.F         1000.5000:   START DEPTH
 STOP.F         2590.0000:   STOP DEPTH
 STEP.F            0.5000:   STEP LENGTH
 NULL.          -999.2500:   NO VALUE
 COMP. LAWRENCE/ALLISON INC:   COMPANY
 WELL.    LAWENCE #14x-10:   WELL
 FLD .               NONE:   FIELD
 LOC .      S10 T38N R78W:   LOCATION
 CNTY.            NATRONA:   COUNTY
 STAT.            WYOMING:   STATE
 CTRY. UNITED STATES OF AMERICA:   COUNTRY
 SRVC.            Unknown:   SERVICE COMPANY
 DATE.        13-SEP-1988:   LOGDATE
 API .       490251137000:   API NUMBER
~CURVE INFORMATION
#MNEM.UNIT       API CODE    CURVE DESCRIPTION
#----------   ------------   ------------------------------
 DEPT.F                  :   
 ROP .MIN/FT 91 810 01 00:   RATE OF DRILLING PENETRATION
 TGAS.UNITS  91 830 01 00:   TOTAL GAS FROM HOTWIRE
~PARAMETER INFORMATION
#MNEM.UNIT          VALUE    DESCRIPTION
#----------   ------------   ------------------------------
 EKB .F              5278:   KELLING BUSHING
 EGL .F              5268:   GROUND LEVEL
 DATE.         09-13-1988:   RUN DATE
 RUN .                  1:   RUN NUMBER
 DD  .F              2590:   DEPTH DRILLER
 BLI .F              2590:   BOTTOM LOG INTERVAL
 TLI .F              1000:   TOP LOG INTERVAL
 CS  .IN                7:   CASING SIZE
 CBD .F               991:   CASING BOTTOM DRILLER
 BSD .F              2590:   BIT SIZE AT DEPTH
 ENGI. R. HUSK D. PETERSON:   RECORDING ENGINEER
 CLNT.            A2DTECH:   CLIENT CODE
 ORIG.           5" PRINT:   ORIGIN OF DATA
 UWI .       490251137000:   UNIQUE WELL ID
 DICO. A2D Technologies, Inc.:   DIGITIZING COMPANY
~OTHER INFORMATION
~A  DEPT       ROP         TGAS 
# ...
 1243.5000     0.4262     0.8394
 1244.0000     0.4299     0.7785
 1244.5000     0.4335     0.7176
 1245.0000     0.4371     0.6567
 1245.5000     0.4408     0.5959
 1246.0000     0.4444     0.5350
 1246.5000     0.4481     0.4741
 1247.0000     0.4517     0.4132
 1247.5000     0.4554     0.3523
 1248.0000     0.4577     0.2914
 1248.5000     0.4615     0.2435
 1249.0000     0.4984     0.2329
 1249.5000     0.5419     0.2224
 1250.0000     0.5367     0.2118
 1250.5000     0.5256     0.2012
 1251.0000     0.5145     0.1906
 1251.5000     0.5096     0.1800
 1252.0000     0.5095     0.1694
 1252.5000     0.5025     0.1588
 1253.0000     0.4842     0.1482
 1253.5000     0.4622     0.1376
 1254.0000     0.4322     0.1271
 1254.5000     0.4160     0.1165
 1255.0000     0.4030     0.1059
 1255.5000     0.4040     0.0953
 1256.0000     0.4051     0.0847
 1256.5000     0.4063     0.0741
 1257.0000     0.4074     0.0635
 1257.5000     0.4086     0.0529
 1258.0000     0.4097     0.0424
 1258.5000     0.4109     0.0318
 1259.0000     0.4121     0.0212
 1259.5000     0.4132     0.0106
 1260.0000     0.4144     0.0000
 1260.5000     0.4155     0.0000
 1261.0000     0.4167     0.0000
 1261.5000     0.4178     0.0000
 1262.0000     0.4190     0.0000
 1262.5000     0.4201     0.0000
 1263.0000     0.4213     0.0000
 1263.5000     0.4348     0.0000
 1264.0000     0.4581     0.0000
 1264.5000     0.4690     0.0000
 1265.0000     0.4798     0.0000
 1265.5000     0.4848     0.0000
 1266.0000     0.4846     0.0000
 1266.5000     0.4910     0.0000
 1267.0000     0.4950     0.0000
 1267.5000     0.5021     0.0000
 1268.0000     0.5280     0.0000
 1268.5000     0.5368     0.0000
 1269.0000     0.5367     0.0000
 1269.5000     0.5260     0.0000
 1270.0000     0.5153     0.0000
 1270.5000     0.5046     0.0000
 1271.0000     0.5045     0.0000
 1271.5000     0.4938     0.0000
 1272.0000     0.4831     0.0000
 1272.5000     0.4618     0.0000
 1273.0000     0.4617     0.0000
 1273.5000     0.4626     0.0000
 1274.0000     0.4733     0.0000
 1274.5000     0.4841     0.0000
 1275.0000     0.4929     0.0000
 1275.5000     0.4952     0.0000
 1276.0000     0.5042     0.0000
 1276.5000     0.5081     0.0000
 1277.0000     0.5120     0.0000
 1277.5000     0.5159     0.0000
 1278.0000     0.5198     0.0000
 1278.5000     0.5236     0.0000
 1279.0000     0.5275     0.0000
 1279.5000     0.5314     0.0000
 1280.0000     0.5306     0.0000
 1280.5000     0.5214     0.0000
 1281.0000     0.5122     0.0000
 1281.5000     0.5030     0.0000
 1282.0000     0.4936     0.0000
 1282.5000     0.4929     0.0000
 1283.0000     0.5027     0.0000
 1283.5000     0.5018     0.0000
 1284.0000     0.5010     0.0000
 1284.5000     0.5003     0.0000
 1285.0000     0.4994     0.0000
 1285.5000     0.4986     0.0000
 1286.0000     0.4979     0.0000
 1286.5000     0.4971     0.0000
 1287.0000     0.4963     0.0000
 1287.5000     0.4955     0.0000
 1288.0000     0.4905     0.0000
 1288.5000     0.4742     0.0000
 1289.0000     0.4515     0.0000
 1289.5000     0.4341     0.0000
 1290.0000     0.4110     0.0000
 1290.5000     0.3895     0.0000
 1291.0000     0.3843     0.0000
 1291.5000     0.3903     0.0000
 1292.0000     0.3933     0.0000
 1292.5000     0.4077     0.0000
 1293.0000     0.4287     0.0000
 1293.5000     0.4414     0.0000
 1294.0000     0.4534     0.0000
 1294.5000     0.4737     0.0000
 1295.0000     0.4730     0.0000
 1295.5000     0.4828     0.0000
 1296.0000     0.4820     0.0000
 1296.5000     0.4812     0.0000
 1297.0000     0.4801     0.0000
 1297.5000     0.4683     0.0000
 1298.0000     0.4554     0.0000
 1298.5000     0.4358     0.0000
 1299.0000     0.4331     0.0000
 1299.5000     0.4214     0.0000
 1300.0000     0.4096     0.0000
 1300.5000     0.4009     0.0000
 1301.0000     0.4001     0.0000
 1301.5000     0.3993     0.0000
 1302.0000     0.3985     0.0000
 1302.5000     0.3932     0.0000
 1303.0000     0.3864     0.0000
 1303.5000     0.3803     0.0000
 1304.0000     0.3742     0.0000
 1304.5000     0.3734     0.0000
 1305.0000     0.3726     0.0000
 1305.5000     0.3719     0.0000
 1306.0000     0.3639     0.0000
 1306.5000     0.3522     0.0000
 1307.0000     0.3404     0.0000
 1307.5000     0.3370     0.0000
 1308.0000     0.3360     0.0000
 1308.5000     0.3352     0.0000
 1309.0000     0.3345     0.0000
 1309.5000     0.3337     0.0000
 1310.0000     0.3435     0.0000
 1310.5000     0.3639     0.0000
 1311.0000     0.3852     0.0000
 1311.5000     0.4179     0.0000
 1312.0000     0.4598     0.0000
 1312.5000     0.4890     0.0000
 1313.0000     0.5010     0.0000
 1313.5000     0.5179     0.0000
 1314.0000     0.4932     0.0000
 1314.5000     0.4844     0.0000
 1315.0000     0.4803     0.0000
 1315.5000     0.4649     0.0000
 1316.0000     0.4463     0.0000
 1316.5000     0.4390     0.0000
 1317.0000     0.4334     0.0000
 1317.5000     0.4216     0.0000
 1318.0000     0.4108     0.0000
 1318.5000     0.4010     0.0000
 1319.0000     0.3912     0.0000
 1319.5000     0.3797     0.0000
 1320.0000     0.3490     0.0000
 1320.5000     0.3289     0.0000
 1321.0000     0.3088     0.0000
 1321.5000     0.3204     0.0000
 1322.0000     0.3426     0.0000
 1322.5000     0.3542     0.0000
 1323.0000     0.3870     0.0000
 1323.5000     0.3986     0.0000
 1324.0000     0.3891     0.0000
 1324.5000     0.3901     0.0000
 1325.0000     0.3911     0.0000
 1325.5000     0.3922     0.0000
 1326.0000     0.3825     0.0000
 1326.5000     0.3624     0.0000
 1327.0000     0.3530     0.0000
 1327.5000     0.3542     0.0000
 1328.0000     0.3552     0.0000
 1328.5000     0.3563     0.0000
 1329.0000     0.3573     0.0000
 1329.5000     0.3583     0.0000
 1330.0000     0.3594     0.0000
 1330.5000     0.3619     0.0000
 1331.0000     0.3770     0.0000
 1331.5000     0.4047     0.0000
 1332.0000     0.3645     0.0000
 1332.5000     0.3140     0.0000
 1333.0000     0.2655     0.0000
 1333.5000     0.2034     0.0000
 1334.0000     0.1933     0.0000
 1334.5000     0.2212     0.0000
 1335.0000     0.2623     0.0000
 1335.5000     0.2895     0.0000
 1336.0000     0.2950     0.0000
 1336.5000     0.2786     0.0000
 1337.0000     0.2475     0.0000
 1337.5000     0.2200     0.0000
 1338.0000     0.2072     0.0000
 1338.5000     0.2083     0.0000
 1339.0000     0.2052     0.0000
 1339.5000     0.1998     0.0000
 1340.0000     0.1983     0.0000
 1340.5000     0.1931     0.0000
 1341.0000     0.1879     0.0000
 1341.5000     0.1828     0.0000
 1342.0000     0.1776     0.0000
 1342.5000     0.1951     0.0000
 1343.0000     0.2377     0.0000
 1343.5000     0.2743     0.0000
 1344.0000     0.2875     0.0000
 1344.5000     0.2735     0.0000
 1345.0000     0.2506     0.0000
 1345.5000     0.2278     0.0000
 1346.0000     0.2124     0.0000
 1346.5000     0.2004     0.0000
 1347.0000     0.1966     0.0000
 1347.5000     0.1848     0.0000
 1348.0000     0.1732     0.0000
 1348.5000     0.1616     0.0000
 1349.0000     0.1711     0.0000
 1349.5000     0.1913     0.0000
 1350.0000     0.2008     0.0000
 1350.5000     0.2315     0.0000
 1351.0000     0.2736     0.0000
 1351.5000     0.3140     0.0000
 1352.0000     0.2997     0.0000
 1352.5000     0.2647     0.0000
 1353.0000     0.2262     0.0000
 1353.5000     0.2253     0.0000
 1354.0000     0.2413     0.0000
 1354.5000     0.2755     0.0000
 1355.0000     0.3209     0.0000
 1355.5000     0.3711     0.0000
 1356.0000     0.4207     0.0000
 1356.5000     0.4658     0.0000
 1357.0000     0.4715     0.0000
 1357.5000     0.4658     0.0000
 1358.0000     0.4442     0.0000
 1358.5000     0.4053     0.0000
 1359.0000     0.3662     0.0000
 1359.5000     0.3266     0.0000
 1360.0000     0.3003     0.0000
 1360.5000     0.2882     0.0953
 1361.0000     0.2761     0.1906
 1361.5000     0.2640     0.2859
 1362.0000     0.2516     0.3812
 1362.5000     0.2176     0.4765
 1363.0000     0.1737     0.5718
 1363.5000     0.1374     0.6671
 1364.0000     0.1632     0.7624
 1364.5000     0.1878     0.8576
