~VERSION INFORMATION
 VERS.                2.0:   CWLS LOG ASCII STANDARD - VERSION 2.0
 WRAP.                 NO:   ONE LINE PER DEPTH STEP
~WELL INFORMATION
#MNEM.UNIT      DATA TYPE    INFORMATION
#----------   ------------   ------------------------------
 STRT.F            0.0000:   START DEPTH
 STOP.F          717.5000:   STOP DEPTH
 STEP.F            0.5000:   STEP LENGTH
 NULL.          -999.2500:   NO VALUE
 COMP. LAWRENCE/ALLISON INC:   COMPANY
 WELL. NPR 3 #27-64-SX-11-WP:   WELL
 FLD .             TEAPOT:   FIELD
 LOC .      S11 T38N R78W:   LOCATION
 CNTY.            NATRONA:   COUNTY
 STAT.            WYOMING:   STATE
 CTRY. UNITED STATES OF AMERICA:   COUNTRY
 SRVC.      Dresser Atlas:   SERVICE COMPANY
 DATE.        15-SEP-1984:   LOGDATE
 API .       490251097500:   API NUMBER
~CURVE INFORMATION
#MNEM.UNIT       API CODE    CURVE DESCRIPTION
#----------   ------------   ------------------------------
 DEPT.F                  :   
 CALD.IN     45 280 60 00:   CALIPER FROM DENSITY LOG
 CNC .DEC    42 890 03 00:   COMPENSATED NEUTRON POROSITY SANDSTONE
 CORR.G/C3   45 356 01 00:   DENSITY CORRECTION
 DEN .G/C3   45 350 01 00:   BULK DENSTIY
 PORD.DEC    45 890 12 00:   POROSITY DENSITY SANDSTONE
 GRR .GAPI   07 310 01 00:   GAMMA RAY FROM RESISTIVITY
 RFOC.OHMM   07 220 01 00:   RESISTIVITY FOCUSED LOG
 RILD.OHMM   07 120 46 00:   RESISTIVITY INDUCTION LOG DEEP
 RILM.OHMM   07 120 44 00:   RESITIVITY INDUCTION LOG MEDIUM
 SPR .MV     07 010 01 00:   SPONTANEOUS POTENTIAL FROM RES.
~PARAMETER INFORMATION
#MNEM.UNIT          VALUE    DESCRIPTION
#----------   ------------   ------------------------------
 PD  .                 GL:   PERMANENT DATUM
 EPD .F              5198:   ELEVATION PERMANENT DATUM
 LMF .                 GL:   LOG MEASURED FROM
 DMF .                 GL:   DRILLING MEASURED FROM
 EGL .F              5198:   GROUND LEVEL
 DATE.        15-SEP-1984:   RUN DATE
 RUN .                  1:   RUN NUMBER
 DD  .F               736:   DEPTH DRILLER
 DL  .F               722:   DEPTH LOGGER
 BLI .F               704:   BOTTOM LOG INTERVAL
 TLI .F                42:   TOP LOG INTERVAL
 CS  .IN            8.625:   CASING SIZE
 CBD .F                42:   CASING BOTTOM DRILLER
 CBL .F                42:   CASING BOTTOM LOGGER
 BS  .IN            7.875:   BIT SIZE
 BSD .F               736:   BIT SIZE AT DEPTH
 DFT .          KCL WATER:   DRILLING FLUID TYPE
 MSS .           FLOWLINE:   MUD SAMPLE SOURCE
 RMS .OHMM           0.22:   RESISTIVITY MUD SAMPLE
 MST .F                70:   MUD SAMPLE TEMPERATURE
 RMB .OHMM           0.17:   RESISTIVITY MUD AT BHT
 BHT .F                90:   BOTTOM HOLE TEMPERATURE
 TCS .HRS               5:   TIME CURCULATED STOPPED
 MRT .F                90:   MAXIMUM RECORDED TEMPERATURE
 LUN .               6274:   LOGGING UNIT NUMBER
 LUL .               GLTE:   LOGGING UNIT LOCATION
 ENGI.             RAUTIO:   RECORDING ENGINEER
 WITN.            JOHNSON:   WITNESSED BY
 CLNT.            A2DTECH:   CLIENT CODE
 ORIG.         2.5" PRINT:   ORIGIN OF DATA
 UWI .       490251097500:   UNIQUE WELL ID
 DICO. A2D Technologies, Inc.:   DIGITIZING COMPANY
~OTHER INFORMATION
~A    DEPT    CALD        CNC       CORR        DEN       PORD         GRR      RFOC       RILD       RILM        SPR   
# ...
  368.5000     8.2028     0.2979     0.0082     2.4263     0.1550    89.3314     6.4575     6.1350     6.6897    -1.4548
  369.0000     8.2012     0.2856     0.0081     2.4348     0.1503    86.5031     6.4536     6.2997     6.7806    -1.4722
  369.5000     8.1997     0.2824     0.0080     2.4484     0.1454    83.3865     6.9203     6.4700     6.8641    -1.1937
  370.0000     8.1981     0.2842     0.0079     2.4585     0.1398    80.9404     7.5511     6.6597     6.9519    -1.1440
  370.5000     8.1965     0.2870     0.0084     2.4653     0.1343    85.0397     7.9667     6.8604     7.0415    -0.9364
  371.0000     8.1950     0.2956     0.0233     2.4710     0.1285    89.9822     8.3533     7.0064     7.1322    -0.9585
  371.5000     8.1933     0.3039     0.0319     2.4680     0.1268    92.2634     8.3481     7.0012     7.2248    -0.6800
  372.0000     8.1917     0.3070     0.0342     2.4619     0.1257    93.7751     8.0060     7.0989     7.3187    -0.6973
  372.5000     8.1901     0.3004     0.0202     2.4559     0.1284    91.3569     8.0005     7.1851     7.3099    -0.4188
  373.0000     8.1885     0.2827     0.0119     2.4558     0.1325    89.5207     8.2165     7.1784     7.3040    -0.4408
  373.5000     8.1868     0.2824     0.0057     2.4543     0.1341    88.8994     8.2115     7.1719     7.2980    -0.1642
  374.0000     8.1852     0.2955     0.0040     2.4542     0.1341    88.8521     8.2062     7.1666     7.2915    -0.1836
  374.5000     8.1836     0.3171     0.0038     2.4526     0.1341    87.6148     8.2006     7.1608     7.2850    -0.1440
  375.0000     8.1820     0.3196     0.0037     2.4525     0.1342    86.9805     8.3083     7.1549     7.2778     0.0776
  375.5000     8.1801     0.3072     0.0155     2.4506     0.1357    86.3432     8.3018     7.1480     7.2719     0.0516
  376.0000     8.1785     0.2835     0.0213     2.4494     0.1360    87.1006     8.1836     7.1428     7.2655     0.0342
  376.5000     8.1769     0.2818     0.0271     2.4543     0.1349    89.7899     8.1781     7.1372     7.2171     0.0163
  377.0000     8.1754     0.2833     0.0270     2.4573     0.1331    90.9349     8.1287     7.1314     7.1529    -0.0030
  377.5000     8.1738     0.2886     0.0120     2.4520     0.1331    89.0681     7.9448     7.1255     7.1472    -0.0222
  378.0000     8.1722     0.2953    -0.0063     2.4416     0.1356    85.8146     7.9399     7.1190     6.9481    -0.0438
  378.5000     8.2002     0.2938    -0.0157     2.4370     0.1433    84.2840     7.9349     6.9214     6.9112    -0.0611
  379.0000     8.1931     0.2926    -0.0109     2.4355     0.1463    87.1887     7.9294     6.9158     6.6478    -0.0799
  379.5000     8.1673     0.2940     0.0229     2.4473     0.1460    89.5129     7.9240     6.8160     6.3819    -0.3950
  380.0000     8.1657     0.2968     0.0332     2.4487     0.1391    89.4675     7.8100     6.7169     6.1199    -0.7135
  380.5000     8.1641     0.3044     0.0381     2.4456     0.1381    88.8284     7.6987     6.6205     5.7358    -1.0267
  381.0000     8.1624     0.3261     0.0379     2.4455     0.1382    90.5472     7.6936     6.4268     5.2705    -1.3511
  381.5000     8.1608     0.3479     0.0378     2.4419     0.1391    94.6466     7.3189     6.1995     4.8343    -2.0266
  382.0000     8.1589     0.3696     0.0377     2.4222     0.1420    94.0000     6.3390     5.7577     4.6999    -2.5621
  382.5000     8.1573     0.3628     0.0376     2.3971     0.1585    92.4951     5.6763     5.3723     4.5689    -2.5840
  383.0000     8.1557     0.3359     0.0315     2.3918     0.1715    91.8245     5.0726     4.8739     4.5648    -2.6014
  383.5000     8.1542     0.3090     0.0017     2.4001     0.1739    93.8631     4.7693     4.5207     4.4979    -2.0270
  384.0000     8.1526     0.2927     0.0164     2.4348     0.1585    93.8205     4.7081     4.3957     4.5563    -1.6489
  384.5000     8.1510     0.2942     0.0252     2.4471     0.1408    92.4399     5.9800     4.7331     4.9463    -1.1828
  385.0000     8.1494     0.3192     0.0192     2.4537     0.1367    89.7633     7.2426     5.2059     5.3255    -0.9024
  385.5000     8.1478     0.3203     0.0129     2.4536     0.1350    88.9376     7.6662     5.5165     5.6555    -0.9216
  386.0000     8.1462     0.3094     0.0070     2.4535     0.1356    88.8950     7.8546     5.8589     6.1376    -0.9408
  386.5000     8.1445     0.2953     0.0069     2.4519     0.1362    88.8521     7.8473     6.2051     6.4783    -0.9601
  387.0000     8.1429     0.2825     0.0068     2.4504     0.1369    89.4015     7.8425     6.5500     6.7726    -0.9823
  387.5000     8.1413     0.2814     0.0087     2.4518     0.1363    89.9408     7.8376     6.8237     7.0944    -0.9996
  388.0000     8.1396     0.2790     0.0167     2.4532     0.1362    92.2535     7.9740     7.1263     7.3083    -1.0178
  388.5000     8.1377     0.2578     0.0227     2.4547     0.1347    92.8047     8.0445     7.3410     7.4038    -1.0370
  389.0000     8.1361     0.2507     0.0242     2.4576     0.1332    93.3517     8.1495     7.5905     7.5044    -1.0562
  389.5000     8.1346     0.2484     0.0240     2.4589     0.1329    93.3018     8.2570     7.7957     7.5968    -0.4859
  390.0000     8.1330     0.2644     0.0180     2.4580     0.1353    93.2452     8.2514     7.8974     7.5892     0.0885
  390.5000     8.1314     0.2780     0.0060     2.4527     0.1356    97.9363     8.3608     8.0005     7.6871     0.4020
  391.0000     8.1299     0.2840    -0.0001     2.4526     0.1330   102.6274     8.4695     7.9916     7.7862     0.7203
  391.5000     8.1283     0.2812    -0.0002     2.4562     0.1313   102.5799     8.5803     7.9857     7.8872     1.0386
  392.0000     8.1563     0.2775     0.0056     2.4561     0.1319   101.9960     8.6935     7.9796     7.8796     1.3569
  392.5000     8.1546     0.2785     0.0055     2.4494     0.1349    94.7860     8.6873     7.9731     7.9801     1.6752
  393.0000     8.1530     0.2794     0.0052     2.4478     0.1379    93.5010     8.6813     7.9665     7.9737     2.0410
  393.5000     8.1513     0.2744    -0.0023     2.4492     0.1374    94.1090     8.6747     8.0698     7.9671     2.3210
  394.0000     8.1497     0.2738    -0.0222     2.4640     0.1208    93.2663     8.7892     8.0631     7.9600     2.3018
  394.5000     8.1481     0.2763    -0.0247     2.4832     0.1154    91.6356     8.9304     8.0565     7.9529     1.9867
  395.0000     8.1465     0.2780    -0.0209     2.4846     0.1150    89.2262     9.1474     8.1623     8.0546     1.6716
  395.5000     8.1741     0.2677    -0.0166     2.4799     0.1161    87.4054     9.3933     8.1532     8.0482     1.3539
  396.0000     8.1726     0.2619    -0.0074     2.4709     0.1199    86.7741     9.2595     8.1472     8.1527     1.6331
  396.5000     8.1710     0.2589     0.0093     2.4665     0.1249    92.3126     9.1145     8.1409     8.1448     2.2068
  397.0000     8.1694     0.2667     0.0252     2.4703     0.1233    92.5917     8.9967     8.1342     8.1364     2.1864
  397.5000     8.1679     0.2797     0.0340     2.4738     0.1164    91.3586     9.1148     8.1275     8.1299     2.1635
  398.0000     8.1663     0.2928     0.0428     2.4841     0.1123    88.2879     9.1079     8.1201     8.1231     2.1461
  398.5000     8.1646     0.2946     0.0546     2.4899     0.1117    87.7160     9.1023     8.1141     8.0800     2.1287
  399.0000     8.1630     0.2938     0.0574     2.4928     0.1121    87.6592     9.0419     7.9971     7.9384     2.1095
  399.5000     8.1614     0.2900     0.0514     2.4927     0.1121    89.9834     8.7375     7.8818     7.8816     2.0902
  400.0000     8.1597     0.2738     0.0215     2.4911     0.1133    99.9954     8.5975     7.8232     7.8744     1.7723
  400.5000     8.1578     0.2625     0.0125     2.4802     0.1201    96.4094     8.4747     7.6427     7.6561     0.8673
  401.0000     8.1559     0.2549     0.0094     2.4708     0.1249    90.2543     8.2401     7.4622     7.5107    -0.0380
  401.5000     8.1540     0.2563     0.0212     2.4638     0.1259    85.1050     8.1214     7.2818     7.2349    -0.0533
