~VERSION INFORMATION
 VERS.                2.0:   CWLS LOG ASCII STANDARD - VERSION 2.0
 WRAP.                 NO:   ONE LINE PER DEPTH STEP
~WELL INFORMATION
#MNEM.UNIT      DATA TYPE    INFORMATION
#----------   ------------   ------------------------------
 STRT.F           60.0000:   START DEPTH
 STOP.F         1143.0000:   STOP DEPTH
 STEP.F            0.5000:   STEP LENGTH
 NULL.          -999.2500:   NO VALUE
 COMP. U S NAVY-INTEX OIL:   COMPANY
 WELL.    N.P.R . 3 #63-2:   WELL
 FLD .             TEAPOT:   FIELD
 LOC .       S2 T38N R78W:   LOCATION
 CNTY.            NATRONA:   COUNTY
 STAT.            WYOMING:   STATE
 CTRY. UNITED STATES OF AMERICA:   COUNTRY
 SRVC. Schlumberger Well Surveying Corp:   SERVICE COMPANY
 DATE.        24-MAY-1964:   LOGDATE
 API .       490250645500:   API NUMBER
~CURVE INFORMATION
#MNEM.UNIT       API CODE    CURVE DESCRIPTION
#----------   ------------   ------------------------------
 DEPT.F                  :   
 SPR .MV     05 010 01 00:   SPONTANEOUS POTENTIAL FROM RES.
 ASN .OHMM   05 041 16 00:   AMPLIFIED SHORT NORMAL 16"
 ILD .OHMM   05 120 46 00:   INDUCTION LOG DEEP
 CILD.MMHO   05 110 46 00:   CONDUCTIVITY INDUCTION LOG DEEP
 CALS.IN     60 280 50 00:   CALIPER FROM SONIC LOG
 DT  .US/F   60 520 33 00:   INTERVAL TRANSIT TIME
~PARAMETER INFORMATION
#MNEM.UNIT          VALUE    DESCRIPTION
#----------   ------------   ------------------------------
 PD  .                 GL:   PERMANENT DATUM
 EPD .F              5181:   ELEVATION PERMANENT DATUM
 LMF .                 KB:   LOG MEASURED FROM
 DAPD.F                 5:   FEET ABOVE PERMANENT DATUM
 DMF .                 KB:   DRILLING MEASURED FROM
 EKB .F              5186:   KELLING BUSHING
 EGL .F              5181:   GROUND LEVEL
 DATE.        24-MAY-1964:   RUN DATE
 RUN .                  1:   RUN NUMBER
 DD  .F              1140:   DEPTH DRILLER
 DL  .F              1144:   DEPTH LOGGER
 BLI .F              1143:   BOTTOM LOG INTERVAL
 TLI .F                82:   TOP LOG INTERVAL
 CS  .IN            8.625:   CASING SIZE
 CBD .F                10:   CASING BOTTOM DRILLER
 BS  .IN            7.875:   BIT SIZE
 BSD .F              1140:   BIT SIZE AT DEPTH
 DFT .            GEL/OIL:   DRILLING FLUID TYPE
 DFD .                9.0:   DRILLING FLUID DENSITY
 DFV .                 63:   DRILLING FLUID VISCOSITY
 DFPH.                8.0:   DRILLING FLUID PH
 DFL .                7.6:   DRILLING FLUID LOSS
 MSS .           FLOWLINE:   MUD SAMPLE SOURCE
 RMS .OHMM           0.87:   RESISTIVITY MUD SAMPLE
 MST .F                84:   MUD SAMPLE TEMPERATURE
 RMF .OHMM           0.43:   RESISTIVITY MUD FILTRATE SAMPLE
 MFST.F                84:   MUD FILTRATE SAMPLE TEMPERATURE
 RMC .OHMM           1.52:   RESISTIVITY MUD CAKE
 MCST.F                84:   MUD CAKE SAMPLE TEMPERATURE
 MFSS.                 FP:   MUD FILTRATE SAMPLE SOURCE
 MCSS.                 FP:   MUD CAKE SAMPLE SOURCE
 TCS .HRS               2:   TIME CURCULATED STOPPED
 LUN .               4507:   LOGGING UNIT NUMBER
 LUL .               CSPR:   LOGGING UNIT LOCATION
 ENGI.             DANNER:   RECORDING ENGINEER
 WITN.          JORGENSEN:   WITNESSED BY
 CLNT.            A2DTECH:   CLIENT CODE
 ORIG.       2", 5" PRINT:   ORIGIN OF DATA
 UWI .       490250645500:   UNIQUE WELL ID
 DICO. A2D Technologies, Inc.:   DIGITIZING COMPANY
~OTHER INFORMATION
~A   DEPT      SPR          ASN        ILD      CILD      CALS         DT   
# ...
  112.0000   -43.5061     7.2719     5.7057   173.1430  -999.2500  -999.2500
  112.5000   -43.6057     7.2864     5.6838   177.9001  -999.2500  -999.2500
  113.0000   -43.6553     7.2709     5.5556   182.9068  -999.2500  -999.2500
  113.5000   -43.5037     7.1364     5.4418   188.5421  -999.2500  -999.2500
  114.0000   -43.5030     6.9585     5.3864   192.9366  -999.2500  -999.2500
  114.5000   -43.4842     6.7965     5.1802   197.3533  -999.2500  -999.2500
  115.0000   -43.3508     6.5667     5.1051   201.2807  -999.2500  -999.2500
  115.5000   -43.2979     6.4581     4.9550   204.6798  -999.2500  -999.2500
  116.0000   -43.0482     6.3568     4.8368   209.0061  -999.2500  -999.2500
  116.5000   -43.0474     6.3800     4.8048   211.8461  -999.2500  -999.2500
  117.0000   -43.0186     6.4168     4.7297   213.6270  -999.2500  -999.2500
  117.5000   -42.8952     6.3868     4.7297   213.3661  -999.2500  -999.2500
  118.0000   -42.8946     6.2716     4.8048   212.4798  -999.2500  -999.2500
  118.5000   -42.8938     6.1469     4.8048   210.0502  -999.2500  -999.2500
  119.0000   -42.8931     6.1078     4.8231   206.6122  -999.2500  -999.2500
  119.5000   -42.9304     6.1019     4.9550   204.1001  -999.2500  -999.2500
  120.0000   -43.0422     6.6267     5.0650   200.4518  -999.2500  -999.2500
  120.5000   -43.0414     6.7533     5.1110   196.8463  -999.2500  -999.2500
  121.0000   -43.0407     6.7766     5.2553   193.6119  -999.2500  -999.2500
  121.5000   -43.0398     6.7665     5.3530   191.5892  -999.2500  -999.2500
  122.0000   -43.0391     6.7466     5.4054   190.0302  -999.2500  -999.2500
  122.5000   -43.1890     6.7166     5.4054   188.4726  -999.2500  -999.2500
  123.0000   -43.1882     6.6940     5.4054   187.8464  -999.2500  -999.2500
  123.5000   -43.1875     6.7016     5.4054   186.8035  -999.2500  -999.2500
  124.0000   -43.1866     6.7016     5.4054   186.3554  -999.2500  -999.2500
  124.5000   -43.2442     6.7166     5.4054   187.5916  -999.2500  -999.2500
  125.0000   -43.3358     6.7260     5.3303   189.0059  -999.2500  -999.2500
  125.5000   -43.3351     6.7466     5.2407   190.8967  -999.2500  -999.2500
  126.0000   -43.3343     6.7616     5.1051   193.8957  -999.2500  -999.2500
  126.5000   -43.3335     6.7547     5.1051   196.2612  -999.2500  -999.2500
  127.0000   -43.2645     6.7305     5.1074   196.9441  -999.2500  -999.2500
  127.5000   -43.1815     6.6867     5.2284   195.4253  -999.2500  -999.2500
  128.0000   -43.0300     6.6522     5.3493   192.4399  -999.2500  -999.2500
  128.5000   -43.0294     6.6267     5.4805   188.4464  -999.2500  -999.2500
  129.0000   -42.8780     6.6196     5.6664   182.5296  -999.2500  -999.2500
  129.5000   -42.7989     6.7572     5.8692   173.6379  -999.2500  -999.2500
  130.0000   -42.7259     7.5712     6.0060   167.1687  -999.2500  -999.2500
  130.5000   -42.7250     7.8696     6.2030   161.4479  -999.2500  -999.2500
  131.0000   -42.7244     8.0210     6.3063   157.0861  -999.2500  -999.2500
  131.5000   -42.7236     8.1488     6.5368   153.4375  -999.2500  -999.2500
  132.0000   -42.8113     8.2789     6.6927   150.3318  -999.2500  -999.2500
  132.5000   -42.8728     8.2459     6.7568   149.1906  -999.2500  -999.2500
  133.0000   -42.8719     7.9895     6.7290   151.4232  -999.2500  -999.2500
  133.5000   -43.0218     7.7627     6.6066   155.6261  -999.2500  -999.2500
  134.0000   -43.0211     7.6274     6.6066   159.3220  -999.2500  -999.2500
  134.5000   -43.0203     7.5255     6.4411   165.4292  -999.2500  -999.2500
  135.0000   -43.0196     7.4363     6.3063   169.0890  -999.2500  -999.2500
  135.5000   -43.0188     7.3694     6.2420   172.7522  -999.2500  -999.2500
  136.0000   -43.0181     7.2834     6.0781   175.9947  -999.2500  -999.2500
  136.5000   -43.0173     7.2114     5.9571   179.3261  -999.2500  -999.2500
  137.0000   -43.0164     7.1664     5.8163   182.2364  -999.2500  -999.2500
  137.5000   -43.0158     7.1364     5.7057   186.5601  -999.2500  -999.2500
  138.0000   -42.8644     7.0967     5.4825   189.5633  -999.2500  -999.2500
  138.5000   -42.8637     7.0193     5.3229   193.3512  -999.2500  -999.2500
  139.0000   -42.7123     6.8666     5.1051   194.9600  -999.2500  -999.2500
  139.5000   -42.5609     6.7475     5.1051   196.3780  -999.2500  -999.2500
  140.0000   -42.4096     6.6567     5.1051   194.1274  -999.2500  -999.2500
  140.5000   -42.4089     6.6451     5.2620   189.8616  -999.2500  -999.2500
  141.0000   -42.4081     6.7702     5.5158   184.1594  -999.2500  -999.2500
  141.5000   -42.5941     7.0315     5.9309   175.6362  -999.2500  -999.2500
  142.0000   -42.8584     7.4160     6.2132   167.6599  -999.2500  -999.2500
  142.5000   -43.0083     7.8270     6.5315   158.0201  -999.2500  -999.2500
  143.0000   -43.1702     8.2380     6.7425   153.0244  -999.2500  -999.2500
  143.5000   -43.4584     8.6490     6.9392   147.6699  -999.2500  -999.2500
  144.0000   -43.5040     8.8306     7.2072   141.4771  -999.2500  -999.2500
  144.5000   -43.6076     8.7549     7.2494   140.4555  -999.2500  -999.2500
  145.0000   -43.6069     8.5288     7.1997   141.4910  -999.2500  -999.2500
  145.5000   -43.5840     8.1559     7.0074   144.3636  -999.2500  -999.2500
  146.0000   -43.4547     8.0143     6.8659   148.7802  -999.2500  -999.2500
  146.5000   -43.3978     7.8711     6.6817   153.5625  -999.2500  -999.2500
  147.0000   -43.1521     7.7530     6.5321   157.9567  -999.2500  -999.2500
  147.5000   -43.0610     7.6500     6.3733   162.7825  -999.2500  -999.2500
  148.0000   -42.9679     7.5412     6.1562   167.1400  -999.2500  -999.2500
  148.5000   -42.8486     7.4504     6.0562   170.1092  -999.2500  -999.2500
  149.0000   -42.6310     7.3133     5.8559   174.6841  -999.2500  -999.2500
  149.5000   -42.5380     7.1390     5.7391   179.3552  -999.2500  -999.2500
  150.0000   -42.3946     6.9827     5.5431   184.2370  -999.2500  -999.2500
  150.5000   -42.3939     6.8216     5.4054   189.7676  -999.2500  -999.2500
  151.0000   -42.3930     6.6896     5.2718   192.9440  -999.2500  -999.2500
  151.5000   -42.3923     6.5577     5.1051   195.8383  -999.2500  -999.2500
  152.0000   -42.3916     6.4553     5.0590   198.7650  -999.2500  -999.2500
  152.5000   -42.3907     6.3529     4.9550   202.2339  -999.2500  -999.2500
  153.0000   -42.5407     6.2630     4.8799   205.6180  -999.2500  -999.2500
  153.5000   -42.6905     6.2369     4.8462   207.5037  -999.2500  -999.2500
  154.0000   -42.6898     6.2069     4.8048   208.7299  -999.2500  -999.2500
  154.5000   -42.8397     6.1905     4.8048   208.8542  -999.2500  -999.2500
  155.0000   -42.9894     6.1619     4.8048   206.3631  -999.2500  -999.2500
  155.5000   -42.9887     6.1469     4.8799   201.8902  -999.2500  -999.2500
  156.0000   -42.9880     6.2219     4.9179   198.3134  -999.2500  -999.2500
  156.5000   -42.9872     6.3759     4.9639   193.7578  -999.2500  -999.2500
  157.0000   -42.9865     6.5037     5.1051   188.3593  -999.2500  -999.2500
  157.5000   -42.9856     6.6267     5.2315   184.0234  -999.2500  -999.2500
  158.0000   -42.9850     6.7246     5.4054   180.0002  -999.2500  -999.2500
  158.5000   -42.9842     6.8366     5.6404   176.3343  -999.2500  -999.2500
  159.0000   -42.8327     6.9480     5.7190   174.3874  -999.2500  -999.2500
  159.5000   -42.7839     7.0414     5.7808   172.5832  -999.2500  -999.2500
  160.0000   -42.5301     7.1064     5.8259   170.6828  -999.2500  -999.2500
  160.5000   -42.3788     7.1798     5.7808   170.3382  -999.2500  -999.2500
  161.0000   -42.2033     7.2123     5.7340   173.3595  -999.2500  -999.2500
  161.5000   -42.0759     7.2163     5.7057   176.2099  -999.2500  -999.2500
  162.0000   -41.9829     7.1794     5.7057   178.6445  -999.2500  -999.2500
  162.5000   -42.0745     7.0765     5.6306   179.1227  -999.2500  -999.2500
  163.0000   -42.1662     6.9789     5.6306   179.4115  -999.2500  -999.2500
  163.5000   -42.2578     6.9565     5.5556   178.6672  -999.2500  -999.2500
