~VERSION INFORMATION
 VERS.                2.0:   CWLS LOG ASCII STANDARD - VERSION 2.0
 WRAP.                 NO:   ONE LINE PER DEPTH STEP
~WELL INFORMATION
#MNEM.UNIT      DATA TYPE    INFORMATION
#----------   ------------   ------------------------------
 STRT.F          160.0000:   START DEPTH
 STOP.F         1181.5000:   STOP DEPTH
 STEP.F            0.5000:   STEP LENGTH
 NULL.          -999.2500:   NO VALUE
 COMP.            US NAVY:   COMPANY
 WELL. RES 3 TEAPOT DOM #71-SX-14:   WELL
 FLD .             TEAPOT:   FIELD
 LOC .      S14 T38N R78W:   LOCATION
 CNTY.            NATRONA:   COUNTY
 STAT.            WYOMING:   STATE
 CTRY. UNITED STATES OF AMERICA:   COUNTRY
 SRVC.       Schlumberger:   SERVICE COMPANY
 DATE.        23-AUG-1959:   LOGDATE
 API .       490250632200:   API NUMBER
~CURVE INFORMATION
#MNEM.UNIT       API CODE    CURVE DESCRIPTION
#----------   ------------   ------------------------------
 DEPT.F                  :   
 SPR .MV     05 010 01 00:   SPONTANEOUS POTENTIAL FROM RES.
 IL  .OHMM   05 120 00 00:   INDUCTION LOG
 ASN .OHMM   05 041 16 00:   AMPLIFIED SHORT NORMAL 16"
 CIL .MMHO   05 110 00 00:   CONDUCTIVITY INDUCTION LOG
~PARAMETER INFORMATION
#MNEM.UNIT          VALUE    DESCRIPTION
#----------   ------------   ------------------------------
 PD  .                 GL:   PERMANENT DATUM
 EPD .F              5259:   ELEVATION PERMANENT DATUM
 LMF .                 KB:   LOG MEASURED FROM
 DAPD.F                 4:   FEET ABOVE PERMANENT DATUM
 DMF .                 KB:   DRILLING MEASURED FROM
 EKB .F              5263:   KELLING BUSHING
 EGL .F              5259:   GROUND LEVEL
 DATE.            8-23-59:   RUN DATE
 RUN .                  1:   RUN NUMBER
 DD  .F              1190:   DEPTH DRILLER
 DL  .F              1186:   DEPTH LOGGER
 BLI .F              1180:   BOTTOM LOG INTERVAL
 TLI .F               150:   TOP LOG INTERVAL
 CBD .F                17:   CASING BOTTOM DRILLER
 BS  .IN             6.75:   BIT SIZE
 BSD .F              1190:   BIT SIZE AT DEPTH
 DFT .                GEL:   DRILLING FLUID TYPE
 DFD .                9.5:   DRILLING FLUID DENSITY
 DFV .                 52:   DRILLING FLUID VISCOSITY
 MSS .           FLOWLINE:   MUD SAMPLE SOURCE
 RMS .OHMM            2.6:   RESISTIVITY MUD SAMPLE
 MST .F                62:   MUD SAMPLE TEMPERATURE
 MFSS.                  M:   MUD FILTRATE SAMPLE SOURCE
 MCSS.                  M:   MUD CAKE SAMPLE SOURCE
 RMB .OHMM            2.2:   RESISTIVITY MUD AT BHT
 BHT .F                80:   BOTTOM HOLE TEMPERATURE
 TCS .HRS               1:   TIME CURCULATED STOPPED
 MRT .F                80:   MAXIMUM RECORDED TEMPERATURE
 LUN .               2523:   LOGGING UNIT NUMBER
 LUL .               CSPR:   LOGGING UNIT LOCATION
 ENGI.             ATWOOD:   RECORDING ENGINEER
 WITN.             MARTIN:   WITNESSED BY
 CLNT.            A2DTECH:   CLIENT CODE
 ORIG.     1", 2.5" PRINT:   ORIGIN OF DATA
 UWI .       490250632200:   UNIQUE WELL ID
 DICO. A2D Technologies, Inc.:   DIGITIZING COMPANY
~OTHER INFORMATION
~A   DEPT      SPR           IL        ASN      CIL   
# ...
  744.0000   -43.7497     9.3084  -999.2500   122.6654
  744.5000   -43.7498     9.3086     9.9262   122.6654
  745.0000   -43.7500     9.3084     9.8661   122.6654
  745.5000   -43.7500     9.3089     9.8892   122.6654
  746.0000   -43.7500     9.3089     9.9439   122.6654
  746.5000   -43.7502     9.3075     9.9797   123.0033
  747.0000   -43.7502     9.3125    10.0354   123.3552
  747.5000   -43.7498     9.2723    10.0051   123.7072
  748.0000   -43.7511     9.1734     9.8763   124.0591
  748.5000   -43.7494     9.1313     9.7558   124.4163
  749.0000   -43.7461     9.0885     9.6340   125.5720
  749.5000   -43.6705     8.9817     9.5150   126.7451
  750.0000   -43.5923     8.8817     9.3542   127.9183
  750.5000   -43.5112     8.7818     9.1486   129.0914
  751.0000   -43.4317     8.6802     8.9474   130.2646
  751.5000   -43.3518     8.5798     8.7467   131.4202
  752.0000   -43.2727     8.4790     8.5438   134.7690
  752.5000   -43.1908     8.3782     8.3426   138.0685
  753.0000   -43.1135     8.2775     8.1428   141.3680
  753.5000   -43.0422     8.1766     7.9346   144.6674
  754.0000   -43.0900     8.0756     7.8456   147.9669
  754.5000   -43.1383     7.9754     7.8555   151.2664
  755.0000   -43.1919     7.8736     7.8563   154.5659
  755.5000   -43.2423     7.7731     7.8577   157.6848
  756.0000   -43.2942     7.6749     8.0499   157.6848
  756.5000   -43.3455     7.5653     8.3554   155.3538
  757.0000   -43.3915     7.5830     8.6362   153.1542
  757.5000   -43.3916     7.6825     8.9308   150.9545
  758.0000   -43.3964     7.7718     9.0049   148.7549
  758.5000   -43.3913     7.8597     8.9451   146.5552
  759.0000   -43.3809     7.9508     8.8993   144.3555
  759.5000   -43.1941     8.0405     8.8782   142.1559
  760.0000   -43.0209     8.1283     8.9471   140.1751
  760.5000   -42.8373     8.2195     9.0668   140.1751
  761.0000   -42.6583     8.2112     9.0239   141.2549
  761.5000   -42.4809     8.1571     8.9109   142.2325
  762.0000   -42.2967     8.1057     8.8041   143.2101
  762.5000   -42.1205     8.0553     8.6963   144.1877
  763.0000   -41.9763     8.0027     8.5901   145.1654
  763.5000   -42.0783     7.9534     8.4836   146.1430
  764.0000   -42.1689     7.9023     8.4834   147.1206
  764.5000   -42.2712     7.9316     8.5533   148.0823
  765.0000   -42.3680     7.9877     8.6333   148.9125
  765.5000   -42.4659     8.0435     8.7117   147.2949
  766.0000   -42.5644     8.0980     8.7906   145.8908
  766.5000   -42.6627     8.1535     8.8699   144.4872
  767.0000   -42.7604     8.2086     8.9487   143.0836
  767.5000   -42.8578     8.2637     9.0269   141.6792
  768.0000   -42.9592     8.3191     9.1084   140.2746
  768.5000   -43.0331     8.3742     9.1827   138.8654
  769.0000   -43.0247     8.4288     9.2653   137.4576
  769.5000   -42.8910     8.4858     9.2094   136.0498
  770.0000   -42.7764     8.5379     9.1401   134.9222
  770.5000   -42.6536     8.5938     9.0663   136.4293
  771.0000   -42.5348     8.5500     8.9943   137.6862
  771.5000   -42.4148     8.4981     8.9249   138.9432
  772.0000   -42.2953     8.4425     8.8517   140.2001
  772.5000   -42.1751     8.3895     8.8483   141.4571
  773.0000   -42.0537     8.3356     8.8488   142.7140
  773.5000   -41.9651     8.2816     8.8818   143.6770
  774.0000   -41.9649     8.2283     8.9147   143.6770
  774.5000   -41.9621     8.1736     8.8944   143.6770
  775.0000   -41.9823     8.1209     8.8721   143.6770
  775.5000   -42.0543     8.0700     8.8478   143.6770
  776.0000   -42.1249     8.0678     8.8491   143.6780
  776.5000   -42.1975     8.0666     8.8457   143.6777
  777.0000   -42.2694     8.0675     8.8441   143.6763
  777.5000   -42.3410     8.0672     8.7782   143.6759
  778.0000   -42.4136     8.0673     8.7782   143.6764
  778.5000   -42.4845     8.0674     8.7805   143.6786
  779.0000   -42.5567     8.0673     8.8346   143.6832
  779.5000   -42.6319     8.0674     8.8752   143.6895
  780.0000   -42.6527     8.0674     8.8035   143.6770
  780.5000   -42.5609     8.0674     8.7346   144.2111
  781.0000   -42.4734     8.0675     8.6608   145.5533
  781.5000   -42.3829     8.0676     8.6016   145.9594
  782.0000   -42.2930     8.0670     8.6003   146.3655
  782.5000   -42.2033     8.0684     8.5982   146.7715
  783.0000   -42.1132     8.0669     8.6004   147.1776
  783.5000   -42.0239     8.0630     8.5987   147.5837
  784.0000   -41.9327     8.0032     8.5946   147.9906
  784.5000   -41.8444     7.9520     8.5344   148.3970
  785.0000   -41.7551     7.8968     8.4830   148.8048
  785.5000   -41.6558     7.8433     8.4283   149.2135
  786.0000   -41.6325     7.7898     8.3740   149.6229
  786.5000   -41.7309     7.7353     8.3206   150.0325
  787.0000   -41.8183     7.6824     8.2800   150.4414
  787.5000   -41.9075     7.6282     8.2776   150.6809
  788.0000   -41.9992     7.5719     8.3219   150.2374
  788.5000   -42.0874     7.5640     8.4839   149.0642
  789.0000   -42.1774     7.6738     8.6428   147.8911
  789.5000   -42.2731     7.7775     8.8070   146.7179
  790.0000   -42.3261     7.8855     8.9403   145.5448
  790.5000   -42.3232     8.0021     9.0102   144.3716
  791.0000   -42.2912     8.0738     9.0845   143.1984
  791.5000   -42.2091     8.0654     9.1546   142.0253
  792.0000   -42.1295     8.0676     9.2258   140.8521
  792.5000   -42.0500     8.0683     9.3057   140.1751
  793.0000   -41.9700     8.0653     9.3178   140.1751
  793.5000   -41.8897     8.0924     9.2210   139.6673
  794.0000   -41.8104     8.1669     9.1336   138.4942
  794.5000   -41.7311     8.2365     9.0442   137.3210
  795.0000   -41.6466     8.3075     8.9538   137.4057
  795.5000   -41.6033     8.3878     8.8647   139.0418
  796.0000   -41.6078     8.3877     8.7749   140.6778
  796.5000   -41.6070     8.2822     8.6853   142.3139
  797.0000   -41.6067     8.1865     8.5957   143.9500
  797.5000   -41.6072     8.0892     8.5062   145.5860
  798.0000   -41.6070     7.9905     8.4165   147.2221
  798.5000   -41.6071     7.8931     8.3272   148.8581
  799.0000   -41.6073     7.7954     8.2371   150.4942
  799.5000   -41.6071     7.6970     8.1476   152.1302
  800.0000   -41.6076     7.5998     8.0595   153.7663
  800.5000   -41.6072     7.5026     7.9645   155.4023
  801.0000   -41.6066     7.4007     7.9212   157.0384
  801.5000   -41.6104     7.3547     7.9290   158.6745
  802.0000   -41.5734     7.3558     7.9018   159.4358
  802.5000   -41.4977     7.3875     7.9408   159.4358
  803.0000   -41.4265     7.4502     8.0575   158.7354
  803.5000   -41.3549     7.5101     8.1638   157.4722
  804.0000   -41.2823     7.5692     8.2689   156.2090
  804.5000   -41.2114     7.6294     8.3815   154.9458
  805.0000   -41.1381     7.6890     8.4248   153.6826
  805.5000   -41.0670     7.7489     8.4214   152.4194
  806.0000   -40.9976     7.8085     8.4232   151.1562
  806.5000   -40.9144     7.8684     8.4179   149.8930
  807.0000   -40.9635     7.9282     8.4704   148.6298
  807.5000   -41.1191     7.9872     8.5638   147.3666
  808.0000   -41.2615     8.0481     8.6493   146.1034
  808.5000   -41.4037     8.0690     8.7321   144.8402
  809.0000   -41.5491     8.0674     8.8250   143.5770
  809.5000   -41.6919     8.0674     8.8133   142.3138
  810.0000   -41.8369     8.0677     8.7466   141.9261
  810.5000   -41.9792     8.0674     8.6871   141.9261
  811.0000   -42.1238     8.0675     8.6282   142.4664
  811.5000   -42.2707     8.0674     8.5683   143.2243
  812.0000   -42.3205     8.0674     8.5085   143.9822
  812.5000   -42.3412     8.0674     8.4918   144.7401
  813.0000   -42.1276     8.0673     8.4925   145.4980
  813.5000   -41.8166     8.0673     8.4833   146.2560
  814.0000   -41.5718     8.0670     8.4728   147.0139
  814.5000   -41.3359     8.0671     8.4585   147.1790
  815.0000   -41.0940     8.0674     8.4896   147.1790
  815.5000   -40.8565     8.0658     8.4935   147.1790
  816.0000   -40.6131     8.0686     8.5651   146.0303
  816.5000   -40.5320     8.0704     8.6539   144.6156
