~VERSION INFORMATION
 VERS.                2.0:   CWLS LOG ASCII STANDARD - VERSION 2.0
 WRAP.                 NO:   ONE LINE PER DEPTH STEP
~WELL INFORMATION
#MNEM.UNIT      DATA TYPE    INFORMATION
#----------   ------------   ------------------------------
 STRT.F           30.0000:   START DEPTH
 STOP.F          570.0000:   STOP DEPTH
 STEP.F            0.5000:   STEP LENGTH
 NULL.          -999.2500:   NO VALUE
 COMP.    FENIX & SCISSON:   COMPANY
 WELL.  NPR #3 #13SX11-11:   WELL
 FLD .             TEAPOT:   FIELD
 LOC .      S11 T38N R78W:   LOCATION
 CNTY.            NATRONA:   COUNTY
 STAT.            WYOMING:   STATE
 CTRY. UNITED STATES OF AMERICA:   COUNTRY
 SRVC.       Schlumberger:   SERVICE COMPANY
 DATE.        27-FEB-1977:   LOGDATE
 API .       490251029400:   API NUMBER
~CURVE INFORMATION
#MNEM.UNIT       API CODE    CURVE DESCRIPTION
#----------   ------------   ------------------------------
 DEPT.F                  :   
 GRD .GAPI   45 310 01 00:   GAMMA RAY FROM DENSITY LOG
 CALD.IN     45 280 60 00:   CALIPER FROM DENSITY LOG
 CORR.G/C3   45 356 01 00:   DENSITY CORRECTION
 DPHI.DEC    45 890 12 00:   DENSITY POROSITY STANDSTONE
 RHOB.G/C3   45 350 01 00:   BULK DENSITY
 SPR .MV     07 010 01 00:   SPONTANEOUS POTENTIAL
 ILD .OHMM   07 120 46 00:   INDUCTION LOG DEEP
 ILM .OHMM   07 120 44 00:   INDUCTION LOG MEDIUM
 LL8 .OHMM   07 220 08 00:   LATEROLOG-8 RES.
~PARAMETER INFORMATION
#MNEM.UNIT          VALUE    DESCRIPTION
#----------   ------------   ------------------------------
 PD  .                 GL:   PERMANENT DATUM
 EPD .F              5180:   ELEVATION PERMANENT DATUM
 LMF .                 GL:   LOG MEASURED FROM
 DAPD.F                 0:   FEET ABOVE PERMANENT DATUM
 DMF .                 GL:   DRILLING MEASURED FROM
 EKB .F              5183:   KELLING BUSHING
 EGL .F              5180:   GROUND LEVEL
 DATE.        27-FEB-1977:   RUN DATE
 RUN .                  1:   RUN NUMBER
 DD  .F               585:   DEPTH DRILLER
 DL  .F               571:   DEPTH LOGGER
 BLI .F               570:   BOTTOM LOG INTERVAL
 TLI .F                44:   TOP LOG INTERVAL
 CS  .IN            8.625:   CASING SIZE
 CBD .F                40:   CASING BOTTOM DRILLER
 CBL .F                44:   CASING BOTTOM LOGGER
 BS  .IN            7.875:   BIT SIZE
 BSD .F               585:   BIT SIZE AT DEPTH
 DFT .                KCL:   DRILLING FLUID TYPE
 DFD .                8.7:   DRILLING FLUID DENSITY
 DFV .                 42:   DRILLING FLUID VISCOSITY
 DFPH.                  8:   DRILLING FLUID PH
 DFL .                9.2:   DRILLING FLUID LOSS
 MSS .                PIT:   MUD SAMPLE SOURCE
 RMS .OHMM           .806:   RESISTIVITY MUD SAMPLE
 MST .F                70:   MUD SAMPLE TEMPERATURE
 RMF .OHMM           .720:   RESISTIVITY MUD FILTRATE SAMPLE
 MFST.F                70:   MUD FILTRATE SAMPLE TEMPERATURE
 MFSS.               MEAS:   MUD FILTRATE SAMPLE SOURCE
 RMB .OHMM           .973:   RESISTIVITY MUD AT BHT
 BHT .F                58:   BOTTOM HOLE TEMPERATURE
 TCS .HRS            0230:   TIME CURCULATED STOPPED
 MRT .F                58:   MAXIMUM RECORDED TEMPERATURE
 LUN .               5642:   LOGGING UNIT NUMBER
 LUL .             CASPER:   LOGGING UNIT LOCATION
 ENGI.         JIM MARTIN:   RECORDING ENGINEER
 WITN.         STUEBINGER:   WITNESSED BY
 CLNT.            A2DTECH:   CLIENT CODE
 ORIG.           5" PRINT:   ORIGIN OF DATA
 UWI .       490251029400:   UNIQUE WELL ID
 DICO. A2D Technologies, Inc.:   DIGITIZING COMPANY
~OTHER INFORMATION
~A   DEPT      GRD       CALD       CORR       DPHI       RHOB        SPR        ILD        ILM        LL8   
# ...
  176.0000   122.3874     8.1569     0.0007     0.1175     2.4564   -26.0245     8.8714     8.9737     9.3178
  176.5000   122.6885     8.1569     0.0029     0.1265     2.4353   -27.0841     8.9921     9.0971     9.8453
  177.0000   121.7789     8.1569     0.0082     0.1214     2.4473   -27.2374     9.1144     9.1585    10.1896
  177.5000   120.2646     8.1582     0.0021     0.1142     2.4605   -27.2397     9.1754     9.2845     9.7017
  178.0000   119.3554     8.1674    -0.0024     0.1118     2.4682   -27.2419     9.3002     9.3472     9.8331
  178.5000   118.9000     8.1767     0.0013     0.1205     2.4531   -27.2441     9.3617     9.4758    10.3180
  179.0000   118.7472     8.1859     0.0103     0.1148     2.4636   -27.3974     9.3579     9.4734    10.1716
  179.5000   118.5944     8.1952     0.0155     0.1112     2.4711   -27.7018     9.3548     9.4059     9.6186
  180.0000   119.0468     8.1870     0.0163     0.1076     2.4770   -27.8551     9.3517     9.3390     9.6147
  180.5000   119.3482     8.1418     0.0102     0.1046     2.4860   -27.8573     9.2842     9.0816    10.0190
  181.0000   119.1951     8.1267    -0.0055     0.1106     2.4642   -27.5575     9.2172     8.8927    10.3683
  181.5000   118.1346     8.1116    -0.0070     0.1118     2.4709   -27.2576     9.0248     8.7078    10.5098
  182.0000   116.4689     8.1116     0.0034     0.1076     2.4791   -27.1088     8.7756     8.5267     9.8687
  182.5000   114.5007     8.1116     0.0147     0.1164     2.4633   -27.2621     8.5925     8.3494     9.1401
  183.0000   112.5325     8.1418     0.0274     0.1031     2.4948   -27.2523     8.3551     8.2327     8.7033
  183.5000   112.0772     8.1569     0.0154     0.1115     2.4579   -26.9644     8.1808     8.1176     9.1325
  184.0000   114.3611     8.1719     0.0011     0.1194     2.4526   -26.6646     8.0657     8.0041     9.6495
  184.5000   116.1871     8.1719     0.0183     0.1107     2.4766   -26.2142     7.9522     7.9472     9.5126
  185.0000   117.2365     8.1870     0.0220     0.1037     2.4871   -26.0648     7.8404     7.8906     9.0581
  185.5000   117.3662     8.1870     0.0220     0.1043     2.4848   -26.0676     7.7301     7.8345     8.8066
  186.0000   117.3643     8.1870     0.0152     0.1059     2.4795   -26.3720     7.6742     7.7787     8.6817
  186.5000   117.0602     8.1870     0.0017     0.1101     2.4674   -26.9784     7.6717     7.7771     8.6190
  187.0000   118.5716     8.1870    -0.0020     0.1137     2.4509   -27.2828     7.6692     7.8296     8.6754
  187.5000   119.4782     8.1870     0.0002     0.1188     2.4456   -27.2850     7.6667     7.8825     8.6709
  188.0000   115.9967     8.1870     0.0084     0.1206     2.4598   -27.2873     7.6642     7.9357     8.5479
  188.5000   113.7260     8.1719     0.0159     0.1143     2.4740   -27.1384     7.6617     8.0448     8.5443
  189.0000   112.8167     8.1719     0.0204     0.1104     2.4792   -27.1407     7.7659     8.0992     8.5408
  189.5000   113.4204     8.1719     0.0218     0.1104     2.4724   -27.1429     7.8715     8.2106     8.9000
  190.0000   115.8395     8.1719     0.0233     0.1128     2.4821   -27.2962     7.9787     8.2660     9.4039
  190.5000   116.1409     8.1719     0.0143     0.1228     2.4498   -27.2985     8.1433     8.3807     9.6654
  191.0000   114.6262     8.1719     0.0030     0.1258     2.4340   -27.1495     8.2542     8.4970     9.5273
  191.5000   113.8683     8.1719     0.0083     0.1225     2.4475   -27.0008     8.3664     8.5553     9.0094
  192.0000   113.1103     8.1719     0.0120     0.1189     2.4527   -26.8520     8.5390     8.7303     8.7592
  192.5000   112.5037     8.1719     0.0142     0.1159     2.4579   -26.7032     8.7153     8.7893     8.8165
  193.0000   112.3509     8.1569     0.0134     0.1141     2.4676   -26.4013     8.7730     8.9102     8.9982
  193.5000   113.5597     8.1569     0.0150     0.1122     2.4811   -26.0944     8.7701     8.9083     9.2475
  194.0000   114.0121     8.1719     0.0217     0.1046     2.5005   -25.6525     8.7672     8.9065     9.4380
  194.5000   113.8593     8.1719     0.0293     0.0970     2.5148   -25.8059     8.7643     8.9046     9.6994
  195.0000   113.4039     8.1719     0.0336     0.0912     2.5215   -25.8086     8.7614     8.8412    10.0375
  195.5000   112.7973     8.1719     0.0266     0.0909     2.5259   -25.9619     8.7586     8.8394    10.1736
  196.0000   113.7196     8.1719     0.0198     0.1048     2.4816   -26.1152     8.6953     8.8372     9.7548
  196.5000   117.9863     8.1719     0.0129     0.1186     2.4538   -26.2685     8.6325     8.8353     9.3533
  197.0000   121.4725     8.1870     0.0056     0.1226     2.4425   -26.2707     8.5111     8.7725     9.1569
  197.5000   121.8684     8.2021     0.0027     0.1241     2.4417   -26.4240     8.5083     8.7706     9.1531
  198.0000   116.0131     8.2021     0.0027     0.1156     2.4619   -26.4263     8.4468     8.7082     9.1493
  198.5000   115.2089     8.2172     0.0012     0.1141     2.4603   -26.2769     8.4441     8.6462     9.2092
  199.0000   116.1147     8.2172     0.0012     0.1217     2.4415   -26.1281     8.4413     8.5847     9.2054
  199.5000   114.2978     8.2172     0.0034     0.1196     2.4633   -25.9798     8.4385     8.5236     9.2015
  200.0000   112.2349     8.2155     0.0112     0.1121     2.4799   -25.8304     8.4358     8.5362     9.1342
  200.5000   110.1120     8.2053     0.0150     0.1081     2.4809   -25.8326     8.4799     8.7039     9.0683
  201.0000   109.4554     8.1951     0.0108     0.1140     2.4819   -25.6826     8.5240     8.7553     9.0032
  201.5000   111.2708     8.1850    -0.0004     0.1292     2.4368   -25.3820     8.6019     8.7508     9.1264
  202.0000   113.3888     8.1738     0.0041     0.1256     2.4308   -25.2324     8.7087     8.8082     9.4459
  202.5000   115.5219     8.1742     0.0115     0.1178     2.4587   -24.9318     8.8886     8.9274     9.7765
  203.0000   117.3545     8.1747     0.0145     0.1241     2.4579   -24.6312     9.0101     9.0484     9.8419
  203.5000   118.7110     8.1751     0.0153     0.1316     2.4262   -24.6330     9.1968     9.2991     9.8392
  204.0000   119.5915     8.1756     0.0130     0.1292     2.4239   -24.6345     9.3873     9.5567     9.8364
  204.5000   115.8094     8.1760     0.0002     0.1247     2.4374   -24.6360     9.5818     9.7615     9.9711
  205.0000   113.3888     8.1614    -0.0020     0.1265     2.4239   -24.7886     9.7803    10.0354    10.2606
  205.5000   111.5734     8.1467    -0.0035     0.1238     2.4246   -24.9411     9.9835    10.2305    10.8298
  206.0000   110.0605     8.1472     0.0065     0.1130     2.4613   -25.0937    10.2604    10.4402    11.0552
  206.5000   109.6067     8.1477     0.0114     0.1055     2.4853   -25.2462    10.4730    10.6553    10.7491
  207.0000   110.0605     8.1340     0.0137     0.1125     2.4913   -25.3988    10.7641    10.7997    10.5249
  207.5000   111.2708     8.1363     0.0151     0.1187     2.4523   -25.7150    10.9871    11.0222    10.5952
  208.0000   112.3298     8.1385     0.0241     0.1070     2.4838   -25.8751    11.1374    11.2493    11.1192
  208.5000   110.9682     8.1407     0.0271     0.1103     2.4897   -25.8564    11.4486    11.4018    11.5885
  209.0000   110.0605     8.1430     0.0158     0.1157     2.4844   -25.8583    11.6906    11.6367    12.0776
  209.5000   109.4463     8.1452     0.0046     0.1091     2.4709   -25.5573    11.9377    11.7944    12.5012
  210.0000   109.1326     8.1474     0.0128     0.1076     2.4859   -25.2570    12.0893    11.7895    12.4106
  210.5000   108.6989     8.1496     0.0129     0.1160     2.4693   -25.2585    12.0855    11.8679    12.1517
  211.0000   108.3964     8.1519     0.0067     0.1136     2.4595   -24.9575    12.0824    11.8618    12.0652
  211.5000   110.9682     8.1541     0.0038     0.1079     2.4775   -24.6569    12.0793    11.8570    12.4004
  212.0000   107.7912     8.1563     0.0128     0.1034     2.4948   -24.6588    11.9929    11.8521    12.7457
