~VERSION INFORMATION
 VERS.                2.0:   CWLS LOG ASCII STANDARD - VERSION 2.0
 WRAP.                 NO:   ONE LINE PER DEPTH STEP
~WELL INFORMATION
#MNEM.UNIT      DATA TYPE    INFORMATION
#----------   ------------   ------------------------------
 STRT.F          283.5000:   START DEPTH
 STOP.F         3026.0000:   STOP DEPTH
 STEP.F            0.5000:   STEP LENGTH
 NULL.          -999.2500:   NO VALUE
 COMP. DEPARTMENT OF ENERGY:   COMPANY
 WELL. RES 3 TEAPOT DOM "AX" #62-29:   WELL
 FLD .        TEAPOT DOME:   FIELD
 LOC .      S29 T39N R78W:   LOCATION
 CNTY.            NATRONA:   COUNTY
 STAT.            WYOMING:   STATE
 CTRY. UNITED STATES OF AMERICA:   COUNTRY
 SRVC.       Schlumberger:   SERVICE COMPANY
 DATE.        27-JUL-1971:   LOGDATE
 API .       490250659800:   API NUMBER
~CURVE INFORMATION
#MNEM.UNIT       API CODE    CURVE DESCRIPTION
#----------   ------------   ------------------------------
 DEPT.F                  :   
 GRD .GAPI   45 310 01 00:   GAMMA RAY FROM DENSITY LOG
 CALD.IN     45 280 60 00:   CALIPER FROM DENSITY LOG
 RHOB.G/C3   45 350 01 00:   BULK DENSITY
 DPHI.DEC    45 890 12 00:   DENSITY POROSITY SANDSTONE
 CORR.G/C3   45 356 01 00:   DENSITY CORRECTION
 SPR .MV     05 010 01 00:   SPONTANEOUS POTENTIAL FROM RES.
 ASN .OHMM   05 041 16 00:   AMPLIFIED SHORT NORMAL 16"
 ILD .OHMM   05 120 46 00:   INDUCTION LOG DEEP
 CILD.MMHO   05 110 46 00:   CONDUCTIVITY INDUCTION LOG DEEP
~PARAMETER INFORMATION
#MNEM.UNIT          VALUE    DESCRIPTION
#----------   ------------   ------------------------------
 PD  .                 GL:   PERMANENT DATUM
 EPD .F              4998:   ELEVATION PERMANENT DATUM
 LMF .                 KB:   LOG MEASURED FROM
 DAPD.F                11:   FEET ABOVE PERMANENT DATUM
 DMF .                 KB:   DRILLING MEASURED FROM
 EKB .F              5009:   KELLING BUSHING
 EGL .F              4998:   GROUND LEVEL
 DATE.            7-27-71:   RUN DATE
 RUN .                  1:   RUN NUMBER
 DD  .F              3023:   DEPTH DRILLER
 DL  .F              3024:   DEPTH LOGGER
 BLI .F              3023:   BOTTOM LOG INTERVAL
 TLI .F               286:   TOP LOG INTERVAL
 CS  .IN            10.75:   CASING SIZE
 CBD .F               287:   CASING BOTTOM DRILLER
 CBL .F               286:   CASING BOTTOM LOGGER
 BS  .IN                9:   BIT SIZE
 BSD .F              3023:   BIT SIZE AT DEPTH
 DFT .      FRESH GEL MUD:   DRILLING FLUID TYPE
 DFD .                 10:   DRILLING FLUID DENSITY
 DFV .                 90:   DRILLING FLUID VISCOSITY
 DFPH.                7.6:   DRILLING FLUID PH
 DFL .                5.8:   DRILLING FLUID LOSS
 MSS .          FLOW LINE:   MUD SAMPLE SOURCE
 RMS .OHMM           1.74:   RESISTIVITY MUD SAMPLE
 MST .F                75:   MUD SAMPLE TEMPERATURE
 RMF .OHMM            1.5:   RESISTIVITY MUD FILTRATE SAMPLE
 MFST.F                75:   MUD FILTRATE SAMPLE TEMPERATURE
 MFSS.                  C:   MUD FILTRATE SAMPLE SOURCE
 RMB .OHMM           1.12:   RESISTIVITY MUD AT BHT
 BHT .F               116:   BOTTOM HOLE TEMPERATURE
 TCS .HRS               5:   TIME CURCULATED STOPPED
 MRT .F               116:   MAXIMUM RECORDED TEMPERATURE
 LUN .               7041:   LOGGING UNIT NUMBER
 LUL .               CSPR:   LOGGING UNIT LOCATION
 ENGI.             KNOBEL:   RECORDING ENGINEER
 WITN.                MAY:   WITNESSED BY
 CLNT.            A2DTECH:   CLIENT CODE
 ORIG.     1", 2.5" PRINT:   ORIGIN OF DATA
 UWI .       490250659800:   UNIQUE WELL ID
 DICO. A2D Technologies, Inc.:   DIGITIZING COMPANY
~OTHER INFORMATION
~A   DEPT      GRD       CALD       RHOB       DPHI       CORR        SPR        ASN        ILD       CILD   
# ...
 2364.0000   119.0994     9.6943     2.5807     0.0468     0.0449   -33.2086     9.3189     7.4599   124.1627
 2364.5000   123.9053     9.6902     2.5753     0.0408     0.0427   -33.1455     9.1732     7.2989   126.8931
 2365.0000   128.6420     9.6862     2.5544     0.0516     0.0327   -33.1384     9.1143     7.1491   129.7030
 2365.5000   127.3704     9.6821     2.5472     0.0615     0.0239   -33.1801     9.0849     7.0463   131.2739
 2366.0000   125.7119     9.6810     2.5573     0.0600     0.0289   -33.2334     9.0444     7.0200   132.9109
 2366.5000   124.6394     9.6811     2.5594     0.0538     0.0263   -33.2769     8.9833     7.0549   134.5479
 2367.0000   122.8859     9.6811     2.5495     0.0632     0.0242   -33.3148     8.9024     7.0980   135.6436
 2367.5000   120.8834     9.6811     2.5559     0.0558     0.0417   -33.3526     8.8184     7.1187   134.1914
 2368.0000   118.5816     9.6811     2.5686     0.0440     0.0538   -33.3920     8.7674     7.1401   133.1001
 2368.5000   119.9166     9.6811     2.5818     0.0390     0.0466   -33.4392     8.7725     7.1882   131.6832
 2369.0000   120.3906     9.6811     2.5810     0.0458     0.0380   -33.4905     8.8227     7.2299   131.6832
 2369.5000   118.7898     9.6811     2.5674     0.0519     0.0292   -33.5152     8.8846     7.1958   131.6832
 2370.0000   118.2033     9.6811     2.5530     0.0588     0.0261   -33.4831     8.9155     7.0662   133.6068
 2370.5000   119.7810     9.6811     2.5589     0.0542     0.0356   -33.4035     8.8724     6.8917   136.4130
 2371.0000   119.6516     9.6812     2.5710     0.0490     0.0465   -33.3141     8.7375     6.7199   139.2192
 2371.5000   118.6612     9.6811     2.5846     0.0446     0.0553   -33.2357     8.5426     6.5515   142.0255
 2372.0000   117.6135     9.6810     2.6029     0.0279     0.0824   -33.1603     8.3440     6.3870   144.8816
 2372.5000   118.0826     9.6765     2.5976     0.0305     0.0716   -33.0784     8.1784     6.2653   147.4227
 2373.0000   120.4335     9.6711     2.5896     0.0351     0.0617   -32.9965     8.0532     6.2198   148.4833
 2373.5000   122.6493     9.6657     2.6074     0.0255     0.0768   -32.9194     7.9726     6.2299   149.0557
 2374.0000   123.7982     9.6601     2.5787     0.0454     0.0509   -32.8400     7.9372     6.2485   150.1525
 2374.5000   121.7792     9.6548     2.5845     0.0407     0.0707   -32.7549     7.9167     6.2472   150.6842
 2375.0000   119.9269     9.6497     2.6173     0.0222     0.0666   -32.6756     7.8674     6.2032   151.6503
 2375.5000   119.0404     9.6428     2.6128     0.0284     0.0450   -32.6049     7.7922     6.0796   155.8949
 2376.0000   118.3578     9.6520     2.5591     0.0434     0.0302   -32.5228     7.7360     5.8678   159.9339
 2376.5000   117.7185     9.6729     2.5649     0.0527     0.0444   -32.4194     7.6882     5.6360   163.4784
 2377.0000   116.9993     9.6923     2.5704     0.0456     0.0508   -32.3426     7.5571     5.4746   167.4294
 2377.5000   116.3260     9.7122     2.5561     0.0565     0.0402   -32.3562     7.3099     5.4103   171.0925
 2378.0000   116.2139     9.7204     2.5460     0.0598     0.0397   -32.4570     7.0601     5.3887   174.8840
 2378.5000   119.3647     9.7080     2.5561     0.0561     0.0470   -32.5766     6.9464     5.3484   177.4365
 2379.0000   122.1868     9.6981     2.5659     0.0509     0.0488   -32.6777     7.0116     5.2847   179.2151
 2379.5000   118.5642     9.6875     2.5645     0.0533     0.0541   -32.7846     7.0376     5.2396   181.5370
 2380.0000   117.1459     9.6770     2.5548     0.0612     0.0348   -32.8954     7.1710     5.2341   180.1584
 2380.5000   116.7062     9.6667     2.5593     0.0541     0.0389   -32.9740     7.2955     5.2383   177.2277
 2381.0000   116.2972     9.6561     2.5456     0.0587     0.0324   -33.0551     7.4238     5.2764   175.5644
 2381.5000   115.8176     9.6458     2.5399     0.0644     0.0267   -33.2067     7.6016     5.5278   172.2904
 2382.0000   115.3838     9.6356     2.5529     0.0533     0.0297   -33.3530     7.6497     6.0968   169.3069
 2382.5000   114.9400     9.6239     2.5617     0.0580     0.0353   -33.3559     7.8379     6.7050   154.0693
 2383.0000   114.6182     9.6160     2.5504     0.0550     0.0521   -33.3675     8.4001     6.9990   140.0733
 2383.5000   114.0033     9.6024     2.5667     0.0510     0.0809   -33.8029     8.9430     7.2413   126.0772
 2384.0000   112.2103     9.5942     2.5584     0.0648     0.0738   -34.7987     9.7557     8.2040   112.0812
 2384.5000   102.6027     9.4745     2.5316     0.0808     0.0607   -36.0126    11.6100    10.1830    98.0852
 2385.0000    91.7912     9.3598     2.5278     0.0960     0.0755   -37.1479    14.0528    12.6232    84.0891
 2385.5000    80.6565     9.2303     2.4902     0.1110     0.0905   -38.2938    16.1538    14.9358    70.0931
 2386.0000    74.6914     9.1635     2.4495     0.1254     0.0842   -39.4979    17.8539    17.1333    56.4356
 2386.5000    75.0316     9.1708     2.4198     0.1420     0.0724   -40.4236    19.4753    19.4270    44.5545
 2387.0000    74.6051     9.1690     2.4249     0.1399     0.0655   -40.7880    20.7030    21.2889    42.1545
 2387.5000    76.8923     9.1687     2.4139     0.1383     0.0821   -40.8205    21.9307    22.4976    39.3747
 2388.0000    77.2162     9.1693     2.4515     0.1357     0.0773   -40.9189    23.0693    23.5768    35.8672
 2388.5000    74.9271     9.1690     2.4357     0.1208     0.0640   -41.1017    24.1399    24.7066    32.7886
 2389.0000    71.7713     9.1692     2.4167     0.1326     0.0729   -41.1171    25.2858    25.7870    32.1191
 2389.5000    70.3429     9.1687     2.4352     0.1385     0.0539   -40.9031    26.4317    26.5300    32.2638
 2390.0000    65.6346     9.1701     2.4184     0.1362     0.0581   -40.6507    27.5776    26.6546    31.6651
 2390.5000    63.9819     9.1696     2.4425     0.1280     0.0749   -40.4918    29.0099    26.6049    31.7017
 2391.0000    66.2823     9.2266     2.4526     0.1193     0.0526   -40.3153    29.0099    27.0556    31.2176
 2391.5000    70.9152     9.3062     2.4455     0.1194     0.0356   -39.8932    29.0099    27.6502    31.1574
 2392.0000    75.4308     9.3835     2.4557     0.1128     0.0390   -39.1283    29.0099    27.4920    30.7534
 2392.5000    80.2486     9.4622     2.4791     0.1040     0.0461   -38.1596    28.6823    26.4413    30.6635
 2393.0000    84.6164     9.4850     2.4922     0.0967     0.0454   -37.2406    28.0572    24.9478    32.6892
 2393.5000    88.5101     9.4930     2.4975     0.0864     0.0293   -36.5247    27.4322    23.4374    34.6745
 2394.0000    83.7131     9.5126     2.5580     0.0761     0.0188   -36.0160    26.8072    22.2919    36.5139
 2394.5000    84.1243     9.5316     2.5515     0.0629     0.0321   -35.6737    26.2079    21.5240    38.4576
 2395.0000    84.6863     9.5500     2.5408     0.0669     0.0392   -35.4578    24.8820    20.5245    40.5546
 2395.5000    86.0117     9.5690     2.5079     0.0823     0.0329   -35.3005    23.4859    19.2553    44.2293
 2396.0000    86.9230     9.5877     2.4924     0.0998     0.0345   -35.1304    22.2843    17.8371    48.3648
 2396.5000    89.8544     9.6065     2.4805     0.1105     0.0462   -34.9337    20.8800    16.3880    52.5003
 2397.0000    93.6313     9.6252     2.4968     0.0956     0.0615   -34.7405    19.6844    15.0057    56.6357
 2397.5000    96.9140     9.6442     2.5105     0.0840     0.0521   -34.5614    18.8540    13.8919    60.7712
 2398.0000   100.1880     9.6629     2.4999     0.0863     0.0341   -34.3823    17.5371    13.2046    64.9067
 2398.5000   103.6392     9.6800     2.5259     0.0800     0.0471   -34.1960    16.4745    12.8028    69.0422
 2399.0000   104.9019     9.6806     2.5316     0.0721     0.0601   -34.0059    16.0686    12.3862    72.2772
 2399.5000   105.3178     9.6645     2.5406     0.0667     0.0657   -33.8187    15.4843    11.8821    74.5826
 2400.0000   106.9688     9.6432     2.5481     0.0615     0.0637   -33.6513    14.9804    11.4731    76.4758
