~VERSION INFORMATION
 VERS.                2.0:   CWLS LOG ASCII STANDARD - VERSION 2.0
 WRAP.                 NO:   ONE LINE PER DEPTH STEP
~WELL INFORMATION
#MNEM.UNIT      DATA TYPE    INFORMATION
#----------   ------------   ------------------------------
 STRT.F           80.0000:   START DEPTH
 STOP.F          930.0000:   STOP DEPTH
 STEP.F            0.5000:   STEP LENGTH
 NULL.          -999.2500:   NO VALUE
 COMP. U S NAVY-INTEX OIL:   COMPANY
 WELL. RES 3 TEAPOT DOM #56-S-2:   WELL
 FLD .             TEAPOT:   FIELD
 LOC .       S2 T38N R78W:   LOCATION
 CNTY.            NATRONA:   COUNTY
 STAT.            WYOMING:   STATE
 CTRY. UNITED STATES OF AMERICA:   COUNTRY
 SRVC.       Schlumberger:   SERVICE COMPANY
 DATE.        24-JUN-1962:   LOGDATE
 API .       490250641900:   API NUMBER
~CURVE INFORMATION
#MNEM.UNIT       API CODE    CURVE DESCRIPTION
#----------   ------------   ------------------------------
 DEPT.F                  :   
 ASN .OHMM   05 041 16 00:   AMPLIFIED SHORT NORMAL 16"
 ILD .OHMM   05 120 46 00:   INDUCTION LOG DEEP
 CILD.MMHO   05 110 46 00:   CONDUCTIVITY INDUCTION LOG DEEP
 SPR .MV     05 010 01 00:   SPONTANEOUS POTENTIAL FROM RES.
 GR  .GAPI   30 310 01 00:   GAMMA RAY
~PARAMETER INFORMATION
#MNEM.UNIT          VALUE    DESCRIPTION
#----------   ------------   ------------------------------
 PD  .                 KB:   PERMANENT DATUM
 LMF .                 KB:   LOG MEASURED FROM
 DMF .                 KB:   DRILLING MEASURED FROM
 EKB .F              5179:   KELLING BUSHING
 EGL .F              5174:   GROUND LEVEL
 DATE.        24-JUN-1962:   RUN DATE
 RUN .                  1:   RUN NUMBER
 DD  .F               942:   DEPTH DRILLER
 DL  .F               931:   DEPTH LOGGER
 BLI .F               930:   BOTTOM LOG INTERVAL
 TLI .F                80:   TOP LOG INTERVAL
 BS  .IN             6.75:   BIT SIZE
 BSD .F               942:   BIT SIZE AT DEPTH
 DFT .       OIL EMULSION:   DRILLING FLUID TYPE
 DFD .                9.9:   DRILLING FLUID DENSITY
 DFV .                 55:   DRILLING FLUID VISCOSITY
 DFL .                3.7:   DRILLING FLUID LOSS
 RMS .OHMM            4.2:   RESISTIVITY MUD SAMPLE
 MST .F                79:   MUD SAMPLE TEMPERATURE
 RMF .OHMM            3.7:   RESISTIVITY MUD FILTRATE SAMPLE
 MFST.F                79:   MUD FILTRATE SAMPLE TEMPERATURE
 RMC .OHMM            4.0:   RESISTIVITY MUD CAKE
 MCST.F                79:   MUD CAKE SAMPLE TEMPERATURE
 TCS .HRS               1:   TIME CURCULATED STOPPED
 LUN .               2503:   LOGGING UNIT NUMBER
 LUL .               CSPR:   LOGGING UNIT LOCATION
 ENGI.             DANNER:   RECORDING ENGINEER
 WITN.          JORGENSEN:   WITNESSED BY
 CLNT.            A2DTECH:   CLIENT CODE
 ORIG.           5" PRINT:   ORIGIN OF DATA
 UWI .       490250641900:   UNIQUE WELL ID
 DICO. A2D Technologies, Inc.:   DIGITIZING COMPANY
~OTHER INFORMATION
~A   DEPT        ASN        ILD      CILD       SPR         GR   
# ...
  812.0000    29.5569    24.4176    35.0899   -83.5999    16.9101
  812.5000    30.9047    24.1931    36.5419   -82.6974    15.5490
  813.0000    30.6830    23.4431    37.2631   -80.8992    19.9120
  813.5000    29.4149    23.0541    38.7151   -80.5968    12.3773
  814.0000    26.2782    22.7567    40.1765   -83.2818    11.0185
  814.5000    26.3554    22.5248    40.1387   -82.8288    11.9176
  815.0000    26.6569    22.2372    40.1009   -82.6749     7.9963
  815.5000    26.0615    21.8648    40.8221   -80.2791    -2.2492
  816.0000    25.1671    21.1863    41.5244   -78.9293    -2.7056
  816.5000    24.6458    20.1450    48.2427   -79.2249    -2.8596
  817.0000    24.1258    19.6203    48.9545   -79.8171     1.2010
  817.5000    22.4841    19.2454    48.9072   -82.0526     8.8772
  818.0000    22.8603    19.2464    48.8694   -84.5917    18.0595
  818.5000    22.7880    19.3973    48.0819   -83.6904    21.2176
  819.0000    22.2674    19.5626    47.2945   -81.1447    23.4721
  819.5000    21.5966    19.6989    47.2566   -77.4115    24.3723
  820.0000    22.3471    19.6997    47.2264   -74.7078    22.4088
  820.5000    22.3496    19.3845    47.9401   -71.4148    22.2537
  821.0000    22.3521    18.7948    48.7457   -69.0187    19.6889
  821.5000    22.3546    18.5007    50.1133   -66.6226    20.2868
  822.0000    22.2824    18.2753    50.8251   -65.2728    20.7352
  822.5000    21.6870    18.0518    52.2865   -65.7167    20.1283
  823.0000    20.1200    17.8273    52.9985   -67.0582    24.7913
  823.5000    19.4498    17.3776    53.7106   -69.5948    26.1433
  824.0000    18.7797    16.9279    55.9212   -71.3106    20.3033
  824.5000    17.7358    16.1780    58.1334   -72.5761    22.8739
  825.0000    17.5889    16.1787    58.0944   -72.7210    23.2683
  825.5000    17.4419    16.2545    58.0565   -72.7154    22.7269
  826.0000    17.3690    16.3304    58.0187   -72.8615    15.3173
  826.5000    17.5964    16.4062    57.9809   -72.8559    17.3126
  827.0000    17.5241    16.4820    57.9431   -73.0020    18.1297
  827.5000    17.3766    16.4828    58.6643   -72.9963    15.8484
  828.0000    17.0661    16.3334    58.6170   -72.3939    23.3701
  828.5000    16.7837    16.2589    58.5792   -71.7915    23.9896
  829.0000    16.7114    16.1848    59.3005   -71.7870    17.2534
  829.5000    16.7140    16.1103    59.2532   -71.9331    16.9022
  830.0000    16.7165    16.0359    59.2153   -71.4790    22.0638
  830.5000    16.7190    15.8865    59.1775   -71.1755    21.3346
  831.0000    16.5666    15.8122    59.1397   -71.1710    16.1356
  831.5000    16.3463    15.6630    59.8609   -71.1380    25.0826
  832.0000    16.2008    15.5136    60.5727   -70.8381    31.1868
  832.5000    16.0553    15.3640    62.7743   -70.6875    29.2244
  833.0000    15.8346    15.2897    64.2452   -70.5561    36.3037
  833.5000    15.6129    15.2156    64.9570   -70.2526    38.1009
  834.0000    15.3912    15.1411    65.6688   -69.9253    43.2169
  834.5000    15.2442    14.9919    65.7320   -69.4962    44.4242
  835.0000    15.0225    14.8425    66.4166   -69.6413    21.9729
  835.5000    14.9502    14.8279    67.8042   -69.6368    27.3900
  836.0000    14.8780    14.6937    68.5160   -69.7818    23.9216
  836.5000    14.7310    14.6085    69.2279   -69.4783    26.1761
  837.0000    14.5841    14.3864    69.9400   -68.7264    21.5029
  837.5000    14.4370    14.0953    69.9018   -68.5724    19.5406
  838.0000    14.2154    13.9419    70.6136   -68.8668    16.3734
  838.5000    14.1611    13.4945    71.3268   -69.4604    20.1339
  839.0000    14.0711    13.4219    73.5364   -69.4557    20.4307
  839.5000    13.9982    13.4978    74.2577   -69.4512    21.3297
  840.0000    14.0761    13.6487    72.7111   -69.7457    24.3372
  840.5000    14.0786    13.7996    71.9237   -70.4897    21.4712
  841.0000    14.0058    14.0255    71.1362   -70.0356    19.9607
  841.5000    14.1584    14.1014    70.3488   -69.8816    24.7754
  842.0000    14.2356    14.0271    70.3109   -69.8771    25.5502
  842.5000    14.3128    14.0278    69.5235   -69.8726    19.4953
  843.0000    14.3895    13.9533    69.4857   -69.8681    16.1775
  843.5000    14.0189    13.8792    69.4478   -69.5646    16.9260
  844.0000    13.9460    13.8047    70.1691   -69.2611    21.7407
  844.5000    13.7991    13.7304    74.6195   -69.1072    25.8025
  845.0000    13.7268    13.7313    74.5817   -68.9532    29.7147
  845.5000    13.5799    13.8071    74.5439   -68.7992    17.0585
  846.0000    13.7435    13.8830    73.7564   -68.6452    17.2057
  846.5000    13.9688    13.9588    72.2194   -68.3417    17.2000
  847.0000    14.0446    14.0346    71.4319   -67.8888    15.8401
  847.5000    14.4940    14.1855    69.7654   -67.2864    14.0294
  848.0000    14.6387    14.4866    68.2560   -66.6840    26.3732
  848.5000    14.5665    15.0129    65.2472   -65.7826    34.3506
  849.0000    14.6466    15.6142    61.4891   -64.7317    34.6484
  849.5000    14.7210    16.0654    58.5083   -63.8304    24.1005
  850.0000    14.7235    16.2162    58.4708   -63.2291    30.8743
  850.5000    14.5783    16.0693    60.4268   -63.7458    28.3093
  851.0000    14.3578    15.0212    62.3829   -64.2565    30.3190
  851.5000    13.9131    13.9732    65.9196   -64.6982    31.4714
  852.0000    13.3937    13.3756    70.4024   -64.5376    27.9257
  852.5000    13.0975    13.1533    73.3859   -64.5287    26.0341
  853.0000    12.8032    12.7809    77.8687   -64.3703    26.0754
  853.5000    12.5827    12.4836    80.1064   -65.1087    28.9930
  854.0000    12.2127    12.2614    83.8358   -64.9503    27.9397
  854.5000    11.7671    11.8890    84.5742   -64.6425    30.0846
  855.0000    11.6961    11.7417    85.3088   -64.6336    45.0402
  855.5000    11.7007    11.6697    85.2901   -64.6246    39.7951
  856.0000    11.7044    11.6727    85.2752   -64.6157    32.9636
  856.5000    11.7082    11.6757    85.2602   -64.6068    27.8416
  857.0000    11.7119    11.6787    85.9986   -64.5979    32.6594
  857.5000    11.6408    11.6817    86.7333   -64.5890    23.0193
  858.0000    11.6446    11.6847    86.7145   -64.7295    29.1925
  858.5000    11.6483    11.6877    87.4529   -64.7205    34.0103
  859.0000    11.5773    11.6156    87.4342   -64.7115    39.4305
  859.5000    11.5053    11.4684    86.6734   -64.7026    26.7784
  860.0000    11.2857    11.3963    87.4080   -64.6936    33.2531
  860.5000    11.1400    11.3242    88.1427   -64.6846    27.9802
  861.0000    10.9942    11.2521    88.8774   -64.4993    23.4606
  861.5000    10.9980    11.1800    89.6120   -64.0670    26.1699
  862.0000    10.9267    11.1079    90.3467   -63.6096    33.9998
  862.5000    10.9306    11.0358    91.8310   -63.3018    32.9441
  863.0000    10.9344    11.0396    92.5656   -62.9939    36.8582
  863.5000    10.9381    10.8924    92.5469   -63.1367    38.8149
  864.0000    10.8670    10.8196    92.5319   -63.8729    34.4460
  864.5000    10.8708    10.8233    94.0162   -64.9126    43.3296
  865.0000    10.7997    10.7505    94.0013   -64.7520    38.6595
  865.5000    10.8035    10.6784    93.9863   -63.9957    37.3029
  866.0000    10.8072    10.6063    93.9713   -62.7909    49.3492
  866.5000    10.8109    10.6851    93.2067   -62.3336    43.1730
  867.0000    10.7399    10.9133    92.4421   -62.3247    32.6294
  867.5000    10.8184    10.9914    91.6775   -62.0168    33.2303
  868.0000    10.8221    11.0694    90.9129   -61.5594    36.8436
  868.5000    10.9006    11.0724    90.8980   -61.7022    27.6550
  869.0000    10.9791    10.9996    90.1334   -61.6911    30.8161
  869.5000    10.9828    11.0784    90.1184   -61.8339    33.0737
  870.0000    10.9865    11.0814    90.8568   -61.9744    30.6625
  870.5000    10.9788    11.0844    90.8381   -62.2645    24.9381
  871.0000    10.9191    11.0874    91.5765   -62.7018    33.0692
  871.5000    10.9230    11.0903    92.3074   -62.9940    40.4472
  872.0000    10.8518    11.0933    93.0458   -63.1346    41.3493
  872.5000    10.7808    11.0205    95.2760   -62.9740    43.4562
