~VERSION INFORMATION
 VERS.                2.0:   CWLS LOG ASCII STANDARD - VERSION 2.0
 WRAP.                 NO:   ONE LINE PER DEPTH STEP
~WELL INFORMATION
#MNEM.UNIT      DATA TYPE    INFORMATION
#----------   ------------   ------------------------------
 STRT.F            0.0000:   START DEPTH
 STOP.F          700.0000:   STOP DEPTH
 STEP.F            0.5000:   STEP LENGTH
 NULL.          -999.2500:   NO VALUE
 COMP. FENIX & SCISSON INC:   COMPANY
 WELL. 37-11 SX 11 WP #11-11:   WELL
 FLD .             TEAPOT:   FIELD
 LOC .      S11 T38N R78W:   LOCATION
 CNTY.            NATRONA:   COUNTY
 STAT.            WYOMING:   STATE
 CTRY. UNITED STATES OF AMERICA:   COUNTRY
 SRVC.      Dresser Atlas:   SERVICE COMPANY
 DATE.        21-AUG-1980:   LOGDATE
 API .       490251084200:   API NUMBER
~CURVE INFORMATION
#MNEM.UNIT       API CODE    CURVE DESCRIPTION
#----------   ------------   ------------------------------
 DEPT.F                  :   
 SPR .MV     07 010 01 00:   SPONTANEOUS POTENTIAL
 RFOC.OHMM   07 220 04 00:   RESISTIVITY FOCUSED LOG
 RILD.OHMM   07 120 46 00:   INDUCTION LOG DEEP RESISTIVITY
 RILM.OHMM   07 120 44 00:   INDUCTION LOG MEDIUM RESISTIVITY
 GRD .GAPI   45 310 01 00:   GAMMA RAY FROM DENSITY LOG
 CALD.IN     45 280 60 00:   CALIPER
 RHOB.G/C3   45 350 01 00:   BULK DENSITY
 CORR.G/C3   45 356 01 00:   DENSITY CORRECTION
 CNC .DEC    42 890 03 00:   NEUTRON POROSITY SANDSTONE
 PORD.DEC    45 890 12 00:   POROSITY DENSITY SANDSTONE
~PARAMETER INFORMATION
#MNEM.UNIT          VALUE    DESCRIPTION
#----------   ------------   ------------------------------
 PD  .                 GL:   PERMANENT DATUM
 EPD .F              5194:   ELEVATION PERMANENT DATUM
 LMF .                 KB:   LOG MEASURED FROM
 DAPD.F                 5:   FEET ABOVE PERMANENT DATUM
 DMF .                 KB:   DRILLING MEASURED FROM
 EKB .F              5199:   KELLING BUSHING
 EDF .F              5198:   DRILLING FLOOR
 EGL .F              5194:   GROUND LEVEL
 DATE.            8-21-80:   RUN DATE
 RUN .                  1:   RUN NUMBER
 DD  .F               695:   DEPTH DRILLER
 DL  .F               700:   DEPTH LOGGER
 BLI .F               699:   BOTTOM LOG INTERVAL
 BS  .IN            7.875:   BIT SIZE
 BSD .F               695:   BIT SIZE AT DEPTH
 DFT .      DISPERSED KCL:   DRILLING FLUID TYPE
 DFD .               2.68:   DRILLING FLUID DENSITY
 DFV .                 50:   DRILLING FLUID VISCOSITY
 DFPH.                 14:   DRILLING FLUID PH
 DFL .                 18:   DRILLING FLUID LOSS
 MSS .           FLOWLINE:   MUD SAMPLE SOURCE
 RMS .OHMM           .256:   RESISTIVITY MUD SAMPLE
 MST .F                70:   MUD SAMPLE TEMPERATURE
 RMF .OHMM           .393:   RESISTIVITY MUD FILTRATE SAMPLE
 MFST.F                66:   MUD FILTRATE SAMPLE TEMPERATURE
 RMC .OHMM           .858:   RESISTIVITY MUD CAKE
 MCST.F                66:   MUD CAKE SAMPLE TEMPERATURE
 MFSS.               MEAS:   MUD FILTRATE SAMPLE SOURCE
 MCSS.               MEAS:   MUD CAKE SAMPLE SOURCE
 RMB .OHMM            .53:   RESISTIVITY MUD AT BHT
 BHT .F                99:   BOTTOM HOLE TEMPERATURE
 TCS .HRS               3:   TIME CURCULATED STOPPED
 MRT .F                99:   MAXIMUM RECORDED TEMPERATURE
 LUN .               9369:   LOGGING UNIT NUMBER
 LUL .       ROCK SPRINGS:   LOGGING UNIT LOCATION
 ENGI.            PAULSON:   RECORDING ENGINEER
 WITN.              SCOTT:   WITNESSED BY
 CLNT.            A2DTECH:   CLIENT CODE
 ORIG.       2", 5" PRINT:   ORIGIN OF DATA
 UWI .       490251084200:   UNIQUE WELL ID
 DICO. A2D Technologies, Inc.:   DIGITIZING COMPANY
~OTHER INFORMATION
~A    DEPT     SPR       RFOC       RILD       RILM        GRD       CALD       RHOB       CORR        CNC         PORD 
# ...
  167.5000   -15.9638     6.0985     5.8859     5.9805    96.0188     8.0061     2.4733    -0.0036     0.2975     0.1220
  168.0000   -14.9925     6.2886     5.9453     6.0809   100.1500     8.0061     2.4604    -0.0087     0.2844     0.1187
  168.5000   -14.5469     6.5931     6.0132     6.1831   102.7052     8.0061     2.4512    -0.0140     0.2809     0.1202
  169.0000   -14.7041     6.9087     6.1040     6.2869    99.5852     8.0061     2.4642    -0.0132     0.2781     0.1173
  169.5000   -14.8748     7.0774     6.1962     6.3925    96.4196     8.0061     2.4825    -0.0094     0.2652     0.1115
  170.0000   -15.2784     6.8991     6.2898     6.5089    93.4808     8.0061     2.4813    -0.0057     0.2576     0.1057
  170.5000   -15.7895     6.7382     6.3847     6.4953    90.6786     8.0061     2.4773    -0.0019     0.2700     0.1010
  171.0000   -16.3055     6.6306     6.4504     6.4784    88.0121     8.0061     2.4838     0.0019     0.2817     0.0948
  171.5000   -16.7933     6.7340     6.3779     6.4616    86.2421     8.0061     2.4925     0.0052     0.2774     0.0822
  172.0000   -17.0535     6.8273     6.3234     6.4326    88.9756     8.0061     2.5013     0.0059     0.2728     0.0514
  172.5000   -17.3216     6.9212     6.2693     6.3800    94.8570     8.0061     2.5101     0.0067     0.2809     0.0396
  173.0000   -17.2836     7.0164     6.2157     6.3278    99.0848     8.0061     2.5184     0.0104     0.2840     0.0607
  173.5000   -17.1307     7.0778     6.1626     6.2760   100.8778     8.0061     2.5579     0.0195     0.2860     0.0838
  174.0000   -16.8409     6.9138     6.1099     6.2246   100.0655     8.0061     2.6075     0.0218     0.2934     0.0910
  174.5000   -16.2074     6.7074     6.0576     6.1737    98.9223     8.0061     2.6236     0.0126     0.3003     0.0931
  175.0000   -15.4743     6.5070     6.0058     6.1232    97.9461     8.0061     2.5696     0.0065     0.2997     0.1011
  175.5000   -15.3450     6.3909     5.9545     6.0731    97.0525     8.0061     2.5275     0.0052     0.3046     0.1129
  176.0000   -15.3438     6.4272     5.9036     6.0233    95.0711     8.0061     2.5262     0.0085     0.2973     0.1213
  176.5000   -15.3449     6.4573     5.8531     5.9739    94.0377     8.0061     2.5234     0.0055     0.2920     0.1291
  177.0000   -15.3484     6.4876     5.8248     5.9245    95.2909     8.0061     2.5092     0.0010     0.2869     0.1295
  177.5000   -15.1638     6.5106     5.8503     5.8796    96.3941     8.0061     2.4948    -0.0034     0.2763     0.1235
  178.0000   -14.8950     6.3952     5.8791     5.9897    94.7931     8.0061     2.4805    -0.0096     0.2651     0.1172
  178.5000   -14.6189     6.2872     5.9969     6.0984    92.8107     8.0061     2.4661    -0.0166     0.2714     0.1143
  179.0000   -14.3471     6.2734     6.1103     6.2086    93.7781     8.0061     2.4599    -0.0230     0.2918     0.1150
  179.5000   -14.8675     6.4547     6.2259     6.3206    97.6306     8.0061     2.4694    -0.0185     0.2872     0.1114
  180.0000   -15.4651     6.6002     6.3436     6.4347   100.9150     8.0061     2.4837    -0.0139     0.2741     0.1040
  180.5000   -16.0612     6.7492     6.4636     6.5508   100.1740     8.0061     2.4864    -0.0088     0.2526     0.1051
  181.0000   -16.6569     6.9014     6.5859     6.6690    99.0971     8.0061     2.4836    -0.0037     0.2483     0.1088
  181.5000   -17.2638     7.0571     6.7104     6.7894    97.7720     8.0061     2.4920     0.0012     0.2540     0.1101
  182.0000   -17.4151     7.2163     6.8373     6.9122    95.5205     8.0061     2.5046     0.0049     0.2558     0.0896
  182.5000   -17.4627     7.3790     6.9473     7.0368    94.8280     8.0061     2.5081     0.0011     0.2527     0.0754
  183.0000   -17.5082     7.5535     6.9196     7.1444    94.8259     8.0061     2.4911    -0.0072     0.2523     0.0795
  183.5000   -17.5597     7.5532     6.7473     6.9751    93.5229     8.0061     2.4927    -0.0090     0.2609     0.0991
  184.0000   -17.8470     7.3148     6.5792     6.8035    89.9147     8.0061     2.5218     0.0102     0.2728     0.1150
  184.5000   -18.4479     7.1450     6.4152     6.6360    86.0407     8.0061     2.5548     0.0277     0.2737     0.1239
  185.0000   -19.0352     6.9796     6.2552     6.4729    87.0096     8.0061     2.5434     0.0260     0.2714     0.1293
  185.5000   -19.7973     6.8180     6.1014     6.3138    90.2760     8.0061     2.5130     0.0161     0.2700     0.1347
  186.0000   -20.4210     6.6602     6.0375     6.1587    90.4568     8.0061     2.4820    -0.0013     0.2725     0.1363
  186.5000   -20.9834     6.5060     5.9820     6.0894    90.0458     8.0061     2.4701    -0.0151     0.2779     0.1272
  187.0000   -21.5502     6.3554     5.9510     6.0704    91.4923     8.0061     2.4603    -0.0203     0.2801     0.1173
  187.5000   -22.1368     6.2734     5.9201     6.0515    92.7533     8.0061     2.4521    -0.0257     0.2768     0.1076
  188.0000   -21.9673     6.2155     5.8791     6.0450    92.0154     8.0061     2.4500    -0.0311     0.2717     0.1072
  188.5000   -21.4552     6.3209     5.9364     6.0995    91.4887     8.0061     2.4628    -0.0281     0.2677     0.1209
  189.0000   -20.9424     6.4455     6.0240     6.2182    93.6397     8.0061     2.4806    -0.0188     0.2664     0.1099
  189.5000   -20.6640     6.5725     6.1128     6.3393    97.0397     8.0061     2.4972    -0.0098     0.2660     0.0774
  190.0000   -20.8785     6.7020     6.2029     6.4628    97.6530     8.0061     2.4887    -0.0069     0.2693     0.0366
  190.5000   -21.0860     6.8341     6.2944     6.5886    95.7676     8.0061     2.4767    -0.0122     0.2770     0.0407
  191.0000   -21.2609     6.9688     6.3872     6.7169    94.6868     8.0061     2.4915    -0.0135     0.2802     0.0612
  191.5000   -20.8008     7.1433     6.4713     6.8832    96.6249     8.0061     2.5494     0.0032     0.2835     0.0931
  192.0000   -19.8377     7.0797     6.5354     6.8513    99.2583     8.0061     2.6078     0.0165     0.2793     0.1187
  192.5000   -18.8863     6.9623     6.6002     6.8092   100.1878     8.0061     2.6233     0.0270     0.2716     0.1226
  193.0000   -17.9411     6.8196     6.6656     6.7563    95.8582     8.0061     2.5751     0.0095     0.2751     0.1113
  193.5000   -17.0007     6.8720     6.7316     6.7892    92.7369     8.0061     2.5222    -0.0104     0.2804     0.0956
  194.0000   -16.1987     6.9413     6.7984     6.8473    91.7584     8.0061     2.4778    -0.0302     0.2774     0.0838
  194.5000   -16.2355     7.0113     6.8658     6.9058    91.5150     8.0061     2.4711    -0.0260     0.2744     0.0860
  195.0000   -16.3223     7.0821     6.9473     6.9649    92.0085     8.0061     2.4956    -0.0001     0.2780     0.0925
  195.5000   -16.4679     7.1535     6.9178     7.0245    93.1767     8.0061     2.5228     0.0199     0.2816     0.0942
  196.0000   -16.6551     7.2257     6.8693     7.0845    94.3640     8.0061     2.5393     0.0205     0.2878     0.0970
  196.5000   -16.8425     7.2986     6.8212     7.1433    96.6114     8.0061     2.5320     0.0209     0.2994     0.1064
  197.0000   -17.0299     7.3722     6.7734     7.0686    99.0371     8.0061     2.5240     0.0121     0.2994     0.1146
  197.5000   -17.2179     7.4133     6.7259     6.9958   101.3062     8.0061     2.5197     0.0063     0.2917     0.1165
  198.0000   -17.4070     7.2486     6.6788     6.9240   101.5962     8.0061     2.5166     0.0020     0.2873     0.1096
  198.5000   -17.5710     7.1192     6.6320     6.8532    99.9356     8.0061     2.4998    -0.0023     0.2945     0.1073
  199.0000   -17.3959     7.0363     6.5855     6.7830    97.9933     8.0061     2.4832    -0.0067     0.2966     0.1081
  199.5000   -17.2161     6.9506     6.5393     6.7135    96.2149     8.0061     2.4871    -0.0037     0.2867     0.1040
  200.0000   -17.0379     6.8660     6.4935     6.6448    95.1902     8.0061     2.4955    -0.0012     0.2773     0.0899
  200.5000   -16.8599     6.7824     6.4480     6.5712    95.9878     8.0060     2.4974    -0.0021     0.2866     0.0768
