~VERSION INFORMATION
 VERS.                2.0:   CWLS LOG ASCII STANDARD - VERSION 2.0
 WRAP.                 NO:   ONE LINE PER DEPTH STEP
~WELL INFORMATION
#MNEM.UNIT      DATA TYPE    INFORMATION
#----------   ------------   ------------------------------
 STRT.F            0.0000:   START DEPTH
 STOP.F          497.0000:   STOP DEPTH
 STEP.F            0.5000:   STEP LENGTH
 NULL.          -999.2500:   NO VALUE
 COMP. LAWRENCE/ALLISON INC:   COMPANY
 WELL.   73-66 STX #10-10:   WELL
 FLD .             TEAPOT:   FIELD
 LOC .      S10 T38N R78W:   LOCATION
 CNTY.            NATRONA:   COUNTY
 STAT.            WYOMING:   STATE
 CTRY. UNITED STATES OF AMERICA:   COUNTRY
 SRVC.           Gearhart:   SERVICE COMPANY
 DATE.        15-JUN-1987:   LOGDATE
 API .       490251112900:   API NUMBER
~CURVE INFORMATION
#MNEM.UNIT       API CODE    CURVE DESCRIPTION
#----------   ------------   ------------------------------
 DEPT.F                  :   
 RILD.OHMM   07 120 46 00:   INDUCTION LOG DEEP RESISTIVITY
 RILM.OHMM   07 120 44 00:   INDUCTION LOG MEDIUM RESISTIVITY
 GRR .GAPI   07 310 01 00:   GAMMA RAY FROM RES. LOG.
~PARAMETER INFORMATION
#MNEM.UNIT          VALUE    DESCRIPTION
#----------   ------------   ------------------------------
 PD  .                 GL:   PERMANENT DATUM
 EPD .F              5174:   ELEVATION PERMANENT DATUM
 LMF .                 KB:   LOG MEASURED FROM
 DAPD.F                 8:   FEET ABOVE PERMANENT DATUM
 DMF .                 KB:   DRILLING MEASURED FROM
 EKB .F              5182:   KELLING BUSHING
 EDF .F              5180:   DRILLING FLOOR
 EGL .F              5174:   GROUND LEVEL
 DATE.            6-15-87:   RUN DATE
 RUN .                  1:   RUN NUMBER
 DD  .F               550:   DEPTH DRILLER
 DL  .F               505:   DEPTH LOGGER
 BLI .F               502:   BOTTOM LOG INTERVAL
 TLI .F                41:   TOP LOG INTERVAL
 CS  .IN            8.625:   CASING SIZE
 CBD .F                47:   CASING BOTTOM DRILLER
 CBL .F                41:   CASING BOTTOM LOGGER
 BS  .IN            7.875:   BIT SIZE
 BSD .F               550:   BIT SIZE AT DEPTH
 DFT .               FOAM:   DRILLING FLUID TYPE
 TCS .HRS            1715:   TIME CURCULATED STOPPED
 TLAB.HRS            2144:   TIME LOGGER AT BOTTOM
 LUN .               7597:   LOGGING UNIT NUMBER
 LUL .           GILLETTE:   LOGGING UNIT LOCATION
 ENGI.             SLATKY:   RECORDING ENGINEER
 WITN.             STRONG:   WITNESSED BY
 CLNT.            A2DTECH:   CLIENT CODE
 ORIG.     1", 2.5" PRINT:   ORIGIN OF DATA
 UWI .       490251112900:   UNIQUE WELL ID
 DICO. A2D Technologies, Inc.:   DIGITIZING COMPANY
~OTHER INFORMATION
~A    DEPT    RILD       RILM         GRR  
# ...
  364.0000    14.0840    12.3769    77.6486
  364.5000    14.2661    12.5101    76.9447
  365.0000    14.6731    12.8069    73.7202
  365.5000    15.4058    13.0816    73.0143
  366.0000    16.5282    13.7704    73.9411
  366.5000    17.5759    14.3749    74.9058
  367.0000    19.9800    16.8438    73.2546
  367.5000    22.3894    19.3871    68.6817
  368.0000    25.0894    22.3126    64.4433
  368.5000    28.1150    25.6783    60.0289
  369.0000    31.5054    28.9546    58.3254
  369.5000    35.3047    31.6714    58.4384
  370.0000    39.5621    34.6437    58.6656
  370.5000    44.9713    37.8958    58.9037
  371.0000    43.8354    42.6112    58.5653
  371.5000    43.1735    42.0620    56.9527
  372.0000    42.5265    41.1773    55.1955
  372.5000    41.8870    40.3108    56.2334
  373.0000    41.2497    39.4640    57.5491
  373.5000    40.7322    38.6365    59.0592
  374.0000    39.7223    37.8283    59.8913
  374.5000    38.7414    37.0382    59.3140
  375.0000    37.7847    36.1138    58.8360
  375.5000    36.8516    35.3528    58.3367
  376.0000    35.9416    34.4263    57.7659
  376.5000    35.4427    33.5234    57.5987
  377.0000    34.9626    32.6444    58.2292
  377.5000    34.5103    31.7892    58.5174
  378.0000    34.0638    30.9570    61.4537
  378.5000    33.6230    30.1475    64.1615
  379.0000    33.1880    29.3591    64.7163
  379.5000    32.7586    28.5913    63.2430
  380.0000    32.3182    28.1038    61.3792
  380.5000    31.9050    27.7113    59.6253
  381.0000    31.4805    27.3243    57.6126
  381.5000    31.0971    26.8712    58.9084
  382.0000    30.8551    26.8712    60.5685
  382.5000    30.6149    26.8712    62.3943
  383.0000    30.3766    26.8712    64.0624
  383.5000    30.1402    26.8712    65.7760
  384.0000    29.9056    26.6302    66.9656
  384.5000    29.6728    25.8973    65.6440
  385.0000    29.4419    25.9491    64.6423
  385.5000    29.2127    26.0507    65.5664
  386.0000    28.9853    26.1527    66.4857
  386.5000    28.7592    26.2551    67.4565
  387.0000    28.5346    26.3578    67.5660
  387.5000    28.3117    26.3797    66.6219
  388.0000    28.0907    26.3797    66.2277
  388.5000    27.8788    25.6310    66.2790
  389.0000    27.3448    24.8272    66.2638
  389.5000    26.8374    24.2958    66.2591
  390.0000    26.3396    23.7757    66.2641
  390.5000    25.8509    23.2668    66.2615
  391.0000    25.3710    22.7688    66.2499
  391.5000    24.8997    22.2814    66.2725
  392.0000    24.4369    21.8044    66.2930
  392.5000    23.9827    21.3377    67.2291
  393.0000    23.5371    20.8810    68.3117
  393.5000    23.1004    20.4340    69.4191
  394.0000    22.6712    20.0000    70.5190
  394.5000    22.3183    20.0000    71.5854
  395.0000    22.2104    20.0000    72.6789
  395.5000    22.1029    20.0000    72.2616
  396.0000    21.9960    20.0000    71.4907
  396.5000    21.8895    20.0000    70.6290
  397.0000    21.7836    19.8220    70.2597
  397.5000    21.6782    19.6239    70.3825
  398.0000    21.5734    19.4277    69.1819
  398.5000    21.4690    19.2335    67.8287
  399.0000    21.3651    18.9226    68.2583
  399.5000    21.2617    18.9898    68.6573
  400.0000    21.1387    19.1687    67.8174
  400.5000    20.9013    19.3493    66.0150
  401.0000    20.6093    19.6342    65.7367
  401.5000    20.3215    19.3552    66.3883
  402.0000    20.0000    18.7371    67.0145
  402.5000    19.5980    18.1387    66.2845
  403.0000    19.1440    17.5595    65.5002
  403.5000    18.7004    16.9987    64.7448
  404.0000    18.3013    16.5872    65.9450
  404.5000    17.9239    16.4581    67.1421
  405.0000    17.5543    16.3226    67.9449
  405.5000    17.2545    16.3248    67.8674
  406.0000    16.8933    16.2083    67.8569
  406.5000    16.5914    15.9071    67.8282
  407.0000    16.2949    15.6107    67.1508
  407.5000    16.0037    15.3195    66.5610
  408.0000    15.7334    15.0338    65.9265
  408.5000    15.5785    14.7539    65.7006
  409.0000    15.4331    14.5970    66.7917
  409.5000    15.2891    14.5689    67.8523
  410.0000    15.1631    14.5411    68.9692
  410.5000    15.1631    14.5134    70.0584
  411.0000    15.1631    14.4856    71.0505
  411.5000    15.1631    14.4576    71.3182
  412.0000    15.1631    14.4294    71.5733
  412.5000    15.1631    14.4012    71.7314
  413.0000    15.1631    14.3735    72.4542
  413.5000    15.1631    14.3463    73.7812
  414.0000    15.1631    14.2476    74.2296
  414.5000    15.1631    14.1525    73.9013
  415.0000    15.1631    14.0580    73.6072
  415.5000    15.0346    13.9642    73.8549
  416.0000    14.8902    13.8710    74.8845
  416.5000    14.7472    13.7739    75.8944
  417.0000    14.6055    13.6733    77.0016
  417.5000    14.4652    13.5736    77.1094
  418.0000    14.3263    13.4745    75.8644
  418.5000    14.1887    13.3761    74.6489
  419.0000    14.0524    13.2785    74.6720
  419.5000    13.9174    13.1816    75.4129
  420.0000    13.7837    13.0854    76.0986
  420.5000    13.6513    12.9899    76.7655
  421.0000    13.5202    12.8951    77.4305
  421.5000    13.3253    12.8010    78.1166
  422.0000    13.3447    12.7075    77.7730
  422.5000    13.3839    12.6075    76.9238
  423.0000    13.4231    12.6986    77.3783
  423.5000    13.4625    12.7982    78.3137
  424.0000    13.5020    12.8986    79.2355
  424.5000    13.5402    12.9998    80.2668
  425.0000    13.5714    13.0816    80.1905
  425.5000    13.5131    13.0202    78.4637
  426.0000    13.4652    12.9441    76.9759
  426.5000    13.4173    12.8685    75.2469
  427.0000    13.3690    12.7804    75.1185
  427.5000    13.3242    12.6861    75.5411
  428.0000    13.3237    12.5926    75.9676
  428.5000    13.1985    12.4997    77.4723
  429.0000    13.0586    12.4075    79.0352
  429.5000    12.9202    12.3160    79.5660
  430.0000    12.7832    12.2252    78.0041
  430.5000    12.6478    12.1506    76.6005
  431.0000    12.5137    12.0397    75.0735
  431.5000    12.3811    11.9460    74.4549
  432.0000    12.2499    11.8530    75.1937
  432.5000    12.1018    11.7608    76.2972
  433.0000    11.8972    11.6080    77.2467
  433.5000    11.6961    11.3834    77.1012
  434.0000    11.4984    11.1632    77.0224
  434.5000    11.2858    10.9473    78.3606
  435.0000    11.0488    10.7355    79.6759
  435.5000    10.7928    10.4388    81.1034
  436.0000    10.5454    10.1176    81.3553
  436.5000    10.2760     9.9179    80.9232
  437.0000    10.0055     9.4777    81.1981
  437.5000     9.7418     9.0436    82.9761
  438.0000     9.1846     8.5564    84.7350
  438.5000     8.5919     8.0261    85.8883
  439.0000     8.0376     7.4228    86.4386
  439.5000     7.5196     6.8649    87.0422
  440.0000     7.0325     6.3531    89.5573
  440.5000     6.5793     5.8762    92.6340
  441.0000     6.1552     5.2871    95.7282
  441.5000     5.8071     5.2994    92.8841
  442.0000     6.2672     5.7163    86.7803
  442.5000     6.7063     6.1127    81.8997
  443.0000     7.1761     6.5360    80.0775
  443.5000     7.6789     6.9890    79.8952
  444.0000     8.2153     7.4801    79.9005
  444.5000     8.7891     8.0955    79.9148
  445.0000     9.3791     8.4750    79.8363
  445.5000     9.9130     8.9578    80.7250
  446.0000    10.1375     9.4681    83.3739
  446.5000    10.4061    10.0075    86.1504
  447.0000    10.6822    10.2909    86.1399
  447.5000    10.9654    10.3502    86.0382
  448.0000    11.2556    10.4068    85.7896
  448.5000    11.5530    10.4590    85.6291
  449.0000    11.8580    10.6087    85.5635
  449.5000    12.0592    10.8392    86.3301
  450.0000    12.2305    11.0755    87.3448
  450.5000    12.4042    11.3172    88.4498
  451.0000    12.5802    11.5643    88.3361
  451.5000    12.7590    11.8167    87.4678
  452.0000    12.9403    12.0741    86.6678
  452.5000    13.1241    12.3371    85.8812
  453.0000    13.3253    12.6058    85.1378
  453.5000    13.4026    12.8424    83.9149
  454.0000    13.4870    12.8588    82.2134
  454.5000    13.5719    12.9054    80.6678
