~VERSION INFORMATION
 VERS.                2.0:   CWLS LOG ASCII STANDARD - VERSION 2.0
 WRAP.                 NO:   ONE LINE PER DEPTH STEP
~WELL INFORMATION
#MNEM.UNIT      DATA TYPE    INFORMATION
#----------   ------------   ------------------------------
 STRT.F           33.0000:   START DEPTH
 STOP.F          560.0000:   STOP DEPTH
 STEP.F            0.5000:   STEP LENGTH
 NULL.          -999.2500:   NO VALUE
 COMP. BROWN JOHN E&C INC:   COMPANY
 WELL.        SX 85 #25-3:   WELL
 FLD .             TEAPOT:   FIELD
 LOC .       S3 T38N R78W:   LOCATION
 CNTY.            NATRONA:   COUNTY
 STAT.            WYOMING:   STATE
 CTRY. UNITED STATES OF AMERICA:   COUNTRY
 SRVC.       Schlumberger:   SERVICE COMPANY
 DATE.        23-SEP-1980:   LOGDATE
 API .       490251130600:   API NUMBER
~CURVE INFORMATION
#MNEM.UNIT       API CODE    CURVE DESCRIPTION
#----------   ------------   ------------------------------
 DEPT.F                  :   
 ILD .OHMM   07 120 46 00:   INDUCTION LOG DEEP
 ILM .OHMM   07 120 44 00:   INDUCTION LOG MEDIUM
 DPHI.DEC    45 890 12 00:   DENSITY POROSITY SANDSTONE
 RHOB.G/C3   45 350 01 00:   BULK DENSITY
 DRHO.G/C3   45 356 01 00:   DENSITY CORRECTION
 CALD.IN     45 280 60 00:   CALIPER
 GRD .GAPI   45 310 01 00:   GAMMA RAY FROM DENSITY LOG
~PARAMETER INFORMATION
#MNEM.UNIT          VALUE    DESCRIPTION
#----------   ------------   ------------------------------
 PD  .                 GL:   PERMANENT DATUM
 EPD .F              5144:   ELEVATION PERMANENT DATUM
 LMF .                 KB:   LOG MEASURED FROM
 DAPD.F                10:   FEET ABOVE PERMANENT DATUM
 DMF .                 KB:   DRILLING MEASURED FROM
 EKB .F              5154:   KELLING BUSHING
 EDF .F              5153:   DRILLING FLOOR
 EGL .F              5144:   GROUND LEVEL
 DATE.            9-23-90:   RUN DATE
 RUN .                  1:   RUN NUMBER
 DD  .F               564:   DEPTH DRILLER
 DL  .F               565:   DEPTH LOGGER
 BLI .F               559:   BOTTOM LOG INTERVAL
 TLI .F                40:   TOP LOG INTERVAL
 CS  .IN            8.625:   CASING SIZE
 CBD .F                50:   CASING BOTTOM DRILLER
 CBL .F                50:   CASING BOTTOM LOGGER
 BS  .IN            7.875:   BIT SIZE
 BSD .F               564:   BIT SIZE AT DEPTH
 DFT .                AIR:   DRILLING FLUID TYPE
 TCS .HRS            1900:   TIME CURCULATED STOPPED
 TLAB.HRS            2000:   TIME LOGGER AT BOTTOM
 LUN .               5882:   LOGGING UNIT NUMBER
 LUL .               CODY:   LOGGING UNIT LOCATION
 ENGI.          M. FISHER:   RECORDING ENGINEER
 WITN.          G. STRONG:   WITNESSED BY
 CLNT.            A2DTECH:   CLIENT CODE
 ORIG.        2" 5" PRINT:   ORIGIN OF DATA
 UWI .       490251130600:   UNIQUE WELL ID
 DICO. A2D Technologies, Inc.:   DIGITIZING COMPANY
~OTHER INFORMATION
~A   DEPT      ILD        ILM       DPHI       RHOB       DRHO       CALD         GRD  
# ...
  397.0000    23.2012    22.9429     0.1617     2.2884    -0.0032     7.8741    90.5472
  397.5000    23.0742    22.7381     0.1636     2.2799    -0.0055     7.8700    92.3236
  398.0000    22.9465    22.5355     0.1652     2.2731    -0.0080     7.8659    94.1268
  398.5000    22.8273    22.3346     0.1693     2.2595    -0.0086     7.8617    92.1963
  399.0000    22.6109    22.1355     0.1732     2.2460    -0.0082     7.8622    89.6394
  399.5000    22.3985    21.9382     0.1740     2.2391    -0.0079     7.8633    89.0691
  400.0000    22.1881    21.7427     0.1709     2.2580    -0.0056     7.8645    94.4890
  400.5000    21.9797    21.5489     0.1648     2.2788    -0.0031     7.8657    99.7837
  401.0000    21.7732    21.3568     0.1583     2.2999    -0.0006     7.8669   100.9365
  401.5000    21.4393    21.1665     0.1559     2.3110     0.0018     7.8681    98.1983
  402.0000    21.6428    20.9377     0.1553     2.3165     0.0043     7.8692    95.5050
  402.5000    21.3795    20.6392     0.1581     2.3050     0.0064     7.8704    92.7918
  403.0000    21.0435    20.3452     0.1608     2.2909     0.0053     7.8716    92.5323
  403.5000    20.7178    20.0561     0.1635     2.2819     0.0053     7.8728    93.6683
  404.0000    20.4687    19.7141     0.1606     2.2842     0.0053     7.8740    94.8320
  404.5000    20.4687    19.9386     0.1568     2.3035     0.0050     7.8751    97.1370
  405.0000    20.6593    20.0247     0.1529     2.3223     0.0039     7.8763    99.2198
  405.5000    20.7362    20.1193     0.1540     2.3228     0.0028     7.8775    98.8936
  406.0000    20.8516    20.2143     0.1577     2.3007     0.0015     7.8787    97.5249
  406.5000    20.8039    20.2799     0.1630     2.2808     0.0002     7.8799    96.0872
  407.0000    20.7364    20.2799     0.1671     2.2704    -0.0011     7.8811    94.4248
  407.5000    20.6691    20.2799     0.1656     2.2732    -0.0024     7.8803    92.7324
  408.0000    20.6021    20.2799     0.1632     2.2802    -0.0037     7.8790    91.0630
  408.5000    20.5353    20.2799     0.1607     2.2903    -0.0050     7.8778    94.2626
  409.0000    20.4687    19.8538     0.1582     2.3015    -0.0064     7.8765    98.1340
  409.5000    20.0538    19.4298     0.1561     2.3126    -0.0077     7.8752   102.0153
  410.0000    19.6475    19.0149     0.1533     2.3186    -0.0080     7.8740   101.0435
  410.5000    19.2486    18.6087     0.1503     2.3302    -0.0054     7.8727    99.4677
  411.0000    18.8573    18.3147     0.1472     2.3437    -0.0028     7.8714    98.2367
  411.5000    18.6267    18.4686     0.1440     2.3573    -0.0002     7.8702    97.8397
  412.0000    18.5174    18.6141     0.1408     2.3708     0.0024     7.8689    97.4052
  412.5000    18.4087    18.6573     0.1377     2.3819     0.0020     7.8676    96.1099
  413.0000    18.3147    18.6573     0.1363     2.3831     0.0001     7.8664    93.6646
  413.5000    19.0189    18.8165     0.1387     2.3755    -0.0019     7.8651    92.5541
  414.0000    19.8024    19.2865     0.1416     2.3590    -0.0038     7.8638    91.6086
  414.5000    20.4687    19.7682     0.1422     2.3698    -0.0048     7.8625    93.3875
  415.0000    19.9076    20.2620     0.1348     2.4065    -0.0048     7.8613    93.4658
  415.5000    19.5276    20.6593     0.1204     2.4496    -0.0048     7.8709    91.6812
  416.0000    19.1547    20.2799     0.1012     2.4828    -0.0048     7.8817    89.8837
  416.5000    18.7906    19.1730     0.1007     2.4908    -0.0057     7.8925    89.7520
  417.0000    18.4275    18.1588     0.1179     2.4478    -0.0067     7.9012    91.3271
  417.5000    17.9417    17.3868     0.1299     2.4168    -0.0077     7.8983    94.9850
  418.0000    17.4007    16.8494     0.1372     2.3892    -0.0058     7.8957    96.9579
  418.5000    16.8761    16.3874     0.1386     2.3768    -0.0036     7.8931    96.3761
  419.0000    16.3622    16.0685     0.1382     2.3786    -0.0012     7.8904    96.3127
  419.5000    16.2082    15.6455     0.1373     2.3813    -0.0007     7.8878    97.9857
  420.0000    16.1660    15.7651     0.1370     2.3824    -0.0008     7.8852    99.6119
  420.5000    16.1265    15.9250     0.1372     2.3824    -0.0034     7.8825    99.6253
  421.0000    16.0865    16.0865     0.1373     2.3825    -0.0061     7.8799    98.1508
  421.5000    15.8551    15.8133     0.1378     2.3791    -0.0089     7.8773    96.6766
  422.0000    15.6257    15.5448     0.1390     2.3752    -0.0098     7.8746    95.2634
  422.5000    15.4560    15.2808     0.1394     2.3722    -0.0082     7.8720    93.8520
  423.0000    15.2630    15.0213     0.1386     2.3755    -0.0047     7.8694    92.4461
  423.5000    15.0756    14.7662     0.1359     2.3821    -0.0017     7.8667    92.8058
  424.0000    14.8899    14.5155     0.1315     2.4027    -0.0018     7.8641    94.8793
  424.5000    14.7065    14.3478     0.1271     2.4230    -0.0018     7.8615    96.9658
  425.0000    14.5253    14.2580     0.1255     2.4266    -0.0018     7.8612    98.2523
  425.5000    14.3464    14.1688     0.1261     2.4225    -0.0018     7.8612    95.5225
  426.0000    14.1697    14.0801     0.1281     2.4151    -0.0026     7.8612    92.7881
  426.5000    14.0405    13.9919     0.1300     2.4072    -0.0066     7.8612    90.3686
  427.0000    13.9260    13.9043     0.1320     2.4013    -0.0077     7.8612    92.2560
  427.5000    13.8124    13.8700     0.1290     2.4072    -0.0072     7.8612    96.2831
  428.0000    13.6997    13.7421     0.1254     2.4217    -0.0068     7.8612   101.2908
  428.5000    13.5210    13.4897     0.1218     2.4410    -0.0076     7.8612   106.0315
  429.0000    13.2421    13.1199     0.1196     2.4441    -0.0084     7.8611   107.6744
  429.5000    13.1199    12.7602     0.1215     2.4383    -0.0093     7.8637   107.1092
  430.0000    12.9989    13.7919     0.1235     2.4328    -0.0102     7.8675   104.0398
  430.5000    13.8443    14.1705     0.1249     2.4281    -0.0110     7.8713   101.1398
  431.0000    13.8443    14.1705     0.1255     2.4258    -0.0063     7.8751   101.5382
  431.5000    13.8443    14.1705     0.1261     2.4223    -0.0025     7.8789   101.0971
  432.0000    13.6523    13.4004     0.1271     2.4189     0.0004     7.8803   100.4405
  432.5000    13.6855    13.5258     0.1291     2.4139     0.0008     7.8776   100.6247
  433.0000    13.9564    13.9090     0.1310     2.4055     0.0012     7.8749   100.4435
  433.5000    14.2122    14.1269     0.1330     2.3983     0.0006     7.8722    98.4838
  434.0000    14.4575    14.1039     0.1330     2.4008     0.0026     7.8695    96.5852
  434.5000    14.5719    14.1705     0.1313     2.4049     0.0046     7.8668    96.1150
  435.0000    14.2956    14.0193     0.1296     2.4091     0.0043     7.8641    97.1003
  435.5000    14.0706    13.7787     0.1306     2.4045     0.0029     7.8613    95.9511
  436.0000    13.8491    13.5423     0.1322     2.3985     0.0013     7.8611    96.2941
  436.5000    13.6735    13.3099     0.1326     2.3966    -0.0002     7.8612    99.9217
  437.0000    13.5194    13.0988     0.1294     2.4104    -0.0017     7.8612   103.4532
  437.5000    13.3671    12.9279     0.1260     2.4260    -0.0014     7.8612   105.2042
  438.0000    13.2164    12.7592     0.1225     2.4413    -0.0006     7.8612   103.9373
  438.5000    13.0312    12.5928     0.1200     2.4443     0.0001     7.8598   103.2808
  439.0000    12.8182    12.4285     0.1219     2.4408     0.0008     7.8581   103.5696
  439.5000    12.6064    12.2664     0.1233     2.4376     0.0016     7.8564   102.6384
  440.0000    12.3981    12.1939     0.1215     2.4393     0.0023     7.8547   101.1756
  440.5000    12.2088    12.1707     0.1193     2.4477     0.0034     7.8531    99.6627
  441.0000    12.0394    12.1475     0.1169     2.4566     0.0045     7.8514    99.2901
  441.5000    11.8724    12.1244     0.1170     2.4572     0.0056     7.8497    98.9936
  442.0000    12.1734    12.1014     0.1172     2.4549     0.0063     7.8480    99.2705
