~VERSION INFORMATION
 VERS.                2.0:   CWLS LOG ASCII STANDARD - VERSION 2.0
 WRAP.                 NO:   ONE LINE PER DEPTH STEP
~WELL INFORMATION
#MNEM.UNIT      DATA TYPE    INFORMATION
#----------   ------------   ------------------------------
 STRT.F           24.0000:   START DEPTH
 STOP.F          487.5000:   STOP DEPTH
 STEP.F            0.5000:   STEP LENGTH
 NULL.          -999.2500:   NO VALUE
 COMP. FENIX & SCISSON INC:   COMPANY
 WELL.       NPR #35-SX-3:   WELL
 FLD .        TEAPOT DOME:   FIELD
 LOC .       S3 T38N R78W:   LOCATION
 CNTY.            NATRONA:   COUNTY
 STAT.            WYOMING:   STATE
 CTRY. UNITED STATES OF AMERICA:   COUNTRY
 SRVC.       Schlumberger:   SERVICE COMPANY
 DATE.        26-MAR-1977:   LOGDATE
 API .       490251030700:   API NUMBER
~CURVE INFORMATION
#MNEM.UNIT       API CODE    CURVE DESCRIPTION
#----------   ------------   ------------------------------
 DEPT.F                  :   
 SPR .MV     07 010 01 00:   SPONTANEOUS POTENTIAL
 LL8 .OHMM   07 220 08 00:   LATEROLOG-8 RES.
 ILD .OHMM   07 120 46 00:   INDUCTION LOG DEEP
 ILM .OHMM   07 120 44 00:   INDUCTION LOG MEDIUM
 CALD.IN     45 280 60 00:   CALIPER FROM DENSITY LOG
 RHOB.G/C3   45 350 01 00:   BULK DENSITY
 DPOR.DEC    45 890 12 00:   DENSITY POROSITY SANDSTONE
 CORR.G/C3   45 356 01 00:   DENSITY CORRECTION
 GRD .GAPI   45 310 01 00:   GAMMA RAY FROM DENSITY LOG
~PARAMETER INFORMATION
#MNEM.UNIT          VALUE    DESCRIPTION
#----------   ------------   ------------------------------
 PD  .                 GL:   PERMANENT DATUM
 EPD .F          EST 5200:   ELEVATION PERMANENT DATUM
 LMF .                 GL:   LOG MEASURED FROM
 DMF .                 KB:   DRILLING MEASURED FROM
 EKB .F              5205:   KELLING BUSHING
 EGL .F          EST 5200:   GROUND LEVEL
 DATE.            3-26-77:   RUN DATE
 RUN .                  1:   RUN NUMBER
 DD  .F               524:   DEPTH DRILLER
 DL  .F               489:   DEPTH LOGGER
 BLI .F               483:   BOTTOM LOG INTERVAL
 TLI .F                39:   TOP LOG INTERVAL
 CS  .IN            8.625:   CASING SIZE
 CBD .F                40:   CASING BOTTOM DRILLER
 CBL .F                39:   CASING BOTTOM LOGGER
 BS  .IN            7.875:   BIT SIZE
 BSD .F               524:   BIT SIZE AT DEPTH
 DFT .                KCL:   DRILLING FLUID TYPE
 DFD .                8.8:   DRILLING FLUID DENSITY
 DFV .                 31:   DRILLING FLUID VISCOSITY
 DFPH.                  8:   DRILLING FLUID PH
 DFL .                9.1:   DRILLING FLUID LOSS
 MSS .          FLOW LINE:   MUD SAMPLE SOURCE
 RMS .OHMM            .18:   RESISTIVITY MUD SAMPLE
 MST .F                76:   MUD SAMPLE TEMPERATURE
 RMF .OHMM            .15:   RESISTIVITY MUD FILTRATE SAMPLE
 MFST.F                76:   MUD FILTRATE SAMPLE TEMPERATURE
 RMC .OHMM             .1:   RESISTIVITY MUD CAKE
 MCST.F                76:   MUD CAKE SAMPLE TEMPERATURE
 MFSS.                  M:   MUD FILTRATE SAMPLE SOURCE
 MCSS.                  C:   MUD CAKE SAMPLE SOURCE
 RMB .OHMM            .25:   RESISTIVITY MUD AT BHT
 BHT .F                55:   BOTTOM HOLE TEMPERATURE
 TCS .HRS               6:   TIME CURCULATED STOPPED
 MRT .F            EST 55:   MAXIMUM RECORDED TEMPERATURE
 LUN .               5642:   LOGGING UNIT NUMBER
 LUL .               CSPR:   LOGGING UNIT LOCATION
 ENGI.     LOHBECK/MARTIN:   RECORDING ENGINEER
 WITN.         STUEBINGER:   WITNESSED BY
 CLNT.            A2DTECH:   CLIENT CODE
 ORIG.       2", 5" PRINT:   ORIGIN OF DATA
 UWI .       490251030700:   UNIQUE WELL ID
 DICO. A2D Technologies, Inc.:   DIGITIZING COMPANY
~OTHER INFORMATION
~A   DEPT      SPR        LL8        ILD        ILM       CALD       RHOB       DPOR       CORR        GRD   
# ...
  425.5000   -35.9083    19.9126    17.4543    18.9711     8.1655     2.3655     0.1756     0.0201    86.3113
  426.0000   -35.7920    19.8162    17.6729    18.8881     8.1644     2.3752     0.1676     0.0251    88.8207
  426.5000   -36.1985    19.4950    17.8943    18.8059     8.1632     2.3946     0.1570     0.0292    90.6429
  427.0000   -36.5866    19.0243    18.1184    18.7246     8.1621     2.4138     0.1465     0.0146    90.7821
  427.5000   -36.9775    19.9260    18.2883    18.5473     8.1610     2.4278     0.1330     0.0285    89.9599
  428.0000   -37.3687    21.8417    17.7465    18.1518     8.1598     2.4000     0.1527     0.0324    90.5808
  428.5000   -37.7644    20.2530    17.3045    17.7644     8.1587     2.3935     0.1602     0.0429    91.6880
  429.0000   -38.1727    17.9868    16.8736    17.3860     8.1575     2.4153     0.1438     0.0570    90.3542
  429.5000   -38.4878    18.1023    16.4534    17.0160     8.1564     2.4198     0.1426     0.0446    86.7647
  430.0000   -38.9128    18.2315    16.0436    16.6539     8.1553     2.3919     0.1535     0.0206    85.3819
  430.5000   -38.9673    18.3225    15.6441    16.2990     8.1541     2.3917     0.1583     0.0227    85.7766
  431.0000   -39.0564    17.7117    15.3154    15.9509     8.1530     2.3902     0.1580     0.0184    86.6817
  431.5000   -39.1018    17.0154    15.1338    15.5150     8.1528     2.3967     0.1606     0.0224    88.3524
  432.0000   -39.3592    17.3349    14.9543    15.5723     8.1528     2.4098     0.1398     0.0345    88.5109
  432.5000   -39.5139    17.1854    14.7769    15.6573     8.1528     2.4153     0.1482     0.0405    88.2855
  433.0000   -39.6596    16.8893    14.6017    15.7427     8.1528     2.4064     0.1418     0.0253    87.6035
  433.5000   -39.8054    16.5982    14.4285    15.8027     8.1528     2.3993     0.1578     0.0124    86.6730
  434.0000   -39.9495    16.3131    14.2744    15.6337     8.1528     2.4060     0.1590     0.0298    85.7446
  434.5000   -40.0922    15.9495    14.2160    15.4827     8.1528     2.4171     0.1437     0.0343    85.5397
  435.0000   -40.2924    15.9741    14.1513    15.3330     8.1528     2.4283     0.1391     0.0291    86.2710
  435.5000   -40.6030    16.0226    14.0869    15.2289     8.1528     2.4394     0.1287     0.0405    86.7713
  436.0000   -41.1979    16.0727    14.0229    15.3349     8.1528     2.4505     0.1235     0.0442    86.6481
  436.5000   -41.7660    16.1225    13.9591    15.4319     8.1528     2.4583     0.1186     0.0351    86.8384
  437.0000   -42.3332    16.1721    13.8956    15.5295     8.1528     2.4496     0.1278     0.0134    87.0201
  437.5000   -42.8395    16.2472    13.8324    15.6573     8.1528     2.4412     0.1304     0.0121    87.2006
  438.0000   -42.8455    16.1896    13.7695    15.5740     8.1528     2.4349     0.1454     0.0137    87.3943
  438.5000   -42.8433    16.0748    13.7069    15.4087     8.1528     2.4411     0.1310     0.0326    87.9754
  439.0000   -42.8431    15.9609    13.6445    15.2451     8.1528     2.4481     0.1238     0.0428    89.3056
  439.5000   -42.8429    15.8477    13.5825    15.0832     8.1528     2.4425     0.1267     0.0358    90.2879
  440.0000   -42.8429    15.7354    13.5206    14.9228     8.1528     2.4367     0.1314     0.0259    90.1934
  440.5000   -42.8430    15.6573    13.4589    14.8059     8.1528     2.4372     0.1308     0.0273    88.9463
  441.0000   -42.8431    15.6573    13.3800    14.7865     8.1528     2.4382     0.1302     0.0258    88.5266
  441.5000   -42.8668    15.6571    13.3901    14.7673     8.1528     2.4344     0.1298     0.0193    89.8908
  442.0000   -42.9140    15.6572    13.4062    14.7478     8.1528     2.4293     0.1394     0.0127    92.9699
  442.5000   -42.9612    15.6573    13.4216    14.7283     8.1528     2.4252     0.1351     0.0142    94.9696
  443.0000   -43.0086    15.6573    13.4370    14.7089     8.1528     2.4150     0.1427     0.0140    94.9677
  443.5000   -43.0560    15.6570    13.4525    14.6895     8.1528     2.4064     0.1470     0.0098    93.6145
  444.0000   -43.1033    15.6575    13.4679    14.6701     8.1528     2.4216     0.1381     0.0114    91.9669
  444.5000   -43.1506    15.6586    13.4837    14.6507     8.1528     2.4319     0.1342     0.0063    92.0894
  445.0000   -43.1973    15.5963    13.5028    14.6314     8.1528     2.4232     0.1418     0.0081    93.8834
  445.5000   -43.2414    15.5408    13.4260    14.6121     8.1528     2.4223     0.1372     0.0123    94.9401
  446.0000   -43.4080    15.4856    13.3148    14.5927     8.1528     2.4262     0.1414     0.0165    95.1232
  446.5000   -43.5943    15.4312    13.2048    14.5729     8.1528     2.4322     0.1354     0.0207    95.7859
  447.0000   -43.7811    15.3704    13.0957    14.5550     8.1528     2.4457     0.1285     0.0249    97.1279
  447.5000   -43.9677    15.3941    12.9874    14.5408     8.1528     2.4502     0.1222     0.0291    97.7915
  448.0000   -44.1536    15.4280    12.8803    14.3658     8.1528     2.4501     0.1272     0.0242    98.3991
  448.5000   -44.3395    15.4620    12.7742    14.2085     8.1528     2.4499     0.1290     0.0130    99.6964
  449.0000   -44.4327    15.4961    12.6583    14.0530     8.1528     2.4494     0.1232     0.0204   101.0595
  449.5000   -44.4331    15.5132    12.6435    13.8991     8.1528     2.4606     0.1193     0.0279   102.6730
  450.0000   -44.4336    15.0539    12.6267    13.7470     8.1528     2.4744     0.1153     0.0357   102.6574
  450.5000   -44.4335    14.7099    12.6105    13.5965     8.1528     2.4695     0.1126     0.0326   101.0518
  451.0000   -44.4334    14.5213    12.5944    13.4476     8.1528     2.4637     0.1115     0.0275   101.0908
  451.5000   -44.4333    14.4495    12.5782    13.2565     8.1528     2.4772     0.1010     0.0368   101.0871
  452.0000   -44.4336    14.3777    12.5620    13.2682     8.1528     2.4752     0.1082     0.0403    99.8748
  452.5000   -44.4338    14.2707    12.5459    13.2847     8.1528     2.4815     0.0980     0.0624    96.7474
  453.0000   -44.4801    14.4365    12.5099    13.3013     8.1528     2.4812     0.1027     0.0503    95.3524
  453.5000   -44.5703    14.9524    12.4655    13.3180     8.1528     2.4708     0.1085     0.0423    95.7227
  454.0000   -44.6602    14.9481    12.4213    13.3346     8.1528     2.4605     0.1144     0.0347    98.4796
  454.5000   -44.7509    14.9500    12.3771    13.3512     8.1528     2.4536     0.1182     0.0298   101.7479
  455.0000   -44.8649    14.9503    12.3332    13.3682     8.1528     2.4545     0.1134     0.0324   100.5423
  455.5000   -45.1425    14.9503    12.2894    13.3789     8.1528     2.4553     0.1158     0.0352    98.0798
  456.0000   -45.4222    14.8812    12.2458    13.3263     8.1528     2.4496     0.1122     0.0245    96.5923
  456.5000   -45.7017    14.7831    12.1980    13.2851     8.1528     2.4424     0.1298     0.0169    96.3890
  457.0000   -45.9805    14.6856    12.1441    13.2443     8.1528     2.4425     0.1273     0.0231    96.4620
  457.5000   -46.2225    14.5889    12.0846    13.2035     8.1528     2.4454     0.1252     0.0212    96.3380
  458.0000   -46.2239    14.4929    12.0252    13.1629     8.1528     2.4503     0.1161     0.0239    94.0714
  458.5000   -46.2237    14.4070    11.9662    13.1224     8.1528     2.4511     0.1198     0.0169    92.9193
  459.0000   -46.2204    14.4072    11.9075    13.0820     8.1528     2.4332     0.1254     0.0176    94.6929
  459.5000   -46.0682    14.4064    11.8491    13.0417     8.1528     2.4481     0.1181     0.0203    97.8330
  460.0000   -45.9015    14.4057    11.7909    13.0136     8.1528     2.4530     0.1122     0.0206    99.7560
  460.5000   -45.8245    14.4092    11.7331    12.8279     8.1528     2.4603     0.1174     0.0229   100.7857
  461.0000   -45.8707    14.0571    11.6755    12.6614     8.1528     2.4692     0.1086     0.0319   101.1025
  461.5000   -45.9327    13.7937    11.5919    12.4971     8.1528     2.4725     0.1088     0.0354   101.0926
