~VERSION INFORMATION
 VERS.                2.0:   CWLS LOG ASCII STANDARD - VERSION 2.0
 WRAP.                 NO:   ONE LINE PER DEPTH STEP
~WELL INFORMATION
#MNEM.UNIT      DATA TYPE    INFORMATION
#----------   ------------   ------------------------------
 STRT.F            8.5000:   START DEPTH
 STOP.F         2140.0000:   STOP DEPTH
 STEP.F            0.5000:   STEP LENGTH
 NULL.          -999.2500:   NO VALUE
 COMP. LAWRENCE/ALLISON INC:   COMPANY
 WELL.   11-61 SHX #61-11:   WELL
 FLD .             TEAPOT:   FIELD
 LOC .      S11 T38N R78W:   LOCATION
 CNTY.            NATRONA:   COUNTY
 STAT.            WYOMING:   STATE
 CTRY. UNITED STATES OF AMERICA:   COUNTRY
 SRVC.      NL McCullough:   SERVICE COMPANY
 DATE.        04-MAY-1988:   LOGDATE
 API .       490251115600:   API NUMBER
~CURVE INFORMATION
#MNEM.UNIT       API CODE    CURVE DESCRIPTION
#----------   ------------   ------------------------------
 DEPT.F                  :   
 GRR .GAPI   81 310 01 00:   GAMMY RAY
 ROP .FT/HR  91 810 01 00:   RAT OF DRILLING PENETRATION
 TGAS.TC/CC  91 830 01 00:   TOTAL GAS UNIT
~PARAMETER INFORMATION
#MNEM.UNIT          VALUE    DESCRIPTION
#----------   ------------   ------------------------------
 PD  .                 GL:   PERMANENT DATUM
 EPD .F              5135:   ELEVATION PERMANENT DATUM
 LMF .                 KB:   LOG MEASURED FROM
 DAPD.F                 8:   FEET ABOVE PERMANENT DATUM
 DMF .                 KB:   DRILLING MEASURED FROM
 EKB .F              5143:   KELLING BUSHING
 EGL .F              5135:   GROUND LEVEL
 DATE.        04-MAY-1988:   RUN DATE
 RUN .                  1:   RUN NUMBER
 DD  .F              2140:   DEPTH DRILLER
 DL  .F               572:   DEPTH LOGGER
 BLI .F               568:   BOTTOM LOG INTERVAL
 CS  .IN              5.5:   CASING SIZE
 CBD .F               622:   CASING BOTTOM DRILLER
 BSD .F              2140:   BIT SIZE AT DEPTH
 DFT .         KCL/ WATER:   DRILLING FLUID TYPE
 TCS .HRS               1:   TIME CURCULATED STOPPED
 ENGI.               DALY:   RECORDING ENGINEER
 WITN.           MR. LOWL:   WITNESSED BY
 CLNT.            A2DTECH:   CLIENT CODE
 ORIG.           5" PRINT:   ORIGIN OF DATA
 UWI .       490251115600:   UNIQUE WELL ID
 DICO. A2D Technologies, Inc.:   DIGITIZING COMPANY
~OTHER INFORMATION
~A    DEPT      GRR       ROP       TGAS   
# ...
 2010.5000  -999.2500     0.1629    -0.2377
 2011.0000  -999.2500     0.1637    -0.2491
 2011.5000  -999.2500     0.1644    -0.2604
 2012.0000  -999.2500     0.1652    -0.2717
 2012.5000  -999.2500     0.1659    -0.2830
 2013.0000  -999.2500     0.1667    -0.2943
 2013.5000  -999.2500     0.1674    -0.3057
 2014.0000  -999.2500     0.1682    -0.3170
 2014.5000  -999.2500     0.1689    -0.3283
 2015.0000  -999.2500     0.1697    -0.3396
 2015.5000  -999.2500     0.1704    -0.3509
 2016.0000  -999.2500     0.1712    -0.3623
 2016.5000  -999.2500     0.1720    -0.3736
 2017.0000  -999.2500     0.1727    -0.3849
 2017.5000  -999.2500     0.1735    -0.3962
 2018.0000  -999.2500     0.1742    -0.4075
 2018.5000  -999.2500     0.1750    -0.4189
 2019.0000  -999.2500     0.1757    -0.4302
 2019.5000  -999.2500     0.1765    -0.4415
 2020.0000  -999.2500     0.1772    -0.4528
 2020.5000  -999.2500     0.1780    -0.4642
 2021.0000  -999.2500     0.1787    -0.4741
 2021.5000  -999.2500     0.1795    -0.4629
 2022.0000  -999.2500     0.1802    -0.4530
 2022.5000  -999.2500     0.1810    -0.4431
 2023.0000  -999.2500     0.1818    -0.4331
 2023.5000  -999.2500     0.1825    -0.4232
 2024.0000  -999.2500     0.1833    -0.4133
 2024.5000  -999.2500     0.1744    -0.4033
 2025.0000  -999.2500     0.1651    -0.3934
 2025.5000  -999.2500     0.1652    -0.3835
 2026.0000  -999.2500     0.1653    -0.3735
 2026.5000  -999.2500     0.1654    -0.3636
 2027.0000  -999.2500     0.1655    -0.3537
 2027.5000  -999.2500     0.1653    -0.3437
 2028.0000  -999.2500     0.1651    -0.3338
 2028.5000  -999.2500     0.1649    -0.3239
 2029.0000  -999.2500     0.1647    -0.3139
 2029.5000  -999.2500     0.1645    -0.3040
 2030.0000  -999.2500     0.1643    -0.2941
 2030.5000  -999.2500     0.1641    -0.2841
 2031.0000  -999.2500     0.1639    -0.2742
 2031.5000  -999.2500     0.1637    -0.2643
 2032.0000  -999.2500     0.1635    -0.2543
 2032.5000  -999.2500     0.1633    -0.2444
 2033.0000  -999.2500     0.1630    -0.2345
 2033.5000  -999.2500     0.1628    -0.2245
 2034.0000  -999.2500     0.1626    -0.2146
 2034.5000  -999.2500     0.1624    -0.2047
 2035.0000  -999.2500     0.1622    -0.1948
 2035.5000  -999.2500     0.1620    -0.1848
 2036.0000  -999.2500     0.1618    -0.1749
 2036.5000  -999.2500     0.1616    -0.1650
 2037.0000  -999.2500     0.1614    -0.1550
 2037.5000  -999.2500     0.1612    -0.1451
 2038.0000  -999.2500     0.1610    -0.1352
 2038.5000  -999.2500     0.1608    -0.1252
 2039.0000  -999.2500     0.1606    -0.1153
 2039.5000  -999.2500     0.1604    -0.1054
 2040.0000  -999.2500     0.1602    -0.0954
 2040.5000  -999.2500     0.1600    -0.0855
 2041.0000  -999.2500     0.1597    -0.0756
 2041.5000  -999.2500     0.1595    -0.0656
 2042.0000  -999.2500     0.1593    -0.0557
 2042.5000  -999.2500     0.1591    -0.0458
 2043.0000  -999.2500     0.1590    -0.0358
 2043.5000  -999.2500     0.1592    -0.0259
 2044.0000  -999.2500     0.1592    -0.0160
 2044.5000  -999.2500     0.1598    -0.0060
 2045.0000  -999.2500     0.1594     0.0039
 2045.5000  -999.2500     0.1595     0.0138
 2046.0000  -999.2500     0.1691     0.0238
 2046.5000  -999.2500     0.1692     0.0337
 2047.0000  -999.2500     0.1692     0.0436
 2047.5000  -999.2500     0.1693     0.0536
 2048.0000  -999.2500     0.1694     0.0635
 2048.5000  -999.2500     0.1695     0.0734
 2049.0000  -999.2500     0.1696     0.0834
 2049.5000  -999.2500     0.1697     0.0933
 2050.0000  -999.2500     0.1698     0.1032
 2050.5000  -999.2500     0.1691     0.1132
 2051.0000  -999.2500     0.1606     0.1231
 2051.5000  -999.2500     0.1607     0.1330
 2052.0000  -999.2500     0.1608     0.1430
 2052.5000  -999.2500     0.1608     0.1529
 2053.0000  -999.2500     0.1610     0.1628
 2053.5000  -999.2500     0.1610     0.1728
 2054.0000  -999.2500     0.1611     0.1827
 2054.5000  -999.2500     0.1612     0.1926
 2055.0000  -999.2500     0.1613     0.2026
 2055.5000  -999.2500     0.1614     0.2125
 2056.0000  -999.2500     0.1709     0.2224
 2056.5000  -999.2500     0.1710    15.9416
 2057.0000  -999.2500     0.1806   179.7346
 2057.5000  -999.2500     0.1995  -999.2500
 2058.0000  -999.2500     0.1996  -999.2500
 2058.5000  -999.2500     0.2092  -999.2500
 2059.0000  -999.2500     0.2093  -999.2500
 2059.5000  -999.2500     0.2093  -999.2500
 2060.0000  -999.2500     0.2094  -999.2500
 2060.5000  -999.2500     0.2095  -999.2500
 2061.0000  -999.2500     0.2002  -999.2500
 2061.5000  -999.2500     0.2003  -999.2500
 2062.0000  -999.2500     0.2004  -999.2500
 2062.5000  -999.2500     0.2005  -999.2500
 2063.0000  -999.2500     0.1997  -999.2500
 2063.5000  -999.2500     0.1988  -999.2500
 2064.0000  -999.2500     0.1978  -999.2500
 2064.5000  -999.2500     0.1968  -999.2500
 2065.0000  -999.2500     0.1958  -999.2500
 2065.5000  -999.2500     0.1949  -999.2500
 2066.0000  -999.2500     0.1939  -999.2500
 2066.5000  -999.2500     0.1929  -999.2500
 2067.0000  -999.2500     0.1920  -999.2500
 2067.5000  -999.2500     0.1910  -999.2500
 2068.0000  -999.2500     0.1900  -999.2500
 2068.5000  -999.2500     0.1891  -999.2500
 2069.0000  -999.2500     0.1881  -999.2500
 2069.5000  -999.2500     0.1871  -999.2500
 2070.0000  -999.2500     0.1861  -999.2500
 2070.5000  -999.2500     0.1852  -999.2500
 2071.0000  -999.2500     0.1842  -999.2500
 2071.5000  -999.2500     0.1832  -999.2500
 2072.0000  -999.2500     0.1823  -999.2500
 2072.5000  -999.2500     0.1813  -999.2500
 2073.0000  -999.2500     0.1803  -999.2500
 2073.5000  -999.2500     0.1792  -999.2500
 2074.0000  -999.2500     0.1797  -999.2500
 2074.5000  -999.2500     0.1801  -999.2500
 2075.0000  -999.2500     0.1806  -999.2500
 2075.5000  -999.2500     0.1810  -999.2500
 2076.0000  -999.2500     0.1815  -999.2500
 2076.5000  -999.2500     0.1820  -999.2500
 2077.0000  -999.2500     0.1824  -999.2500
 2077.5000  -999.2500     0.1829  -999.2500
 2078.0000  -999.2500     0.1834  -999.2500
 2078.5000  -999.2500     0.1838  -999.2500
 2079.0000  -999.2500     0.1843  -999.2500
 2079.5000  -999.2500     0.1847  -999.2500
 2080.0000  -999.2500     0.1852   132.8314
 2080.5000  -999.2500     0.1857   100.7328
 2081.0000  -999.2500     0.1861   100.7143
 2081.5000  -999.2500     0.1866   100.6958
 2082.0000  -999.2500     0.1871    99.9225
 2082.5000  -999.2500     0.1875    99.1493
 2083.0000  -999.2500     0.1880    97.9987
 2083.5000  -999.2500     0.1884    95.3387
 2084.0000  -999.2500     0.2170    93.0560
 2084.5000  -999.2500     0.2738    91.5281
 2085.0000  -999.2500     0.3503    89.2197
 2085.5000  -999.2500     0.4173    87.2984
 2086.0000  -999.2500     0.4811    85.4302
 2086.5000  -999.2500     0.3868    83.1475
 2087.0000  -999.2500     0.3302    81.2422
 2087.5000  -999.2500     0.3208    78.9596
 2088.0000  -999.2500     0.3208    76.2995
 2088.5000  -999.2500     0.3208    73.6395
 2089.0000  -999.2500     0.3208    70.9795
 2089.5000  -999.2500     0.2925    67.9421
 2090.0000  -999.2500     0.2358    64.5274
 2090.5000  -999.2500     0.2075    61.1126
 2091.0000  -999.2500     0.1981    56.9432
 2091.5000  -999.2500     0.1981    52.3737
 2092.0000  -999.2500     0.2075    49.3187
 2092.5000  -999.2500     0.2075    47.3145
 2093.0000  -999.2500     0.2547    44.0343
 2093.5000  -999.2500     0.3491    41.3743
 2094.0000  -999.2500     0.3679    38.3369
 2094.5000  -999.2500     0.3389    34.9222
 2095.0000  -999.2500     0.3289    32.2621
 2095.5000  -999.2500     0.3208    31.4889
 2096.0000  -999.2500     0.3113    31.5132
 2096.5000  -999.2500     0.2925    31.5399
 2097.0000  -999.2500     0.2830    31.5666
 2097.5000  -999.2500     0.2830    31.5933
 2098.0000  -999.2500     0.3113    31.6199
 2098.5000  -999.2500     0.3585    31.6466
 2099.0000  -999.2500     0.4434    31.6733
 2099.5000  -999.2500     0.5000    31.6981
 2100.0000  -999.2500     0.5283    31.3208
 2100.5000  -999.2500     0.5189    30.9434
 2101.0000  -999.2500     0.5189    30.9434
