~VERSION INFORMATION
 VERS.                2.0:   CWLS LOG ASCII STANDARD - VERSION 2.0
 WRAP.                 NO:   ONE LINE PER DEPTH STEP
~WELL INFORMATION
#MNEM.UNIT      DATA TYPE    INFORMATION
#----------   ------------   ------------------------------
 STRT.F           30.0000:   START DEPTH
 STOP.F          468.0000:   STOP DEPTH
 STEP.F            0.1000:   STEP LENGTH
 NULL.          -999.2500:   NO VALUE
 COMP. LAWRENCE/ALLISON INC:   COMPANY
 WELL.    72-12 SX #10-10:   WELL
 FLD .             TEAPOT:   FIELD
 LOC .      S10 T38N R78W:   LOCATION
 CNTY.            NATRONA:   COUNTY
 STAT.            WYOMING:   STATE
 CTRY. UNITED STATES OF AMERICA:   COUNTRY
 SRVC.           Gearhart:   SERVICE COMPANY
 DATE.        17-MAY-1988:   LOGDATE
 API .       490251122400:   API NUMBER
~CURVE INFORMATION
#MNEM.UNIT       API CODE    CURVE DESCRIPTION
#----------   ------------   ------------------------------
 DEPT.F                  :   
 GRR .GAPI   07 310 01 00:   GAMMA RAY
 RILD.OHMM   07 120 46 00:   INDUCTION LOG DEEP RESISTIVITY
 RILM.OHMM   07 120 44 00:   INDUCTION LOG MEDIUM RESISTIVITY
~PARAMETER INFORMATION
#MNEM.UNIT          VALUE    DESCRIPTION
#----------   ------------   ------------------------------
 PD  .                 GL:   PERMANENT DATUM
 EPD .F              5166:   ELEVATION PERMANENT DATUM
 LMF .                 KB:   LOG MEASURED FROM
 DAPD.F              10.2:   FEET ABOVE PERMANENT DATUM
 DMF .                 KB:   DRILLING MEASURED FROM
 EKB .F            5176.2:   KELLING BUSHING
 EGL .F              5166:   GROUND LEVEL
 DATE.        17-MAY-1988:   RUN DATE
 RUN .                  1:   RUN NUMBER
 DD  .F               480:   DEPTH DRILLER
 DL  .F               476:   DEPTH LOGGER
 BLI .F               468:   BOTTOM LOG INTERVAL
 TLI .F                47:   TOP LOG INTERVAL
 CS  .IN            9.625:   CASING SIZE
 CBD .F                43:   CASING BOTTOM DRILLER
 CBL .F                47:   CASING BOTTOM LOGGER
 BS  .IN             8.75:   BIT SIZE
 BSD .F               480:   BIT SIZE AT DEPTH
 DFT .                AIR:   DRILLING FLUID TYPE
 TCS .HRS            0630:   TIME CURCULATED STOPPED
 TLAB.HRS            0930:   TIME LOGGER AT BOTTOM
 LUN .               7597:   LOGGING UNIT NUMBER
 LUL .           GILLETTE:   LOGGING UNIT LOCATION
 ENGI.             SLATKY:   RECORDING ENGINEER
 WITN.             STRONG:   WITNESSED BY
 CLNT.            A2DTECH:   CLIENT CODE
 ORIG.           5" PRINT:   ORIGIN OF DATA
 UWI .       490251122400:   UNIQUE WELL ID
 DICO. A2D Technologies, Inc.:   DIGITIZING COMPANY
~OTHER INFORMATION
~A   DEPT      GRR       RILD       RILM   
# ...
  375.8000    77.7716    20.2260    21.8742
  375.9000    76.6434    20.3397    22.2590
  376.0000    75.4345    20.4866    22.8316
  376.1000    74.2254    20.7126    23.1689
  376.2000    72.9154    20.8291    23.5628
  376.3000    71.8069    20.9463    23.9629
  376.4000    70.5979    21.0641    24.3492
  376.5000    69.5910    21.1825    24.6504
  376.6000    68.8667    21.3015    24.9028
  376.7000    68.0821    21.4408    25.0902
  376.8000    67.4181    21.4408    25.2317
  376.9000    66.8555    21.5128    25.3740
  377.0000    66.5758    21.5905    25.5253
  377.1000    66.5788    21.5905    25.5257
  377.2000    66.5821    21.5905    25.4259
  377.3000    66.5849    21.5905    25.2840
  377.4000    66.7495    21.5905    25.1428
  377.5000    67.0959    21.5431    24.9995
  377.6000    67.5434    21.4408    24.7270
  377.7000    67.8093    21.4408    24.3511
  377.8000    68.7011    21.3317    23.8138
  377.9000    69.5122    21.2124    23.1868
  378.0000    70.4443    21.0938    22.6712
  378.1000    71.7402    20.9758    22.1694
  378.2000    73.5821    20.8524    21.5854
  378.3000    74.9184    20.6322    21.1131
  378.4000    76.3761    20.4022    20.7945
  378.5000    77.5304    20.1747    20.5625
  378.6000    78.2202    19.9496    20.2906
  378.7000    78.7487    19.7237    20.0160
  378.8000    79.4183    19.5072    19.7450
  378.9000    80.3103    19.2898    19.5609
  379.0000    81.1819    19.1283    19.4419
  379.1000    81.8717    19.0214    19.1928
  379.2000    82.4003    18.9125    19.0111
  379.3000    83.0698    18.7019    18.8634
  379.4000    83.8001    18.5745    18.7581
  379.5000    84.5304    18.4706    18.6400
  379.6000    85.2605    18.3366    18.4089
  379.7000    86.0518    18.1379    18.3178
  379.8000    86.2768    18.0183    18.2155
  379.9000    86.8456    17.9357    18.0729
  380.0000    87.4748    17.7780    17.9043
  380.1000    87.9626    17.6128    17.9046
  380.2000    88.4912    17.5142    17.7203
  380.3000    88.7162    17.4023    17.5899
  380.4000    89.1233    17.2363    17.4486
  380.5000    89.5101    17.1619    17.2539
  380.6000    89.7151    17.1259    17.0541
  380.7000    89.7184    17.0301    16.9626
  380.8000    89.4990    16.9248    16.8680
  380.9000    88.9363    16.9248    16.7738
  381.0000    88.3131    16.8630    16.6802
  381.1000    87.8314    16.7687    16.5869
  381.2000    87.3093    16.6909    16.4945
  381.3000    86.4233    16.6909    16.4723
  381.4000    85.4565    16.6041    16.4726
  381.5000    84.3888    16.5113    16.4728
  381.6000    83.1799    16.4603    16.4730
  381.7000    81.8699    16.4411    16.4732
  381.8000    80.7617    16.3462    16.4002
  381.9000    79.3908    16.3462    16.3594
  382.0000    77.9392    16.2797    16.3596
  382.1000    76.4880    16.2329    16.3531
  382.2000    74.9154    16.2329    16.2466
  382.3000    73.5850    16.2324    16.2468
  382.4000    72.4565    16.1417    16.1932
  382.5000    71.5908    16.1203    16.1028
  382.6000    70.8667    16.1203    16.0228
  382.7000    70.0821    16.0948    16.0231
  382.8000    69.4183    16.0048    15.9453
  382.9000    68.5323    15.8976    15.7455
  383.0000    67.7676    15.8976    15.4827
  383.1000    67.2859    15.8477    15.2366
  383.2000    66.7639    15.7874    15.0510
  383.3000    66.7667    15.7803    14.8237
  383.4000    66.7697    15.6780    14.5228
  383.5000    66.7727    15.6780    14.2676
  383.6000    66.8161    15.6255    14.1085
  383.7000    67.0821    15.5693    13.9424
  383.8000    67.0848    15.5591    13.7958
  383.9000    67.2495    15.4614    13.6421
  384.0000    67.4950    15.4614    13.5249
  384.1000    67.7000    15.4064    13.4328
  384.2000    67.7033    15.3542    13.2802
  384.3000    67.9283    15.3542    13.2074
  384.4000    68.3354    15.3542    13.1884
  384.5000    68.7222    15.3542    13.1886
  384.6000    68.9273    15.3542    13.1888
  384.7000    68.9305    15.3542    13.1904
  384.8000    69.1555    15.3542    13.2648
  384.9000    69.4010    15.3542    13.3397
  385.0000    69.6465    15.3542    13.4149
  385.1000    69.8515    15.3542    13.4906
  385.2000    69.8548    15.3139    13.5666
  385.3000    70.0798    15.2477    13.6573
  385.4000    70.3253    15.2477    13.7202
  385.5000    70.4697    15.2477    13.7976
  385.6000    70.4323    15.2477    13.8754
  385.7000    70.1730    15.2045    13.9463
  385.8000    69.9536    15.1420    13.8498
  385.9000    69.5525    15.1399    13.8499
  386.0000    69.2727    15.0553    13.8027
  386.1000    69.2353    15.0371    13.7542
  386.2000    68.9760    14.9913    13.7444
  386.3000    68.9788    14.9328    13.6592
  386.4000    68.9818    14.9328    13.6594
  386.5000    68.9848    14.9328    13.6100
  386.6000    68.9879    14.9328    13.5650
  386.7000    68.9912    14.9328    13.5652
  386.8000    69.2161    14.9328    13.5654
  386.9000    69.3000    14.9328    13.5656
  387.0000    69.4041    14.9328    13.5137
  387.1000    69.6900    14.9328    13.4718
  387.2000    70.2184    14.9328    13.4720
  387.3000    70.4434    14.9013    13.4722
  387.4000    70.5273    14.8293    13.4724
  387.5000    70.6313    14.8293    13.4180
  387.6000    70.9172    14.8293    13.3793
  387.7000    71.4457    14.8293    13.3795
  387.8000    71.6707    14.8293    13.3797
  387.9000    71.7545    14.8293    13.3798
  388.0000    71.7576    14.8293    13.3800
  388.1000    71.7606    14.8293    13.3802
  388.2000    71.7639    14.8293    13.3804
  388.3000    71.7667    14.8293    13.3806
  388.4000    71.6081    14.8293    13.3808
  388.5000    71.3687    14.8293    13.3810
  388.6000    71.0888    14.8293    13.3811
  388.7000    70.5669    14.8293    13.3813
  388.8000    70.3475    14.7887    13.3815
  388.9000    70.2697    14.7265    13.3817
  389.0000    70.0707    14.7265    13.3819
  389.1000    69.6292    14.7265    13.3821
  389.2000    69.3699    14.6633    13.3823
  389.3000    69.1505    14.6244    13.3825
  389.4000    68.9111    14.6010    13.3827
  389.5000    68.5707    14.5230    13.3828
  389.6000    68.1292    14.5230    13.3830
  389.7000    67.8699    14.5230    13.3832
  389.8000    67.8727    14.5230    13.3947
  389.9000    67.7142    14.4968    13.4771
  390.0000    67.5758    14.4223    13.4773
  390.1000    67.6192    14.4223    13.4774
  390.2000    67.8851    14.4223    13.4776
  390.3000    68.1101    14.4223    13.4778
  390.4000    68.1939    14.4223    13.4780
  390.5000    68.2980    14.4127    13.4782
  390.6000    68.5839    14.3224    13.4784
  390.7000    69.1124    14.3224    13.4786
  390.8000    69.3373    14.3224    13.4788
  390.9000    69.7444    14.3224    13.4789
  391.0000    70.1313    14.3224    13.4791
  391.1000    70.3768    14.3224    13.4793
  391.2000    70.6427    14.3224    13.4795
  391.3000    70.8677    14.3224    13.4797
  391.4000    71.2747    14.3224    13.4799
  391.5000    71.6616    14.3224    13.4801
  391.6000    71.8667    14.3224    13.4803
  391.7000    71.8699    14.3224    13.4804
  391.8000    71.8727    14.3224    13.4806
  391.9000    71.7142    14.3224    13.4808
  392.0000    71.5758    14.3224    13.4810
  392.1000    71.5383    14.3224    13.5433
  392.2000    71.2790    14.3224    13.5756
  392.3000    71.0596    14.3224    13.5758
  392.4000    70.9818    14.3224    13.5759
  392.5000    70.8838    14.3224    13.5762
  392.6000    70.6843    14.3224    13.5763
  392.7000    70.6881    14.3224    13.6235
  392.8000    70.6909    14.3224    13.6715
  392.9000    70.6939    14.2786    13.6820
  393.0000    70.6970    14.2231    13.7675
  393.1000    70.7000    14.2231    13.7676
  393.2000    70.7033    14.2231    13.8183
  393.3000    70.9283    14.1576    13.8642
  393.4000    71.1737    14.1245    13.8644
  393.5000    71.5202    14.1245    13.8646
  393.6000    72.0082    14.1245    13.8648
  393.7000    72.5366    14.1245    13.8650
  393.8000    73.2060    14.1245    13.8652
  393.9000    73.6131    14.0755    13.8654
