~VERSION INFORMATION
 VERS.                2.0:   CWLS LOG ASCII STANDARD - VERSION 2.0
 WRAP.                 NO:   ONE LINE PER DEPTH STEP
~WELL INFORMATION
#MNEM.UNIT      DATA TYPE    INFORMATION
#----------   ------------   ------------------------------
 STRT.F           88.0000:   START DEPTH
 STOP.F          991.0000:   STOP DEPTH
 STEP.F            0.5000:   STEP LENGTH
 NULL.          -999.2500:   NO VALUE
 COMP. US NAVY /INTEX OIL CO.:   COMPANY
 WELL.    NPR #3 #S-11 63:   WELL
 FLD .             TEAPOT:   FIELD
 LOC .      S11 T38N R78W:   LOCATION
 CNTY.            NATRONA:   COUNTY
 STAT.            WYOMING:   STATE
 CTRY. UNITED STATES OF AMERICA:   COUNTRY
 SRVC.       Schlumberger:   SERVICE COMPANY
 DATE.        24-JUL-1964:   LOGDATE
 API .       490250636200:   API NUMBER
~CURVE INFORMATION
#MNEM.UNIT       API CODE    CURVE DESCRIPTION
#----------   ------------   ------------------------------
 DEPT.F                  :   
 SPR .MV     05 010 01 00:   SPONTANEOUS POTENTIAL FROM RES.
 ASN .OHMM   05 041 16 00:   AMPLIFIED SHORT NORMAL 16"
 ILD .OHMM   05 120 46 00:   INDUCTION LOG DEEP
 CILD.MMHO   05 110 46 00:   CONDUCTIVITY INDUCTION LOG DEEP
 CALS.IN     60 280 50 00:   CALIPER FROM SONIC LOG
 DT  .US/F   60 520 33 00:   INTERVAL TRANSIT TIME
 GR  .GAPI   30 310 01 00:   GAMMA RAY
~PARAMETER INFORMATION
#MNEM.UNIT          VALUE    DESCRIPTION
#----------   ------------   ------------------------------
 PD  .                 GL:   PERMANENT DATUM
 LMF .                 KB:   LOG MEASURED FROM
 DAPD.F                 5:   FEET ABOVE PERMANENT DATUM
 DMF .                 KB:   DRILLING MEASURED FROM
 EKB .F              5914:   KELLING BUSHING
 DATE.          7-24-1964:   RUN DATE
 RUN .                  1:   RUN NUMBER
 DD  .F               990:   DEPTH DRILLER
 DL  .F               992:   DEPTH LOGGER
 BLI .F               991:   BOTTOM LOG INTERVAL
 TLI .F               990:   TOP LOG INTERVAL
 CS  .IN            8.625:   CASING SIZE
 CBD .F                15:   CASING BOTTOM DRILLER
 BS  .IN             6.75:   BIT SIZE
 BSD .F               990:   BIT SIZE AT DEPTH
 DFT .            GEL OIL:   DRILLING FLUID TYPE
 DFD .                9.2:   DRILLING FLUID DENSITY
 DFV .                 47:   DRILLING FLUID VISCOSITY
 MSS .            MUD PIT:   MUD SAMPLE SOURCE
 RMS .OHMM           1.24:   RESISTIVITY MUD SAMPLE
 MST .F                75:   MUD SAMPLE TEMPERATURE
 RMF .OHMM           .801:   RESISTIVITY MUD FILTRATE SAMPLE
 MFST.F                80:   MUD FILTRATE SAMPLE TEMPERATURE
 MFSS.                 FP:   MUD FILTRATE SAMPLE SOURCE
 RMB .OHMM           1.09:   RESISTIVITY MUD AT BHT
 BHT .F                85:   BOTTOM HOLE TEMPERATURE
 TCS .HRS              .5:   TIME CURCULATED STOPPED
 MRT .F                85:   MAXIMUM RECORDED TEMPERATURE
 LUN .               2572:   LOGGING UNIT NUMBER
 LUL .                 MC:   LOGGING UNIT LOCATION
 ENGI.             BOWLER:   RECORDING ENGINEER
 WITN.          JORGENSEN:   WITNESSED BY
 CLNT.            A2DTECH:   CLIENT CODE
 ORIG.      2" & 5" PRINT:   ORIGIN OF DATA
 UWI .       490250636200:   UNIQUE WELL ID
 DICO. A2D Technologies, Inc.:   DIGITIZING COMPANY
~OTHER INFORMATION
~A   DEPT      SPR          ASN        ILD      CILD      CALS         DT         GR   
# ...
  315.5000   -40.7627     5.9637     4.6081   206.0185  -999.2500  -999.2500  -999.2500
  316.0000   -40.7556     5.7542     4.3126   220.1758  -999.2500  -999.2500  -999.2500
  316.5000   -40.7485     5.4547     3.9428   245.5272  -999.2500  -999.2500  -999.2500
  317.0000   -40.7413     5.2002     3.5729   261.1771  -999.2500  -999.2500  -999.2500
  317.5000   -40.7340     4.9307     3.3482   271.6031  -999.2500  -999.2500  -999.2500
  318.0000   -40.8725     4.5113     3.2053   274.5671  -999.2500  -999.2500  -999.2500
  318.5000   -40.8636     4.2418     3.1331   275.2911  -999.2500  -999.2500  -999.2500
  319.0000   -40.8565     4.2121     3.1358   273.7762  -999.2500  -999.2500  -999.2500
  319.5000   -40.8494     4.3174     3.2124   270.7644  -999.2500  -999.2500  -999.2500
  320.0000   -40.8423     4.2128     3.2889   264.7725  -999.2500  -999.2500  -999.2500
  320.5000   -40.8352     4.3932     3.5143   253.5567  -999.2500  -999.2500  -999.2500
  321.0000   -40.8281     4.5739     3.7397   240.8484  -999.2500  -999.2500  -999.2500
  321.5000   -40.8210     4.8203     3.9651   222.1699  -999.2500  -999.2500  -999.2500
  322.0000   -40.8139     5.0540     4.1161   202.7452  -999.2500  -999.2500  -999.2500
  322.5000   -40.8068     5.1444     4.3415   188.5443  -999.2500  -999.2500  -999.2500
  323.0000   -40.9450     5.1747     4.4266   181.8060  -999.2500  -999.2500  -999.2500
  323.5000   -40.9361     5.2351     4.6440   181.7836  -999.2500  -999.2500  -999.2500
  324.0000   -40.7837     5.2504     4.6462   183.9960  -999.2500  -999.2500  -999.2500
  324.5000   -40.7766     5.2357     4.4996   189.9444  -999.2500  -999.2500  -999.2500
  325.0000   -40.4788     5.1612     4.3524   199.6241  -999.2500  -999.2500  -999.2500
  325.5000   -40.3263     5.0116     3.9087   216.0203  -999.2500  -999.2500  -999.2500
  326.0000   -40.3192     4.8153     3.5389   234.6553  -999.2500  -999.2500  -999.2500
  326.5000   -40.4592     4.5840     3.1690   252.5440  -999.2500  -999.2500  -999.2500
  327.0000   -40.5960     4.2932     2.7248   271.1789  -999.2500  -999.2500  -999.2500
  327.5000   -40.5886     3.9037     2.3549   308.1574  -999.2500  -999.2500  -999.2500
  328.0000   -40.7268     3.4993     2.0536   369.6374  -999.2500  -999.2500  -999.2500
  328.5000   -40.7195     3.2898     1.7640   396.4814  -999.2500  -999.2500  -999.2500
  329.0000   -40.7108     3.0802     1.6918   411.3850  -999.2500  -999.2500  -999.2500
  329.5000   -40.5584     2.9456     1.7689   414.3537  -999.2500  -999.2500  -999.2500
  330.0000   -40.5513     3.2009     1.9199   399.4012  -999.2500  -999.2500  -999.2500
  330.5000   -40.6913     3.3362     2.0709   383.7078  -999.2500  -999.2500  -999.2500
  331.0000   -40.6824     3.3965     2.2963   356.8203  -999.2500  -999.2500  -999.2500
  331.5000   -40.6753     3.3519     2.6705   323.8760  -999.2500  -999.2500  -999.2500
  332.0000   -40.8153     3.7572     3.1191   275.6803  -999.2500  -999.2500  -999.2500
  332.5000   -41.0971     4.1324     3.5677   229.1377  -999.2500  -999.2500  -999.2500
  333.0000   -41.2355     4.3576     3.8745   214.9368  -999.2500  -999.2500  -999.2500
  333.5000   -41.0828     4.4479     4.1674   202.2285  -999.2500  -999.2500  -999.2500
  334.0000   -41.0756     4.5083     4.2445   199.2217  -999.2500  -999.2500  -999.2500
  334.5000   -40.9216     4.5536     4.2466   201.4388  -999.2500  -999.2500  -999.2500
  335.0000   -40.7691     4.6140     4.0995   203.6558  -999.2500  -999.2500  -999.2500
  335.5000   -40.7620     4.6743     4.0278   208.1117  -999.2500  -999.2500  -999.2500
  336.0000   -40.6095     4.6896     3.8806   214.1591  -999.2500  -999.2500  -999.2500
  336.5000   -40.4571     4.6301     3.6601   225.9732  -999.2500  -999.2500  -999.2500
  337.0000   -40.4500     4.5255     3.5134   237.1454  -999.2500  -999.2500  -999.2500
  337.5000   -40.2975     4.4060     3.2925   249.8103  -999.2500  -999.2500  -999.2500
  338.0000   -40.2904     4.2414     3.0704   265.4601     6.8759  -999.2500  -999.2500
  338.5000   -40.1380     4.0619     2.8423   290.8115     6.8759  -999.2500  -999.2500
  339.0000   -40.1308     3.8673     2.5555   321.3868     6.8615  -999.2500  -999.2500
  339.5000   -40.1235     3.7028     2.2601   350.4695     6.8470  -999.2500  -999.2500
  340.0000   -39.9695     3.4933     2.0390   388.5074     6.8470  -999.2500  -999.2500
  340.5000   -39.9624     3.2521     1.7436   414.2940     6.8470  -999.2500  -999.2500
  341.0000   -39.9553     3.0877     1.7458   427.2699     6.8470  -999.2500  -999.2500
  341.5000   -39.8028     3.0446     1.7479   419.7800     6.8615  -999.2500  -999.2500
  342.0000   -39.7957     3.0900     1.7501   401.8479     6.9048  -999.2500  -999.2500
  342.5000   -39.7886     3.2703     1.9755   386.9007     6.9769  -999.2500  -999.2500
  343.0000   -39.7815     3.2723     2.2753   368.2223     6.8903  -999.2500  -999.2500
  343.5000   -39.7744     3.2710     2.6610   351.7826     6.8182  -999.2500  -999.2500
  344.0000   -39.7673     3.4489     3.2599   286.0892     6.8038  -999.2500  -999.2500
  344.5000   -39.7602     4.6961     3.7705   233.3409     6.7893  -999.2500  -999.2500
  345.0000   -39.7529     4.9813     3.9215   207.6848     6.7893  -999.2500  -999.2500
  345.5000   -39.7442     5.1316     4.1469   183.0334     6.7893  -999.2500  -999.2500
  346.0000   -39.7371     5.2519     4.3723   176.2953     6.7749  -999.2500  -999.2500
  346.5000   -39.7300     5.3272     4.5233   177.0252     6.7749  -999.2500  -999.2500
  347.0000   -39.7229     5.3726     4.6742   180.7293     6.7749  -999.2500  -999.2500
  347.5000   -39.8629     5.4029     4.6764   186.6777     6.7749  -999.2500  -999.2500
  348.0000   -39.8540     5.4333     4.4554   195.6112     6.7749  -999.2500  -999.2500
  348.5000   -39.8469     5.4337     4.1599   209.7686     6.7749  -999.2500  -999.2500
  349.0000   -39.8398     5.3084     3.6949   232.8772     6.7893  -999.2500  -999.2500
  349.5000   -39.6873     4.9697     3.0488   264.1972     6.7893  -999.2500  -999.2500
  350.0000   -39.5349     4.5953     2.6784   287.5587     6.7893  -999.2500    74.5482
  350.5000   -39.5291     4.1309     2.6815   308.9923     6.7893  -999.2500    80.5731
  351.0000   -39.2319     3.8764     2.3870   333.5349     6.7893  -999.2500    84.0358
  351.5000   -38.9355     3.4120     2.1662   346.1996     6.7893  -999.2500    84.3283
  352.0000   -38.7845     3.3523     2.0952   355.8793     6.7893  -999.2500    80.9962
  352.5000   -38.6335     3.4127     2.0988   359.5888     6.7893  -999.2500    76.8767
  353.0000   -38.6211     3.3981     2.1761   356.5820     6.7893  -999.2500    68.1987
  353.5000   -38.6303     3.4768     2.4022   342.8293     6.7871  -999.2500    65.8308
  354.0000   -38.7849     3.7880     2.7027   312.5030     6.7605  -999.2500    58.8615
  354.5000   -39.0455     4.0889     3.0032   274.4215     6.7605  -999.2500    62.6121
  355.0000   -39.1866     4.2242     3.3037   246.0415     6.7605  -999.2500    72.1185
  355.5000   -39.4702     4.3745     3.3130   227.3630     6.7605  -999.2500    71.6204
  356.0000   -39.4645     4.5398     3.3859   219.1322     6.7605  -999.2500    71.0482
  356.5000   -39.6056     4.6901     3.6101   214.6328     6.7605  -999.2500    72.4397
  357.0000   -39.7453     4.8553     3.6880   213.8647     6.7605  -999.2500    76.3177
  357.5000   -39.8836     5.0206     3.9141   214.5892     6.7605  -999.2500    81.9429
  358.0000   -39.8779     5.0810     3.9170   219.0450     6.7605  -999.2500    75.0221
  358.5000   -39.8721     5.0963     3.9199   208.9917     6.7605  -999.2500    70.7114
  359.0000   -39.8651     5.0368     3.9228   199.5929     6.7749  -999.2500    65.6866
  359.5000   -39.8595     4.9622     3.7025   207.7801     6.7749  -999.2500    65.3043
  360.0000   -39.8538     4.8126     3.6310   225.6687     6.7749  -999.2500    68.6146
  360.5000   -39.8481     4.6781     3.4816   239.8260     6.7749  -999.2500    62.5241
