~VERSION INFORMATION
 VERS.                2.0:   CWLS LOG ASCII STANDARD - VERSION 2.0
 WRAP.                 NO:   ONE LINE PER DEPTH STEP
~WELL INFORMATION
#MNEM.UNIT      DATA TYPE    INFORMATION
#----------   ------------   ------------------------------
 STRT.F           28.0000:   START DEPTH
 STOP.F          687.0000:   STOP DEPTH
 STEP.F            0.5000:   STEP LENGTH
 NULL.          -999.2500:   NO VALUE
 COMP. LAWRENCE/ALLISON INC:   COMPANY
 WELL.      41 STX #15-15:   WELL
 FLD .             TEAPOT:   FIELD
 LOC .      S15 T38N R78W:   LOCATION
 CNTY.            NATRONA:   COUNTY
 STAT.            WYOMING:   STATE
 CTRY. UNITED STATES OF AMERICA:   COUNTRY
 SRVC.           Gearhart:   SERVICE COMPANY
 DATE.        24-AUG-1987:   LOGDATE
 API .       490251118800:   API NUMBER
~CURVE INFORMATION
#MNEM.UNIT       API CODE    CURVE DESCRIPTION
#----------   ------------   ------------------------------
 DEPT.F                  :   
 GRR .GAPI   07 310 01 00:   GAMMA RAY
 ILD .OHMM   07 120 46 00:   INDUCTION LOG DEEP
 ILM .OHMM   07 120 44 00:   INDUCTION LOG MEDIUM
~PARAMETER INFORMATION
#MNEM.UNIT          VALUE    DESCRIPTION
#----------   ------------   ------------------------------
 PD  .                 GL:   PERMANENT DATUM
 EPD .F              5230:   ELEVATION PERMANENT DATUM
 LMF .                 KB:   LOG MEASURED FROM
 DAPD.F              10.5:   FEET ABOVE PERMANENT DATUM
 DMF .                 KB:   DRILLING MEASURED FROM
 EKB .F            5240.5:   KELLING BUSHING
 EDF .F            5239.5:   DRILLING FLOOR
 EGL .F              5230:   GROUND LEVEL
 DATE.        24-AUG-1987:   RUN DATE
 RUN .                  1:   RUN NUMBER
 DD  .F               693:   DEPTH DRILLER
 DL  .F               695:   DEPTH LOGGER
 BLI .F               687:   BOTTOM LOG INTERVAL
 TLI .F                30:   TOP LOG INTERVAL
 CS  .IN            9.625:   CASING SIZE
 CBD .F                48:   CASING BOTTOM DRILLER
 CBL .F                48:   CASING BOTTOM LOGGER
 BS  .IN             8.75:   BIT SIZE
 BSD .F               693:   BIT SIZE AT DEPTH
 DFT .                AIR:   DRILLING FLUID TYPE
 TCS .HRS            0700:   TIME CURCULATED STOPPED
 TLAB.HRS            0617:   TIME LOGGER AT BOTTOM
 MRT .F                80:   MAXIMUM RECORDED TEMPERATURE
 LUN .               7597:   LOGGING UNIT NUMBER
 LUL .           GILLETTE:   LOGGING UNIT LOCATION
 ENGI.         WEATHERMON:   RECORDING ENGINEER
 WITN.             STRONG:   WITNESSED BY
 CLNT.            A2DTECH:   CLIENT CODE
 ORIG.       2", 5" PRINT:   ORIGIN OF DATA
 UWI .       490251118800:   UNIQUE WELL ID
 DICO. A2D Technologies, Inc.:   DIGITIZING COMPANY
~OTHER INFORMATION
~A   DEPT       GRR       ILD        ILM   
# ...
  574.0000   116.1458    11.8063    10.8244
  574.5000   113.4356    11.6437    10.6760
  575.0000   111.6318    11.4039    10.5296
  575.5000   111.3384    11.0152    10.4576
  576.0000   112.8580    10.6379    10.3144
  576.5000   116.8451    10.1974    10.1027
  577.0000   118.6667     9.9960     9.9640
  577.5000   119.2313     9.9960     9.4926
  578.0000   119.2402     9.7225     8.7352
  578.5000   119.2490     8.8842     8.6154
  579.0000   119.2579     8.4632     8.2512
  579.5000   120.1731     8.1183     7.6220
  580.0000   122.9010     7.3671     6.7601
  580.5000   126.5353     6.6392     6.1777
  581.0000   131.6801     6.5474     5.4910
  581.5000   142.8672     6.6392     5.1949
  582.0000   152.8459     6.7319     5.1237
  582.5000   153.7612     6.8734     5.8054
  583.0000   141.8882     7.0180     6.4423
  583.5000   129.9140     7.3162     7.0019
  584.0000   116.3278     8.0108     7.6660
  584.5000   109.0859     9.5890     8.6354
  585.0000   110.3032    10.1498     8.9897
  585.5000   113.3333    10.6398     9.3723
  586.0000   114.5506    10.9391     9.8393
  586.5000   115.1637    11.2468     9.9774
  587.0000   115.7768    11.3251     9.9780
  587.5000   117.2963    11.4833    10.0482
  588.0000   120.0242    11.6437    10.0488
  588.5000   124.8922    11.8885    10.1195
  589.0000   126.1349    12.0545    10.2615
  589.5000   126.6973    12.2229    10.7012
  590.0000   125.5000    12.3994    11.1640
  590.5000   123.6962    12.6542    11.3890
  591.0000   122.1945    12.8310    11.4691
  591.5000   122.2033    13.0102    11.7110
  592.0000   123.1186    13.1919    12.2095
  592.5000   123.1274    13.3762    12.4670
  593.0000   122.2300    13.4692    12.6420
  593.5000   119.2177    13.6574    12.8194
  594.0000   114.0906    13.7524    12.8203
  594.5000   111.6826    13.9445    12.8212
  595.0000   113.7062    14.0448    12.8280
  595.5000   119.5576    14.2377    12.9122
  596.0000   121.0770    14.3368    12.9132
  596.5000   121.0859    14.3368    12.9141
  597.0000   120.1884    14.3368    13.0049
  597.5000   119.5931    14.3368    13.0058
  598.0000   118.0914    14.3368    13.0972
  598.5000   111.4537    14.2377    13.0981
  599.0000   109.9520    14.1393    13.0989
  599.5000   109.3565    14.0416    13.0093
  600.0000   112.3867    14.0416    12.7957
  600.5000   113.6194    14.1385    12.4806
  601.0000   111.8275    13.7505    12.3952
  601.5000   110.6346    13.7495    12.5694
  602.0000   112.1712    13.7486    12.5702
  602.5000   112.1920    13.7477    12.5711
  603.0000   111.9054    13.6517    12.5720
  603.5000   112.2336    13.5562    12.5728
  604.0000   113.1607    13.3686    12.4870
  604.5000   114.6920    13.1835    12.3158
  605.0000   115.3172    13.0915    12.1468
  605.5000   114.7029    13.0001    11.8977
  606.0000   114.1502    12.6436    11.7346
  606.5000   116.5931    12.3824    11.4143
  607.0000   120.8435    12.2110    11.1027
  607.5000   124.1875    12.0420    10.8749
  608.0000   124.8073    11.7932    10.8004
  608.5000   120.3016    11.5496    10.6524
  609.0000   119.1139    11.3897    10.5063
  609.5000   119.4368    11.2224    10.2864
  610.0000   123.3851    10.9238    10.2109
  610.5000   126.7291    10.8476    10.0803
  611.0000   127.6562    10.8468    10.0810
  611.5000   127.9791    10.7711    10.0693
  612.0000   125.5709    10.7704     9.9434
  612.5000   122.2057    10.5479     9.8070
  613.0000   118.9325    10.4019     9.7399
  613.5000   118.0925    10.2579     9.7408
  614.0000   122.9523    10.2863     9.8092
  614.5000   126.5985    10.3279     9.8099
  615.0000   127.2235    10.2558     9.8105
  615.5000   126.0358    10.2520     9.8112
  616.0000   124.8481    10.1835     9.6767
  616.5000   125.4732    10.1827     9.5384
  617.0000   127.0045    10.1820     9.3379
  617.5000   130.0464    10.1813     9.0932
  618.0000   132.1820    10.1102     8.9684
  618.5000   132.5049     9.9703     8.8456
  619.0000   132.5276     9.9007     8.7243
  619.5000   129.4876     9.6962     8.5453
  620.0000   128.3377     9.1722     8.4281
  620.5000   129.5721     9.0452     8.2552
  621.0000   130.8014     8.9821     8.2557
  621.5000   132.0306     8.9815     8.0863
  622.0000   133.2598     8.7935     8.0868
  622.5000   134.7912     8.6073     8.0874
  623.0000   135.4162     8.3778     8.1442
  623.5000   135.7339     8.1481     8.0821
  624.0000   133.9472     7.9246     7.5997
  624.5000   133.6607     7.8149     6.9933
  625.0000   134.8951     7.8689     6.8497
  625.5000   135.5201     7.9783     6.7557
  626.0000   134.9367     8.0332     6.8507
  626.5000   130.0716     8.0886     7.0439
  627.0000   127.6597     8.2009     7.6557
  627.5000   125.5237     8.5487     8.2061
  628.0000   124.1437     9.4198     8.6748
  628.5000   127.1908     9.8903     8.9815
  629.0000   128.7222    10.0949     9.1710
  629.5000   129.3472    10.3063     9.5613
  630.0000   129.0659    10.4497     9.8310
  630.5000   128.1803    10.5949     9.9787
  631.0000   126.6905    10.6680    10.0392
  631.5000   126.1019    10.6671    10.0399
  632.0000   127.0342    10.7407    10.0406
  632.5000   127.9613    10.7398    10.0412
  633.0000   128.8885    10.6649    10.0419
  633.5000   128.9094    10.5172     9.9730
  634.0000   129.3173    10.2288     9.8363
  634.5000   132.6758    10.1574     9.7690
  635.0000   133.8054    10.0865     9.7023
  635.5000   133.5241    10.0858     9.6359
  636.0000   133.2428    10.0850     9.6365
  636.5000   132.3624    10.0843     9.7043
  637.0000   128.7578    10.0836     9.7725
  637.5000   124.5490    10.0829     9.8412
  638.0000   123.0592    10.1526     9.8420
  638.5000   123.9863    10.0815     9.7745
  639.0000   126.7262     9.8050     9.5740
  639.5000   129.1638     9.3397     9.0579
  640.0000   129.4868     8.8351     8.7498
  640.5000   128.2946     8.4744     8.5110
  641.0000   120.5452     8.1850     8.2787
  641.5000   114.7455     7.9022     7.8869
  642.0000   118.3968     7.5083     7.2576
  642.5000   125.3663     6.8177     6.7249
  643.0000   128.7103     6.1575     6.0609
  643.5000   130.2417     5.6253     5.4143
  644.0000   129.9551     4.1950     4.2714
  644.5000   129.0748     3.8743     3.7049
  645.0000   127.8819     3.4616     3.3857
  645.5000   130.0227     3.1629     2.7499
  646.0000   130.6477     3.1192     2.6748
  646.5000   130.0634     3.2290     2.7124
  647.0000   127.6681     3.2739     2.8083
  647.5000   119.5318     3.4604     3.0949
  648.0000   112.2058     4.0027     3.5066
  648.5000   109.3015     4.2899     4.1133
  649.0000   109.9317     5.0314     4.5017
  649.5000   110.8588     5.8604     5.4292
  650.0000   116.0155     6.3686     6.1515
  650.5000   121.6451     6.8328     6.7427
  651.0000   124.1349     7.3308     7.2815
  651.5000   124.6620     7.7857     7.5760
  652.0000   124.6856     7.9489     7.6823
  652.5000   124.7092     8.1719     7.6829
  653.0000   125.9395     8.4596     7.8449
  653.5000   128.9797     8.5774     7.9550
  654.0000   133.5282     8.5766     7.9556
  654.5000   136.2668     8.5760     7.9561
  655.0000   136.2904     8.5755     7.9567
  655.5000   135.1074     8.5749     7.9021
  656.0000   132.4043     8.5150     7.9027
  656.5000   130.9314     8.5144     7.9033
  657.0000   132.1675     8.5139     7.9038
  657.5000   133.6994     8.5133     7.9044
  658.0000   135.5330     8.5127     7.8503
  658.5000   137.9699     8.5120     7.8509
  659.0000   139.5018     8.5114     7.8515
  659.5000   140.1229     8.3356     7.7977
  660.0000   136.8342     8.1634     7.5325
  660.5000   132.6345     8.1065     7.4808
  661.0000   130.5465     8.2763     7.4296
  661.5000   130.5702     8.3334     7.5340
  662.0000   131.1976     8.3327     7.7465
  662.5000   130.5179     8.2746     7.8552
  663.0000   127.6303     8.2740     7.9104
  663.5000   126.4473     8.3351     7.8563
  664.0000   124.6610     8.3884     7.7996
  664.5000   126.4946     8.4463     7.6956
