~VERSION INFORMATION
 VERS.                2.0:   CWLS LOG ASCII STANDARD - VERSION 2.0
 WRAP.                 NO:   ONE LINE PER DEPTH STEP
~WELL INFORMATION
#MNEM.UNIT      DATA TYPE    INFORMATION
#----------   ------------   ------------------------------
 STRT.F            0.0000:   START DEPTH
 STOP.F         1002.0000:   STOP DEPTH
 STEP.F            0.5000:   STEP LENGTH
 NULL.          -999.2500:   NO VALUE
 COMP. U S NAVY-INTEX OIL:   COMPANY
 WELL.     NPR ##3 28-S-2:   WELL
 FLD .             TEAPOT:   FIELD
 LOC .       S2 T38N R78W:   LOCATION
 CNTY.            NATRONA:   COUNTY
 STAT.            WYOMING:   STATE
 CTRY. UNITED STATES OF AMERICA:   COUNTRY
 SRVC.      NL McCullough:   SERVICE COMPANY
 DATE.        13-JUN-1963:   LOGDATE
 API .       490250639400:   API NUMBER
~CURVE INFORMATION
#MNEM.UNIT       API CODE    CURVE DESCRIPTION
#----------   ------------   ------------------------------
 DEPT.F                  :   
 ASN .OHMM   05 041 16 00:   AMPLIFIED SHORT NORMAL 16"
 ILD .OHMM   05 120 46 00:   INDUCTION LOG DEEP
 CILD.MMHO   05 110 46 00:   CONDUCTIVITY INDUCTION LOG DEEP
 SPR .MV     05 010 01 00:   SPONTANEOUS POTENTIAL FROM RES.
 GR  .GAPI   30 310 01 00:   GAMMA RAY
~PARAMETER INFORMATION
#MNEM.UNIT          VALUE    DESCRIPTION
#----------   ------------   ------------------------------
 PD  .                 GL:   PERMANENT DATUM
 EPD .F              5147:   ELEVATION PERMANENT DATUM
 LMF .                 KB:   LOG MEASURED FROM
 DAPD.F                 5:   FEET ABOVE PERMANENT DATUM
 DMF .                 KB:   DRILLING MEASURED FROM
 EKB .F              5152:   KELLING BUSHING
 EGL .F              5147:   GROUND LEVEL
 DATE.        13-SEP-1963:   RUN DATE
 RUN .                  1:   RUN NUMBER
 BLI .F               600:   BOTTOM LOG INTERVAL
 CS  .IN                7:   CASING SIZE
 DFT .                OIL:   DRILLING FLUID TYPE
 ENGI.            JACKSON:   RECORDING ENGINEER
 WITN.             HUDSON:   WITNESSED BY
 CLNT.            A2DTECH:   CLIENT CODE
 ORIG.           5" PRINT:   ORIGIN OF DATA
 UWI .       490250639400:   UNIQUE WELL ID
 DICO. A2D Technologies, Inc.:   DIGITIZING COMPANY
~OTHER INFORMATION
~A    DEPT     ASN        ILD       CILD        SPR          GR  
# ...
  671.0000    10.1867     9.2834   101.1055   -36.6776  -999.2500
  671.5000    10.2585     9.4348   101.0608   -36.6730  -999.2500
  672.0000    10.2589     9.5112   101.0162   -36.3700  -999.2500
  672.5000    10.2594     9.4378   100.2196   -36.3655  -999.2500
  673.0000    10.4093     9.3643   100.1749   -36.3611  -999.2500
  673.5000    10.3349     9.3659   100.1303   -36.2073  -999.2500
  674.0000    10.2606     9.3674   100.8487   -36.2028  -999.2500
  674.5000    10.1864     9.2936   102.2966   -36.0491  -999.2500
  675.0000    10.1869     9.2201   102.2519   -35.8953  -999.2500
  675.5000    10.1874     9.2220   103.7110   -35.7416  -999.2500
  676.0000    10.1878     9.2985   104.4294   -35.7371  -999.2500
  676.5000    10.1883     9.3000   104.3736   -35.5834  -999.2500
  677.0000    10.1887     9.3015   103.5770   -35.5789  -999.2500
  677.5000    10.1892     9.3030   102.7805   -35.7248  -999.2500
  678.0000    10.1855     9.3794   101.2320   -35.7192  -999.2500
  678.5000    10.1469     9.4559    99.6836   -35.7147  -999.2500
  679.0000    10.1084     9.6073    98.1352   -35.7102  -999.2500
  679.5000    10.0698     9.6838    97.3386   -35.8561  -999.2500
  680.0000    10.0312     9.6103    99.5993   -36.0008  -999.2500
  680.5000     9.9926     9.4619   103.4233   -35.9952  -999.2500
  681.0000     9.9540     9.1635   108.7013   -35.9907  -999.2500
  681.5000     9.8788     8.7902   113.9798   -35.9862  -999.2500
  682.0000     9.6251     8.2670   119.6605   -35.8325  -999.2500
  682.5000     9.2818     7.8187   124.8790   -35.6787  -999.2500
  683.0000     8.8487     7.3704   131.6013   -35.5250  -999.2500
  683.5000     8.4307     6.8472   140.5792   -35.5205  -999.2500
  684.0000     8.0574     6.4739   160.8353   -35.2175  -999.2500
  684.5000     7.5048     5.7258   186.3545   -34.9145  -999.2500
  685.0000     6.8774     4.3779   230.6707   -34.7608  -999.2500
  685.5000     6.3099     3.1800   282.5058   -34.4578  -999.2500
  686.0000     5.5779     2.5069   338.8521   -34.1548  -999.2500
  686.5000     4.6964     2.1336   383.1683   -33.7025  -999.2500
  687.0000     4.2783     1.9098   398.1612   -33.2503  -999.2500
  687.5000     4.0396     1.9117   398.8796   -33.0965  -999.2500
  688.0000     3.9053     1.9132   386.0418   -33.0921  -999.2500
  688.5000     3.9213     1.9896   367.2002   -33.2379  -999.2500
  689.0000     4.0289     2.2160   338.5841   -33.5320  -999.2500
  689.5000     4.5286     2.7423   297.1860   -33.8260  -999.2500
  690.0000     5.2805     3.3435   269.3218   -34.2681  -999.2500
  690.5000     6.2193     4.3195   207.6230   -34.5622  -999.2500
  691.0000     6.9431     5.7453   172.9919   -34.8562  -999.2500
  691.5000     7.5371     6.6463   145.1277   -34.8517  -999.2500
  692.0000     7.9109     7.0226   134.4963   -34.8472  -999.2500
  692.5000     8.2414     7.2490   127.6946   -34.8427  -999.2500
  693.0000     8.5719     7.4754   123.8597   -34.8382  -999.2500
  693.5000     8.9126     7.6268   121.5286   -34.8337  -999.2500
  694.0000     9.0905     7.7782   119.1980   -34.8292  -999.2500
  694.5000     9.2084     7.8547   116.2771   -34.8247  -999.2500
  695.0000     9.3529     7.9312   115.4805   -34.8203  -999.2500
  695.5000     9.4579     7.9327   115.4359   -34.8158  -999.2500
  696.0000     9.5331     7.8588   117.6468   -34.8113  -999.2500
  696.5000     9.5784     7.7854   119.1059   -34.8068  -999.2500
  697.0000     9.6237     7.7123   121.3169   -34.8023  -999.2500
  697.5000     9.6690     7.6384   121.2722   -34.7978  -999.2500
  698.0000     9.6844     7.6403   121.9906   -34.9437  -999.2500
  698.5000     9.7297     7.6418   121.9348   -35.3859  -999.2500
  699.0000     9.7600     7.6433   122.6532   -35.6799  -999.2500
  699.5000     9.7904     7.6448   123.3492   -35.9739  -999.2500
  700.0000     9.7908     7.6336   124.2915   -35.9705  -999.2500
  700.5000     9.7763     7.5596   125.6484   -35.9926  -999.2500
  701.0000     9.6871     7.4976   127.0075   -36.0000  -999.2500
  701.5000     9.5530     7.4234   128.4812   -35.9940  -999.2500
  702.0000     9.4040     7.4993   128.4510   -35.8392  -999.2500
  702.5000     9.3297     7.5750   128.4209   -35.8332  -999.2500
  703.0000     9.3451     7.6507   126.8871   -35.6784  -999.2500
  703.5000     9.3903     7.7265   125.3532   -35.6724  -999.2500
  704.0000     9.4954     7.8022   123.8194   -35.6665  -999.2500
  704.5000     9.6304     7.8779   122.2855   -35.5117  -999.2500
  705.0000     9.7355     7.9536   120.7516   -35.5057  -999.2500
  705.5000     9.7808     7.9544   119.9697   -35.3509  -999.2500
  706.0000     9.7364     7.8801   120.6917   -35.3449  -999.2500
  706.5000     9.6769     7.8809   122.1651   -35.3390  -999.2500
  707.0000     9.5728     7.8816   122.1350   -35.3330  -999.2500
  707.5000     9.4986     7.8824   123.6090   -35.3270  -999.2500
  708.0000     9.4243     7.6583   125.8342   -35.4713  -999.2500
  708.5000     9.3350     7.5089   128.0597   -35.4639  -999.2500
  709.0000     9.2757     7.2100   131.0371   -35.6082  -999.2500
  709.5000     9.2014     6.7610   140.0296   -35.6007  -999.2500
  710.0000     9.0075     6.3869   149.0220   -35.4459  -999.2500
  710.5000     8.5745     6.0878   155.0070   -35.2911  -999.2500
  711.0000     8.0069     6.0134   158.7363   -35.2852  -999.2500
  711.5000     7.6935     5.9392   158.7062   -34.9816  -999.2500
  712.0000     7.6490     5.8650   158.6761   -34.8268  -999.2500
  712.5000     7.6944     5.7908   158.6460   -34.8208  -999.2500
  713.0000     7.9190     5.9416   156.3602   -34.8148  -999.2500
  713.5000     8.3679     6.2422   151.8189   -34.8088  -999.2500
  714.0000     8.8168     6.6928   142.0143   -34.8029  -999.2500
  714.5000     9.1461     7.0683   133.7136   -34.7969  -999.2500
  715.0000     9.3857     7.6688   127.6684   -34.7909  -999.2500
  715.5000     9.6701     8.1193   120.1195   -34.7849  -999.2500
  716.0000     9.7950     8.4199   115.5781   -34.7790  -999.2500
  716.5000     9.8242     8.7205   112.5405   -34.9233  -999.2500
  717.0000     9.8534     8.7962   109.5029   -35.0661  -999.2500
  717.5000     9.8811     8.8719   107.2172   -35.3578  -999.2500
  718.0000     9.8816     8.9477   106.4352   -35.5006  -999.2500
  718.5000     9.8820     8.9484   103.3976   -35.7907  -999.2500
  719.0000     9.8825     8.9492   102.6156   -35.7848  -999.2500
  719.5000     9.8829     9.0249   101.8336   -35.9291  -999.2500
  720.0000     9.8834     9.0256   101.8035   -35.9216  -999.2500
  720.5000     9.8928     9.0264   102.5253   -35.9156  -999.2500
  721.0000     9.9590     9.0271   102.4952   -36.0600  -999.2500
  721.5000    10.0342     9.0279   102.4651   -35.9037  -999.2500
  722.0000    10.1094     9.0286   102.4350   -35.8977  -999.2500
  722.5000    10.1846     9.0294   103.1579   -35.8917  -999.2500
  723.0000    10.1850     9.0301   103.1267   -35.7369  -999.2500
  723.5000    10.1855     9.0307   103.8484   -35.7310  -999.2500
  724.0000    10.1112     8.9565   105.3233   -35.5774  -999.2500
  724.5000    10.0369     8.9440   106.0451   -35.5714  -999.2500
  725.0000     9.9626     8.8081   107.5188   -35.5655  -999.2500
  725.5000     9.8136     8.6589   108.9912   -35.5595  -999.2500
  726.0000     9.7393     8.4987   111.2167   -35.5536  -999.2500
  726.5000     9.6650     8.3502   112.6904   -35.3988  -999.2500
  727.0000     9.5907     8.1364   114.9159   -35.5418  -999.2500
  727.5000     9.5164     8.0622   115.6391   -35.8335  -999.2500
  728.0000     9.5169     8.0629   116.3609   -35.8275  -999.2500
  728.5000     9.4426     8.1387   116.3294   -35.9703  -999.2500
  729.0000     9.4431     8.2144   116.2993   -35.9642  -999.2500
  729.5000     9.4435     8.2151   116.2692   -35.9584  -999.2500
  730.0000     9.5187     8.1409   116.2391   -35.8036  -999.2500
  730.5000     9.5191     8.1417   116.2090   -35.7976  -999.2500
  731.0000     9.5196     8.2174   116.1789   -35.7916  -999.2500
  731.5000     9.5200     8.2181   115.3969   -35.7856  -999.2500
