~VERSION INFORMATION
 VERS.                2.0:   CWLS LOG ASCII STANDARD - VERSION 2.0
 WRAP.                 NO:   ONE LINE PER DEPTH STEP
~WELL INFORMATION
#MNEM.UNIT      DATA TYPE    INFORMATION
#----------   ------------   ------------------------------
 STRT.F            0.0000:   START DEPTH
 STOP.F          844.0000:   STOP DEPTH
 STEP.F            0.5000:   STEP LENGTH
 NULL.          -999.2500:   NO VALUE
 COMP. BROWN JOHN E&C INC:   COMPANY
 WELL. NAVAL PETROLEUM RESERVE 3 SX-1 #42-1-14:   WELL
 FLD .             TEAPOT:   FIELD
 LOC .      S14 T38N R78W:   LOCATION
 CNTY.            NATRONA:   COUNTY
 STAT.            WYOMING:   STATE
 CTRY. UNITED STATES OF AMERICA:   COUNTRY
 SRVC.     Atlas Wireline:   SERVICE COMPANY
 DATE.        11-JAN-1992:   LOGDATE
 API .       490252247700:   API NUMBER
~CURVE INFORMATION
#MNEM.UNIT       API CODE    CURVE DESCRIPTION
#----------   ------------   ------------------------------
 DEPT.F                  :   
 GRR .GAPI   07 310 01 00:   GAMMA RAY
 RFOC.OHMM   07 220 04 00:   RESISTIVITY FOCUSED LOG
 RILD.OHMM   07 120 46 00:   INDUCTION LOG DEEP RESISTIVITY
 RILM.OHMM   07 120 44 00:   INDUCTION LOG MEDIUM RESISTIVITY
 SPR .MV     07 010 01 00:   SPONTANEOUS POTENTIAL
~PARAMETER INFORMATION
#MNEM.UNIT          VALUE    DESCRIPTION
#----------   ------------   ------------------------------
 PD  .                 GL:   PERMANENT DATUM
 EPD .F              5201:   ELEVATION PERMANENT DATUM
 LMF .                 KB:   LOG MEASURED FROM
 DAPD.F                10:   FEET ABOVE PERMANENT DATUM
 DMF .                 KB:   DRILLING MEASURED FROM
 EKB .F              5211:   KELLING BUSHING
 EGL .F              5201:   GROUND LEVEL
 DATE.        11-JAN-1992:   RUN DATE
 RUN .                  1:   RUN NUMBER
 DD  .F               848:   DEPTH DRILLER
 DL  .F               847:   DEPTH LOGGER
 BLI .F               845:   BOTTOM LOG INTERVAL
 CS  .IN            10.75:   CASING SIZE
 CBD .F               101:   CASING BOTTOM DRILLER
 CBL .F               101:   CASING BOTTOM LOGGER
 BS  .IN             8.75:   BIT SIZE
 BSD .F               848:   BIT SIZE AT DEPTH
 DFT .               CHEM:   DRILLING FLUID TYPE
 DFD .                9.0:   DRILLING FLUID DENSITY
 DFV .                 40:   DRILLING FLUID VISCOSITY
 DFPH.                9.0:   DRILLING FLUID PH
 DFL .                8.4:   DRILLING FLUID LOSS
 MSS .           FLOWLINE:   MUD SAMPLE SOURCE
 RMS .OHMM           0.22:   RESISTIVITY MUD SAMPLE
 MST .F                78:   MUD SAMPLE TEMPERATURE
 RMF .OHMM           0.17:   RESISTIVITY MUD FILTRATE SAMPLE
 MFST.F                78:   MUD FILTRATE SAMPLE TEMPERATURE
 RMC .OHMM           0.28:   RESISTIVITY MUD CAKE
 MCST.F                78:   MUD CAKE SAMPLE TEMPERATURE
 MFSS.               MEAS:   MUD FILTRATE SAMPLE SOURCE
 MCSS.               CALC:   MUD CAKE SAMPLE SOURCE
 RMB .OHMM           0.14:   RESISTIVITY MUD AT BHT
 BHT .F               126:   BOTTOM HOLE TEMPERATURE
 TCS .HRS               3:   TIME CURCULATED STOPPED
 MRT .F               126:   MAXIMUM RECORDED TEMPERATURE
 LUN .            HL-6274:   LOGGING UNIT NUMBER
 LUL .         CASPER, WY:   LOGGING UNIT LOCATION
 ENGI.             ZIEGER:   RECORDING ENGINEER
 WITN.         MR. STRONG:   WITNESSED BY
 CLNT.            A2DTECH:   CLIENT CODE
 ORIG.           5" PRINT:   ORIGIN OF DATA
 UWI .       490252247700:   UNIQUE WELL ID
 DICO. A2D Technologies, Inc.:   DIGITIZING COMPANY
~OTHER INFORMATION
~A    DEPT      GRR      RFOC       RILD       RILM        SPR   
# ...
  183.0000   100.3364     3.3998     3.0678     2.9499   -12.7820
  183.5000   104.9973     3.3280     2.8603     2.7121   -13.2331
  184.0000   110.6885     3.3004     2.6669     2.4740   -13.6842
  184.5000   112.1754     3.2334     2.4520     2.2850   -13.8346
  185.0000   113.9626     3.1213     2.2521     2.1073   -13.9850
  185.5000   115.7499     2.9507     2.1464     1.9510   -14.2857
  186.0000   118.1377     2.6750     2.1311     1.9101   -14.2857
  186.5000   118.7237     2.3256     2.1456     2.1199   -14.2857
  187.0000   116.1543     2.3082     2.2058     2.2409   -14.1353
  187.5000   110.5828     2.6464     2.3321     2.4873   -13.9850
  188.0000   105.7635     3.2693     2.5710     2.8788   -13.8346
  188.5000    99.4426     4.2011     2.8345     3.2471   -13.6842
  189.0000    98.2305     4.5349     3.2253     3.5802   -13.3835
  189.5000   100.3144     4.5326     3.7724     3.8280   -12.9323
  190.0000   100.3404     4.5308     4.3369     4.3388   -12.6316
  190.5000   100.2852     4.5926     4.8148     4.7162   -12.4812
  191.0000   102.4744     4.6628     5.0904     4.8819   -12.4812
  191.5000   104.4567     4.7518     5.1974     4.9839   -12.4812
  192.0000   102.5786     4.7494     5.2692     5.1228   -12.4812
  192.5000    97.1321     4.7475     5.4173     5.1931   -12.4812
  193.0000    93.3007     4.8460     5.5369     5.3442   -12.6316
  193.5000    92.9858     5.1579     5.7259     5.5641   -12.7820
  194.0000    95.6739     5.5285     5.9282     5.7196   -13.2331
  194.5000   102.2660     5.7311     6.0948     5.8386   -13.3835
  195.0000   104.0568     5.9226     6.2226     5.9601   -13.2331
  195.5000   101.3359     6.0454     6.3092     6.0418   -12.9323
  196.0000   102.5345     6.0430     6.3518     6.0398   -12.6316
  196.5000   105.2107     6.0405     6.3063     6.0801   -12.3308
  197.0000   104.5919     5.9544     6.2172     6.0779   -12.1805
  197.5000   104.5773     5.9520     6.1727     6.0716   -12.0301
  198.0000   106.0643     5.9041     6.1715     6.0311   -12.0301
  198.5000   104.8485     5.8642     6.1702     5.9455   -12.1805
  199.0000   100.0291     5.8618     6.1690     5.9021   -12.4812
  199.5000    98.5131     5.8595     6.1248     5.8591   -12.7820
  200.0000   102.7010     6.0652     6.1051     5.8573   -13.3842
  200.5000   105.9892     6.0151     6.0783     5.8153   -13.5389
  201.0000   104.1621     5.9351     6.0758     5.8139   -13.6937
  201.5000   102.3393     5.8918     6.0259     5.7723   -13.8484
  202.0000   104.7173     5.8087     5.9445     5.7713   -14.0031
  202.5000   109.2016     5.8473     5.9007     5.6900   -14.0075
  203.0000   110.0873     5.8042     5.8573     5.6101   -13.8386
  203.5000   108.5606     5.8022     5.8549     5.5698   -13.4147
  204.0000   105.2371     5.7599     5.8119     5.5298   -13.1183
  204.5000   102.0901     5.7179     5.8095     5.5287   -12.6727
  205.0000   100.0866     5.6736     5.8066     5.4891   -12.2248
  205.5000    99.7661     5.5952     5.8042     5.4880   -11.7544
  206.0000    99.7459     5.5545     5.8019     5.4869   -12.2346
  206.5000   100.6266     5.6306     5.8811     5.5242   -12.5399
  207.0000   106.9127     5.7083     5.9620     5.6046   -12.0941
  207.5000   109.2949     5.8674     6.0852     5.6783   -11.9470
  208.0000   103.2636     5.9895     6.2155     5.7969   -12.4035
  208.5000    93.3335     6.1181     6.3842     5.9184   -12.7086
  209.0000    90.9109     6.2845     6.5167     6.0846   -12.8634
  209.5000    90.2901     6.3712     6.6527     6.1689   -12.8677
  210.0000    90.8709     6.2803     6.8376     6.2981   -13.1830
  210.5000    96.4004     6.3664     6.9310     6.3920   -13.7798
  211.0000   101.6359     6.4542     7.1248     6.4738   -13.9338
  211.5000   102.8220     6.5422     7.2801     6.5178   -13.9383
  212.0000    99.7937     6.4493     7.3203     6.6081   -13.9436
  212.5000    98.8777     6.3431     7.3687     6.6064   -13.9480
  213.0000    99.7533     6.1802     7.2123     6.6051   -13.9524
  213.5000   103.3367     6.2214     7.0108     6.6014   -14.4079
  214.0000   100.3085     6.3514     6.7204     6.4653   -14.7130
  214.5000    96.0841     6.3487     6.4391     6.3744   -14.7173
  215.0000    90.9588     6.2151     6.1746     6.2411   -14.8721
  215.5000    91.8395     5.9166     5.9603     6.0259   -14.4264
  216.0000    96.0235     5.7120     5.8344     5.6580   -14.1289
  216.5000    96.9042     5.6700     5.4009     5.1304   -14.1344
  217.0000    94.4765     5.5895     4.5977     4.4459   -14.1387
  217.5000    92.9548     5.2475     3.8867     3.5926   -14.1431
  218.0000    94.7365     4.6266     3.1100     2.8731   -14.1475
  218.5000    99.8214     3.9393     2.7969     2.3463   -14.1519
  219.0000   108.8102     3.3308     2.4812     2.1574   -14.1573
  219.5000   120.8239     2.8260     2.3965     2.1570   -14.1616
  220.0000   122.8839     2.5353     2.4123     2.1868   -14.3164
  220.5000   120.7565     2.4649     2.5321     2.3168   -14.4711
  221.0000   116.5322     2.8132     2.7332     2.5843   -14.6258
  221.5000   110.2056     3.3482     2.9917     2.9708   -14.7806
  222.0000   100.5758     4.3329     3.2752     3.6617   -14.9374
  222.5000    95.4055     5.8880     3.7937     4.4509   -15.2406
  223.0000    83.4133     6.1422     4.9052     5.4480   -15.2459
  223.5000    79.7895     6.6709     6.0459     6.2693   -15.4006
  224.0000    82.4720     7.6673     7.0964     7.0496   -15.4050
  224.5000    87.5569     8.6300     7.6598     7.5575   -15.2590
  225.0000    87.8879     9.5124     8.0403     7.9342   -14.9626
  225.5000    86.6156     9.8476     8.2072     8.1004   -14.6662
  226.0000    85.0451     8.9274     8.0330     7.9865   -14.5202
  226.5000    81.7654     8.2501     7.7542     7.6575   -14.5256
  227.0000    80.5440     7.5980     7.3300     6.9243   -14.8308
  227.5000    82.3256     7.1831     6.4616     5.6307   -14.9855
  228.0000    88.0111     6.9344     5.6171     4.3791   -15.1402
  228.5000    91.8948     6.5102     5.0919     3.9707   -15.2950
  229.0000   100.1500     4.9575     4.9843     3.9149   -15.1489
  229.5000   110.7682     3.8016     5.0519     4.1970   -15.1629
  230.0000   114.0564     3.4951     5.2659     4.5945   -15.4595
  230.5000   107.1243     5.1638     5.6052     5.4278   -15.7646
  231.0000    98.0951     6.6826     6.0082     6.3748   -16.0697
  231.5000    90.2670     7.5217     6.4401     6.9302   -16.3749
  232.0000    84.0601     7.6254     7.0061     7.4295   -16.5296
  232.5000    77.0084     7.3097     7.7693     7.8544   -16.3835
  233.0000    76.3876     7.1559     8.4449     8.4204   -16.0872
  233.5000    76.6677     7.2036     9.3737     8.9674   -15.9178
  234.0000    82.3532     7.4043     9.7708     9.4765   -15.4955
  234.5000    86.2369     7.8815     9.9746     9.6750   -15.1991
  235.0000    86.5170     8.3895    10.1806     9.8090   -14.9027
  235.5000    86.1915     8.9928    10.4796    10.2979   -14.6063
  236.0000    87.6728     9.3741    10.9070    10.7360   -14.3098
  236.5000    89.4594     9.7036    11.2115    10.9609   -14.6151
  237.0000    87.0318     9.8385    11.2069    11.1127   -14.9203
  237.5000    83.1077     9.9022    11.2820    11.1879   -15.2264
  238.0000    82.4869     9.7609    11.1979    11.1079   -15.5315
  238.5000    84.5638     9.6224    11.3508    11.1056   -15.6862
  239.0000    83.9430     9.5523    11.3590    11.1034   -15.9913
  239.5000    81.8206     9.6167    11.5011    11.1789   -16.1461
  240.0000    81.2049     9.8160    11.7387    11.2549   -16.4512
  240.5000    89.2878    10.0203    11.8162    11.4107   -16.7669
  241.0000    89.2312    10.0870    11.8114    11.5687   -17.3633
  241.5000    84.7378    10.1542    11.9727    11.7290   -17.5180
  242.0000    83.8218    10.1499    12.0578    11.8908   -17.6727
  242.5000    87.4052    10.3612    12.3019    12.0554   -17.6771
  243.0000    85.8784    10.5776    12.4698    12.1374   -17.8318
  243.5000    84.3567    10.7219    12.6401    12.2199   -17.9866
