~VERSION INFORMATION
 VERS.                2.0:   CWLS LOG ASCII STANDARD - VERSION 2.0
 WRAP.                 NO:   ONE LINE PER DEPTH STEP
~WELL INFORMATION
#MNEM.UNIT      DATA TYPE    INFORMATION
#----------   ------------   ------------------------------
 STRT.F            6.0000:   START DEPTH
 STOP.F          640.0000:   STOP DEPTH
 STEP.F            0.5000:   STEP LENGTH
 NULL.          -999.2500:   NO VALUE
 COMP. LAWRENCE/ALLISON INC:   COMPANY
 WELL. NPR 3 #81-11-SX-15:   WELL
 FLD .             TEAPOT:   FIELD
 LOC .      S15 T38N R78W:   LOCATION
 CNTY.            NATRONA:   COUNTY
 STAT.            WYOMING:   STATE
 CTRY. UNITED STATES OF AMERICA:   COUNTRY
 SRVC.           Gearhart:   SERVICE COMPANY
 DATE.        15-JUL-1987:   LOGDATE
 API .       490251115100:   API NUMBER
~CURVE INFORMATION
#MNEM.UNIT       API CODE    CURVE DESCRIPTION
#----------   ------------   ------------------------------
 DEPT.F                  :   
 GRR .GAPI   07 310 01 00:   GAMMA RAY
 RILD.OHMM   07 120 46 00:   INDUCTION LOG DEEP RESISTIVITY
 RILM.OHMM   07 120 44 00:   INDUCTION LOG MEDIUM RESISTIVITY
~PARAMETER INFORMATION
#MNEM.UNIT          VALUE    DESCRIPTION
#----------   ------------   ------------------------------
 PD  .                 GL:   PERMANENT DATUM
 EPD .F            5265.4:   ELEVATION PERMANENT DATUM
 LMF .                 KB:   LOG MEASURED FROM
 DAPD.F                 8:   FEET ABOVE PERMANENT DATUM
 DMF .                 KB:   DRILLING MEASURED FROM
 EKB .F            5273.4:   KELLING BUSHING
 EDF .F            5271.4:   DRILLING FLOOR
 EGL .F            5265.4:   GROUND LEVEL
 DATE.        15-JUL-1987:   RUN DATE
 RUN .                  1:   RUN NUMBER
 DD  .F               646:   DEPTH DRILLER
 DL  .F               648:   DEPTH LOGGER
 BLI .F               640:   BOTTOM LOG INTERVAL
 TLI .F                 6:   TOP LOG INTERVAL
 CS  .IN            8.625:   CASING SIZE
 CBD .F                50:   CASING BOTTOM DRILLER
 CBL .F                50:   CASING BOTTOM LOGGER
 BS  .IN             7.87:   BIT SIZE
 BSD .F               646:   BIT SIZE AT DEPTH
 DFT .                AIR:   DRILLING FLUID TYPE
 TCS .HRS            2400:   TIME CURCULATED STOPPED
 TLAB.HRS            0112:   TIME LOGGER AT BOTTOM
 LUN .               7597:   LOGGING UNIT NUMBER
 LUL .           GILLETTE:   LOGGING UNIT LOCATION
 ENGI.           JOHNSTON:   RECORDING ENGINEER
 WITN.         MR. STRONG:   WITNESSED BY
 CLNT.            A2DTECH:   CLIENT CODE
 ORIG.      2" , 5" PRINT:   ORIGIN OF DATA
 UWI .       490251115100:   UNIQUE WELL ID
 DICO. A2D Technologies, Inc.:   DIGITIZING COMPANY
~OTHER INFORMATION
~A    DEPT     GRR       RILD       RILM   
# ...
  279.0000   118.2273     9.3260     9.1231
  279.5000   118.2359     9.3917     9.1237
  280.0000   114.9184     9.4577     9.1880
  280.5000   112.5064     9.4583     9.2527
  281.0000   111.0000     9.4590     9.2534
  281.5000   111.3134     9.4598     9.3185
  282.0000   111.2900     9.4604     9.2545
  282.5000   108.9122     9.5269     9.2553
  283.0000   110.1311     9.5275     9.2560
  283.5000   111.9552     9.5342     9.2565
  284.0000   113.7792     9.5953     9.2572
  284.5000   115.9536     9.5959     9.2578
  285.0000   117.1269     9.5965     9.2585
  285.5000   117.1356     9.5972     9.2592
  286.0000   115.9339     9.5315     9.1957
  286.5000   114.4297     9.5322     9.1963
  287.0000   111.4147     9.4669     9.1969
  287.5000   109.3053     9.4675     9.1533
  288.0000   111.4320     9.4016     9.1345
  288.5000   115.6766     9.3330     9.1352
  289.0000   117.1981     9.2744     9.1357
  289.5000   114.1831     9.2750     9.1364
  290.0000   111.7712     9.2757     9.1370
  290.5000   110.2670     9.2121     9.0744
  291.0000   109.6702     9.1490     9.0750
  291.5000   110.9188     9.0865     9.0756
  292.0000   114.2284     9.0243     8.8908
  292.5000   117.2628     8.9623     8.7062
  293.0000   117.5718     8.9631     8.5866
  293.5000   112.1363     8.9396     8.5098
  294.0000   107.4737     8.8448     8.3522
  294.5000   108.2223     8.7195     8.3528
  295.0000   111.5592     8.6919     8.3466
  295.5000   115.1987     8.5409     8.2387
  296.0000   117.6319     8.3656     8.1255
  296.5000   112.4949     8.1936     8.0138
  297.0000   113.7138     8.0812     7.8450
  297.5000   115.5379     7.9704     7.5814
  298.0000   116.7546     7.7528     7.3740
  298.5000   110.6589     7.4889     7.0243
  299.0000   106.4888     7.3860     6.7378
  299.5000   105.2871     7.3866     6.7382
  300.0000   104.9910     7.4645     6.8331
  300.5000   106.2121     7.5957     7.0263
  301.0000   108.3913     7.7024     7.2248
  301.5000   111.9803     7.8106     7.4290
  302.0000   115.0147     7.9355     7.6924
  302.5000   117.7465     8.0334     7.9098
  303.0000   119.5705     8.2012     8.0770
  303.5000   117.9427     8.2588     8.1906
  304.0000   110.5128     8.3748     8.1920
  304.5000   106.8905     8.3754     8.3645
  305.0000   105.0816     8.3760     8.3650
  305.5000   111.1438     8.3766     8.3656
  306.0000   115.0880     8.3772     8.3661
  306.5000   115.0966     8.2623     8.3069
  307.0000   113.5924     8.2056     8.2479
  307.5000   111.4830     8.0875     8.1815
  308.0000   109.3657     7.8637     8.1071
  308.5000   106.9638     7.7104     7.9716
  309.0000   105.4596     7.6045     7.6464
  309.5000   103.9554     7.4484     7.4374
  310.0000   105.7794     7.2887     7.0355
  310.5000   108.8603     7.0471     6.8431
  311.0000   111.5477     6.8546     6.5185
  311.5000   113.3717     6.6213     6.1664
  312.0000   113.6829     6.4404     5.8332
  312.5000   113.0864     6.0930     5.5181
  313.0000   112.4899     5.9266     5.2564
  313.5000   112.1960     5.8453     5.2935
  314.0000   112.2061     5.7650     5.7145
  314.5000   112.8201     5.9691     5.9582
  315.0000   113.1316     6.4432     6.1694
  315.5000   114.3527     6.8115     6.3950
  316.0000   115.2692     7.2009     6.6920
  316.5000   115.2779     7.4035     6.9770
  317.0000   115.5893     7.6638     7.2238
  317.5000   116.8083     7.8471     7.4275
  318.0000   118.9351     7.9598     7.5840
  318.5000   117.3796     8.1264     7.7438
  319.0000   114.4163     8.3173     7.8584
  319.5000   112.7610     8.4743     8.0808
  320.0000   111.1056     8.6218     8.2437
  320.5000   109.9040     8.7759     8.3170
  321.0000   108.4000     8.8385     8.4762
  321.5000   109.0139     8.8752     8.5353
  322.0000   112.6617     8.9176     8.5948
  322.5000   113.8729     9.0066     8.6885
  323.0000   113.5788     9.0922     8.7760
  323.5000   114.8001     9.0934     8.8496
  324.0000   117.8345     9.0946     8.9609
  324.5000   118.7510     9.0959     9.0234
  325.0000   117.8521     9.0344     9.1127
  325.5000   116.9531     9.0356     9.1497
  326.0000   119.0802     9.0997     9.1497
  326.5000   118.7861     9.1009     9.1497
  327.0000   116.3765     9.1022     9.2135
  327.5000   114.8725     9.1035     9.2778
  328.0000   114.5765     9.1048     9.2778
  328.5000   117.9157     9.1062     9.2778
  329.0000   119.7399     9.0930     9.2778
  329.5000   118.5002     9.0454     9.2417
  330.0000   116.1288     8.9843     9.1497
  330.5000   114.9273     8.8003     9.0234
  331.0000   113.1207     8.7406     8.9609
  331.5000   111.3140     8.7326     8.8560
  332.0000   109.8077     8.6138     8.7152
  332.5000   111.0290     8.4921     8.6548
  333.0000   112.2602     8.3306     8.5278
  333.5000   114.1674     8.1038     8.3012
  334.0000   116.2012     7.8830     8.0736
  334.5000   118.6306     7.7216     7.8522
  335.0000   118.9419     7.5043     7.6369
  335.5000   114.4121     7.2060     7.2238
  336.0000   114.7235     6.8652     6.8331
  336.5000   118.0606     6.2303     6.4015
  337.0000   120.5588     5.6935     5.7831
  337.5000   122.0137     4.9908     5.1030
  338.0000   121.7200     4.3145     4.5342
  338.5000   120.8188     3.8200     4.0853
  339.0000   119.6195     3.2469     3.5059
  339.5000   120.2334     2.9466     3.1152
  340.0000   120.5648     2.8863     2.8211
  340.5000   117.7671     2.8867     2.6183
  341.0000   114.8157     2.9072     2.5113
  341.5000   110.8910     2.9076     2.5821
  342.0000   108.1744     2.9957     2.7108
  342.5000   106.9729     3.2501     2.8859
  343.0000   110.0096     3.5574     3.0722
  343.5000   113.6493     3.9483     3.2928
  344.0000   113.6661     4.2621     3.9184
  344.5000   115.8840     4.5691     4.3793
  345.0000   119.1241     4.9322     4.8606
  345.5000   120.6457     5.2956     5.2105
  346.0000   118.8391     5.8280     5.7033
  346.5000   117.0324     6.2045     6.1138
  347.0000   117.6463     6.3800     6.1565
  347.5000   121.8911     6.4253     6.2427
  348.0000   128.1334     6.3374     6.1994
  348.5000   131.8957     6.2078     6.1138
  349.0000   130.0891     5.9947     5.9462
  349.5000   128.5850     5.7134     5.7033
  350.0000   130.4092     5.4811     5.5085
  350.5000   132.2334     5.4438     5.3521
  351.0000   131.9396     5.4447     5.2105
  351.5000   129.1560     5.4454     5.2105
  352.0000   125.9079     5.5223     5.1386
  352.5000   124.4038     5.6794     5.2468
  353.0000   123.2001     5.8393     5.5085
  353.5000   122.6038     6.0884     5.7432
  354.0000   126.2456     6.3482     5.9938
  354.5000   129.2801     6.5685     6.2862
  355.0000   130.4993     6.8411     6.5539
  355.5000   129.2977     7.1461     6.8331
  356.0000   127.7958     7.5036     7.0747
  356.5000   126.8946     7.7234     7.3249
  357.0000   125.9957     7.9336     7.6373
  357.5000   126.9144     8.1017     7.9153
  358.0000   127.5283     8.2160     8.1866
  358.5000   127.2345     8.2743     8.3012
  359.0000   125.9949     8.2755     8.3591
  359.5000   123.9260     8.2766     8.2437
  360.0000   122.4219     8.0436     8.1299
  360.5000   121.2204     7.8319     8.0171
  361.0000   120.6225     7.6185     7.8439
  361.5000   122.1462     7.4625     7.5840
  362.0000   123.0626     7.2747     7.3249
  362.5000   123.0713     7.0613     7.1241
  363.0000   123.4130     6.7742     6.8807
  363.5000   124.9062     6.5389     6.6457
  364.0000   126.4278     6.3219     6.5079
  364.5000   128.2519     6.1071     6.2726
  365.0000   130.0760     5.9406     5.9876
  365.5000   131.3051     5.8593     5.7831
  366.0000   133.1212     5.8196     5.5469
  366.5000   134.0376     5.8206     5.3203
  367.0000   133.4412     5.8214     5.3203
  367.5000   129.8190     5.9862     5.4330
  368.0000   125.2891     6.2416     5.7161
  368.5000   124.6926     6.4629     6.1138
  369.0000   125.6112     6.6920     6.4634
  369.5000   127.7379     6.9293     6.7070
