~VERSION INFORMATION
 VERS.                2.0:   CWLS LOG ASCII STANDARD - VERSION 2.0
 WRAP.                 NO:   ONE LINE PER DEPTH STEP
~WELL INFORMATION
#MNEM.UNIT      DATA TYPE    INFORMATION
#----------   ------------   ------------------------------
 STRT.F           34.0000:   START DEPTH
 STOP.F          576.0000:   STOP DEPTH
 STEP.F            0.5000:   STEP LENGTH
 NULL.          -999.2500:   NO VALUE
 COMP. FENIX & SCISSON INC:   COMPANY
 WELL.   NPR-3 #22 SX 3-3:   WELL
 FLD .             TEAPOT:   FIELD
 LOC .       S3 T38N R78W:   LOCATION
 CNTY.            NATRONA:   COUNTY
 STAT.            WYOMING:   STATE
 CTRY. UNITED STATES OF AMERICA:   COUNTRY
 SRVC.            Unknown:   SERVICE COMPANY
 DATE.        17-JUL-1978:   LOGDATE
 API .       490251066700:   API NUMBER
~CURVE INFORMATION
#MNEM.UNIT       API CODE    CURVE DESCRIPTION
#----------   ------------   ------------------------------
 DEPT.F                  :   
 SN  .OHMM   05 040 16 00:   SHORT NORMAL 16"
 ILD .OHMM   05 120 46 00:   INDUCTION LOG DEEP
 SPR .MV     05 010 01 00:   SPONTANEOUS POTENTIAL FROM RES.
 CALD.IN     45 280 60 00:   CALIPER FROM DENSITY LOG
 GRD .GAPI   45 310 01 00:   GAMMA RAY FROM DENSITY LOG
 CORR.G/C3   45 356 01 00:   DENSITY CORRECTION
 DPHI.DEC    45 890 12 00:   DENSITY POROSITY SANDSTONE
 DEN .G/C3   45 350 01 00:   COMPENSATED BULK DENSITY
~PARAMETER INFORMATION
#MNEM.UNIT          VALUE    DESCRIPTION
#----------   ------------   ------------------------------
 PD  .                 GL:   PERMANENT DATUM
 EPD .F              5193:   ELEVATION PERMANENT DATUM
 LMF .                 KB:   LOG MEASURED FROM
 DAPD.F                 4:   FEET ABOVE PERMANENT DATUM
 DMF .                 KB:   DRILLING MEASURED FROM
 EKB .F              5197:   KELLING BUSHING
 EGL .F              5193:   GROUND LEVEL
 DATE.        17-JUL-1978:   RUN DATE
 RUN .                  1:   RUN NUMBER
 DD  .F               570:   DEPTH DRILLER
 DL  .F               576:   DEPTH LOGGER
 BLI .F               576:   BOTTOM LOG INTERVAL
 CS  .IN            8.625:   CASING SIZE
 CBD .F                30:   CASING BOTTOM DRILLER
 BS  .IN            7.875:   BIT SIZE
 BSD .F               570:   BIT SIZE AT DEPTH
 DFT .            MUD KCL:   DRILLING FLUID TYPE
 DFD .                8.6:   DRILLING FLUID DENSITY
 DFV .                 32:   DRILLING FLUID VISCOSITY
 DFL .                 15:   DRILLING FLUID LOSS
 MSS .           FLOWLINE:   MUD SAMPLE SOURCE
 RMS .OHMM            .18:   RESISTIVITY MUD SAMPLE
 MST .F                86:   MUD SAMPLE TEMPERATURE
 RMF .OHMM            .17:   RESISTIVITY MUD FILTRATE SAMPLE
 MFST.F                94:   MUD FILTRATE SAMPLE TEMPERATURE
 RMC .OHMM            .34:   RESISTIVITY MUD CAKE
 MCST.F                94:   MUD CAKE SAMPLE TEMPERATURE
 MFSS.               MEAS:   MUD FILTRATE SAMPLE SOURCE
 TCS .HRS            0300:   TIME CURCULATED STOPPED
 LUN .               2958:   LOGGING UNIT NUMBER
 LUL .               CASP:   LOGGING UNIT LOCATION
 ENGI.             MILLER:   RECORDING ENGINEER
 WITN.           MCGINLEY:   WITNESSED BY
 CLNT.            A2DTECH:   CLIENT CODE
 ORIG.           5" PRINT:   ORIGIN OF DATA
 UWI .       490251066700:   UNIQUE WELL ID
 DICO. A2D Technologies, Inc.:   DIGITIZING COMPANY
~OTHER INFORMATION
~A   DEPT       SN        ILD        SPR       CALD         GRD      CORR       DPHI        DEN   
# ...
  479.5000    10.0686    12.0090   -39.1490     8.0777    61.4383     0.0103     0.1499     2.4555
  480.0000    10.0761    12.0188   -39.2833     8.0637    65.1034     0.0103     0.1461     2.4257
  480.5000    10.0822    12.0269   -39.4212     8.0644    65.9829     0.0103     0.1422     2.4228
  481.0000    10.0883    11.9504   -39.7043     8.0504    66.4276     0.0103     0.1471     2.4347
  481.5000    10.0944    11.9604   -39.5374     8.0511    66.4376     0.0117     0.1490     2.4370
  482.0000    10.1006    11.9685   -39.6753     8.0370    66.4475     0.0087     0.1473     2.4295
  482.5000    10.1080    11.9765   -40.5500     8.0232    66.8922     0.0057     0.1452     2.4280
  483.0000    10.1141    11.9023   -40.9819     8.0092    66.4674     0.0057     0.1449     2.4334
  483.5000    10.1901    11.9103   -41.1162     8.0099    66.3299     0.0057     0.1461     2.4354
  484.0000    10.1962    11.9184   -40.7837     8.0105    66.1971     0.0057     0.1481     2.4340
  484.5000    10.2024    11.8445   -41.0835     8.0110    66.3522     0.0072     0.1490     2.4317
  485.0000    10.2085    11.8544   -41.8131     8.0116    66.5071     0.0072     0.1490     2.4288
  485.5000    10.1446    11.7790   -41.2033     8.0144    66.2053     0.0071     0.1484     2.4273
  486.0000    10.1507    11.7061   -41.1888     8.0274    65.9472     0.0086     0.1473     2.4258
  486.5000    10.0871    11.5557   -41.6207     8.0424    65.8122     0.0101     0.1392     2.4251
  487.0000    10.0947    11.4842   -41.7586     8.0430    65.8246     0.0056     0.1348     2.4303
  487.5000    10.1008    11.3347   -41.8893     8.0435    65.9795     0.0041     0.1404     2.4411
  488.0000    10.1069    11.2643   -41.7259     8.0441    66.7141    -0.0006     0.1434     2.4534
  488.5000    10.1130    11.1947   -41.5575     8.0447    67.8834    -0.0049     0.1404     2.4340
  489.0000    10.1191    11.1254   -40.9529     8.0453    68.6180    -0.0064     0.1380     2.4348
  489.5000    10.0557    11.1332   -41.5300     8.0458    69.0627    -0.0079     0.1401     2.4363
  490.0000    10.0618    11.1422   -41.9619     8.0464    69.5074    -0.0079     0.1437     2.4378
  490.5000    10.0680    11.1497   -42.2450     8.0614    69.3724    -0.0079     0.1431     2.4393
  491.0000    10.0754    11.1572   -42.5281     8.0620    68.9171    -0.0064     0.1422     2.4400
  491.5000    10.0108    11.1647   -42.6660     8.0627    67.8006    -0.0065     0.1395     2.4393
  492.0000     9.9496    11.1722   -42.6478     8.0633    66.3612    -0.0035     0.1423     2.4437
  492.5000     9.9556    11.1797   -42.4845     8.0639    65.0668    -0.0020     0.1487     2.4406
  493.0000     9.8918    11.1102   -42.1724     8.0644    64.0622    -0.0020     0.1502     2.4319
  493.5000     9.8992    11.0416   -41.7114     8.0505    64.2171    -0.0020     0.1499     2.4267
  494.0000     9.9052    10.9733   -42.3115     8.0511    65.8212    -0.0021     0.1493     2.4259
  494.5000     9.8432    10.9053   -42.7241     8.0516    66.2659    -0.0036     0.1508     2.4252
  495.0000     9.8493    10.7652   -43.1560     8.0522    65.9860    -0.0036     0.1517     2.4259
  495.5000     9.8565    10.7724   -43.1378     8.0528    65.7058    -0.0036     0.1526     2.4252
  496.0000     9.8624    10.7039   -43.1233     8.0388    65.7160    -0.0021     0.1526     2.4230
  496.5000     9.7992    10.5647   -43.1088     8.0394    67.0823    -0.0021     0.1520     2.4044
  497.0000     9.8066    10.4992   -43.0943     8.0400    69.8366    -0.0007     0.1517     2.4000
  497.5000     9.7437    10.5080   -43.0798     8.0407    69.2265    -0.0007     0.1504     2.4177
  498.0000     9.7510    10.4430   -43.3629     8.0413    69.0891     0.0008     0.1474     2.4297
  498.5000     9.6899    10.3767   -43.7996     8.0418    70.6957     0.0008     0.1420     2.4349
  499.0000     9.6293    10.2433   -44.3948     8.0424    70.5582     0.0008     0.1450     2.4364
  499.5000     9.5048    10.2518   -44.5098     8.0430    70.4232    -0.0007     0.1465     2.4372
  500.0000     9.4282    10.2454   -44.3464     8.0426    70.8696    -0.0007     0.1432     2.4373
  500.5000     9.1938    10.1025   -44.4348     8.0376    72.0290    -0.0008     0.1414     2.4379
  501.0000     9.0736     9.9914   -44.4651     8.0326    73.3333    -0.0008     0.1402     2.4379
  501.5000     8.9549     9.8609   -44.4470     8.0276    74.8020     0.0007     0.1367     2.4409
  502.0000     8.8989     9.3925   -44.7302     8.0227    74.6377     0.0021     0.1327     2.4446
  502.5000     8.8432     9.0277   -45.7610     8.0177    73.7681     0.0006     0.1316     2.4587
  503.0000     8.7878     9.0345   -45.8953     8.0307    72.8986    -0.0009     0.1343     2.4492
  503.5000     8.7328     9.0400   -45.7284     8.0455    72.1739    -0.0010     0.1372     2.4394
  504.0000     8.5607     9.0454   -45.8628     8.0603    71.4493    -0.0010     0.1390     2.4431
  504.5000     8.2761     9.1134   -46.2947     8.0606    74.1062    -0.0010     0.1405     2.4483
  505.0000     8.1118     9.1189   -46.5972     8.0754    77.5362    -0.0010     0.1423     2.4468
  505.5000     7.9508     8.1168   -47.0062     8.0757    78.8406     0.0019     0.1462     2.4378
  506.0000     7.7396     7.5814   -47.2930     8.0470    77.1014     0.0049     0.1551     2.4289
  506.5000     7.5285     6.7944   -47.5761     8.0183    75.2174     0.0078     0.1548     2.4252
  507.0000     7.2334     6.3758   -48.1533     8.0040    74.6377     0.0122     0.1593     2.4163
  507.5000     6.8984     5.9290   -48.5852     8.0044    76.5217     0.0186     0.1649     2.4014
  508.0000     6.5327     5.8910   -49.0172     8.0047    81.7520     0.0390     0.1643     2.3962
  508.5000     6.0600     5.9771   -49.1518     8.0194    87.8261     0.0330     0.1533     2.4009
  509.0000     6.0211     6.1477   -49.1310     8.0487    95.3623     0.0211     0.1348     2.4460
  509.5000     6.1514     6.1939   -48.6528     8.1424    95.9420     0.0121     0.1202     2.4794
  510.0000     6.1551     6.2405   -48.0628     8.0783    92.7536     0.0061     0.1092     2.4906
  510.5000     6.2013     6.3745   -47.6019     7.9916    79.4203     0.0016     0.1065     2.4950
  511.0000     8.0072     7.7342   -47.2898     8.0064    71.6230     0.0001     0.1111     2.5017
  511.5000     8.4705     8.4104   -46.8289     8.0067    69.2754     0.0001     0.1199     2.4824
  512.0000     8.7663     8.9048   -46.6657     8.0214    69.8551     0.0000     0.1259     2.4771
  512.5000     9.0164     9.3967   -46.6512     8.0218    71.7391     0.0000     0.1300     2.4749
  513.0000     9.2101     9.6649   -46.4879     8.0221    73.4783     0.0015     0.1294     2.4675
  513.5000     9.3434     9.6708   -44.9493     8.0223    75.7971     0.0029     0.1279     2.4563
  514.0000     9.4137     9.6766   -43.3076     8.0226    75.9420     0.0029     0.1264     2.4533
  514.5000     9.5499     9.7493   -43.1671     8.0229    75.7971     0.0043     0.1241     2.4555
  515.0000     9.6217     9.8226   -43.3014     8.0232    76.6667     0.0043     0.1223     2.4607
  515.5000     9.7610     9.9648   -43.2869     8.0235    77.3913     0.0043     0.1211     2.4704
  516.0000     9.9078    10.1090   -43.2725     8.0238    77.8261     0.0043     0.1190     2.4808
  516.5000    10.1165    10.3318   -43.2580     8.0241    75.5072     0.0042     0.1172     2.4853
  517.0000    10.1925    10.6225   -43.3943     8.0099    72.6087     0.0042     0.1139     2.4741
  517.5000    10.3400    10.8507   -43.3866     8.0101    70.8372     0.0042     0.1124     2.4793
  518.0000    10.4177    11.1603   -43.3788     8.0105    70.1449     0.0027     0.1121     2.4875
  518.5000    10.5685    11.4788   -43.3710     8.0108    70.0000     0.0026     0.1157     2.4904
  519.0000    10.7215    11.7254   -43.3633     8.0110    69.8551     0.0026     0.1175     2.4882
  519.5000    10.8021    11.8135   -43.3555     8.0113    68.8406     0.0026     0.1175     2.4723
