~VERSION INFORMATION
 VERS.                2.0:   CWLS LOG ASCII STANDARD - VERSION 2.0
 WRAP.                 NO:   ONE LINE PER DEPTH STEP
~WELL INFORMATION
#MNEM.UNIT      DATA TYPE    INFORMATION
#----------   ------------   ------------------------------
 STRT.F           20.0000:   START DEPTH
 STOP.F          744.0000:   STOP DEPTH
 STEP.F            0.5000:   STEP LENGTH
 NULL.          -999.2500:   NO VALUE
 COMP. FENIX & SCISSON INCORP.:   COMPANY
 WELL.          SX #53-15:   WELL
 FLD .             TEAPOT:   FIELD
 LOC .      S15 T38N R78W:   LOCATION
 CNTY.            NATRONA:   COUNTY
 STAT.            WYOMING:   STATE
 CTRY. UNITED STATES OF AMERICA:   COUNTRY
 SRVC.              Welex:   SERVICE COMPANY
 DATE.        02-MAR-1977:   LOGDATE
 API .       490251030000:   API NUMBER
~CURVE INFORMATION
#MNEM.UNIT       API CODE    CURVE DESCRIPTION
#----------   ------------   ------------------------------
 DEPT.F                  :   
 SGRD.OHMM   07 220 05 00:   SHALLOW RESISTIVITY
 ILD .OHMM   07 120 46 00:   INDUCTION LOG DEEP
 ILM .OHMM   07 120 44 00:   INDUCTION LOG MEDIUM
 SPR .MV     07 010 01 00:   SPONTANEOUS POTENTIAL
 GRD .GAPI   45 310 01 00:   GAMMA RAY FROM DENSITY LOG
 CALD.IN     45 280 60 00:   CALIPER
 RHOB.G/C3   45 350 01 00:   BULK DENSITY
 DPHI.DEC    45 890 10 00:   DENSITY POROSITY SANDSTONE
 CORR.G/C3   45 356 01 00:   DENSITY CORRECTION
~PARAMETER INFORMATION
#MNEM.UNIT          VALUE    DESCRIPTION
#----------   ------------   ------------------------------
 PD  .                 GL:   PERMANENT DATUM
 EPD .F              5253:   ELEVATION PERMANENT DATUM
 LMF .                 GL:   LOG MEASURED FROM
 DMF .                 GL:   DRILLING MEASURED FROM
 EGL .F              5253:   GROUND LEVEL
 DATE.             3-2-77:   RUN DATE
 RUN .                  1:   RUN NUMBER
 DD  .F               750:   DEPTH DRILLER
 DL  .F               747:   DEPTH LOGGER
 BLI .F               745:   BOTTOM LOG INTERVAL
 TLI .F                44:   TOP LOG INTERVAL
 CS  .IN            8.625:   CASING SIZE
 CBD .F                40:   CASING BOTTOM DRILLER
 CBL .F                44:   CASING BOTTOM LOGGER
 BS  .IN            7.875:   BIT SIZE
 BSD .F               750:   BIT SIZE AT DEPTH
 DFT .           CHEM-GEL:   DRILLING FLUID TYPE
 MSS .          FLOW LINE:   MUD SAMPLE SOURCE
 RMS .OHMM           .425:   RESISTIVITY MUD SAMPLE
 MST .F                56:   MUD SAMPLE TEMPERATURE
 RMF .OHMM           .436:   RESISTIVITY MUD FILTRATE SAMPLE
 MFST.F                56:   MUD FILTRATE SAMPLE TEMPERATURE
 RMC .OHMM           .712:   RESISTIVITY MUD CAKE
 MCST.F                56:   MUD CAKE SAMPLE TEMPERATURE
 MFSS.           MEASURED:   MUD FILTRATE SAMPLE SOURCE
 MCSS.           MEASURED:   MUD CAKE SAMPLE SOURCE
 RMB .OHMM            .35:   RESISTIVITY MUD AT BHT
 BHT .F                68:   BOTTOM HOLE TEMPERATURE
 TCS .HRS               2:   TIME CURCULATED STOPPED
 MRT .F                68:   MAXIMUM RECORDED TEMPERATURE
 LUN .               8611:   LOGGING UNIT NUMBER
 LUL .           GILLETTE:   LOGGING UNIT LOCATION
 ENGI.          D. LAWSON:   RECORDING ENGINEER
 WITN.           S. BURKE:   WITNESSED BY
 CLNT.            A2DTECH:   CLIENT CODE
 ORIG.        2" 5" PRINT:   ORIGIN OF DATA
 UWI .       490251030000:   UNIQUE WELL ID
 DICO. A2D Technologies, Inc.:   DIGITIZING COMPANY
~OTHER INFORMATION
~A   DEPT     SGRD        ILD        ILM        SPR         GRD      CALD         RHOB       DPHI      CORR  
# ...
  348.5000    13.5217     9.1016    11.5996   -29.0474   120.8718     8.4710     2.4880     0.0959     0.0569
  349.0000    13.4365     9.3834    11.9370   -29.0508   121.6062     8.4783     2.4871     0.0957     0.0553
  349.5000    13.3412     9.6153    12.1145   -29.0541   120.2638     8.4857     2.4882     0.0949     0.0538
  350.0000    13.2749     9.8519    12.2947   -29.0575   118.0849     8.4930     2.4897     0.0942     0.0522
  350.5000    13.6539    10.0943    12.4776   -29.0609   113.7774     8.5003     2.4913     0.0935     0.0507
  351.0000    13.9532    10.3427    12.6631   -29.0642   111.0933     8.5079     2.4929     0.0936     0.0508
  351.5000    14.2590    10.5972    12.9727   -29.0676   109.9938     8.5099     2.4945     0.0933     0.0525
  352.0000    14.5069    10.8580    13.5841   -29.0710   108.3925     8.5100     2.4973     0.0914     0.0542
  352.5000    14.7519    11.1251    14.2243   -29.0743   106.5997     8.5101     2.5002     0.0896     0.0560
  353.0000    15.3123    11.3989    14.9634   -29.0777   107.8568     8.5097     2.5031     0.0878     0.0577
  353.5000    16.5636    11.6793    14.8262   -29.0811   110.2871     8.5009     2.5060     0.0849     0.0594
  354.0000    18.1619    11.9744    14.4487   -29.0844   110.5692     8.4922     2.5091     0.0822     0.0612
  354.5000    15.6317    11.8040    12.4460   -29.0878   109.1141     8.4835     2.5069     0.0840     0.0629
  355.0000    14.6889    11.5945    12.3521   -29.0912   107.9088     8.4750     2.5024     0.0880     0.0644
  355.5000    16.0135    11.3887    12.2524   -29.0945   107.3180     8.4731     2.4982     0.0894     0.0655
  356.0000    15.4316    11.1866    12.1540   -29.0979   108.2781     8.4802     2.4995     0.0893     0.0667
  356.5000    14.2899    10.9880    12.0549   -29.1012   109.6133     8.4873     2.5010     0.0884     0.0678
  357.0000    14.2899    10.7930    11.9566   -29.1046   110.7355     8.4944     2.5025     0.0876     0.0690
  357.5000    16.5153    10.6014    11.8591   -29.1080   110.4009     8.5015     2.5039     0.0860     0.0715
  358.0000    17.2596     9.4666    11.7624   -29.1113   109.4028     8.5086     2.5054     0.0841     0.0706
  358.5000    12.1406     9.6905    11.6665   -29.1147   109.5729     8.5157     2.5043     0.0841     0.0693
  359.0000    12.6237     9.9765    11.5714   -29.1181   110.4669     8.5228     2.5001     0.0867     0.0680
  359.5000    12.9805    10.2723    11.5088   -29.1214   111.9741     8.5299     2.4962     0.0894     0.0667
  360.0000    13.3475    10.5484    11.4635   -29.1248   113.8887     8.5347     2.4980     0.0881     0.0654
  360.5000    13.7247    10.5793    11.8040   -29.1282   115.7610     8.5394     2.4999     0.0870     0.0641
  361.0000    14.1127    10.6099    12.0790   -29.1315   115.3884     8.5441     2.4967     0.0891     0.0637
  361.5000    14.5116    10.6411    12.3071   -29.1349   114.9063     8.5491     2.4933     0.0919     0.0634
  362.0000    17.5249    10.6725    12.0616   -29.1382   114.4377     8.5438     2.4899     0.0946     0.0631
  362.5000    14.6228    10.7039    11.8207   -29.1416   113.8467     8.5358     2.4870     0.0962     0.0627
  363.0000    14.3370    10.7354    11.5611   -29.1450   112.4211     8.5278     2.4879     0.0943     0.0624
  363.5000    15.9003    10.7670    11.7494   -29.1483   109.7467     8.5197     2.4909     0.0922     0.0621
  364.0000    15.2022    10.7990    11.9958   -29.1495   107.9416     8.5116     2.4938     0.0928     0.0615
  364.5000    14.6438    10.8406    11.8968   -29.1480   107.8170     8.5036     2.4966     0.0922     0.0602
  365.0000    14.1426    10.7432    11.7877   -29.1465   109.3774     8.4956     2.4956     0.0904     0.0590
  365.5000    14.0356    10.5509    11.6797   -29.1450   112.0923     8.4901     2.4911     0.0923     0.0577
  366.0000    14.1522    10.3625    11.5619   -29.1435   114.9927     8.4912     2.4875     0.0941     0.0565
  366.5000    13.9974    10.1774    11.7536   -29.1420   117.2567     8.4921     2.4909     0.0934     0.0553
  367.0000    13.6782     9.9819    12.1468   -29.1405   118.3628     8.4929     2.4938     0.0918     0.0540
  367.5000    13.3669    10.0154    12.6430   -29.1390   117.9759     8.4938     2.4891     0.0936     0.0528
  368.0000    13.0626    10.0658    12.4280   -29.1375   116.1913     8.4947     2.4843     0.0952     0.0515
  368.5000    14.0939     9.9855    12.0761   -29.1360   113.8276     8.4956     2.4853     0.0966     0.0502
  369.0000    15.2416     9.8659    11.7358   -29.1345   111.6117     8.4965     2.4846     0.0975     0.0508
  369.5000    14.2243     9.7478    11.4051   -29.1330   110.6217     8.4974     2.4829     0.0983     0.0520
  370.0000    13.2481     9.6311    11.0837   -29.1315   110.4318     8.4983     2.4804     0.0992     0.0533
  370.5000    12.9839     9.5158    10.7523   -29.1299   111.2570     8.4992     2.4780     0.1000     0.0546
  371.0000    12.7249     9.4019    10.8459   -29.1284   112.7139     8.5000     2.4755     0.1003     0.0558
  371.5000    12.4711     9.2893    10.9641   -29.1269   114.2766     8.5009     2.4752     0.0993     0.0571
  372.0000    12.3433     9.1781    11.1316   -29.1254   115.7996     8.5018     2.4786     0.0983     0.0584
  372.5000    12.2301     9.0682    11.0111   -29.1239   115.6244     8.5027     2.4821     0.0972     0.0597
  373.0000    12.1165     8.9597    10.7505   -29.1224   113.3515     8.5036     2.4855     0.0962     0.0605
  373.5000    12.1944     8.8523    10.4962   -29.1209   110.8808     8.5045     2.4848     0.0957     0.0614
  374.0000    12.2925     8.7462    10.2478   -29.1194   109.6734     8.5054     2.4839     0.0967     0.0624
  374.5000    12.3913     8.6160    10.0053   -29.1179   110.4981     8.5063     2.4886     0.0974     0.0633
  375.0000    12.4918     8.6511     9.8986   -29.1164   111.1681     8.5071     2.4940     0.0907     0.0643
  375.5000    12.5517     8.7101    10.0742   -29.1149   110.4953     8.5080     2.4995     0.0858     0.0653
  376.0000    12.1575     8.7694    10.2015   -29.1134   108.7261     8.5089     2.5033     0.0866     0.0662
  376.5000    11.9157     8.8290    10.3310   -29.1119   109.3696     8.5098     2.4987     0.0896     0.0672
  377.0000    12.4102     8.8890    10.4490   -29.1104   110.6033     8.5100     2.4949     0.0914     0.0681
  377.5000    12.2430     8.9494    10.2315   -29.1089   109.5925     8.5100     2.4950     0.0901     0.0691
  378.0000    11.8858     9.0102     9.9282   -29.1074   107.0440     8.5100     2.4974     0.0879     0.0697
  378.5000    11.8858     8.8694     9.6337   -29.1059   105.3961     8.5100     2.4992     0.0886     0.0688
  379.0000    12.3248     8.7088     9.3484   -29.1043   105.7676     8.5100     2.4933     0.0919     0.0679
  379.5000    12.7140     8.5513     9.1165   -29.1028   106.9737     8.5100     2.4874     0.0952     0.0669
  380.0000    12.7842     8.3965     9.2860   -29.1013   110.2710     8.5100     2.4815     0.0982     0.0660
  380.5000    12.1423     8.2446     9.4587   -29.0998   111.3497     8.5100     2.4778     0.1003     0.0650
  381.0000    11.9958     8.0954     9.6004   -29.0983   112.3031     8.5100     2.4745     0.1025     0.0641
  381.5000    11.9187     7.9489     9.1851   -29.0968   115.3102     8.5100     2.4713     0.1047     0.0621
  382.0000    11.1746     7.8050     8.8074   -29.0953   118.9120     8.5100     2.4691     0.1060     0.0588
  382.5000    10.5446     7.6638     8.4456   -29.0938   119.6823     8.5100     2.4695     0.1054     0.0555
  383.0000    10.2370     7.5251     8.0187   -29.0923   117.8352     8.5100     2.4701     0.1039     0.0521
  383.5000     9.5726     7.3889     8.1463   -29.0908   116.8368     8.5100     2.4746     0.1024     0.0553
  384.0000     7.8892     7.2783     8.3649   -29.0893   116.4654     8.5100     2.4801     0.0993     0.0592
  384.5000    11.3360     7.2282     8.5879   -29.0878   115.3040     8.5104     2.4877     0.0935     0.0631
