~VERSION INFORMATION
 VERS.                2.0:   CWLS LOG ASCII STANDARD - VERSION 2.0
 WRAP.                 NO:   ONE LINE PER DEPTH STEP
~WELL INFORMATION
#MNEM.UNIT      DATA TYPE    INFORMATION
#----------   ------------   ------------------------------
 STRT.F           28.0000:   START DEPTH
 STOP.F          461.0000:   STOP DEPTH
 STEP.F            0.5000:   STEP LENGTH
 NULL.          -999.2500:   NO VALUE
 COMP. FENIX & SCISSON INC:   COMPANY
 WELL.       NPR-3 #47S-3:   WELL
 FLD .             TEAPOT:   FIELD
 LOC .       S3 T38N R78W:   LOCATION
 CNTY.            NATRONA:   COUNTY
 STAT.            WYOMING:   STATE
 CTRY. UNITED STATES OF AMERICA:   COUNTRY
 SRVC.            Unknown:   SERVICE COMPANY
 DATE.        06-JUL-1978:   LOGDATE
 API .       490251066400:   API NUMBER
~CURVE INFORMATION
#MNEM.UNIT       API CODE    CURVE DESCRIPTION
#----------   ------------   ------------------------------
 DEPT.F                  :   
 SPR .MV     05 010 01 00:   SPONTANEOUS POTENTIAL FROM RES.
 ILD .OHMM   05 120 46 00:   INDUCTION LOG DEEP
 SN  .OHMM   05 040 16 00:   SHORT NORMAL 16"
 GRD .GAPI   45 310 01 00:   GAMMA RAY FROM DENSITY LOG
 CALD.IN     45 280 60 00:   CALIPER FROM DENSITY LOG
 CORR.G/C3   45 356 01 00:   DENSITY CORRECTION
 DEN .G/C3   45 350 01 00:   DENSTIY
 DPHI.DEC    45 890 12 00:   DENSITY POROSITY SANDSTONE
~PARAMETER INFORMATION
#MNEM.UNIT          VALUE    DESCRIPTION
#----------   ------------   ------------------------------
 PD  .                 GL:   PERMANENT DATUM
 EPD .F              5202:   ELEVATION PERMANENT DATUM
 LMF .                 KB:   LOG MEASURED FROM
 DAPD.F                 4:   FEET ABOVE PERMANENT DATUM
 DMF .                 KB:   DRILLING MEASURED FROM
 EKB .F              5206:   KELLING BUSHING
 EGL .F              5202:   GROUND LEVEL
 DATE.        06-JUL-1978:   RUN DATE
 RUN .                  1:   RUN NUMBER
 DD  .F               460:   DEPTH DRILLER
 DL  .F               461:   DEPTH LOGGER
 BLI .F               461:   BOTTOM LOG INTERVAL
 TLI .F                40:   TOP LOG INTERVAL
 CS  .IN            8.625:   CASING SIZE
 CBD .F                40:   CASING BOTTOM DRILLER
 CBL .F                40:   CASING BOTTOM LOGGER
 BS  .IN            7.875:   BIT SIZE
 BSD .F               460:   BIT SIZE AT DEPTH
 DFT .                KCL:   DRILLING FLUID TYPE
 DFD .                8.6:   DRILLING FLUID DENSITY
 DFV .                 33:   DRILLING FLUID VISCOSITY
 DFPH.                9.5:   DRILLING FLUID PH
 MSS .           FLOWLINE:   MUD SAMPLE SOURCE
 TCS .HRS               1:   TIME CURCULATED STOPPED
 LUN .               2858:   LOGGING UNIT NUMBER
 LUL .               CASP:   LOGGING UNIT LOCATION
 ENGI.           REYNOLDS:   RECORDING ENGINEER
 WITN.           MCGENLEY:   WITNESSED BY
 CLNT.            A2DTECH:   CLIENT CODE
 ORIG.           5" PRINT:   ORIGIN OF DATA
 UWI .       490251066400:   UNIQUE WELL ID
 DICO. A2D Technologies, Inc.:   DIGITIZING COMPANY
~OTHER INFORMATION
~A   DEPT      SPR        ILD         SN         GRD      CALD       CORR        DEN       DPHI   
# ...
  392.5000   -49.8439    19.2973    15.5896    82.2380     7.8489     0.0356     2.3726     0.1824
  393.0000   -49.9911    18.6545    15.7057    83.0157     7.8500     0.0357     2.3734     0.1823
  393.5000   -50.5454    18.2830    15.7142    83.0278     7.8513     0.0359     2.3734     0.1784
  394.0000   -50.6800    17.7848    15.6144    85.4900     7.8523     0.0345     2.3828     0.1715
  394.5000   -50.8098    17.2054    15.4094    87.3367     7.8534     0.0332     2.3952     0.1612
  395.0000   -50.9350    16.7471    15.0993    85.3580     7.8544     0.0319     2.4076     0.1600
  395.5000   -51.2137    16.3011    14.9042    86.1387     7.8555     0.0291     2.4099     0.1593
  396.0000   -52.0876    15.9743    14.7103    87.3759     7.8409     0.0293     2.4123     0.1537
  396.5000   -52.5151    15.5509    14.6153    86.9285     7.8423     0.0339     2.4170     0.1586
  397.0000   -52.6450    15.2412    14.4232    86.6343     7.8433     0.0341     2.4132     0.1629
  397.5000   -52.6260    15.0409    14.2337    86.6463     7.8443     0.0342     2.4070     0.1651
  398.0000   -52.7559    15.0490    14.0466    86.3441     7.8454     0.0344     2.4017     0.1610
  398.5000   -52.7366    15.0571    13.9577    85.3889     7.8465     0.0345     2.4088     0.1579
  399.0000   -52.8668    15.0654    13.8694    83.4695     7.8475     0.0347     2.4141     0.1591
  399.5000   -52.6991    15.0753    13.8788    80.8782     7.8488     0.0349     2.4173     0.1578
  400.0000   -52.8290    15.0364    13.7910    79.0495     7.8499     0.0350     2.4176     0.1547
  400.5000   -52.8065    14.6796    13.6103    82.1792     7.8509     0.0370     2.4197     0.1512
  401.0000   -52.9322    14.4886    13.5240    84.5937     7.8520     0.0390     2.4205     0.1553
  401.5000   -52.9118    14.2962    13.4385    83.5351     7.8530     0.0410     2.4214     0.1583
  402.0000   -52.7427    14.1083    13.3534    81.5577     7.8646     0.0401     2.4215     0.1509
  402.5000   -52.7224    14.1178    13.1778    82.4900     7.8737     0.0402     2.4272     0.1465
  403.0000   -52.7020    14.3212    13.0944    83.1159     7.8600     0.0404     2.4394     0.1419
  403.5000   -52.5327    14.4280    13.0115    83.1293     7.8616     0.0406     2.4456     0.1400
  404.0000   -52.6614    14.4375    13.0202    83.1427     7.8475     0.0407     2.4472     0.1387
  404.5000   -52.7899    14.3461    12.9376    83.4624     7.8496     0.0409     2.4473     0.1384
  405.0000   -52.9184    14.1576    12.9447    82.5166     7.8513     0.0410     2.4474     0.1386
  405.5000   -52.8930    13.9696    12.9518    82.1110     7.8376     0.0426     2.4474     0.1386
  406.0000   -52.8726    13.6932    12.9601    84.1185     7.8393     0.0443     2.4475     0.1352
  406.5000   -52.8523    13.6048    12.9670    85.6633     7.8413     0.0459     2.4630     0.1280
  407.0000   -52.8320    13.6139    12.9740    85.5236     7.8429     0.0446     2.4654     0.1258
  407.5000   -52.8117    13.6212    12.9809    85.0742     7.8446     0.0447     2.4694     0.1221
  408.0000   -52.9401    13.6374    12.9878    85.5504     7.8462     0.0419     2.4726     0.1177
  408.5000   -52.9196    13.8267    12.9947    84.6447     7.8479     0.0391     2.4758     0.1202
  409.0000   -52.8988    14.0259    13.0018    84.5052     7.8495     0.0377     2.4773     0.1220
  409.5000   -52.7253    14.0334    13.0103    84.8488     7.8512     0.0379     2.4766     0.1220
  410.0000   -52.8538    14.3339    13.1071    85.9136     7.8528     0.0395     2.4767     0.1148
  410.5000   -52.8334    14.5404    13.1141    86.9990     7.8545     0.0397     2.4829     0.1052
  411.0000   -52.8131    14.6487    13.1211    87.1656     7.8561     0.0398     2.4984     0.0978
  411.5000   -52.4952    14.6565    13.1281    87.0258     7.8732     0.0370     2.5194     0.0906
  412.0000   -52.9213    14.6644    13.1351    85.9672     7.8752     0.0341     2.5279     0.0884
  412.5000   -53.4962    14.5716    13.1422    84.6024     7.8768     0.0328     2.5226     0.0921
  413.0000   -53.7738    14.5813    13.2416    83.9785     7.8785     0.0329     2.5196     0.1020
  413.5000   -53.7530    14.3897    13.2487    85.2604     7.8801     0.0362     2.5019     0.1041
  414.0000   -53.5840    14.1031    13.2558    87.8122     7.8818     0.0392     2.5011     0.1049
  414.5000   -53.8562    13.7275    13.0815    88.4845     7.8834     0.0409     2.4953     0.1155
  415.0000   -53.8359    13.2701    12.8192    87.2761     7.8693     0.0485     2.4843     0.1167
  415.5000   -53.9644    12.8280    12.6522    88.5146     7.8560     0.0546     2.4898     0.1151
  416.0000   -53.9441    12.4863    12.4860    89.1406     7.8577     0.0592     2.4891     0.1148
  416.5000   -54.0725    12.3222    12.4086    89.9197     7.8440     0.0578     2.4876     0.1132
  417.0000   -54.0522    12.2442    12.3284    90.5457     7.8457     0.0580     2.4877     0.1116
  417.5000   -54.1815    12.2524    12.3366    90.8653     7.8477     0.0581     2.4901     0.1104
  418.0000   -54.1604    12.2590    12.3432    91.8346     7.8493     0.0583     2.4940     0.1097
  418.5000   -54.2889    12.2656    12.3498    93.9583     7.8510     0.0569     2.4933     0.1109
  419.0000   -54.2679    12.3569    12.3563    93.9717     7.8526     0.0586     2.4926     0.1096
  419.5000   -54.3970    12.3635    12.3629    94.2914     7.8543     0.0620     2.4927     0.1053
  420.0000   -54.3716    12.3702    12.3697    92.9265     7.8559     0.0589     2.5022     0.1031
  420.5000   -54.3513    12.3768    12.3778    91.5617     7.8576     0.0441     2.5052     0.1049
  421.0000   -54.3310    12.3834    12.2977    92.9533     7.8439     0.0413     2.5029     0.1111
  421.5000   -54.3106    12.3902    12.3059    94.3640     7.8456     0.0414     2.4883     0.1132
  422.0000   -54.4442    12.3970    12.3975    91.9082     7.8472     0.0416     2.4845     0.1156
  422.5000   -54.4188    12.3183    12.4041    91.3090     7.8493     0.0432     2.4823     0.1185
  423.0000   -54.5476    12.3265    12.4108    92.0915     7.8509     0.0464     2.4792     0.1202
  423.5000   -54.5268    12.3331    12.3322    93.0237     7.8526     0.0510     2.4832     0.1149
  424.0000   -54.5060    12.3398    12.3404    94.4154     7.8542     0.0556     2.4880     0.1115
  424.5000   -54.4812    12.2617    12.3470    93.5099     7.8401     0.0557     2.4825     0.1050
  425.0000   -54.4609    12.1838    12.2672    93.3668     7.8264     0.0559     2.4981     0.1037
  425.5000   -54.4406    12.0238    12.2753    93.2271     7.8285     0.0545     2.5005     0.1055
  426.0000   -54.4202    12.0305    12.2819    93.0903     7.8301     0.0532     2.5005     0.1030
  426.5000   -54.3999    11.9543    12.2040    92.9490     7.8471     0.0504     2.5006     0.1030
  427.0000   -54.3796    11.9623    12.2107    92.3518     7.8641     0.0490     2.5014     0.1027
  427.5000   -54.5081    11.8850    12.1333    92.3686     7.8811     0.0477     2.5015     0.1110
  428.0000   -54.4878    11.8098    12.0565    93.6071     7.8831     0.0493     2.4923     0.1159
  428.5000   -54.4673    11.6561    11.9802    96.0674     7.8848     0.0525     2.4839     0.1159
  429.0000   -54.4464    11.5029    11.8242    94.7059     7.8864     0.0571     2.4832     0.1155
  429.5000   -54.4217    11.3517    11.6672    94.5628     7.8881     0.0632     2.4832     0.1161
  430.0000   -54.5502    11.2798    11.5151    95.4984     7.8897     0.0710     2.4825     0.1189
  430.5000   -54.5299    11.2860    11.3639    97.5290     7.8914     0.0953     2.4818     0.1065
  431.0000   -54.5095    11.2145    11.2706    96.4440     7.8930     0.1009     2.4936     0.1089
  431.5000   -54.4892    11.1436    11.0671    95.7598     7.8793     0.1011     2.4975     0.1098
  432.0000   -54.4689    11.0730    11.0745    92.4925     7.8810     0.0938     2.5021     0.0983
  432.5000   -54.4486    11.0030    11.0804    92.1963     7.8663     0.0701     2.5045     0.1051
