~VERSION INFORMATION
 VERS.                2.0:   CWLS LOG ASCII STANDARD - VERSION 2.0
 WRAP.                 NO:   ONE LINE PER DEPTH STEP
~WELL INFORMATION
#MNEM.UNIT      DATA TYPE    INFORMATION
#----------   ------------   ------------------------------
 STRT.F          100.0000:   START DEPTH
 STOP.F          780.0000:   STOP DEPTH
 STEP.F            0.5000:   STEP LENGTH
 NULL.          -999.2500:   NO VALUE
 COMP. U S NAVY-INTEX OIL:   COMPANY
 WELL.        NPR #34-S-2:   WELL
 FLD .             TEAPOT:   FIELD
 LOC .       S2 T38N R78W:   LOCATION
 CNTY.            NATRONA:   COUNTY
 STAT.            WYOMING:   STATE
 CTRY. UNITED STATES OF AMERICA:   COUNTRY
 SRVC.       Schlumberger:   SERVICE COMPANY
 DATE.        16-JUL-1962:   LOGDATE
 API .       490250644000:   API NUMBER
~CURVE INFORMATION
#MNEM.UNIT       API CODE    CURVE DESCRIPTION
#----------   ------------   ------------------------------
 DEPT.F                  :   
 ASN .OHMM   05 041 16 00:   AMPLIFIED SHORT NORMAL 16"
 CILD.MMHO   05 110 46 00:   CONDUCTIVITY INDUCTION LOG DEEP
 ILD .OHMM   05 120 46 00:   INDUCTION LOG DEEP
 SPR .MV     05 010 01 00:   SPONTANEOUS POTENTIAL FROM RES.
 CALM.IN     15 280 01 00:   CALIPER FROM MICRO LOG
 GR  .GAPI   30 310 01 00:   GAMMA RAY
~PARAMETER INFORMATION
#MNEM.UNIT          VALUE    DESCRIPTION
#----------   ------------   ------------------------------
 LMF .                 KB:   LOG MEASURED FROM
 DMF .                 KB:   DRILLING MEASURED FROM
 EKB .F              5130:   KELLING BUSHING
 EGL .F              5125:   GROUND LEVEL
 DATE.        16-JUL-1962:   RUN DATE
 RUN .                  1:   RUN NUMBER
 DD  .F               780:   DEPTH DRILLER
 DL  .F               781:   DEPTH LOGGER
 BLI .F               780:   BOTTOM LOG INTERVAL
 TLI .F               100:   TOP LOG INTERVAL
 CBD .F                10:   CASING BOTTOM DRILLER
 BS  .IN             6.75:   BIT SIZE
 BSD .F               780:   BIT SIZE AT DEPTH
 DFT .       OIL EMULSION:   DRILLING FLUID TYPE
 DFD .               10.3:   DRILLING FLUID DENSITY
 DFV .                 43:   DRILLING FLUID VISCOSITY
 DFL .                4.6:   DRILLING FLUID LOSS
 RMS .OHMM              4:   RESISTIVITY MUD SAMPLE
 MST .F                82:   MUD SAMPLE TEMPERATURE
 RMF .OHMM            3.1:   RESISTIVITY MUD FILTRATE SAMPLE
 MFST.F                82:   MUD FILTRATE SAMPLE TEMPERATURE
 RMC .OHMM            4.3:   RESISTIVITY MUD CAKE
 MCST.F                82:   MUD CAKE SAMPLE TEMPERATURE
 TCS .HRS             0.5:   TIME CURCULATED STOPPED
 LUN .               2503:   LOGGING UNIT NUMBER
 LUL .               CSPR:   LOGGING UNIT LOCATION
 ENGI.           ELLERMAN:   RECORDING ENGINEER
 WITN.          JORGENSON:   WITNESSED BY
 CLNT.            A2DTECH:   CLIENT CODE
 ORIG.           5" PRINT:   ORIGIN OF DATA
 UWI .       490250644000:   UNIQUE WELL ID
 DICO. A2D Technologies, Inc.:   DIGITIZING COMPANY
~OTHER INFORMATION
~A   DEPT       ASN       CILD         ILD      SPR       CALM         GR   
# ...
  516.0000     7.3054   135.2647     7.7657   -45.7917     6.5970   119.9095
  516.5000     7.3940   132.9898     7.8439   -45.9346     6.5970   124.8869
  517.0000     7.4695   131.4633     7.8468   -45.9286     6.5821   119.1554
  517.5000     7.5001   130.6853     7.8498   -45.9215     6.5821   118.7029
  518.0000     7.4710   130.6558     7.7774   -45.9157     6.5672   132.1267
  518.5000     7.4119   130.6264     7.7805   -46.5051     6.5672   112.5189
  519.0000     7.3379   131.3528     7.7461   -47.0945     6.5672   128.0086
  519.5000     7.2938   133.5614     7.6360   -47.5351     6.5672   120.2112
  520.0000     7.3394   135.0289     7.5638   -47.8269     6.5672   110.4072
  520.5000     7.3700   137.2450     7.4916   -47.9713     6.5821   104.2232
  521.0000     7.2811   139.4610     7.3449   -48.1131     6.5821    95.6259
  521.5000     6.9529   142.5098     7.1975   -48.1070     6.5970    92.1569
  522.0000     6.7892   146.9761     6.9749   -47.9524     6.5970   114.6305
  522.5000     6.6704   154.0049     6.6771   -47.7976     6.5970   105.8824
  523.0000     6.5645   169.2759     6.4537   -47.6305     6.5970   112.9713
  523.5000     6.4248   196.1925     6.1567   -47.3382     6.5970   119.7587
  524.0000     6.0749   217.1211     5.8589   -46.8859     6.5970   115.6319
  524.5000     5.7617   223.8282     5.6363   -46.5825     6.5970   104.6757
  525.0000     5.4934   226.7927     5.4135   -46.2790     6.5970   119.3062
  525.5000     5.2998   228.2676     5.3414   -46.1244     6.5970   114.0272
  526.0000     5.0614   228.2308     5.2692   -46.1186     6.5970   106.1840
  526.5000     5.0021   228.2013     5.3474   -46.2630     6.5970    96.8326
  527.0000     4.9879   225.1778     5.4256   -46.5533     6.5970    96.5309
  527.5000     4.9737   216.1663     5.5789   -46.6964     6.5970   103.7707
  528.0000     5.2736   200.4183     5.7514   -46.9881     6.6119   123.3786
  528.5000     5.8423   185.4187     6.1118   -47.2922     6.6119   127.6018
  529.0000     6.2766   168.8910     6.4907   -47.5717     6.6119   119.9095
  529.5000     6.5762   156.7591     6.7944   -47.4156     6.6269   113.8763
  530.0000     6.8909   148.4537     7.1733   -47.4107     6.6269   112.8205
  530.5000     7.0431   141.8803     7.3266   -47.2249     6.6269   125.1885
  531.0000     7.1804   137.3598     7.4799   -47.0640     6.6269   145.5505
  531.5000     7.3417   135.0848     7.6335   -46.7970     6.6119   152.9412
  532.0000     7.4471   132.8099     7.7113   -46.6424     6.5970   133.9366
  532.5000     7.5674   131.2834     7.7895   -46.6369     6.5808   125.4902
  533.0000     7.7027   130.3168     7.7925   -46.5690     6.5497   121.8703
  533.5000     7.8080   129.5146     7.8707   -46.4049     6.5075   134.7572
  534.0000     7.9283   128.7124     7.9489   -46.1726     6.4776   128.5068
  534.5000     8.0188   128.0077     8.0271   -46.0861     6.4627    98.6425
  535.0000     8.0942   127.3935     8.1053   -45.9871     6.4478    99.3967
  535.5000     8.1097   126.6155     8.1840   -45.7072     6.4627   110.8597
  536.0000     8.0656   125.8375     8.1869   -45.5526     6.4925   107.9940
  536.5000     8.0665   125.0596     8.2647   -45.5468     6.5373   103.1674
  537.0000     8.1271   125.0299     8.2677   -45.5409     6.5821   107.8431
  537.5000     8.2175   124.2515     8.2710   -45.8327     6.6119   128.8084
  538.0000     8.2790   124.2216     8.3491   -46.1245     6.5821   132.8749
  538.5000     8.3386   124.9417     8.3337   -46.4178     6.5522   134.3891
  539.0000     8.3843   124.9048     8.2791   -46.7083     6.5373   124.7360
  539.5000     8.3998   124.8754     8.2828   -47.0000     6.5224   120.2112
  540.0000     8.3409   125.6017     8.2858   -47.2917     6.5224   134.2383
  540.5000     8.2370   125.5649     8.2887   -47.5833     6.5224   138.4615
  541.0000     8.1331   124.7904     8.2917   -47.7262     6.5224   127.3001
  541.5000     8.0143   124.7575     8.2946   -48.0168     6.5224   139.5173
  542.0000     7.9253   123.9795     8.2226   -48.0109     6.5373   132.1819
  542.5000     7.8065   123.2015     8.2261   -48.0051     6.5373   136.0885
  543.0000     7.6876   123.1720     8.1843   -47.8505     6.5224   141.8182
  543.5000     7.5987   123.8911     8.0809   -47.5470     6.5224   159.2760
  544.0000     7.4649   125.3586     7.9342   -47.0948     6.5224   150.9804
  544.5000     7.3311   128.3231     7.7868   -46.4937     6.5373   148.8688
  545.0000     7.1824   132.0857     7.4890   -46.1902     6.5373   131.6742
  545.5000     6.9708   139.7071     7.1912   -46.1844     6.5373   126.0935
  546.0000     6.7872   148.8018     6.8934   -46.3274     6.5373   124.5852
  546.5000     6.3925   164.1260     6.4452   -46.4704     6.5373   119.6078
  547.0000     6.0196   180.5636     6.0722   -46.4643     6.5373   123.1090
  547.5000     5.6915   203.7377     5.4737   -46.4572     6.5373   129.4118
  548.0000     5.2886   232.8999     4.9423   -46.1538     6.5373   122.0211
  548.5000     4.6316   262.8105     4.3334   -45.8503     6.5373   120.2112
  549.0000     4.1690   321.9128     3.7540   -45.3981     6.5373   119.1554
  549.5000     3.7661   365.2965     3.3810   -44.7984     6.5373   114.6305
  550.0000     3.4679   404.1892     3.1584   -44.3446     6.5224   114.3288
  550.5000     3.3042   434.8483     3.0854   -44.4861     6.5211   120.0603
  551.0000     3.2003   449.0404     3.0132   -45.2229     6.5075   118.8537
  551.5000     3.0815   455.7474     3.0169   -46.1229     6.4925    98.1857
  552.0000     2.9925   454.9695     3.0198   -46.8451     6.4776   104.2174
  552.5000     2.9634   435.4789     3.0980   -46.8354     6.4776    92.7529
  553.0000     2.9960   398.8229     3.3265   -45.7630     6.4804    95.3151
  553.5000     3.3476   352.9545     3.5550   -45.4839     6.5235   112.9607
  554.0000     4.1442   287.8671     4.0091   -46.5164     6.5385   132.2654
  554.5000     4.5034   252.6507     4.3880   -47.1062     6.5387   115.0694
  555.0000     4.6832   224.1708     4.8472   -47.5435     6.5388   114.4949
  555.5000     5.3563   200.1819     5.4301   -47.8356     6.5240   116.1982
  556.0000     5.7453   176.1931     5.8830   -47.9771     6.5242   137.2369
  556.5000     5.8953   161.1862     6.2604   -47.8192     6.5243   129.6936
  557.0000     5.9854   155.9099     6.5626   -47.3654     6.5095   141.0043
  557.5000     6.0307   152.8791     6.7145   -46.7629     6.5097   149.9018
  558.0000     6.0327   150.5968     6.7912   -46.3091     6.5248   153.6710
  558.5000     6.0315   151.3086     6.7171   -46.1530     6.5249   149.7480
  559.0000     6.0320   153.5173     6.5685   -46.4433     6.5251   141.4509
  559.5000     6.0847   159.4685     6.4196   -46.8824     6.5103   149.5942
  560.0000     6.2422   168.5627     6.2708   -47.3215     6.5105   132.0965
  560.5000     6.1978   179.3661     6.1219   -47.3140     6.4957   133.3016
  561.0000     6.0637   193.0316     5.9730   -47.0075     6.4958   146.7240
  561.5000     5.7802   207.2164     5.8978   -46.7025     6.4960   148.6833
  562.0000     5.3322   223.6467     5.7503   -46.2488     6.4812   138.0391
  562.5000     5.1832   234.8374     5.6642   -45.9439     6.4664   140.7617
  563.0000     5.0491   241.5372     5.5277   -45.5674     6.4666   143.2486
  563.5000     4.9299   248.2369     5.4540   -45.1852     6.4667   133.4432
  564.0000     4.7958   252.7004     5.4559   -44.9831     6.4669   118.2079
  564.5000     4.9308   248.9119     5.4571   -44.8730     6.4670   107.3467
  565.0000     5.1256   240.6416     5.4588   -44.8661     6.4672   103.5749
  565.5000     5.1864   231.6227     5.5355   -45.0074     6.4822   110.0591
  566.0000     5.1695   217.3644     5.6873   -44.9998     6.4973   102.0636
  566.5000     5.3961   203.1061     5.8392   -45.2901     6.5124   110.5086
  567.0000     5.7851   190.2045     6.0662   -45.4316     6.5275   102.8144
  567.5000     6.1742   178.1561     6.3685   -45.5903     6.5127   122.8733
