~VERSION INFORMATION
 VERS.                2.0:   CWLS LOG ASCII STANDARD - VERSION 2.0
 WRAP.                 NO:   ONE LINE PER DEPTH STEP
~WELL INFORMATION
#MNEM.UNIT      DATA TYPE    INFORMATION
#----------   ------------   ------------------------------
 STRT.F            8.5000:   START DEPTH
 STOP.F          509.0000:   STOP DEPTH
 STEP.F            0.5000:   STEP LENGTH
 NULL.          -999.2500:   NO VALUE
 COMP. LAWRENCE-ALLISON &AS:   COMPANY
 WELL. NPR 3 #68-26SX3LP2:   WELL
 FLD .             TEAPOT:   FIELD
 LOC .       S3 T38N R78W:   LOCATION
 CNTY.            NATRONA:   COUNTY
 STAT.            WYOMING:   STATE
 CTRY. UNITED STATES OF AMERICA:   COUNTRY
 SRVC.      Dresser Atlas:   SERVICE COMPANY
 DATE.        12-DEC-1984:   LOGDATE
 API .       490251099600:   API NUMBER
~CURVE INFORMATION
#MNEM.UNIT       API CODE    CURVE DESCRIPTION
#----------   ------------   ------------------------------
 DEPT.F                  :   
 CNC .DEC    42 890 03 00:   NEUTRON POROSITY SANDSTONE
 CALD.IN     45 280 60 00:   CALIPER FROM DENSITY LOG
 CORR.G/C3   45 356 01 00:   DENSITY CORRECTION
 GRD .GAPI   45 310 01 00:   GAMMA RAY FROM DENSITY LOG
 PORD.DEC    45 890 12 00:   POROSITY DENSITY SANDSTONE
 RHOB.G/C3   45 350 01 00:   BULK DENSITY
 DT  .US/F   60 520 00 00:   INTERVAL TRANSIT TIME
 SPR .MV     11 010 01 00:   SPONTANEOUS POTENTIAL FROM RES.
 RS  .OHMM   11 220 09 00:   RESISTIVITY SHALLOW
 RD  .OHMM   11 220 10 00:   RESISTIVITY DEEP
~PARAMETER INFORMATION
#MNEM.UNIT          VALUE    DESCRIPTION
#----------   ------------   ------------------------------
 PD  .                 GL:   PERMANENT DATUM
 EPD .F              5158:   ELEVATION PERMANENT DATUM
 LMF .                 GL:   LOG MEASURED FROM
 DMF .                 GL:   DRILLING MEASURED FROM
 EGL .F              5158:   GROUND LEVEL
 DATE.        12-DEC-1984:   RUN DATE
 RUN .                  1:   RUN NUMBER
 DD  .F               510:   DEPTH DRILLER
 DL  .F               510:   DEPTH LOGGER
 BLI .F               501:   BOTTOM LOG INTERVAL
 TLI .F                20:   TOP LOG INTERVAL
 CS  .IN            8.625:   CASING SIZE
 CBD .F                20:   CASING BOTTOM DRILLER
 CBL .F                20:   CASING BOTTOM LOGGER
 BS  .IN            7.875:   BIT SIZE
 BSD .F               510:   BIT SIZE AT DEPTH
 DFT .          KCL/WATER:   DRILLING FLUID TYPE
 MSS .            MUDTANK:   MUD SAMPLE SOURCE
 RMS .OHMM           0.21:   RESISTIVITY MUD SAMPLE
 MST .F                70:   MUD SAMPLE TEMPERATURE
 RMF .OHMM           0.16:   RESISTIVITY MUD FILTRATE SAMPLE
 MFST.F                70:   MUD FILTRATE SAMPLE TEMPERATURE
 RMC .OHMM           0.26:   RESISTIVITY MUD CAKE
 MCST.F                70:   MUD CAKE SAMPLE TEMPERATURE
 MFSS.               CALC:   MUD FILTRATE SAMPLE SOURCE
 MCSS.               CALC:   MUD CAKE SAMPLE SOURCE
 RMB .OHMM           0.17:   RESISTIVITY MUD AT BHT
 BHT .F                85:   BOTTOM HOLE TEMPERATURE
 TCS .HRS               6:   TIME CURCULATED STOPPED
 MRT .F               100:   MAXIMUM RECORDED TEMPERATURE
 LUN .               6270:   LOGGING UNIT NUMBER
 LUL .                 FM:   LOGGING UNIT LOCATION
 ENGI.           E.GOVETT:   RECORDING ENGINEER
 WITN.              LUERS:   WITNESSED BY
 CLNT.            A2DTECH:   CLIENT CODE
 ORIG.           5" PRINT:   ORIGIN OF DATA
 UWI .       490251099600:   UNIQUE WELL ID
 DICO. A2D Technologies, Inc.:   DIGITIZING COMPANY
~OTHER INFORMATION
~A    DEPT     CNC       CALD       CORR        GRD       PORD       RHOB          DT       SPR         RS         RD   
# ...
  377.0000     0.2437     7.7188     0.0098    85.5289     0.1538     2.4241    92.5429   -28.8466    16.4427    16.7957
  377.5000     0.2431     7.7353     0.0224    87.6192     0.1526     2.4295    92.5311   -28.8335    16.4509    16.6857
  378.0000     0.2566     7.7214     0.0343    86.7421     0.1498     2.4379    92.4442   -28.9689    16.4576    16.5804
  378.5000     0.2545     7.7379     0.0357    85.7167     0.1408     2.4462    92.4324   -29.6987    16.4643    16.4736
  379.0000     0.2451     7.7392     0.0329    83.1631     0.1406     2.4454    92.3456   -29.6850    16.4701    16.4817
  379.5000     0.2502     7.7554     0.0211    79.9184     0.1434     2.4411    92.3326   -29.8176    16.3639    16.4896
  380.0000     0.2650     7.7567     0.0242    79.3762     0.1443     2.4389    92.2468   -30.1049    16.3706    16.4976
  380.5000     0.2686     7.7580     0.0409    81.7665     0.1427     2.4412    92.3102   -30.5342    16.3773    16.3913
  381.0000     0.2635     7.7742     0.0471    82.5214     0.1402     2.4466    92.0700   -30.6729    16.3836    16.2878
  381.5000     0.2583     7.7606     0.0503    83.5732     0.1372     2.4512    91.9080   -30.9536    16.3907    16.2956
  382.0000     0.2553     7.7623     0.0520    84.6249     0.1384     2.4490    91.7459   -31.0923    16.2840    16.3033
  382.5000     0.2534     7.7484     0.0506    84.1929     0.1408     2.4378    91.7342   -31.0758    16.0665    16.1966
  383.0000     0.2492     7.7500     0.0403    83.0191     0.1483     2.4296    91.6472   -31.2145    15.9621    16.0925
  383.5000     0.2271     7.7514     0.0179    83.1805     0.1534     2.4222    91.5603   -31.3500    15.8583    15.8805
  384.0000     0.2189     7.7375     0.0000    86.9029     0.1564     2.4170    91.4734   -31.1849    15.7552    15.7784
  384.5000     0.2353     7.7392     0.0122    88.3997     0.1569     2.4201    91.7621   -31.1717    15.5447    15.6767
  385.0000     0.2554     7.7105     0.0183    86.9291     0.1536     2.4232    91.9758   -31.3076    15.4436    15.5761
  385.5000     0.2599     7.7121     0.0200    84.1232     0.1515     2.4255    92.1894   -31.4428    15.3432    15.4747
  386.0000     0.2679     7.7134     0.0232    83.2462     0.1502     2.4279    92.3278   -31.5780    15.3510    15.2705
  386.5000     0.2769     7.6999     0.0218    83.2760     0.1486     2.4302    92.3912   -31.7134    15.4641    15.2780
  387.0000     0.2762     7.6864     0.0145    83.7181     0.1477     2.4325    92.4545   -31.6999    15.4704    15.3930
  387.5000     0.2671     7.6580     0.0042    80.4698     0.1495     2.4272    92.4398   -31.6865    15.5844    15.5074
  388.0000     0.2495     7.6593     0.0013    76.1803     0.1519     2.4252    92.3529   -31.8191    15.6991    15.7311
  388.5000     0.2401     7.6607     0.0120    77.2320     0.1528     2.4245    92.2660   -31.9579    15.7055    15.9581
  389.0000     0.2474     7.6771     0.0287    80.6576     0.1536     2.4246    92.1039   -32.2419    15.7120    16.1883
  389.5000     0.2555     7.6784     0.0304    84.9734     0.1551     2.4210    92.0170   -32.3773    15.7185    16.1960
  390.0000     0.2494     7.6797     0.0275    87.8055     0.1557     2.4188    91.9330   -32.3608    15.6162    16.0919
  390.5000     0.2437     7.6811     0.0262    85.7414     0.1556     2.4189    92.0715   -32.4995    15.6241    15.9885
  391.0000     0.2448     7.6824     0.0083    86.6448     0.1571     2.4159    92.1322   -32.4830    15.5210    15.8855
  391.5000     0.2614     7.6685     0.0055    87.3997     0.1607     2.4078    92.1953   -32.3213    15.5289    15.7835
  392.0000     0.2713     7.6702     0.0162    86.5227     0.1607     2.4154    92.2586   -32.1595    15.5186    15.9009
  392.5000     0.2641     7.6715     0.0434    85.6456     0.1582     2.4237    92.3220   -32.2982    15.4327    15.7985
  393.0000     0.2571     7.6876     0.0421    86.7180     0.1524     2.4283    92.3072   -32.4309    15.3339    15.6970
  393.5000     0.2541     7.7038     0.0257    89.4213     0.1461     2.4314    92.2954   -32.7147    15.2342    15.4903
  394.0000     0.2571     7.7199    -0.0042    89.9881     0.1467     2.4307    92.2837   -32.8499    15.2404    15.3907
  394.5000     0.2592     7.7212     0.0051    85.5530     0.1487     2.4285    92.3499   -33.1338    15.1414    15.2899
  395.0000     0.2546     7.7226     0.0326    83.9341     0.1505     2.4271    92.4133   -33.2692    15.1475    15.0886
  395.5000     0.2480     7.7239     0.0614    84.0955     0.1505     2.4272    92.6240   -33.5532    14.9115    14.9898
  396.0000     0.2469     7.7252     0.0581    85.8891     0.1498     2.4280    92.8376   -33.6886    14.8426    14.8934
  396.5000     0.2588     7.7268     0.0071    85.4571     0.1483     2.4311    92.9790   -33.9726    14.5484    14.7994
  397.0000     0.2600     7.7426    -0.0003    83.5414     0.1465     2.4350    93.3399   -34.1047    14.3555    14.7043
  397.5000     0.2557     7.7291     0.0150    81.3290     0.1443     2.4403    93.5537   -34.0915    14.2621    14.5088
  398.0000     0.2548     7.7308     0.0167    81.4905     0.1407     2.4441    93.6920   -34.2302    14.0716    14.2161
  398.5000     0.2584     7.7321     0.0153    83.4324     0.1388     2.4457    93.6048   -34.2138    13.8835    13.9229
  399.0000     0.2602     7.7334     0.0170    83.7626     0.1347     2.4503    93.6809   -34.2006    13.5095    13.5932
  399.5000     0.2601     7.7347     0.0202    83.6068     0.1294     2.4556    94.0294   -34.4846    13.2369    13.1949
  400.0000     0.2743     7.7360     0.0218    84.5104     0.1258     2.4617    94.3679   -34.7686    12.8802    12.6639
  400.5000     0.2819     7.7222     0.0235    88.0609     0.1227     2.4686    94.9411   -35.0559    12.5332    12.3238
  401.0000     0.2785     7.7238     0.0252    91.9555     0.1191     2.4746    95.5143   -35.4885    12.1955    11.9928
  401.5000     0.2715     7.7251     0.0268    91.3780     0.1169     2.4815    96.0874   -35.9183    11.8669    11.7518
  402.0000     0.2600     7.7264     0.0345    90.6460     0.1178     2.4831    96.6010   -36.4990    11.5053    11.3573
  402.5000     0.2554     7.7277     0.0422    90.3624     0.1190     2.4794    96.9697   -36.9315    10.9862    10.5292
  403.0000     0.2587     7.7291     0.0348    90.8239     0.1204     2.4765    97.3504   -37.3641     9.7354     9.2355
  403.5000     0.2736     7.7453     0.0319    93.2109     0.1216     2.4743    97.9151   -37.3507     7.2677     7.7111
  404.0000     0.2943     7.7317     0.0351    97.9390     0.1242     2.4720    98.8049   -37.3373     5.5481     5.4993
  404.5000     0.3194     7.7482     0.0548   105.5661     0.1379     2.4670   103.3010   -37.3213     5.6676     5.5829
  405.0000     0.3263     7.7495     0.0414   110.4768     0.1744     2.4115   106.2944   -37.4600     6.2044     6.2097
  405.5000     0.3281     7.7360     0.0340   112.8653     0.1882     2.3838   111.0911   -37.5954     6.9831     7.0673
  406.0000     0.3024     7.7373     0.0356   110.6543     0.1840     2.3591   110.7036   -37.7308     8.4820     9.0725
  406.5000     0.2674     7.7241     0.0238    97.0190     0.1628     2.3735   107.6115   -37.8663    11.6714    11.2504
  407.0000     0.2464     7.7268     0.0104    94.3630     0.1483     2.4028   101.6639   -38.1503    12.2566    12.2311
  407.5000     0.2437     7.7294     0.0075    93.1906     0.1272     2.4412    96.0923   -38.5796    12.4327    12.5806
  408.0000     0.2527     7.7321     0.0215    91.7215     0.1157     2.4720    94.8783   -38.8668    12.5243    12.5866
  408.5000     0.2748     7.7340     0.0473    88.7687     0.1104     2.4849    94.8664   -39.1509    12.5294    12.5925
  409.0000     0.2784     7.7059     0.0531    87.7379     0.1042     2.4970    94.7794   -39.4866    12.7137    12.7742
  409.5000     0.2614     7.6926     0.0533    88.8714     0.1018     2.5023    94.6924   -39.1767    12.8142    12.9585
  410.0000     0.2496     7.6794     0.0534    91.9317     0.1030     2.5077    94.4551   -39.0180    12.9884    13.1455
