~VERSION INFORMATION
 VERS.                2.0:   CWLS LOG ASCII STANDARD - VERSION 2.0
 WRAP.                 NO:   ONE LINE PER DEPTH STEP
~WELL INFORMATION
#MNEM.UNIT      DATA TYPE    INFORMATION
#----------   ------------   ------------------------------
 STRT.F           30.0000:   START DEPTH
 STOP.F          602.0000:   STOP DEPTH
 STEP.F            0.5000:   STEP LENGTH
 NULL.          -999.2500:   NO VALUE
 COMP. FENIX & SCISSON U.S NAVY:   COMPANY
 WELL.   S-3 NPR #3 #51-3:   WELL
 FLD .             TEAPOT:   FIELD
 LOC .       S3 T38N R78W:   LOCATION
 CNTY.            NATRONA:   COUNTY
 STAT.            WYOMING:   STATE
 CTRY. UNITED STATES OF AMERICA:   COUNTRY
 SRVC.              Welex:   SERVICE COMPANY
 DATE.        08-MAR-1977:   LOGDATE
 API .       490251030800:   API NUMBER
~CURVE INFORMATION
#MNEM.UNIT       API CODE    CURVE DESCRIPTION
#----------   ------------   ------------------------------
 DEPT.F                  :   
 SPR .MV     07 010 01 00:   SPONTANEOUS POTENTIAL
 ILD .OHMM   07 120 46 00:   INDUCTION LOG DEEP
 ILM .OHMM   07 120 44 00:   INDUCTION LOG MEDIUM
 SGRD.OHMM   07 221 05 00:   SHALLOW SHORT GUARD RESISTIVITY
 CALD.IN     45 280 60 00:   CALIPER FROM DENSITY LOG
 CORR.G/C3   45 356 01 00:   DENSITY CORRECTION
 RHOB.G/C3   45 350 01 00:   BULK DENSITY
 DPHI.DEC    45 890 12 00:   DENSITY POROSITY SANDSTONE
 GRD .GAPI   45 310 01 00:   GAMMA RAY FROM DENSITY LOG
~PARAMETER INFORMATION
#MNEM.UNIT          VALUE    DESCRIPTION
#----------   ------------   ------------------------------
 PD  .                 GL:   PERMANENT DATUM
 EPD .F              5140:   ELEVATION PERMANENT DATUM
 LMF .                 GL:   LOG MEASURED FROM
 DAPD.F                  :   FEET ABOVE PERMANENT DATUM
 DMF .                 GL:   DRILLING MEASURED FROM
 EKB .F                  :   KELLING BUSHING
 EDF .F                  :   DRILLING FLOOR
 EGL .F              5140:   GROUND LEVEL
 DATE.             3-8-77:   RUN DATE
 RUN .                  1:   RUN NUMBER
 DD  .F               611:   DEPTH DRILLER
 DL  .F               555:   DEPTH LOGGER
 BLI .F               553:   BOTTOM LOG INTERVAL
 TLI .F                40:   TOP LOG INTERVAL
 CS  .IN            8.625:   CASING SIZE
 CBD .F                40:   CASING BOTTOM DRILLER
 CBL .F                40:   CASING BOTTOM LOGGER
 BS  .IN            7.875:   BIT SIZE
 BSD .F               611:   BIT SIZE AT DEPTH
 DFT .           CHEM GEL:   DRILLING FLUID TYPE
 DFD .                8.6:   DRILLING FLUID DENSITY
 DFV .                 42:   DRILLING FLUID VISCOSITY
 DFPH.                  8:   DRILLING FLUID PH
 DFL .                3.2:   DRILLING FLUID LOSS
 MSS .           FLOWLINE:   MUD SAMPLE SOURCE
 RMS .OHMM           1.49:   RESISTIVITY MUD SAMPLE
 MST .F                48:   MUD SAMPLE TEMPERATURE
 RMF .OHMM           1.07:   RESISTIVITY MUD FILTRATE SAMPLE
 MFST.F                48:   MUD FILTRATE SAMPLE TEMPERATURE
 RMC .OHMM           2.34:   RESISTIVITY MUD CAKE
 MCST.F                48:   MUD CAKE SAMPLE TEMPERATURE
 MFSS.           MEASURED:   MUD FILTRATE SAMPLE SOURCE
 MCSS.           MEASURED:   MUD CAKE SAMPLE SOURCE
 RMB .OHMM           1.19:   RESISTIVITY MUD AT BHT
 BHT .F                60:   BOTTOM HOLE TEMPERATURE
 TCS .HRS               2:   TIME CURCULATED STOPPED
 TLAB.HRS                :   TIME LOGGER AT BOTTOM
 MRT .F                60:   MAXIMUM RECORDED TEMPERATURE
 LUN .               0716:   LOGGING UNIT NUMBER
 LUL .             VERNAL:   LOGGING UNIT LOCATION
 ENGI.           CALLAHAN:   RECORDING ENGINEER
 WITN.         STUEBINGER:   WITNESSED BY
 CLNT.            A2DTECH:   CLIENT CODE
 ORIG.       2", 5" PRINT:   ORIGIN OF DATA
 UWI .       490251030800:   UNIQUE WELL ID
 DICO. A2D Technologies, Inc.:   DIGITIZING COMPANY
 OS  .                   :   OTHER SERVICES
 PWI .                   :   PRIMARY WELL IDENTIFIER
 R1  .                   :   REMARKS 1
 R2  .                   :   REMARKS 2
 LSRV.                   :   LOG MNEMONIC
~OTHER INFORMATION
~A   DEPT      SPR        ILD        ILM       SGRD       CALD       CORR       RHOB       DPHI        GRD   
# ...
  249.0000   -36.4739    10.0815    11.3831    12.4129     7.8120     0.0287     2.4504     0.1215   106.0423
  249.5000   -36.4812     9.8034    11.1476    12.9331     7.8267     0.0287     2.4541     0.1191   108.3082
  250.0000   -36.4489     9.6620    11.1299    13.1095     7.8247     0.0301     2.4699     0.1185   110.5740
  250.5000   -36.3421     9.6104    10.9119    12.7472     7.8143     0.0303     2.4571     0.1191   110.0887
  251.0000   -36.7984     9.3317    10.3208    12.3956     7.8040     0.0316     2.4511     0.1196   109.1840
  251.5000   -36.0549     9.0743    10.0357    11.8721     7.7945     0.0300     2.4458     0.1206   108.5797
  252.0000   -35.4601     9.0713     9.8945    10.8609     7.8091    -0.0001     2.4367     0.1254   107.6185
  252.5000   -35.7662     9.0689     9.7552    11.0859     7.8235     0.0089     2.4337     0.1395   110.6853
  253.0000   -36.2224     9.1301     9.7511     9.9205     7.8377     0.0284     2.4394     0.1242   109.3280
  253.5000   -36.5285     9.1271     9.7479     9.1904     7.8371     0.0420     2.4509     0.1209   109.4772
  254.0000   -36.3842     9.1246     9.8131     9.6443     7.8365     0.0496     2.4531     0.1203   110.8311
  254.5000   -36.0897     9.1222     9.8771    11.8681     7.8209     0.0479     2.4621     0.1161   113.6911
  255.0000   -35.7952     9.1191     9.9424    11.8567     7.7903     0.0328     2.4568     0.1143   116.7017
  255.5000   -36.2529     9.1167     9.9391    11.3783     7.7748     0.0418     2.4492     0.1170   117.6039
  256.0000   -36.4074     9.2414     9.9357    11.2967     7.7742     0.0539     2.4643     0.1137   118.5141
  256.5000   -36.1141     9.3038    10.0014    11.3722     7.7587     0.0403     2.4673     0.1125   119.5584
  257.0000   -35.8198     9.3006     9.9972    12.0168     7.7431     0.0463     2.4477     0.1183   119.8586
  257.5000   -35.9985     9.3628     9.9939    12.0135     7.7253     0.0508     2.4620     0.1176   120.0077
  258.0000   -36.7338     9.3602     9.9905    12.0103     7.7119     0.0161     2.4604     0.1150   119.7047
  258.5000   -36.5880     9.3572    10.0566    11.7517     7.7264     0.0010     2.4183     0.1366   118.6490
  259.0000   -36.7454     9.3547    10.1230    11.5146     7.7558     0.0055     2.4198     0.1414   117.2921
  259.5000   -36.9013     9.4178    10.1899    11.4321     7.7850     0.0100     2.4303     0.1330   115.2902
  260.0000   -36.9071     9.4807    10.2572    11.6689     7.7844     0.0190     2.4494     0.1246   116.6865
  260.5000   -37.0631     9.4775    10.4689    11.8293     7.8138     0.0265     2.4655     0.1156   113.6730
  261.0000   -37.2192     9.4750    10.6840    12.1575     7.8282     0.0295     2.4678     0.1135   115.6293
  261.5000   -37.3764     9.6046    10.7555    12.6699     7.8426     0.0279     2.4655     0.1145   118.1881
  262.0000   -37.3822     9.6688    10.7510    12.9324     7.8569     0.0234     2.4602     0.1174   119.3915
  262.5000   -37.2364     9.8010    10.7474    12.7503     7.8713     0.0294     2.4504     0.1207   119.6913
  263.0000   -37.2436     9.8658    10.6697    12.4848     7.8706     0.0354     2.4406     0.1240   120.0000
  263.5000   -37.0991     9.7951    10.7403    12.5682     7.8700     0.0399     2.4330     0.1265   120.7422
  264.0000   -36.9549     9.7925    10.7358    12.4781     7.8695     0.0338     2.4227     0.1307   121.0423
  264.5000   -36.8106     9.7223    10.5117    12.3032     7.8689     0.0262     2.3969     0.1454   121.0405
  265.0000   -37.1181     9.6520    10.2923    12.2150     7.8682     0.0352     2.4013     0.1496   120.8884
  265.5000   -37.1239     9.5828    10.1474    12.2023     7.8526     0.0533     2.4494     0.1193   121.3391
  266.0000   -36.5291     9.5803    10.1440    11.9567     7.8371     0.0698     2.4472     0.1199   120.8855
  266.5000   -36.6851     9.5116    10.1406    11.5467     7.8215     0.0758     2.4479     0.1193   117.8624
  267.0000   -37.4416     9.4435    10.1364    11.4639     7.8060     0.0758     2.4531     0.1184   117.4187
  267.5000   -37.5976     9.4409    10.1330    11.6207     7.7902     0.0758     2.4489     0.1205   119.5254
  268.0000   -37.4532     9.3727    10.1297    12.0269     7.7575     0.0788     2.4327     0.1277   120.1267
  268.5000   -37.1587     9.2413    10.1263    12.1072     7.6843     0.0968     2.4463     0.1234   120.2758
  269.0000   -37.1660     9.1117    10.1229    12.1039     7.5640     0.1013     2.4628     0.1160   119.9728
  269.5000   -37.1718     9.1093    10.1195    11.7694     7.4886     0.0771     2.4582     0.1151   119.8208
  270.0000   -37.6280     9.1069    10.1161    11.6850     7.5031     0.0425     2.4379     0.1256   119.6687
  270.5000   -37.6338     9.1678    10.1119    11.6819     7.5623     0.0289     2.4521     0.1232   119.5163
  271.0000   -37.4865     9.2290    10.1085    11.6788     7.6973     0.0273     2.4649     0.1148   120.1172
  271.5000   -37.1950     9.2906    10.1052    11.8385     7.8180     0.0182     2.4543     0.1184   120.4174
  272.0000   -37.2022     9.2875    10.3853    12.2523     7.8748     0.0167     2.4618     0.1172   119.6625
  272.5000   -37.6585     9.3502    10.3818    11.9874     7.8891     0.0242     2.4708     0.1123   117.8538
  273.0000   -37.9646     9.4127    10.2357    11.5050     7.8886     0.0197     2.4791     0.1082   116.0452
  273.5000   -37.9704     9.4750    10.0172    11.4226     7.8880     0.0121     2.4610     0.1158   114.6566
  274.0000   -37.8258     9.4070     9.8121    11.4195     7.8874    -0.0014     2.4497     0.1197   113.6326
  274.5000   -37.2312     9.3390     9.7411    11.3377     7.9018    -0.0032     2.4406     0.1242   116.0404
  275.0000   -37.2372     9.2721     9.7379    11.4135     7.8862     0.0030     2.4414     0.1239   115.1354
  275.5000   -37.2442     9.0790     9.8031    11.2534     7.9006     0.0045     2.4413     0.1236   114.0797
  276.0000   -37.2500     9.0139     9.7990    11.0190     7.8999     0.0045     2.4413     0.1233   113.9280
  276.5000   -37.2558     8.8876     9.5944    11.0920     7.8993     0.0300     2.4413     0.1233   114.8298
  277.0000   -37.5619     8.7025     9.0121    11.0890     7.8988     0.0285     2.4405     0.1236   116.8082
  277.5000   -37.8680     8.3403     9.1347    11.0095     7.9132     0.0194     2.4382     0.1242   117.0859
  278.0000   -37.5696     8.0594     9.0679    10.7059     7.9275     0.0116     2.4337     0.1257   116.0299
  278.5000   -37.2790     7.8371     8.5175    10.4106     7.9269     0.0209     2.4314     0.1317   116.7814
  279.0000   -37.7367     7.6210     7.7285    10.1938     7.9113     0.0286     2.4336     0.1333   117.8342
  279.5000   -37.8927     7.5663     7.6204     9.2367     7.9107     0.0359     2.4381     0.1299   117.2307
  280.0000   -37.8985     7.5643     7.7234     7.8849     7.8952     0.0419     2.4486     0.1243   119.0361
  280.5000   -37.6025     7.6149     7.9416     7.8290     7.8796     0.0449     2.4621     0.1143   117.8183
  281.0000   -38.0602     7.7190     8.3279     9.5670     7.8641     0.0403     2.4666     0.1125   118.1292
  281.5000   -38.2162     7.8240     8.7390    10.9095     7.8635     0.0327     2.4635     0.1165   119.9350
  282.0000   -37.9231     7.9311     8.9806    10.4627     7.8628     0.0297     2.4575     0.1156   118.4275
  282.5000   -37.6286     8.0401     8.9776    10.1741     7.8622     0.0312     2.4695     0.1117   114.8116
  283.0000   -37.6344     8.2061     9.0369    10.4032     7.8616     0.0296     2.4762     0.1111   114.2078
  283.5000   -37.6402     8.3761     9.1598    10.8971     7.8761     0.0281     2.4724     0.1123   114.0557
  284.0000   -37.6460     8.4961     9.3488    11.2001     7.8904     0.0266     2.4641     0.1150   114.0301
  284.5000   -37.6518     8.7869     9.5409    11.0431     7.9048     0.0265     2.4558     0.1174   111.7934
  285.0000   -37.6576     9.0313     9.6047    11.1942     7.9193     0.0250     2.4490     0.1198   112.0931
