~VERSION INFORMATION
 VERS.                2.0:   CWLS LOG ASCII STANDARD - VERSION 2.0
 WRAP.                 NO:   ONE LINE PER DEPTH STEP
~WELL INFORMATION
#MNEM.UNIT      DATA TYPE    INFORMATION
#----------   ------------   ------------------------------
 STRT.F         1500.0000:   START DEPTH
 STOP.F         3480.0000:   STOP DEPTH
 STEP.F            0.5000:   STEP LENGTH
 NULL.          -999.2500:   NO VALUE
 COMP. FLUOR DANIEL (NOPSR). INC.:   COMPANY
 WELL.   22-STX-26 #22-26:   WELL
 FLD .             NPR #3:   FIELD
 LOC .      S26 T38N R78W:   LOCATION
 CNTY.            NATRONA:   COUNTY
 STAT.            WYOMING:   STATE
 CTRY. UNITED STATES OF AMERICA:   COUNTRY
 SRVC.            Unknown:   SERVICE COMPANY
 DATE.        14-JUN-1995:   LOGDATE
 API .       490252272400:   API NUMBER
~CURVE INFORMATION
#MNEM.UNIT       API CODE    CURVE DESCRIPTION
#----------   ------------   ------------------------------
 DEPT.F                  :   
 ROP .MIN/FT 91 810 01 00:   RATE OF DRILLING PENETRATION
 TGAS.UNITS  91 830 01 00:   TOTAL GAS FROM HOTWIRE
~PARAMETER INFORMATION
#MNEM.UNIT          VALUE    DESCRIPTION
#----------   ------------   ------------------------------
 EKB .F              5348:   KELLING BUSHING
 EGL .F              5338:   GROUND LEVEL
 DATE.            6-14-95:   RUN DATE
 DD  .F              3480:   DEPTH DRILLER
 BLI .F              3480:   BOTTOM LOG INTERVAL
 TLI .F              1500:   TOP LOG INTERVAL
 CS  .IN            9.625:   CASING SIZE
 CBD .F                87:   CASING BOTTOM DRILLER
 ENGI.               HUSK:   RECORDING ENGINEER
 WITN.              TOWER:   WITNESSED BY
 CLNT.            A2DTECH:   CLIENT CODE
 ORIG.           5" PRINT:   ORIGIN OF DATA
 UWI .       490252272400:   UNIQUE WELL ID
 DICO. A2D Technologies, Inc.:   DIGITIZING COMPANY
~OTHER INFORMATION
~A  DEPT         ROP       TGAS 
# ...
 2107.5000     0.5803    14.2716
 2108.0000     0.5803    14.2714
 2108.5000     0.5802    14.2712
 2109.0000     0.5802    14.2710
 2109.5000     0.5801    14.2708
 2110.0000     0.5801    14.2706
 2110.5000     0.5800    14.2704
 2111.0000     0.5800    14.2702
 2111.5000     0.5799    14.2700
 2112.0000     0.5798    14.2698
 2112.5000     0.5798    14.2696
 2113.0000     0.5797    14.2694
 2113.5000     0.5797    14.2692
 2114.0000     0.5796    14.2690
 2114.5000     0.5796    14.2688
 2115.0000     0.5795    14.2686
 2115.5000     0.5795    14.2684
 2116.0000     0.5794    14.2682
 2116.5000     0.5794    14.2680
 2117.0000     0.5793    14.2677
 2117.5000     0.5792    14.2675
 2118.0000     0.5792    14.2673
 2118.5000     0.5791    14.2671
 2119.0000     0.5791    14.2669
 2119.5000     0.5790    14.2667
 2120.0000     0.5790    14.2665
 2120.5000     0.5789    14.2663
 2121.0000     0.5789    14.2661
 2121.5000     0.5788    14.2659
 2122.0000     0.5788    14.2657
 2122.5000     0.5787    14.2655
 2123.0000     0.5786    14.2653
 2123.5000     0.5786    14.2651
 2124.0000     0.5785    14.2649
 2124.5000     0.5785    14.2647
 2125.0000     0.5784    14.2645
 2125.5000     0.5784    14.2643
 2126.0000     0.5783    14.2641
 2126.5000     0.5783    14.2638
 2127.0000     0.5782    14.2636
 2127.5000     0.5782    14.2634
 2128.0000     0.5781    14.2632
 2128.5000     0.5780    14.2630
 2129.0000     0.5780    14.2628
 2129.5000     0.5779    14.2626
 2130.0000     0.5779    14.2624
 2130.5000     0.5778    14.2622
 2131.0000     0.5778    14.2620
 2131.5000     0.5777    14.2618
 2132.0000     0.5777    14.2616
 2132.5000     0.5776    14.2614
 2133.0000     0.5776    14.2612
 2133.5000     0.5775    14.2610
 2134.0000     0.5774    14.2608
 2134.5000     0.6721    14.2606
 2135.0000     0.6723    14.2604
 2135.5000     0.6725    14.2602
 2136.0000     0.6726    14.2599
 2136.5000     0.6728    14.2597
 2137.0000     0.6730    14.2595
 2137.5000     0.6731    14.2593
 2138.0000     0.6733    14.2591
 2138.5000     0.6735    14.2589
 2139.0000     0.6737    14.2587
 2139.5000     0.6738    14.2585
 2140.0000     0.6740    14.2583
 2140.5000     0.6742    14.2581
 2141.0000     0.6743    14.2579
 2141.5000     0.6745    14.2577
 2142.0000     0.6747    14.2575
 2142.5000     0.6748    14.2573
 2143.0000     0.6750    14.2571
 2143.5000     0.6752    14.2569
 2144.0000     0.6753    14.2567
 2144.5000     0.6755    14.2565
 2145.0000     0.6757    14.2563
 2145.5000     0.6758    14.2560
 2146.0000     0.5924    14.2558
 2146.5000     0.5921    14.2556
 2147.0000     0.5916    14.2554
 2147.5000     0.5910    14.2552
 2148.0000     0.5905    14.2550
 2148.5000     0.5900    14.2548
 2149.0000     0.5895    14.2546
 2149.5000     0.5890    14.2544
 2150.0000     0.5885    14.2542
 2150.5000     0.5880    14.2540
 2151.0000     0.5874    14.2538
 2151.5000     0.5869    14.2536
 2152.0000     0.5864    14.2534
 2152.5000     0.5859    14.2532
 2153.0000     0.5854    14.2530
 2153.5000     0.5849    14.2528
 2154.0000     0.5843    14.2526
 2154.5000     0.5838    14.2524
 2155.0000     0.5833    14.2521
 2155.5000     0.5828    14.2519
 2156.0000     0.5823    14.2517
 2156.5000     0.5818    14.2515
 2157.0000     0.5812    14.2513
 2157.5000     0.5807    14.2511
 2158.0000     0.5802    14.2509
 2158.5000     0.5797    14.2507
 2159.0000     0.5792    14.2505
 2159.5000     0.5787    14.2503
 2160.0000     0.4737    14.2501
 2160.5000     0.4740    14.2499
 2161.0000     0.4740    14.2497
 2161.5000     0.4741    14.2495
 2162.0000     0.4741    14.2493
 2162.5000     0.4741    14.2491
 2163.0000     0.4741    14.2489
 2163.5000     0.4741    14.2487
 2164.0000     0.4742    14.2485
 2164.5000     0.4742    14.2482
 2165.0000     0.4742    14.2480
 2165.5000     0.4742    14.2478
 2166.0000     0.4742    14.2476
 2166.5000     0.4743    14.2474
 2167.0000     0.4743    14.2472
 2167.5000     0.4743    14.2470
 2168.0000     0.4743    14.2468
 2168.5000     0.4743    14.2466
 2169.0000     0.4744    14.2464
 2169.5000     0.4744    14.2462
 2170.0000     0.4744    14.2460
 2170.5000     0.4744    14.2458
 2171.0000     0.4744    14.2456
 2171.5000     0.4744    14.2454
 2172.0000     0.4745    14.2452
 2172.5000     0.4745    14.2450
 2173.0000     0.4745    14.2448
 2173.5000     0.4745    14.2446
 2174.0000     0.4745    14.2443
 2174.5000     0.4746    14.2441
 2175.0000     0.4746    14.2439
 2175.5000     0.4746    14.2437
 2176.0000     0.4746    14.2435
 2176.5000     0.4746    14.2433
 2177.0000     0.4747    14.2431
 2177.5000     0.4747    14.2429
 2178.0000     0.4747    14.2427
 2178.5000     0.4747    14.2425
 2179.0000     0.4747    14.2423
 2179.5000     0.4748    14.2421
 2180.0000     0.4748    14.2419
 2180.5000     0.4748    14.2417
 2181.0000     0.4748    14.2415
 2181.5000     0.4748    14.2413
 2182.0000     0.4749    14.2411
 2182.5000     0.4749    14.2409
 2183.0000     0.4749    14.2407
 2183.5000     0.4749    14.2404
 2184.0000     0.4749    14.2402
 2184.5000     0.4750    14.2400
 2185.0000     0.4750    14.2398
 2185.5000     0.4750    14.2396
 2186.0000     0.4663    14.2394
 2186.5000     0.4337    14.2392
 2187.0000     0.4345    14.2390
 2187.5000     0.4351    14.2388
 2188.0000     0.4357    14.2386
 2188.5000     0.4351    14.2384
 2189.0000     0.4344    14.2382
 2189.5000     0.4337    14.2380
 2190.0000     0.4330    14.2378
 2190.5000     0.4323    14.2376
 2191.0000     0.4316    14.2374
 2191.5000     0.4310    14.2372
 2192.0000     0.4303    14.2370
 2192.5000     0.4296    14.2368
 2193.0000     0.4289    14.2365
 2193.5000     0.4282    14.2363
 2194.0000     0.4275    14.2361
 2194.5000     0.4269    14.2359
 2195.0000     0.4262    14.2357
 2195.5000     0.4255    14.2355
 2196.0000     0.4248    14.2353
 2196.5000     0.4241    14.2351
 2197.0000     0.4234    14.2349
 2197.5000     0.4228    14.2347
 2198.0000     0.4221    14.2345
 2198.5000     0.4214    14.2343
 2199.0000     0.4207    14.2341
 2199.5000     0.4200    14.2339
 2200.0000     0.4193    14.2337
 2200.5000     0.4187    14.2298
 2201.0000     0.4180    14.2256
 2201.5000     0.4173    14.2214
 2202.0000     0.4166    14.2172
 2202.5000     0.4159    14.2130
 2203.0000     0.4152    14.2088
 2203.5000     0.4146    14.2046
 2204.0000     0.4139    14.2004
 2204.5000     0.4132    14.1963
 2205.0000     0.4125    14.1921
 2205.5000     0.4118    14.1879
 2206.0000     0.4111    14.1837
 2206.5000     0.4105    14.1795
 2207.0000     0.4098    14.1753
 2207.5000     0.4091    14.1711
 2208.0000     0.4084    14.1669
 2208.5000     0.4077    14.1627
 2209.0000     0.4070    14.1585
 2209.5000     0.4064    14.1543
 2210.0000     0.4057    14.1501
 2210.5000     0.4050    14.1459
 2211.0000     0.4043    14.1417
 2211.5000     0.4036    14.1375
 2212.0000     0.4030    14.1334
 2212.5000     0.4023    14.1292
 2213.0000     0.4016    14.1250
 2213.5000     0.4009    14.1208
 2214.0000     0.4002    14.1166
 2214.5000     0.3995    14.1124
 2215.0000     0.3989    14.1082
 2215.5000     0.3982    14.1040
 2216.0000     0.5129    14.0998
 2216.5000     0.5133    14.0956
 2217.0000     0.5136    14.0914
 2217.5000     0.5138    14.0872
 2218.0000     0.5141    14.0830
 2218.5000     0.5144    14.0788
 2219.0000     0.5146    14.0747
 2219.5000     0.5149    14.0705
 2220.0000     0.5152    14.0663
 2220.5000     0.5155    14.0621
 2221.0000     0.5157    14.0579
 2221.5000     0.5160    14.0537
 2222.0000     0.5163    14.0495
 2222.5000     0.5165    14.0453
 2223.0000     0.5168    14.0411
 2223.5000     0.5171    14.0369
 2224.0000     0.5174    14.0327
 2224.5000     0.5176    14.0285
 2225.0000     0.5179    14.0243
 2225.5000     0.5182    14.0201
 2226.0000     0.5184    14.0159
 2226.5000     0.5187    14.0118
 2227.0000     0.5190    14.0076
 2227.5000     0.5193    14.0034
 2228.0000     0.5195    13.9992
 2228.5000     0.5198    13.9950
