~VERSION INFORMATION
 VERS.                2.0:   CWLS LOG ASCII STANDARD - VERSION 2.0
 WRAP.                 NO:   ONE LINE PER DEPTH STEP
~WELL INFORMATION
#MNEM.UNIT      DATA TYPE    INFORMATION
#----------   ------------   ------------------------------
 STRT.F           10.0000:   START DEPTH
 STOP.F          519.0000:   STOP DEPTH
 STEP.F            0.5000:   STEP LENGTH
 NULL.          -999.2500:   NO VALUE
 COMP. LAWRENCE/ALLISON INC:   COMPANY
 WELL.     56-16 SX #56-3:   WELL
 FLD .             TEAPOT:   FIELD
 LOC .       S3 T38N R78W:   LOCATION
 CNTY.            NATRONA:   COUNTY
 STAT.            WYOMING:   STATE
 CTRY. UNITED STATES OF AMERICA:   COUNTRY
 SRVC.           Gearhart:   SERVICE COMPANY
 DATE.        02-AUG-1987:   LOGDATE
 API .       490251115700:   API NUMBER
~CURVE INFORMATION
#MNEM.UNIT       API CODE    CURVE DESCRIPTION
#----------   ------------   ------------------------------
 DEPT.F                  :   
 GRR .GAPI   07 310 01 00:   GAMMA RAY
 ILD .OHMM   07 120 46 00:   INDUCTION LOG DEEP
 ILM .OHMM   07 120 44 00:   INDUCTION LOG MEDIUM
~PARAMETER INFORMATION
#MNEM.UNIT          VALUE    DESCRIPTION
#----------   ------------   ------------------------------
 PD  .                 GL:   PERMANENT DATUM
 EPD .F              5192:   ELEVATION PERMANENT DATUM
 LMF .                 KB:   LOG MEASURED FROM
 DAPD.F                 8:   FEET ABOVE PERMANENT DATUM
 DMF .                 KB:   DRILLING MEASURED FROM
 EKB .F              5200:   KELLING BUSHING
 EGL .F              5192:   GROUND LEVEL
 DATE.        02-JUN-1997:   RUN DATE
 RUN .                  1:   RUN NUMBER
 DD  .F               530:   DEPTH DRILLER
 DL  .F               527:   DEPTH LOGGER
 BLI .F               518:   BOTTOM LOG INTERVAL
 TLI .F                30:   TOP LOG INTERVAL
 CS  .IN            8.625:   CASING SIZE
 CBD .F                46:   CASING BOTTOM DRILLER
 CBL .F                48:   CASING BOTTOM LOGGER
 BS  .IN            7.875:   BIT SIZE
 BSD .F               530:   BIT SIZE AT DEPTH
 DFT .           NONE/AIR:   DRILLING FLUID TYPE
 TCS .HRS            0530:   TIME CURCULATED STOPPED
 MRT .F                80:   MAXIMUM RECORDED TEMPERATURE
 LUN .               7597:   LOGGING UNIT NUMBER
 LUL .           GILLETTE:   LOGGING UNIT LOCATION
 ENGI.        K.HUCKFELDT:   RECORDING ENGINEER
 WITN.        LYNDA FIVAS:   WITNESSED BY
 CLNT.            A2DTECH:   CLIENT CODE
 ORIG.           5" PRINT:   ORIGIN OF DATA
 UWI .       490251115700:   UNIQUE WELL ID
 DICO. A2D Technologies, Inc.:   DIGITIZING COMPANY
~OTHER INFORMATION
~A   DEPT       GRR       ILD        ILM   
# ...
  465.0000   107.7233    11.5179    11.5939
  465.5000   109.5538    11.3635    11.4378
  466.0000   110.1780    11.2104    11.2838
  466.5000   109.8965    11.0594    11.1319
  467.0000   111.1288    10.9050    11.0595
  467.5000   114.1659    10.7636    10.9858
  468.0000   115.0914    10.6923    10.9904
  468.5000   114.2069    10.6959    10.9171
  469.0000   113.6190    10.6243    10.8460
  469.5000   114.8513    10.4819    10.7746
  470.0000   119.0950    10.4125    10.7037
  470.5000   118.4425    10.4153    10.6332
  471.0000   115.2196    10.3463    10.5632
  471.5000   114.0284    10.4209    10.5676
  472.0000   114.6573    10.2805    10.5712
  472.5000   115.2812    10.1421    10.5748
  473.0000   115.0000    10.0749    10.3602
  473.5000   113.8139     9.9399    10.2918
  474.0000   111.7228     9.8734    10.1534
  474.5000   111.4417     9.7410    10.0167
  475.0000   112.4183     9.6097     9.8706
  475.5000   113.2978     9.4151     9.6814
  476.0000   113.6200     9.1574     9.4201
  476.5000   113.9421     8.7712     9.2281
  477.0000   113.9627     8.3783     8.9791
  477.5000   113.0782     8.0399     8.7360
  478.0000   111.8914     7.8770     8.4995
  478.5000   112.8176     7.7704     8.0988
  479.0000   114.4072     7.7189     7.3438
  479.5000   116.1820     7.7215     6.9484
  480.0000   116.8058     7.7772     7.1053
  480.5000   117.7313     7.8876     7.4619
  481.0000   117.7518     7.9530     7.8909
  481.5000   117.4656     8.3413     8.4028
  482.0000   117.1896     8.8792     8.9479
  482.5000   116.3051     9.5175     9.4624
  483.0000   114.8074    10.1313     9.9372
  483.5000   115.1855    10.6366    10.4385
  484.0000   116.6734    10.7877    10.8837
  484.5000   114.8840    10.9408    11.1949
  485.0000   113.3962    11.0962    11.2768
  485.5000   113.1100    11.1763    11.2806
  486.0000   114.6439    11.1799    11.2844
  486.5000   114.3620    11.1051    11.2882
  487.0000   113.1766    11.0323    11.2920
  487.5000   112.5938    10.9585    11.2958
  488.0000   113.2228    10.8109    11.2997
  488.5000   114.1483    10.8146    11.3036
  489.0000   114.4705    10.8175    11.3083
  489.5000   114.4893    10.8204    11.3121
  490.0000   113.3032    10.8985    11.3159
  490.5000   112.1171    10.9777    11.3197
  491.0000   113.3493    10.9807    11.3233
  491.5000   113.6715    10.9836    11.3272
  492.0000   112.1837    10.9101    11.3318
  492.5000   111.5958    10.8379    11.3357
  493.0000   112.2248    10.7661    11.2601
  493.5000   113.4519    10.6218    11.0325
  494.0000   113.5123    10.5505    10.7338
  494.5000   110.7330    10.3289    10.4424
  495.0000   107.7820    10.0590    10.0203
  495.5000   108.1093     9.5202     9.5467
  496.0000   113.2580     8.7041     9.2100
  496.5000   113.5802     8.0132     8.6098
  497.0000   112.3940     7.1759     7.9240
  497.5000   110.9063     6.2077     7.4982
  498.0000   110.0211     5.4827     6.8531
  498.5000   110.0423     4.8755     6.0079
  499.0000   110.6968     4.3230     5.3778
  499.5000   113.4067     3.6240     4.3981
  500.0000   116.1422     3.4063     3.4984
  500.5000   118.2743     3.3140     3.0254
  501.0000   120.1048     3.3151     2.6702
  501.5000   121.3319     3.3390     2.6898
  502.0000   119.8442     3.4100     2.7857
  502.5000   117.7531     3.5800     3.0289
  503.0000   115.6420     3.8109     3.4574
  503.5000   114.1297     4.2830     4.0577
  504.0000   112.9932     5.3511     4.6965
  504.5000   112.4104     6.1890     5.4738
  505.0000   111.8225     6.8672     6.2313
  505.5000   111.8481     7.4634     7.3846
  506.0000   112.1703     7.8356     7.8092
  506.5000   111.5875     8.0575     8.2011
  507.0000   111.0045     8.1156     8.6726
  507.5000   110.1202     8.2880     8.7969
  508.0000   104.4144     8.4111     8.9230
  508.5000    95.9867     8.4668     8.9179
  509.0000    91.7840     8.5279     8.9290
  509.5000    90.5979     8.5302     8.9321
  510.0000    87.9035     8.5324     8.9358
  510.5000    29.9440     8.5347     8.9388
  511.0000     0.5946     8.5370     8.9419
  511.5000  -999.2500     8.5986     8.9449
  512.0000  -999.2500     8.7211     8.9479
  512.5000  -999.2500     8.6627     8.9509
  513.0000  -999.2500     8.6656     8.9540
  513.5000  -999.2500     8.7281     8.9570
  514.0000  -999.2500     8.6697     8.8931
  514.5000  -999.2500     8.5534     8.7182
  515.0000  -999.2500     8.3802     8.2497
  515.5000  -999.2500     8.2060     8.1947
  516.0000  -999.2500     8.0998     8.1407
  516.5000  -999.2500     8.0461     8.2009
  517.0000  -999.2500     8.0488     8.2609
  517.5000  -999.2500     8.1068     8.3213
  518.0000  -999.2500     8.2219     8.4406
  518.5000  -999.2500     8.3965     8.5657
  519.0000  -999.2500     8.5748     8.8279
