~VERSION INFORMATION
 VERS.                2.0:   CWLS LOG ASCII STANDARD - VERSION 2.0
 WRAP.                 NO:   ONE LINE PER DEPTH STEP
~WELL INFORMATION
#MNEM.UNIT      DATA TYPE    INFORMATION
#----------   ------------   ------------------------------
 STRT.F           39.0000:   START DEPTH
 STOP.F          478.0000:   STOP DEPTH
 STEP.F            0.5000:   STEP LENGTH
 NULL.          -999.2500:   NO VALUE
 COMP. FENIX & SCISSON, INC.:   COMPANY
 WELL.  S-3 NPR #3 #46S-3:   WELL
 FLD .              NPR-3:   FIELD
 LOC .       S3 T38N R78W:   LOCATION
 CNTY.            NATRONA:   COUNTY
 STAT.            WYOMING:   STATE
 CTRY. UNITED STATES OF AMERICA:   COUNTRY
 SRVC.      Dresser Atlas:   SERVICE COMPANY
 DATE.        28-MAR-1977:   LOGDATE
 API .       490251034100:   API NUMBER
~CURVE INFORMATION
#MNEM.UNIT       API CODE    CURVE DESCRIPTION
#----------   ------------   ------------------------------
 DEPT.F                  :   
 ILD .OHMM   07 120 46 00:   INDUCTION LOG DEEP
 ILM .OHMM   07 120 44 00:   INDUCTION LOG MEDIUM
 SFL .OHMM   07 220 01 00:   SHALLOW FOCUSED LOG RESISTIVITY
 SPR .MV     07 010 01 00:   SPONTANEOUS POTENTIAL
 CALD.IN     45 280 60 00:   CALIPER FROM DENSITY LOG
 GRD .GAPI   45 310 01 00:   GAMMA RAY FROM DENSITY LOG
 DPHI.DEC    45 890 12 00:   DENSITY POROSITY SANDSTONE
 RHOB.G/C3   45 350 01 00:   BULK DENSITY
 DRHO.G/C3   45 356 01 00:   DENSITY CORRECTION
~PARAMETER INFORMATION
#MNEM.UNIT          VALUE    DESCRIPTION
#----------   ------------   ------------------------------
 PD  .                 GL:   PERMANENT DATUM
 EPD .F              5186:   ELEVATION PERMANENT DATUM
 LMF .                 KB:   LOG MEASURED FROM
 DAPD.F                 3:   FEET ABOVE PERMANENT DATUM
 DMF .                 KB:   DRILLING MEASURED FROM
 EKB .F              5189:   KELLING BUSHING
 EGL .F              5186:   GROUND LEVEL
 DATE.        28-MAR-1977:   RUN DATE
 RUN .                  1:   RUN NUMBER
 DD  .F               480:   DEPTH DRILLER
 DL  .F               480:   DEPTH LOGGER
 BLI .F               478:   BOTTOM LOG INTERVAL
 TLI .F                40:   TOP LOG INTERVAL
 CS  .IN            8.625:   CASING SIZE
 CBD .F                40:   CASING BOTTOM DRILLER
 CBL .F                40:   CASING BOTTOM LOGGER
 BS  .IN            7.875:   BIT SIZE
 BSD .F               480:   BIT SIZE AT DEPTH
 DFT .           CHEM GEL:   DRILLING FLUID TYPE
 DFD .                8.9:   DRILLING FLUID DENSITY
 DFV .                 39:   DRILLING FLUID VISCOSITY
 DFPH.                 11:   DRILLING FLUID PH
 DFL .                 16:   DRILLING FLUID LOSS
 MSS .           FLOWLINE:   MUD SAMPLE SOURCE
 RMS .OHMM           0.41:   RESISTIVITY MUD SAMPLE
 MST .F                40:   MUD SAMPLE TEMPERATURE
 RMF .OHMM           0.29:   RESISTIVITY MUD FILTRATE SAMPLE
 MFST.F                62:   MUD FILTRATE SAMPLE TEMPERATURE
 RMC .OHMM           0.28:   RESISTIVITY MUD CAKE
 MCST.F                62:   MUD CAKE SAMPLE TEMPERATURE
 MFSS.               MEAS:   MUD FILTRATE SAMPLE SOURCE
 MCSS.               MEAS:   MUD CAKE SAMPLE SOURCE
 RMB .OHMM           0.26:   RESISTIVITY MUD AT BHT
 BHT .F                62:   BOTTOM HOLE TEMPERATURE
 TCS .HRS               6:   TIME CURCULATED STOPPED
 MRT .F                62:   MAXIMUM RECORDED TEMPERATURE
 LUN .               6145:   LOGGING UNIT NUMBER
 LUL .              GLTTE:   LOGGING UNIT LOCATION
 ENGI.              RANCK:   RECORDING ENGINEER
 WITN.     MR. STUEBINGER:   WITNESSED BY
 CLNT.            A2DTECH:   CLIENT CODE
 ORIG.           5" PRINT:   ORIGIN OF DATA
 UWI .       490251034100:   UNIQUE WELL ID
 DICO. A2D Technologies, Inc.:   DIGITIZING COMPANY
~OTHER INFORMATION
~A   DEPT      ILD        ILM        SFL        SPR       CALD         GRD      DPHI       RHOB       DRHO   
   39.0000  -999.2500  -999.2500  -999.2500  -999.2500  -999.2500    95.9293  -999.2500  -999.2500  -999.2500
   39.5000  -999.2500  -999.2500  -999.2500  -999.2500  -999.2500    99.3152  -999.2500  -999.2500  -999.2500
   40.0000     8.5732   614.8294     4.9308   -24.2042     7.8141   104.2625     0.1167     2.4590     0.0259
   40.5000     9.1964   300.8845     5.0738   -25.7462     7.8145   105.6224     0.1153     2.4605     0.0261
   41.0000    10.2864    72.8173     5.4819   -27.3954     7.8148   106.6834     0.1153     2.4606     0.0218
   41.5000    13.2850    20.6979     5.7601   -28.4063     7.8151   108.0433     0.1164     2.4575     0.0174
   42.0000    11.7553     7.2566     5.9272   -29.2883     7.8155   109.5527     0.1185     2.4488     0.0116
   42.5000     9.0233     4.9072     6.0992   -29.7245     7.8158   111.0621     0.1206     2.4406     0.0073
   43.0000     8.2451     5.0533     6.2371   -29.7008     7.8161   112.4220     0.1223     2.4325     0.0045
   43.5000     7.9653     5.0226     6.2819   -30.1324     7.8165   113.4830     0.1226     2.4235     0.0031
   44.0000     7.8586     5.1708     6.2858   -31.6149     7.8168   112.8733     0.1223     2.4191     0.0033
   44.5000     8.0292     5.3596     6.2911   -32.0465     7.8171   110.7424     0.1220     2.4222     0.0034
   45.0000     7.8665     5.6335     6.2957   -32.1777     7.8175   107.8504     0.1212     2.4283     0.0036
   45.5000     6.6778     5.8392     6.3443   -32.0038     7.8178   106.2208     0.1201     2.4366     0.0053
   46.0000     4.7666     5.8903     6.4831   -31.2341     7.8182   106.8333     0.1186     2.4442     0.0069
   46.5000     4.6054     5.6880     6.5789   -29.1131     7.8185   107.5953     0.1164     2.4503     0.0087
   47.0000     4.6721     5.5752     6.8230   -26.5416     7.8188   109.2542     0.1143     2.4535     0.0120
   47.5000     4.9080     5.8614     6.8710   -25.3215     7.8192   111.2120     0.1113     2.4580     0.0179
   48.0000     5.3016     6.0754     6.8283   -25.1524     7.8195   112.1235     0.1037     2.4776     0.0226
   48.5000     5.6870     6.2098     6.8811   -25.4338     7.8198   112.4370     0.0989     2.5031     0.0257
   49.0000     5.9327     6.3471     6.9009   -25.8653     7.8202   112.4517     0.1004     2.4912     0.0229
   49.5000     6.0609     6.3528     7.0367   -26.2921     7.8205   112.6158     0.1039     2.4680     0.0186
   50.0000     6.0215     6.2700     7.1906   -27.0239     7.8208   112.4647     0.1063     2.4629     0.0203
   50.5000     5.9752     6.2775     7.2968   -27.4554     7.8212   111.6023     0.1047     2.4795     0.0249
   51.0000     5.9434     6.4223     7.3023   -27.7368     7.8223   110.1222     0.1017     2.4983     0.0251
   51.5000     5.8644     6.6039     7.2567   -28.1730     7.8241   109.6847     0.1008     2.5023     0.0252
   52.0000     5.8262     6.7499     7.1629   -28.4496     7.8258   109.2546     0.1011     2.4818     0.0209
   52.5000     5.8289     6.8018     7.2182   -29.0313     7.8275   108.5218     0.1028     2.4700     0.0181
   53.0000     5.8315     6.7133     7.3761   -29.4628     7.8292   108.8354     0.1040     2.4739     0.0152
   53.5000     5.9209     6.6549     7.7504   -29.8896     7.8310   108.9995     0.1007     2.4777     0.0124
   54.0000     6.1294     6.5871     7.7022   -30.0208     7.8327   109.0141     0.0995     2.4808     0.0096
   54.5000     6.3056     6.5932     7.6523   -30.1520     7.8344   112.4667     0.1012     2.4809     0.0098
   55.0000     6.4868     6.6468     7.6067   -30.4381     7.8362   114.4245     0.1033     2.4787     0.0099
   55.5000     6.6269     6.7937     7.6137   -30.5646     7.8379   115.3363     0.1042     2.4758     0.0101
   56.0000     6.7230     6.8956     7.6185   -30.3955     7.8376   115.3513     0.1035     2.4766     0.0122
   56.5000     6.8205     6.9990     7.6923   -30.3766     7.8359   114.7673     0.1020     2.4842     0.0134
   57.0000     6.8235     7.1039     7.7911   -30.3574     7.8343   115.0809     0.1008     2.4955     0.0136
   57.5000     6.8267     7.2104     7.9067   -30.3340     7.8326   110.3159     0.1010     2.4964     0.0137
   58.0000     6.8305     7.2168     8.0235   -30.3150     7.8310   105.5473     0.1016     2.4843     0.0139
   58.5000     6.8335     7.3302     8.1990   -30.4510     7.8293   103.0208     0.1019     2.4785     0.0140
   59.0000     6.8841     7.4365     8.2065   -30.4273     7.8276   101.6901     0.0995     2.4816     0.0142
   59.5000     6.8873     7.6009     8.2366   -30.4084     7.8260   102.3027     0.0958     2.4877     0.0159
   60.0000     6.8906     7.7690     8.2759   -30.3894     7.8243   104.2605     0.0940     2.4930     0.0175
   60.5000     6.9287     7.9018     8.3987   -30.5207     7.8226   105.6204     0.0931     2.4939     0.0192
   61.0000     7.0435     8.0599     8.4833   -30.8020     7.8210   105.9340     0.0927     2.4947     0.0209
   61.5000     7.1647     8.1807     8.5354   -30.9580     7.8193   103.5908     0.0933     2.4940     0.0211
   62.0000     7.2993     8.2455     8.7150   -31.2146     7.8177   100.4362     0.0969     2.4934     0.0182
   62.5000     7.4085     8.2531     8.9057   -31.3458     7.8184   101.9456     0.0999     2.4897     0.0169
   63.0000     7.5657     8.0342     9.0388   -31.3221     7.8201   104.2024     0.1028     2.4853     0.0125
   63.5000     7.7291     7.6572     9.1086   -31.3032     7.8219   106.9076     0.1046     2.4792     0.0112
   64.0000     7.8411     7.4006     9.1790   -31.4344     7.8236   107.8154     0.1055     2.4740     0.0099
   64.5000     7.7901     7.2029     9.1858   -31.4155     7.8254   107.9832     0.1060     2.4690     0.0100
   65.0000     7.6857     6.9616     9.1925   -31.5467     7.8420   109.9410     0.1057     2.4676     0.0102
   65.5000     7.5300     6.6815     9.1992   -31.7007     7.8438   111.4504     0.1039     2.4707     0.0119
   66.0000     7.2761     6.5030     9.1420   -31.8091     7.8306   111.0166     0.1020     2.4775     0.0121
   66.5000     6.9327     6.4601     9.0787   -31.9403     7.8328   111.0447     0.1011     2.4881     0.0122
   67.0000     6.7443     6.3794     8.9054   -32.0716     7.8343   111.9631     0.1008     2.4964     0.0108
   67.5000     6.5169     6.3865     8.8484   -32.0479     7.8361   111.3631     0.1020     2.4920     0.0065
   68.0000     6.4288     6.3922     8.7934   -32.1838     7.8231   110.4809     0.1032     2.4823     0.0037
   68.5000     6.3877     6.3974     8.6194   -32.1602     7.8100   110.9439     0.1037     2.4727     0.0009
   69.0000     6.4354     6.3576     8.4473   -32.1381     7.8116   111.4070     0.1037     2.4683     0.0010
   69.5000     6.5294     6.4093     8.2212   -31.9715     7.8134   110.5247     0.1039     2.4686     0.0027
   70.0000     6.5780     6.4602     8.1701   -31.9485     7.8152   108.2972     0.1039     2.4789     0.0043
   70.5000     6.6270     6.5616     8.2407   -32.0844     7.8057   107.8597     0.1033     2.4903     0.0060
   71.0000     6.6764     6.6143     8.4148   -31.9106     7.8038   108.9243     0.1020     2.4971     0.0062
   71.5000     6.7261     6.7094     8.4902   -32.0466     7.8057   109.8358     0.1029     2.4837     0.0048
   72.0000     6.7763     6.7757     8.6652   -32.0229     7.7925   110.7474     0.1092     2.4680     0.0035
   72.5000     6.7793     6.8161     8.7322   -32.0045     7.7946   110.5796     0.1131     2.4583     0.0022
   73.0000     6.8299     6.9668     8.8612   -31.9850     7.7869   108.3886     0.1139     2.4569     0.0039
   73.5000     6.8337     7.0457     9.0550   -31.9655     7.7683   106.6095     0.1117     2.4675     0.0100
   74.0000     6.8846     7.1547     8.9349   -31.7923     7.7700   105.7272     0.1081     2.4766     0.0147
   74.5000     6.9359     7.2551     8.7842   -31.7733     7.7718   107.2366     0.1057     2.4813     0.0163
   75.0000     6.9875     7.3957     8.7034   -31.6042     7.7586   108.7460     0.1027     2.4920     0.0165
