~VERSION INFORMATION
 VERS.                2.0:   CWLS LOG ASCII STANDARD - VERSION 2.0
 WRAP.                 NO:   ONE LINE PER DEPTH STEP
~WELL INFORMATION
#MNEM.UNIT      DATA TYPE    INFORMATION
#----------   ------------   ------------------------------
 STRT.F           71.5000:   START DEPTH
 STOP.F          820.0000:   STOP DEPTH
 STEP.F            0.5000:   STEP LENGTH
 NULL.          -999.2500:   NO VALUE
 COMP. U S NAVY/INTEX OIL CO:   COMPANY
 WELL. RES 3 TEAPOT DOME #72-S-34:   WELL
 FLD .             TEAPOT:   FIELD
 LOC .      S34 T39N R78W:   LOCATION
 CNTY.            NATRONA:   COUNTY
 STAT.            WYOMING:   STATE
 CTRY. UNITED STATES OF AMERICA:   COUNTRY
 SRVC.       Schlumberger:   SERVICE COMPANY
 DATE.        20-FEB-1961:   LOGDATE
 API .       490250655700:   API NUMBER
~CURVE INFORMATION
#MNEM.UNIT       API CODE    CURVE DESCRIPTION
#----------   ------------   ------------------------------
 DEPT.F                  :   
 GR  .GAPI   30 310 01 00:   GAMMA RAY
 SPR .MV     05 010 01 00:   SPONTANEOUS POTENTIAL FROM RES.
 ILD .OHMM   05 120 46 00:   INDUCTION LOG DEEP
 ASN .OHMM   05 041 16 00:   AMPLIFIED SHORT NORMAL 16"
 CILD.MMHO   05 110 46 00:   CONDUCTIVITY INDUCTION LOG DEEP
~PARAMETER INFORMATION
#MNEM.UNIT          VALUE    DESCRIPTION
#----------   ------------   ------------------------------
 LMF .                 KB:   LOG MEASURED FROM
 DMF .                 KB:   DRILLING MEASURED FROM
 EKB .F              5071:   KELLING BUSHING
 EGL .F              5057:   GROUND LEVEL
 DATE.          2-20-1961:   RUN DATE
 RUN .                  1:   RUN NUMBER
 DD  .F               820:   DEPTH DRILLER
 DL  .F               820:   DEPTH LOGGER
 BLI .F               819:   BOTTOM LOG INTERVAL
 TLI .F                80:   TOP LOG INTERVAL
 CBD .F                12:   CASING BOTTOM DRILLER
 BS  .IN            7.875:   BIT SIZE
 BSD .F               820:   BIT SIZE AT DEPTH
 DFT .       GEL-OIL EMUL:   DRILLING FLUID TYPE
 DFD .                9.3:   DRILLING FLUID DENSITY
 DFV .                 48:   DRILLING FLUID VISCOSITY
 DFPH.                8.5:   DRILLING FLUID PH
 DFL .                 16:   DRILLING FLUID LOSS
 MSS .           FLOWLINE:   MUD SAMPLE SOURCE
 RMS .OHMM            .82:   RESISTIVITY MUD SAMPLE
 MST .F                70:   MUD SAMPLE TEMPERATURE
 RMF .OHMM            .45:   RESISTIVITY MUD FILTRATE SAMPLE
 MFST.F                72:   MUD FILTRATE SAMPLE TEMPERATURE
 RMC .OHMM            1.4:   RESISTIVITY MUD CAKE
 MCST.F                78:   MUD CAKE SAMPLE TEMPERATURE
 RMB .OHMM            .73:   RESISTIVITY MUD AT BHT
 BHT .F                78:   BOTTOM HOLE TEMPERATURE
 TCS .HRS               1:   TIME CURCULATED STOPPED
 MRT .F                78:   MAXIMUM RECORDED TEMPERATURE
 LUN .               2523:   LOGGING UNIT NUMBER
 LUL .              CSPR.:   LOGGING UNIT LOCATION
 ENGI.             KNOBEL:   RECORDING ENGINEER
 WITN.          JORGENSEN:   WITNESSED BY
 CLNT.            A2DTECH:   CLIENT CODE
 ORIG.      2" & 5" PRINT:   ORIGIN OF DATA
 UWI .       490250655700:   UNIQUE WELL ID
 DICO. A2D Technologies, Inc.:   DIGITIZING COMPANY
~OTHER INFORMATION
~A   DEPT       GR        SPR          ILD      ASN       CILD   
# ...
  437.5000  -999.2500   -22.2094     8.2484     9.7412   128.7417
  438.0000  -999.2500   -22.2554     8.2154     9.7586   129.2215
  438.5000  -999.2500   -22.3015     8.1824     9.8060   129.7012
  439.0000  -999.2500   -22.3475     8.1493     9.8512   130.1810
  439.5000  -999.2500   -22.3862     8.1164     9.6836   130.6608
  440.0000  -999.2500   -22.4366     8.0833     9.5334   131.1406
  440.5000  -999.2500   -22.4801     8.0505     9.6096   131.6204
  441.0000  -999.2500   -22.5236     8.0174     9.6824   132.1001
  441.5000  -999.2500   -22.5671     7.9846     9.7519   132.5799
  442.0000  -999.2500   -22.5390     7.9511     9.6955   133.0597
  442.5000  -999.2500   -22.4678     7.9184     9.6417   133.5395
  443.0000  -999.2500   -22.3967     7.8849     9.5870   134.0193
  443.5000  -999.2500   -22.3256     7.8525     9.5339   134.4991
  444.0000  -999.2500   -22.2545     7.8187     9.4785   134.9776
  444.5000  -999.2500   -22.1833     7.8039     9.4547   135.4573
  445.0000  -999.2500   -22.1122     7.8639     9.5309   135.4238
  445.5000  -999.2500   -22.0410     7.9245     9.6096   134.9281
  446.0000  -999.2500   -21.9700     7.9826     9.6828   133.6574
  446.5000  -999.2500   -21.8988     8.0434     9.7622   131.6746
  447.0000  -999.2500   -21.8277     8.1004     9.8350   129.6920
  447.5000  -999.2500   -21.7990     8.2474     9.9147   127.7091
  448.0000  -999.2500   -21.8063     8.5289    10.4264   125.7267
  448.5000  -999.2500   -21.8135     8.8135    10.5689   123.7437
  449.0000  -999.2500   -21.8208     9.0937    10.7040   122.4641
  449.5000  -999.2500   -21.8281     8.8461    10.8462   121.8689
  450.0000  -999.2500   -21.8353     8.5971    10.9816   121.2748
  450.5000  -999.2500   -21.8425     8.4988    10.9405   120.6794
  451.0000  -999.2500   -21.8497     8.4979    10.8938   120.0852
  451.5000  -999.2500   -21.8570     8.4985    10.8519   120.2009
  452.0000  -999.2500   -21.8642     8.3014    10.8061   121.0508
  452.5000  -999.2500   -21.8714     8.1035    10.6856   121.9007
  453.0000  -999.2500   -21.8786     7.9023    10.4860   122.7634
  453.5000  -999.2500   -21.8859     7.7591    10.2428   125.0097
  454.0000  -999.2500   -21.8931     7.6141     9.9896   127.2903
  454.5000  -999.2500   -21.9003     7.4684     9.8889   129.5708
  455.0000  -999.2500   -21.9075     7.3236     9.7858   131.8514
  455.5000  -999.2500   -21.9148     7.1778     9.6096   134.1320
  456.0000  -999.2500   -21.9220     7.0332     9.4362   136.4125
  456.5000  -999.2500   -21.9293     6.8873     9.3568   138.6931
  457.0000  -999.2500   -21.9365     6.7899     9.2778   140.9737
  457.5000  -999.2500   -21.9438     6.7451     9.1987   143.2542
  458.0000  -999.2500   -21.9510     6.7017     9.1193   145.6262
  458.5000  -999.2500   -21.9583     6.6570     9.0403   145.6262
  459.0000  -999.2500   -21.9655     6.6115     8.9606   144.9478
  459.5000  -999.2500   -21.9727     6.7135     8.9448   143.4605
  460.0000  -999.2500   -21.9800     6.8212     9.0035   141.9732
  460.5000  -999.2500   -21.9872     6.9281     9.1201   140.4858
  461.0000  -999.2500   -21.9879     7.0356     9.3140   138.9985
  461.5000  -999.2500   -21.9757     7.1428     9.3151   137.5112
  462.0000  -999.2500   -21.9634     7.2502     9.3137   136.0239
  462.5000  -999.2500   -21.9512     7.3575     9.3756   134.5365
  463.0000  -999.2500   -21.9390     7.4646     9.4385   133.0492
  463.5000  -999.2500   -21.9268     7.5722     9.5044   131.5619
  464.0000  -999.2500   -21.9146     7.6792     9.5719   130.0746
  464.5000  -999.2500   -21.9023     7.7869     9.8312   128.5872
  465.0000  -999.2500   -21.8902     7.9019    10.2872   127.5458
  465.5000  -999.2500   -21.8779     7.8626    10.3877   127.1051
  466.0000  -999.2500   -21.8657     7.8190    10.3867   126.6645
  466.5000  -999.2500   -21.8534     7.7764    10.3875   126.2238
  467.0000  -999.2500   -21.8413     7.7329    10.3871   125.7455
  467.5000  -999.2500   -21.8289     7.6904    10.3873   126.3502
  468.0000  -999.2500   -21.8168     7.6469    10.3874   127.0113
  468.5000  -999.2500   -21.8045     7.6043    10.0807   127.7336
  469.0000  -999.2500   -21.7950     7.5610     9.7123   129.0830
  469.5000  -999.2500   -21.8165     7.5183     9.6219   130.5703
  470.0000  -999.2500   -21.8344     7.4750     9.5140   132.0576
  470.5000  -999.2500   -21.8520     7.4322     9.5993   133.6978
  471.0000  -999.2500   -21.8700     7.4061     9.6972   133.5001
  471.5000  -999.2500   -21.8876     7.4064     9.7919   133.2798
  472.0000  -999.2500   -21.9056     7.4063     9.8325   133.0594
  472.5000  -999.2500   -21.9231     7.4505     9.8191   132.8391
  473.0000  -999.2500   -21.9411     7.5637     9.8079   131.8795
  473.5000  -999.2500   -21.9587     7.6771     9.7913   129.7438
  474.0000  -999.2500   -21.9767     7.8038     9.9331   127.6082
  474.5000  -999.2500   -21.9918     7.9397    10.2882   125.4725
  475.0000  -999.2500   -21.9625     8.0937    10.3893   123.3369
  475.5000  -999.2500   -21.9362     8.2480    10.5265   121.2012
  476.0000  -999.2500   -21.9104     8.4019    10.6866   119.0656
  476.5000  -999.2500   -21.8841     8.5674    10.8435   116.9300
  477.0000  -999.2500   -21.8582     8.7511    11.0033   114.7943
  477.5000  -999.2500   -21.8319     8.9354    11.1605   112.6587
  478.0000  -999.2500   -21.8061     9.1191    11.3202   110.5230
  478.5000  -999.2500   -21.7798     9.3035    11.4776   108.3874
  479.0000  -999.2500   -21.7540     9.4871    11.6551   106.2517
  479.5000  -999.2500   -21.7276     9.6717    11.8626   104.1161
  480.0000  -999.2500   -21.7018     9.8441    12.0724   101.9804
  480.5000  -999.2500   -21.6754     9.9971    12.2797    99.8448
  481.0000  -999.2500   -21.6496    10.1489    12.4897    97.7091
  481.5000  -999.2500   -21.6233    10.3021    12.6975    95.5735
  482.0000  -999.2500   -21.5980    10.4538    12.9071    93.4378
  482.5000  -999.2500   -21.6447    10.6070    13.1149    90.9543
  483.0000  -999.2500   -21.6910    10.7841    13.3245    90.4800
  483.5000  -999.2500   -21.7367    10.7976    13.5674    89.9134
  484.0000  -999.2500   -21.7830    10.8123    13.4627    89.3468
  484.5000  -999.2500   -21.8288    10.8282    13.3350    88.9662
  485.0000  -999.2500   -21.8750    10.8430    13.2090    88.9662
  485.5000  -999.2500   -21.9208    10.8587    13.0814    89.3711
  486.0000  -999.2500   -21.9670    10.8737    12.9552    90.6236
  486.5000  -999.2500   -21.9919    10.8764    12.8277    91.8761
  487.0000  -999.2500   -21.9920    10.8515    12.7014    93.1286
  487.5000  -999.2500   -21.9919    10.8269    12.5741    94.3811
  488.0000  -999.2500   -21.9839    10.8021    12.4477    95.6336
  488.5000  -999.2500   -21.9652    10.7444    12.3205    96.8860
  489.0000  -999.2500   -21.9466    10.6121    12.1941    98.1385
  489.5000  -999.2500   -21.9279    10.4804    12.0668    99.3910
  490.0000  -999.2500   -21.9093    10.3875    11.9865   100.8946
  490.5000  -999.2500   -21.8906    10.4873    12.0127   100.4718
  491.0000  -999.2500   -21.8721    10.6103    12.0394    99.9430
  491.5000  -999.2500   -21.8534    10.7352    12.0658    99.4142
  492.0000  -999.2500   -21.8349    10.8839    12.0922    98.8854
  492.5000  -999.2500   -21.8161    10.8854    12.1186    98.3565
  493.0000  -999.2500   -21.7949    10.8838    12.1449    97.8277
  493.5000  -999.2500   -21.7670    10.8855    12.1772    97.2989
  494.0000  -999.2500   -21.7345    10.8837    12.0607    97.2664
  494.5000  -999.2500   -21.7017    10.6868    11.8791    98.5058
  495.0000  -999.2500   -21.6693    10.2092    11.8650    99.7453
  495.5000  -999.2500   -21.6365    10.2092    11.8028   100.9847
  496.0000  -999.2500   -21.5978    10.2092    11.7032   108.2089
  496.5000  -999.2500   -21.8141    10.1685    11.5538   109.3376
  497.0000  -999.2500   -21.8481    10.0377    11.5040   110.4662
  497.5000  -999.2500   -21.8822     9.9068    11.3048   111.5948
  498.0000  -999.2500   -21.9163     9.7759    11.2444   112.7234
