~VERSION INFORMATION
 VERS.                2.0:   CWLS LOG ASCII STANDARD - VERSION 2.0
 WRAP.                 NO:   ONE LINE PER DEPTH STEP
~WELL INFORMATION
#MNEM.UNIT      DATA TYPE    INFORMATION
#----------   ------------   ------------------------------
 STRT.F           28.0000:   START DEPTH
 STOP.F          630.0000:   STOP DEPTH
 STEP.F            0.5000:   STEP LENGTH
 NULL.          -999.2500:   NO VALUE
 COMP. FENIX & SCISSON INC:   COMPANY
 WELL. NAVAL PETROLEUM RESERVE 3 SX-1 #81-15:   WELL
 FLD .             TEAPOT:   FIELD
 LOC .      S15 T38N R78W:   LOCATION
 CNTY.            NATRONA:   COUNTY
 STAT.            WYOMING:   STATE
 CTRY. UNITED STATES OF AMERICA:   COUNTRY
 SRVC.           BIRDWELL:   SERVICE COMPANY
 DATE.        03-JUN-1978:   LOGDATE
 API .       490251063900:   API NUMBER
~CURVE INFORMATION
#MNEM.UNIT       API CODE    CURVE DESCRIPTION
#----------   ------------   ------------------------------
 DEPT.F                  :   
 SPR .MV     05 010 01 00:   SPONTANEOUS POTENTIAL FROM RES.
 SN  .OHMM   05 040 16 00:   SHORT NORMAL 16"
 ILD .OHMM   05 120 46 00:   INDUCTION LOG DEEP
 CALD.IN     45 280 60 00:   CALIPER FROM DENSITY LOG
 GRD .GAPI   45 310 01 00:   GAMMA RAY FROM DENSITY LOG
 CORR.G/C3   45 356 01 00:   DENSITY CORRECTION
 DPHI.DEC    45 890 12 00:   DENSITY POROSITY SANDSTONE
 DEN .G/C3   45 350 01 00:   COMPENSATED BULK DENSITY
~PARAMETER INFORMATION
#MNEM.UNIT          VALUE    DESCRIPTION
#----------   ------------   ------------------------------
 PD  .                 GL:   PERMANENT DATUM
 EPD .F              5263:   ELEVATION PERMANENT DATUM
 LMF .                 KB:   LOG MEASURED FROM
 DAPD.F                 4:   FEET ABOVE PERMANENT DATUM
 DMF .                 KB:   DRILLING MEASURED FROM
 EKB .F              5267:   KELLING BUSHING
 EGL .F              5263:   GROUND LEVEL
 DATE.        03-JUN-1978:   RUN DATE
 RUN .                  1:   RUN NUMBER
 DD  .F               632:   DEPTH DRILLER
 DL  .F               636:   DEPTH LOGGER
 BLI .F               630:   BOTTOM LOG INTERVAL
 TLI .F                40:   TOP LOG INTERVAL
 CS  .IN            8.625:   CASING SIZE
 CBD .F                40:   CASING BOTTOM DRILLER
 CBL .F                40:   CASING BOTTOM LOGGER
 BS  .IN            7.875:   BIT SIZE
 BSD .F               632:   BIT SIZE AT DEPTH
 DFT .                KCL:   DRILLING FLUID TYPE
 DFD .                8.7:   DRILLING FLUID DENSITY
 DFV .                 31:   DRILLING FLUID VISCOSITY
 DFPH.                 10:   DRILLING FLUID PH
 DFL .                9.2:   DRILLING FLUID LOSS
 MSS .           FLOWLINE:   MUD SAMPLE SOURCE
 RMS .OHMM            .26:   RESISTIVITY MUD SAMPLE
 MST .F                66:   MUD SAMPLE TEMPERATURE
 RMF .OHMM            .24:   RESISTIVITY MUD FILTRATE SAMPLE
 MFST.F                74:   MUD FILTRATE SAMPLE TEMPERATURE
 RMC .OHMM            .34:   RESISTIVITY MUD CAKE
 MCST.F                75:   MUD CAKE SAMPLE TEMPERATURE
 MFSS.               MEAS:   MUD FILTRATE SAMPLE SOURCE
 MCSS.               MEAS:   MUD CAKE SAMPLE SOURCE
 RMB .OHMM            .23:   RESISTIVITY MUD AT BHT
 BHT .F                74:   BOTTOM HOLE TEMPERATURE
 TCS .HRS            0100:   TIME CURCULATED STOPPED
 MRT .F                74:   MAXIMUM RECORDED TEMPERATURE
 LUN .               2958:   LOGGING UNIT NUMBER
 LUL .               CASP:   LOGGING UNIT LOCATION
 ENGI.             MILLER:   RECORDING ENGINEER
 WITN.           MCGINLEY:   WITNESSED BY
 CLNT.            A2DTECH:   CLIENT CODE
 ORIG.           5" PRINT:   ORIGIN OF DATA
 UWI .       490251063900:   UNIQUE WELL ID
 DICO. A2D Technologies, Inc.:   DIGITIZING COMPANY
~OTHER INFORMATION
~A   DEPT      SPR         SN        ILD       CALD         GRD      CORR       DPHI        DEN   
# ...
  595.0000   -21.7275    12.1979    13.7120     8.4801    67.4926     0.0516     0.0955     2.5188
  595.5000   -21.7318    12.1930    13.8027     8.4488    68.0867     0.0514     0.0995     2.5133
  596.0000   -21.7361    12.1880    13.7029     8.4325    68.5281     0.0526     0.1026     2.5048
  596.5000   -21.8906    12.0980    13.6983     8.4163    66.2215     0.0524     0.1041     2.5025
  597.0000   -21.7447    12.0931    13.6936     8.4153    65.7469     0.0537     0.1045     2.5024
  597.5000   -21.7492    12.0883    13.6880     8.4297    67.8677     0.0550     0.1054     2.5023
  598.0000   -21.7545    12.0001    13.6835     8.4284    68.6187     0.0547     0.1055     2.5022
  598.5000   -21.7588    11.9953    13.6789     8.4273    62.3384     0.0561     0.1046     2.5021
  599.0000   -21.9133    11.9055    13.6743     8.4263    61.8638     0.0558     0.1043     2.5020
  599.5000   -21.9176    11.7380    13.6698     8.4406    61.8473     0.0556     0.1031     2.5020
  600.0000   -21.9219    11.7340    13.6652     8.4764    61.9834     0.0554     0.1059     2.4932
  600.5000   -21.9369    11.7273    13.5917     8.5152    61.8141     0.0551     0.1078     2.4989
  601.0000   -21.9527    11.7206    13.5580     8.5000    61.1868     0.0549     0.1056     2.4998
  601.5000   -21.9692    11.7127    13.4575     8.5000    58.1127     0.0517     0.1019     2.5028
  602.0000   -22.1325    11.7067    13.4520     8.5152    58.7068     0.0500     0.0988     2.5095
  602.5000   -22.2991    11.6993    13.4451     8.5152    58.0796     0.0498     0.0988     2.5125
  603.0000   -22.4625    11.6933    13.3469     8.5152    54.8569     0.0495     0.0998     2.5094
  603.5000   -22.4789    11.6052    13.3401     8.4697    54.5432     0.0493     0.0989     2.5116
  604.0000   -22.4954    11.5993    13.2426     8.4394    56.8085     0.0446     0.0983     2.5176
  604.5000   -22.5097    11.5119    13.1445     8.4242    59.2346     0.0337     0.0978     2.5175
  605.0000   -22.5251    11.4267    13.0484     8.4242    62.2715     0.0290     0.1027     2.5098
  605.5000   -22.5383    11.3406    12.8633     8.4242    63.4763     0.0303     0.1064     2.4938
  606.0000   -22.5548    11.1789    12.7684     8.4242    61.0170     0.0346     0.1021     2.4975
  606.5000   -22.5690    11.0181    12.5864     8.4394    59.1683     0.0376     0.0991     2.5088
  607.0000   -22.4354    10.9322    12.4082     8.4394    60.2205     0.0464     0.1037     2.4928
  607.5000   -22.4474    10.7792    12.2312     8.4403    61.8833     0.0539     0.0968     2.5106
  608.0000   -22.4650    10.6980    12.1419     8.4414    62.1762     0.0599     0.0950     2.5230
  608.5000   -22.3259    10.6925    11.9687     8.4426    59.4115     0.0654     0.0954     2.5165
  609.0000   -22.3434    10.5387    11.7989     8.4438    61.6809     0.0652     0.0920     2.5145
  609.5000   -22.3577    10.4607    11.6310     8.4450    63.8017     0.0650     0.0906     2.5239
  610.0000   -22.3742    10.4540    11.5457     8.4462    64.5527     0.0526     0.0934     2.5264
  610.5000   -22.3874    10.3766    11.3814     8.4474    64.9941     0.0463     0.1028     2.5142
  611.0000   -22.4028    10.2273    11.2202     8.4486    63.9005     0.0461     0.1004     2.5020
  611.5000   -22.4192    10.1516    11.0603     8.4498    63.2733     0.0459     0.1053     2.5102
  612.0000   -22.4335    10.0751    10.9744     8.4510    63.1040     0.0457     0.1029     2.4957
  612.5000   -22.5991    10.0005    10.8229     8.4522    63.2484     0.0440     0.0993     2.5070
  613.0000   -22.6155     9.9251    10.6686     8.4534    63.8342     0.0438     0.1006     2.5092
  613.5000   -22.6298     9.8516    10.5907     8.4545    65.0390     0.0436     0.1021     2.5099
  614.0000   -22.6441     9.7774    10.4396     8.4545    66.0912     0.0449     0.1028     2.5098
  614.5000   -22.6584     9.7050    10.3634     8.4545    69.2807     0.0447     0.1019     2.5105
  615.0000   -22.6727     9.5654    10.2156     8.4545    67.4321     0.0475     0.1019     2.5096
  615.5000   -22.6903     9.5586    10.1409     8.4545    65.1254     0.0549     0.1017     2.5094
  616.0000   -22.7045     9.4885     9.9964     8.4545    63.5821     0.0562     0.1011     2.5102
  616.5000   -22.7199     9.4140     9.9233     8.4545    63.1117     0.0560     0.1002     2.5193
  617.0000   -22.7342     9.2827     9.9882     8.4545    65.0757     0.0538     0.0988     2.5253
  617.5000   -22.7496     9.2128     9.9831     8.4545    67.5060     0.0479     0.0964     2.5183
  618.0000   -22.7650     9.1445     9.7054     8.4545    67.3326     0.0477     0.0998     2.5160
  618.5000   -22.7792     9.1387     9.4364     8.4697    66.7054     0.0475     0.0986     2.5189
  619.0000   -22.7935     9.0710     9.2376     8.4848    68.5209     0.0473     0.0961     2.5189
  619.5000   -22.6566     9.0027     9.0440     8.5000    71.5577     0.0486     0.0938     2.5187
  620.0000   -22.8232     8.9981     8.9770     8.5000    72.3045     0.0499     0.0966     2.5179
  620.5000   -22.8386     8.9303     8.9733     8.5000    68.9250     0.0543     0.0957     2.5188
  621.0000   -22.8550     8.9258     8.9687     8.5000    66.7710     0.0602     0.0945     2.5208
  621.5000   -22.8704     8.7974     9.0283  -999.2500    67.0681     0.0660     0.0940     2.5154
  622.0000   -22.8858     8.6719     8.9605  -999.2500    66.4326     0.0703     0.0916     2.5314
  622.5000   -22.7477     8.5472     8.8336  -999.2500    65.3473     0.0595     0.0889     2.5426
  623.0000   -22.6152     8.4839     8.5879  -999.2500    65.1780     0.0471     0.0977     2.5364
  623.5000   -22.6276     8.4200     8.4663  -999.2500    65.7721     0.0452     0.1041     2.5105
  624.0000   -22.4925     8.3576     8.3456  -999.2500    69.4197     0.0513     0.1078     2.4967
  624.5000   -22.5079     8.2947     8.2846  -999.2500    75.0520     0.0571     0.1024     2.4997
  625.0000   -22.3724     8.2332     8.2232  -999.2500    76.8675     0.0599     0.1049     2.5087
  625.5000   -22.3885     8.2280     8.1631  -999.2500    77.3130     0.0612     0.1052     2.5056
  626.0000   -22.4028     8.1660     8.1027  -999.2500    73.0175     0.0595     0.1043     2.5040
  626.5000   -22.2658     8.1618     8.0993  -999.2500    70.4097     0.0578     0.1032     2.5062
  627.0000   -22.2845     8.1003     8.0952  -999.2500    79.8670     0.0575     0.1055     2.5077
  627.5000   -22.1464     8.0962     8.0918  -999.2500  -999.2500     0.0588     0.1130     2.5045
  628.0000   -22.1629     8.0910     8.1448  -999.2500  -999.2500     0.0617     0.1100     2.4953
  628.5000   -22.1794     8.1442     8.4266  -999.2500  -999.2500     0.0493     0.1042     2.5051
  629.0000   -22.1926     8.3676     8.6381  -999.2500  -999.2500     0.0491     0.1003     2.5073
  629.5000   -22.2090  -999.2500  -999.2500  -999.2500  -999.2500     0.0505     0.1007     2.5110
  630.0000   -22.2222  -999.2500  -999.2500  -999.2500  -999.2500     0.0502     0.1000     2.5117
