~VERSION INFORMATION
 VERS.                2.0:   CWLS LOG ASCII STANDARD - VERSION 2.0
 WRAP.                 NO:   ONE LINE PER DEPTH STEP
~WELL INFORMATION
#MNEM.UNIT      DATA TYPE    INFORMATION
#----------   ------------   ------------------------------
 STRT.F            0.0000:   START DEPTH
 STOP.F         2694.5000:   STOP DEPTH
 STEP.F            0.5000:   STEP LENGTH
 NULL.          -999.2500:   NO VALUE
 COMP. FENIX & SCISSON INC:   COMPANY
 WELL.       102 A #20-20:   WELL
 FLD .        TEAPOT DOME:   FIELD
 LOC .      S20 T39N R78W:   LOCATION
 CNTY.            NATRONA:   COUNTY
 STAT.            WYOMING:   STATE
 CTRY. UNITED STATES OF AMERICA:   COUNTRY
 SRVC.            Unknown:   SERVICE COMPANY
 DATE.        17-AUG-1965:   LOGDATE
 API .       490251022200:   API NUMBER
~CURVE INFORMATION
#MNEM.UNIT       API CODE    CURVE DESCRIPTION
#----------   ------------   ------------------------------
 DEPT.F                  :   
 CALI.IN     30 280 01 00:   CALIPER FROM GAMMA RAY LOG
 GR  .GAPI   30 310 01 00:   GAMMA RAY
~PARAMETER INFORMATION
#MNEM.UNIT          VALUE    DESCRIPTION
#----------   ------------   ------------------------------
 PD  .                 GL:   PERMANENT DATUM
 LMF .                 GL:   LOG MEASURED FROM
 DMF .                 GL:   DRILLING MEASURED FROM
 DATE.            8-17-65:   RUN DATE
 RUN .                  1:   RUN NUMBER
 DD  .F            2696.5:   DEPTH DRILLER
 DL  .F              2697:   DEPTH LOGGER
 BLI .F              2695:   BOTTOM LOG INTERVAL
 TLI .F              2000:   TOP LOG INTERVAL
 CS  .IN                7:   CASING SIZE
 CBD .F              2678:   CASING BOTTOM DRILLER
 DFT .                OIL:   DRILLING FLUID TYPE
 TCS .HRS               1:   TIME CURCULATED STOPPED
 ENGI.            JACKSON:   RECORDING ENGINEER
 WITN.          JORGENSEN:   WITNESSED BY
 CLNT.            A2DTECH:   CLIENT CODE
 ORIG.           5" PRINT:   ORIGIN OF DATA
 UWI .       490251022200:   UNIQUE WELL ID
 DICO. A2D Technologies, Inc.:   DIGITIZING COMPANY
~OTHER INFORMATION
~A    DEPT      CALI       GR   
# ...
 2430.0000     6.3887   120.1536
 2430.5000     6.4065   127.3440
 2431.0000     6.4668   119.7349
 2431.5000     6.5086   122.8293
 2432.0000     6.4006   123.4807
 2432.5000     6.3963   120.5497
 2433.0000     6.3895   111.0177
 2433.5000     6.3882   114.7364
 2434.0000     6.3981   116.3721
 2434.5000     6.4024   115.2483
 2435.0000     6.3957   110.7393
 2435.5000     6.3894   113.0376
 2436.0000     6.3903   116.3896
 2436.5000     6.4038   116.8960
 2437.0000     6.3996   117.1337
 2437.5000     6.3954   116.3067
 2438.0000     6.4062   113.1476
 2438.5000     6.4222   115.2208
 2439.0000     6.4147   115.8718
 2439.5000     6.4038   114.5701
 2440.0000     6.3930   118.9922
 2440.5000     6.3846   115.4560
 2441.0000     6.3848   117.2878
 2441.5000     6.3824   115.7169
 2442.0000     6.3841   120.6006
 2442.5000     6.4044   122.7085
 2443.0000     6.4133   124.2070
 2443.5000     6.4037   119.6293
 2444.0000     6.3903   120.8026
 2444.5000     6.4086   124.2578
 2445.0000     6.4118   120.0162
 2445.5000     6.3956   108.3527
 2446.0000     6.4064   104.6604
 2446.5000     6.4147   102.6730
 2447.0000     6.4144    97.7505
 2447.5000     6.4140    90.9146
 2448.0000     6.3974    93.3007
 2448.5000     6.3890    94.0211
 2449.0000     6.4048    92.5278
 2449.5000     6.4200    91.4748
 2450.0000     6.4342    98.2478
 2450.5000     6.4572    97.6739
 2451.0000     6.4784    98.8403
 2451.5000     6.4565    99.0340
 2452.0000     6.4176   100.0279
 2452.5000     6.4076    98.9528
 2453.0000     6.4117    97.0961
 2453.5000     6.4160   100.5997
 2454.0000     6.4199   101.4787
 2454.5000     6.4253   102.5856
 2455.0000     6.4375    98.4798
 2455.5000     6.4255    98.3095
 2456.0000     6.4146   101.6724
 2456.5000     6.4170   103.1285
 2457.0000     6.4195   101.0053
 2457.5000     6.4220    96.8719
 2458.0000     6.4238    93.5700
 2458.5000     6.4146    94.6518
 2459.0000     6.4143    91.1723
 2459.5000     6.4143    89.7917
 2460.0000     6.4144    91.2558
 2460.5000     6.4241    93.2448
 2461.0000     6.4356    90.3861
 2461.5000     6.4483    86.8088
 2462.0000     6.4203    91.3547
 2462.5000     6.4046    96.6468
 2463.0000     6.4043    98.4816
 2463.5000     6.4045    95.7294
 2464.0000     6.4061    96.8520
 2464.5000     6.4096    94.9927
 2465.0000     6.4131    96.6708
 2465.5000     6.4101    95.1560
 2466.0000     6.4058    93.7948
 2466.5000     6.4384   101.2261
 2467.0000     6.4414   107.4236
 2467.5000     6.4385   110.3057
 2468.0000     6.4355   110.9897
 2468.5000     6.4325   114.4083
 2469.0000     6.4293   110.8136
 2469.5000     6.4267   113.1502
 2470.0000     6.4351   115.3449
 2470.5000     6.4392   113.5501
 2471.0000     6.4703   110.4476
 2471.5000     6.4258   108.2314
 2472.0000     6.4200   118.3942
 2472.5000     6.4573   120.9529
 2473.0000     6.4573   116.0601
 2473.5000     6.4500   117.2212
 2474.0000     6.4437   117.4151
 2474.5000     6.4439   118.9120
 2475.0000     6.4439   119.4611
 2475.5000     6.4439   117.2933
 2476.0000     6.4439   116.0133
 2476.5000     6.4439   118.1569
 2477.0000     6.4439   120.6394
 2477.5000     6.4439   121.5191
 2478.0000     6.4439   120.5898
 2478.5000     6.4439   118.9254
 2479.0000     6.4438   109.2453
 2479.5000     6.4442   100.0852
 2480.0000     6.4537    98.7419
 2480.5000     6.4624    98.0287
 2481.0000     6.4320    98.6038
 2481.5000     6.4059   100.1264
 2482.0000     6.4204    98.6733
 2482.5000     6.4334   102.0358
 2483.0000     6.4225    99.1896
 2483.5000     6.4101   100.3118
 2484.0000     6.4280    99.2464
 2484.5000     6.4543    92.9078
 2485.0000     6.4536    94.3930
 2485.5000     6.4537    94.5496
 2486.0000     6.4538    97.3394
 2486.5000     6.4528    99.4721
 2487.0000     6.4512   100.0824
 2487.5000     6.4496   101.4697
 2488.0000     6.4479   105.2145
 2488.5000     6.4463   103.9288
 2489.0000     6.4447   108.2352
 2489.5000     6.4516   111.0088
 2490.0000     6.4655   107.6192
 2490.5000     6.4805   108.9466
 2491.0000     6.4974   114.3260
 2491.5000     6.5373   117.8765
 2492.0000     6.4586   119.3794
 2492.5000     6.4327   125.4783
 2493.0000     6.4195   131.5203
 2493.5000     6.4108   136.1003
 2494.0000     6.4109   142.0302
 2494.5000     6.4342   146.1261
 2495.0000     6.4522   146.6199
 2495.5000     6.4401   152.8141
 2496.0000     6.4276   157.9366
 2496.5000     6.4157   161.4485
 2497.0000     6.4265   156.5021
 2497.5000     6.4385   153.5080
 2498.0000     6.4516   153.8925
 2498.5000     6.4300   151.1174
 2499.0000     6.4181   144.9839
 2499.5000     6.4092   145.6904
 2500.0000     6.4005   139.5610
 2500.5000     6.3918   128.2941
 2501.0000     6.3830   118.5172
 2501.5000     6.3745   113.7664
 2502.0000     6.3678   114.8377
 2502.5000     6.3907   114.6541
 2503.0000     6.4046   116.1933
 2503.5000     6.4036   115.1777
 2504.0000     6.3787   115.3998
 2504.5000     6.3874   115.8125
 2505.0000     6.4019   119.9239
 2505.5000     6.4045   121.6083
 2506.0000     6.4046   118.7980
 2506.5000     6.4046   117.8145
 2507.0000     6.4045   117.2864
 2507.5000     6.4041   111.9561
 2508.0000     6.4193   102.2539
 2508.5000     6.4378   103.1845
 2509.0000     6.4544   103.8872
 2509.5000     6.4536   104.4074
 2510.0000     6.4438   106.1248
 2510.5000     6.4334   110.8814
 2511.0000     6.4264   109.4093
 2511.5000     6.4529   106.6444
 2512.0000     6.5084   110.1645
 2512.5000     6.4920   114.8198
 2513.0000     6.4537   115.3677
 2513.5000     6.4380   114.0779
 2514.0000     6.4364   113.9681
 2514.5000     6.4395   118.2961
 2515.0000     6.4427   121.5710
 2515.5000     6.4531   114.7577
 2516.0000     6.4671   106.9498
 2516.5000     6.4815   102.7430
 2517.0000     6.4697   107.9675
 2517.5000     6.4538   111.7824
 2518.0000     6.4474   114.9069
 2518.5000     6.4556   109.7726
 2519.0000     6.4630   110.7172
 2519.5000     6.4498   109.1498
 2520.0000     6.4449   123.5498
 2520.5000     6.4472   133.3669
 2521.0000     6.4496   147.6301
 2521.5000     6.4520   145.3954
 2522.0000     6.4543   139.4052
 2522.5000     6.4567   141.5028
 2523.0000     6.4591   146.8926
 2523.5000     6.4615   154.2056
 2524.0000     6.4643   157.8527
 2524.5000     6.4704   165.7537
 2525.0000     6.4716   170.1052
 2525.5000     6.4681   165.3670
 2526.0000     6.4649   167.2341
 2526.5000     6.4446   169.5551
 2527.0000     6.4522   174.8051
 2527.5000     6.4250   179.4467
 2528.0000     6.4327   175.5400
 2528.5000     6.4526   173.1747
 2529.0000     6.4730   179.9949
 2529.5000     6.4765   174.4752
 2530.0000     6.4908   167.1602
 2530.5000     6.4876   158.6268
 2531.0000     6.4789   156.2055
 2531.5000     6.4783   155.1219
 2532.0000     6.4907   154.7701
 2532.5000     6.5028   160.7092
 2533.0000     6.5149   161.3621
 2533.5000     6.5130   156.8493
 2534.0000     6.4563   154.5123
 2534.5000     6.4455   152.5584
 2535.0000     6.4602   156.7012
 2535.5000     6.4453   162.5963
 2536.0000     6.4253   164.1305
 2536.5000     6.4325   151.7988
 2537.0000     6.4401   154.6039
 2537.5000     6.4376   153.6406
 2538.0000     6.4256   160.8608
 2538.5000     6.4291   166.6225
 2539.0000     6.4335   163.9874
 2539.5000     6.4212   154.0906
 2540.0000     6.4175   156.7930
 2540.5000     6.4239   154.9756
 2541.0000     6.4303   152.8837
 2541.5000     6.4286   169.3845
 2542.0000     6.4159   181.0184
 2542.5000     6.4295   176.1504
 2543.0000     6.4421   175.2335
 2543.5000     6.4304   184.2131
 2544.0000     6.4156   182.8452
 2544.5000     6.4323   180.4212
 2545.0000     6.4440   175.5060
 2545.5000     6.4437   175.5465
 2546.0000     6.4287   172.8138
 2546.5000     6.4430   162.1109
 2547.0000     6.4560   149.5633
 2547.5000     6.4636   142.4983
 2548.0000     6.4710   135.9090
 2548.5000     6.4781   129.3194
 2549.0000     6.4788   125.7985
 2549.5000     6.4615   123.8701
 2550.0000     6.4448   127.3369
 2550.5000     6.4735   130.1867
 2551.0000     6.4637   129.1320
