~VERSION INFORMATION
 VERS.                2.0:   CWLS LOG ASCII STANDARD - VERSION 2.0
 WRAP.                 NO:   ONE LINE PER DEPTH STEP
~WELL INFORMATION
#MNEM.UNIT      DATA TYPE    INFORMATION
#----------   ------------   ------------------------------
 STRT.F           38.0000:   START DEPTH
 STOP.F          517.0000:   STOP DEPTH
 STEP.F            0.5000:   STEP LENGTH
 NULL.          -999.2500:   NO VALUE
 COMP. FENIX & SCISSON U.S. NAVY:   COMPANY
 WELL.     NPR 3 #88 S -3:   WELL
 FLD .             TEAPOT:   FIELD
 LOC .       S3 T38N R78W:   LOCATION
 CNTY.            NATRONA:   COUNTY
 STAT.            WYOMING:   STATE
 CTRY. UNITED STATES OF AMERICA:   COUNTRY
 SRVC.              Welex:   SERVICE COMPANY
 DATE.        10-APR-1977:   LOGDATE
 API .       490251033000:   API NUMBER
~CURVE INFORMATION
#MNEM.UNIT       API CODE    CURVE DESCRIPTION
#----------   ------------   ------------------------------
 DEPT.F                  :   
 GRD .GAPI   45 310 01 00:   GAMMA RAY FROM DENSITY LOG
 CALD.IN     45 280 60 00:   CALIPER FROM DENSITY LOG
 CORR.G/C3   45 356 01 00:   DENSITY CORRECTION
 RHOB.G/C3   45 350 01 00:   BULK DENSITY
 DPHI.DEC    45 890 12 00:   DENSITY POROSITY SANDSTONE
 SPR .MV     07 010 01 00:   SPONTANEOUS POTENTIAL
 ILD .OHMM   07 120 46 00:   INDUCTION LOG DEEP
 ILM .OHMM   07 120 44 00:   INDUCTION LOG MEDIUM
 SGRD.OHMM   07 221 05 00:   SHALLOW SHORT GUARD RESISTIVITY
~PARAMETER INFORMATION
#MNEM.UNIT          VALUE    DESCRIPTION
#----------   ------------   ------------------------------
 PD  .                 GL:   PERMANENT DATUM
 EPD .F              5120:   ELEVATION PERMANENT DATUM
 LMF .                 GL:   LOG MEASURED FROM
 DMF .                 GL:   DRILLING MEASURED FROM
 EGL .F              5120:   GROUND LEVEL
 DATE.        10-APR-1977:   RUN DATE
 RUN .                  1:   RUN NUMBER
 DD  .F               520:   DEPTH DRILLER
 DL  .F               519:   DEPTH LOGGER
 BLI .F               517:   BOTTOM LOG INTERVAL
 TLI .F                40:   TOP LOG INTERVAL
 CS  .IN            8.625:   CASING SIZE
 CBD .F                40:   CASING BOTTOM DRILLER
 CBL .F                42:   CASING BOTTOM LOGGER
 BS  .IN            7.875:   BIT SIZE
 BSD .F               520:   BIT SIZE AT DEPTH
 DFT .           KCL- GEL:   DRILLING FLUID TYPE
 DFD .                8.8:   DRILLING FLUID DENSITY
 DFV .                 38:   DRILLING FLUID VISCOSITY
 DFPH.                8.0:   DRILLING FLUID PH
 DFL .                6.4:   DRILLING FLUID LOSS
 MSS .            MUD PIT:   MUD SAMPLE SOURCE
 RMS .OHMM            .28:   RESISTIVITY MUD SAMPLE
 MST .F                55:   MUD SAMPLE TEMPERATURE
 RMF .OHMM            .23:   RESISTIVITY MUD FILTRATE SAMPLE
 MFST.F                55:   MUD FILTRATE SAMPLE TEMPERATURE
 RMC .OHMM            .32:   RESISTIVITY MUD CAKE
 MCST.F                55:   MUD CAKE SAMPLE TEMPERATURE
 MFSS.               MEAS:   MUD FILTRATE SAMPLE SOURCE
 MCSS.               MEAS:   MUD CAKE SAMPLE SOURCE
 RMB .OHMM            .24:   RESISTIVITY MUD AT BHT
 BHT .F                65:   BOTTOM HOLE TEMPERATURE
 TCS .HRS            0300:   TIME CURCULATED STOPPED
 MRT .F                65:   MAXIMUM RECORDED TEMPERATURE
 LUN .               0716:   LOGGING UNIT NUMBER
 LUL .             VERNAL:   LOGGING UNIT LOCATION
 ENGI.        E. CALLAHAN:   RECORDING ENGINEER
 WITN.            R. LYON:   WITNESSED BY
 CLNT.            A2DTECH:   CLIENT CODE
 ORIG.           5" PRINT:   ORIGIN OF DATA
 UWI .       490251033000:   UNIQUE WELL ID
 DICO. A2D Technologies, Inc.:   DIGITIZING COMPANY
~OTHER INFORMATION
~A   DEPT       GRD        CALD     CORR         RHOB     DPHI        SPR        ILD        ILM       SGRD   
# ...
  403.0000    88.2489     7.8607     0.0269     2.3595     0.1710   -25.0976    26.7291    30.9514    54.8756
  403.5000    88.2653     7.8624     0.0241     2.3438     0.1827   -25.1182    25.4296    26.1570    44.4814
  404.0000    88.5798     7.8640     0.0212     2.3334     0.1893   -24.9800    24.7046    21.3479    39.7529
  404.5000    88.8942     7.8656     0.0213     2.3417     0.1860   -25.1512    24.1635    18.2944    37.3041
  405.0000    89.3577     7.8673     0.0229     2.3425     0.1844   -25.1677    23.1428    17.2894    37.5416
  405.5000    89.9702     7.8689     0.0245     2.3351     0.1865   -25.1842    22.3204    21.5849    38.5633
  406.0000    90.5827     7.8706     0.0277     2.3306     0.1895   -25.2007    21.8517    22.3344    40.7415
  406.5000    91.3442     7.8722     0.0323     2.3307     0.1910   -25.0625    21.6772    24.4238    41.0010
  407.0000    92.1057     7.8589     0.0354     2.3368     0.1883   -25.0831    21.4998    25.4488    40.6739
  407.5000    92.7183     7.8606     0.0355     2.3496     0.1816   -25.0996    21.3283    24.3766    39.5223
  408.0000    93.3308     7.8622     0.0341     2.3557     0.1780   -25.2667    21.1582    25.7500    38.6721
  408.5000    93.9433     7.8638     0.0343     2.3535     0.1786   -25.2832    20.9895    26.0926    38.3715
  409.0000    94.4067     7.8506     0.0329     2.3446     0.1812   -25.2997    20.8221    22.6690    38.3396
  409.5000    95.0192     7.8522     0.0315     2.3446     0.1833   -25.3162    20.6560    22.4951    38.0416
  410.0000    95.4827     7.8389     0.0286     2.3496     0.1824   -25.3327    20.4912    24.4345    37.4836
  410.5000    95.5011     7.8406     0.0250     2.3414     0.1845   -25.3492    20.1866    22.9206    37.1923
  411.0000    95.3685     7.8422     0.0222     2.3298     0.1908   -25.3657    19.8864    24.0437    37.1614
  411.5000    94.3417     7.8289     0.0192     2.3217     0.1967   -25.2275    19.7278    22.8763    37.3903
  412.0000    91.6754     7.8306     0.0171     2.3281     0.1958   -24.9469    19.7074    24.8486    37.0996
  412.5000    89.8290     7.8322     0.0143     2.3364     0.1892   -24.8087    19.6870    24.4808    36.8113
  413.0000    87.2373     7.8338     0.0144     2.3267     0.1943   -24.9799    19.6666    22.6515    37.8348
  413.5000    83.3788     7.8355     0.0145     2.3238     0.1954   -25.2976    19.3742    22.4723    39.4039
  414.0000    80.7127     7.8371     0.0146     2.3287     0.1894   -25.4647    19.2197    22.9251    39.0969
  414.5000    78.2700     7.8388     0.0200     2.3393     0.1849   -25.7824    19.1998    24.0484    38.1712
  415.0000    76.5725     7.8404     0.0246     2.3506     0.1801   -25.9495    19.1799    26.1218    35.8656
  415.5000    74.8750     7.8570     0.0300     2.3594     0.1755   -25.9660    19.1601    27.2114    34.5632
  416.0000    71.5383     7.8586     0.0338     2.3654     0.1725   -26.1331    19.1402    25.1544    32.8349
  416.5000    69.6917     7.8602     0.0324     2.3696     0.1704   -26.3002    18.9876    23.4266    27.8555
  417.0000    69.1120     7.8619     0.0280     2.3633     0.1731   -26.4673    18.7051    22.0115    24.3791
  417.5000    69.6500     7.8635     0.0252     2.3570     0.1751   -26.6344    18.5472    26.2070    29.4044
  418.0000    71.0076     7.8652     0.0245     2.3567     0.1739   -26.8015    18.2662    26.1459    34.4902
  418.5000    71.7691     7.8668     0.0247     2.3620     0.1727   -27.2698    18.1337    25.4022    34.9527
  419.0000    71.7111     7.8684     0.0248     2.3579     0.1733   -27.5875    17.8639    24.0008    32.5649
  419.5000    71.1313     7.8552     0.0226     2.3602     0.1735   -27.9052    17.3509    20.0022    30.5588
  420.0000    70.9986     7.8568     0.0198     2.3686     0.1714   -28.0723    16.8563    21.7267    30.9686
  420.5000    71.6857     7.8435     0.0169     2.3664     0.1720   -28.0889    16.4903    23.2730    30.5081
  421.0000    73.0434     7.8452     0.0140     2.3552     0.1759   -28.1054    16.3587    21.9891    29.4384
  421.5000    74.3264     7.8468     0.0112     2.3609     0.1728   -28.2726    16.3418    22.1216    29.0066
  422.0000    75.6841     7.8484     0.0090     2.3640     0.1731   -28.4398    16.2115    23.2112    28.9825
  422.5000    77.9360     7.8501     0.0092     2.3528     0.1785   -28.6069    16.1947    21.3224    28.7572
  423.0000    79.4427     7.8517     0.0115     2.3544     0.1767   -28.7741    16.0655    20.8658    28.9404
  423.5000    80.7258     7.8534     0.0177     2.3695     0.1703   -28.8082    16.0489    20.5520    29.1187
  424.0000    81.1147     7.8401     0.0223     2.3812     0.1592   -28.9578    16.2616    19.8287    28.6856
  424.5000    79.7899     7.8417     0.0261     2.3917     0.1586   -28.9744    16.2406    20.8003    26.9185
  425.0000    79.2102     7.8434     0.0278     2.3963     0.1535   -28.9910    15.8880    20.0682    25.9747
  425.5000    78.8540     7.8450     0.0278     2.3923     0.1537   -29.0076    15.5430    17.4393    25.9531
  426.0000    78.8703     7.8616     0.0280     2.3897     0.1543   -28.8727    15.3119    16.2490    24.6963
  426.5000    79.0358     7.8632     0.0266     2.3879     0.1552   -28.8933    15.1898    16.3469    24.8485
  427.0000    79.3502     7.8648     0.0245     2.3861     0.1573   -28.9098    15.1740    16.5604    25.3526
  427.5000    79.7392     7.8665     0.0208     2.3854     0.1587   -29.0728    15.0530    16.8941    25.3315
  428.0000    80.3516     7.8681     0.0195     2.3873     0.1575   -28.9387    14.9330    15.2018    25.1346
  428.5000    82.2309     7.8698     0.0189     2.4036     0.1494   -28.8087    14.8139    15.0815    24.5939
  429.0000    83.5141     7.8863     0.0182     2.4077     0.1467   -28.8252    14.4922    14.9623    24.0648
  429.5000    83.7540     7.8880     0.0183     2.3999     0.1514   -28.8417    14.2766    14.2358    23.0597
  430.0000    82.5036     7.8896     0.0170     2.3850     0.1541   -29.1594    14.1561    14.1232    22.8804
  430.5000    81.3278     7.9062     0.0133     2.3892     0.1568   -29.7783    14.0391    14.0017    22.8614
  431.0000    81.2695     7.9078     0.0097     2.3945     0.1547   -30.2466    13.9373    13.6129    22.8424
  431.5000    82.1057     7.9244     0.0053     2.3881     0.1573   -30.5643    13.9227    13.8872    22.6627
  432.0000    82.7926     7.9260     0.0016     2.3826     0.1587   -30.7314    13.9054    12.5825    22.3323
  432.5000    83.4796     7.9127     0.0003     2.3925     0.1533   -30.7479    13.6987    12.9259    22.1483
  433.0000    84.1667     7.8845     0.0065     2.4098     0.1420   -30.6097    13.5894    13.0951    21.6677
  433.5000    84.7792     7.8563     0.0118     2.4230     0.1352   -30.6303    13.3874    12.9911    21.0678
  434.0000    85.3172     7.8281     0.0134     2.4299     0.1332   -30.4921    13.1883    12.7988    20.8826
  434.5000    85.7807     7.7999     0.0135     2.4285     0.1347   -30.3579    13.0831    12.3484    20.5972
  435.0000    86.3932     7.8015     0.0137     2.4262     0.1343   -30.2238    12.7990    11.5861    20.4336
  435.5000    87.0056     7.8032     0.0168     2.4334     0.1295   -30.2445    12.5211    11.6559    19.9940
  436.0000    87.4691     7.8197     0.0177     2.4429     0.1240   -30.4116    12.4213    11.3137    19.8386
  436.5000    88.0071     7.8214     0.0117     2.4324     0.1301   -30.4281    12.4084    11.6494    19.6844
  437.0000    88.0981     7.8230     0.0074     2.4171     0.1375   -30.5952    12.3956    11.7853    19.5314
  437.5000    87.6674     7.8247     0.0067     2.4111     0.1423   -30.7623    12.2967    11.5297    19.3796
  438.0000    86.9386     7.8412     0.0069     2.4120     0.1393   -30.9294    12.2840    11.3595    19.2289
  438.5000    86.4333     7.8578     0.0070     2.4244     0.1283   -31.0965    12.2713    11.5856    19.2129
  439.0000    85.7791     7.8744     0.0071     2.4395     0.1245   -31.2636    12.2586    11.6581    19.1970
