~VERSION INFORMATION
 VERS.                2.0:   CWLS LOG ASCII STANDARD - VERSION 2.0
 WRAP.                 NO:   ONE LINE PER DEPTH STEP
~WELL INFORMATION
#MNEM.UNIT      DATA TYPE    INFORMATION
#----------   ------------   ------------------------------
 STRT.F           20.0000:   START DEPTH
 STOP.F          500.0000:   STOP DEPTH
 STEP.F            0.5000:   STEP LENGTH
 NULL.          -999.2500:   NO VALUE
 COMP.    FENIX & SCISSON:   COMPANY
 WELL. RES 3 TEAPOT DOM #81SX10-10:   WELL
 FLD .             TEAPOT:   FIELD
 LOC .      S10 T38N R78W:   LOCATION
 CNTY.            NATRONA:   COUNTY
 STAT.            WYOMING:   STATE
 CTRY. UNITED STATES OF AMERICA:   COUNTRY
 SRVC.           BIRDWELL:   SERVICE COMPANY
 DATE.        22-NOV-1978:   LOGDATE
 API .       490251075100:   API NUMBER
~CURVE INFORMATION
#MNEM.UNIT       API CODE    CURVE DESCRIPTION
#----------   ------------   ------------------------------
 DEPT.F                  :   
 ILD .OHMM   05 120 46 00:   INDUCTION LOG DEEP
 SN  .OHMM   05 040 16 00:   SHORT NORMAL 16"
 SPR .MV     05 010 01 00:   SPONTANEOUS POTENTIAL FROM RES.
 CALD.IN     45 280 60 00:   CALIPER FROM DENSITY LOG
 CORR.G/C3   45 356 01 00:   DENSITY CORRECTION
 DPHI.DEC    45 890 10 00:   DENSITY POROSITY LIMESTONE
 GRD .GAPI   45 310 01 00:   GAMMA RAY FROM DENSITY LOG
 RHOB.G/C3   45 350 01 00:   BULK DENSITY
~PARAMETER INFORMATION
#MNEM.UNIT          VALUE    DESCRIPTION
#----------   ------------   ------------------------------
 PD  .                 GL:   PERMANENT DATUM
 EPD .F              5129:   ELEVATION PERMANENT DATUM
 LMF .                 KB:   LOG MEASURED FROM
 DAPD.F                 4:   FEET ABOVE PERMANENT DATUM
 DMF .                 KB:   DRILLING MEASURED FROM
 EKB .F              5133:   KELLING BUSHING
 EGL .F              5129:   GROUND LEVEL
 DATE.        22-NOV-1978:   RUN DATE
 RUN .                  1:   RUN NUMBER
 DD  .F               500:   DEPTH DRILLER
 DL  .F               500:   DEPTH LOGGER
 BLI .F               500:   BOTTOM LOG INTERVAL
 TLI .F                20:   TOP LOG INTERVAL
 CS  .IN            8.625:   CASING SIZE
 CBD .F                40:   CASING BOTTOM DRILLER
 CBL .F                40:   CASING BOTTOM LOGGER
 BS  .IN            7.875:   BIT SIZE
 BSD .F               500:   BIT SIZE AT DEPTH
 DFT .                KCL:   DRILLING FLUID TYPE
 DFD .                8.7:   DRILLING FLUID DENSITY
 DFV .                 36:   DRILLING FLUID VISCOSITY
 DFPH.               11.2:   DRILLING FLUID PH
 DFL .                 94:   DRILLING FLUID LOSS
 MSS .            MUD PIT:   MUD SAMPLE SOURCE
 RMS .OHMM           0.28:   RESISTIVITY MUD SAMPLE
 MST .F                62:   MUD SAMPLE TEMPERATURE
 RMF .OHMM           0.24:   RESISTIVITY MUD FILTRATE SAMPLE
 MFST.F                66:   MUD FILTRATE SAMPLE TEMPERATURE
 RMC .OHMM           0.31:   RESISTIVITY MUD CAKE
 MCST.F                66:   MUD CAKE SAMPLE TEMPERATURE
 MFSS.               MEAS:   MUD FILTRATE SAMPLE SOURCE
 MCSS.               MEAS:   MUD CAKE SAMPLE SOURCE
 RMB .OHMM            0.3:   RESISTIVITY MUD AT BHT
 BHT .F                58:   BOTTOM HOLE TEMPERATURE
 TCS .HRS               1:   TIME CURCULATED STOPPED
 MRT .F                58:   MAXIMUM RECORDED TEMPERATURE
 LUN .               3029:   LOGGING UNIT NUMBER
 LUL .               CASP:   LOGGING UNIT LOCATION
 ENGI.           REYNOLDS:   RECORDING ENGINEER
 WITN.              AMEND:   WITNESSED BY
 CLNT.            A2DTECH:   CLIENT CODE
 ORIG.           5" PRINT:   ORIGIN OF DATA
 UWI .       490251075100:   UNIQUE WELL ID
 DICO. A2D Technologies, Inc.:   DIGITIZING COMPANY
~OTHER INFORMATION
~A   DEPT      ILD         SN        SPR       CALD       CORR       DPHI         GRD      RHOB   
# ...
  263.0000     7.2154     8.5915   -47.1547     7.5661     0.0075     0.1185   126.5067     2.4932
  263.5000     7.1655     8.6364   -47.5202     7.5479     0.0076     0.1197   127.7061     2.4962
  264.0000     7.0553     8.6340   -47.6102     7.5479     0.0047     0.1230   126.5067     2.4940
  264.5000     7.0668     8.6914   -47.6012     7.5479     0.0017     0.1269   124.1079     2.4802
  265.0000     7.1160     8.7494   -47.4661     7.5479    -0.0012     0.1272   123.8081     2.4752
  265.5000     7.1655     8.7473   -47.1341     7.5479    -0.0019     0.1275   126.5067     2.4767
  266.0000     7.1655     8.7449   -46.8146     7.5629    -0.0011     0.1308   127.7061     2.4692
  266.5000     7.2160     8.7422   -46.4258     7.5629     0.0005     0.1326   128.3058     2.4670
  267.0000     7.3162     8.7399   -46.4288     7.5778     0.0035     0.1287   126.4268     2.4715
  267.5000     7.3671     8.7212   -46.4318     7.5778     0.0051     0.1262   121.4093     2.4715
  268.0000     7.3879     8.6744   -46.5282     7.5778     0.0054     0.1287   129.6552     2.4685
  268.5000     7.4183     8.6124   -46.8901     7.5778     0.0059     0.1331   132.5038     2.4625
  269.0000     7.4700     8.6100   -47.1344     7.5778     0.0053     0.1349   130.4348     2.4595
  269.5000     7.4183     8.6052   -47.6435     7.5778     0.0023     0.1358   126.8066     2.4595
  270.0000     7.3671     8.5327   -47.8561     7.5928     0.0009     0.1352   125.6072     2.4595
  270.5000     7.2591     8.4255   -48.2493     7.5928     0.0025     0.1343   126.6567     2.4617
  271.0000     7.1160     8.3651   -48.3106     7.5928     0.0025     0.1343   129.6552     2.4625
  271.5000     6.9695     8.1860   -48.5049     7.5928     0.0026     0.1367   131.9041     2.4595
  272.0000     6.8259     7.9640   -48.7078     7.5928     0.0026     0.1531   134.0030     2.4422
  272.5000     6.5933     7.6906   -48.8139     7.5928     0.0027     0.1658   133.1035     2.3986
  273.0000     6.4129     7.3752   -48.8636     7.5928     0.0057     0.1682   131.1544     2.4174
  273.5000     6.1943     7.0645   -48.8106     7.5928     0.0118     0.1396   129.5052     2.4339
  274.0000     6.0668     6.6888   -48.7193     7.5928     0.0133     0.1336   128.7556     2.4474
  274.5000     6.0668     6.5494   -48.4844     7.5928     0.0059     0.1336   128.9055     2.4617
  275.0000     6.0668     6.5024   -48.2759     7.5928     0.0015     0.1336   128.9055     2.4617
  275.5000     5.9418     6.5007   -48.1062     7.5928     0.0001     0.1345   128.9055     2.4610
  276.0000     5.7782     6.4537   -47.7567     7.5942     0.0001     0.1360   128.3058     2.4595
  276.5000     5.5823     6.3191   -47.6852     7.6078     0.0032     0.1426   127.2364     2.4474
  277.0000     5.4296     6.1446   -47.6882     7.6078     0.0077     0.1600   126.9565     2.4114
  277.5000     5.3178     6.0549   -47.6912     7.6078     0.0123     0.1801   127.1064     2.3784
  278.0000     5.2054     5.9730   -48.2944     7.6078     0.0138     0.1840   125.4573     2.3776
  278.5000     5.1010     5.9714   -48.4463     7.6078     0.0124     0.1672   122.3088     2.4114
  279.0000     5.0658     5.9699   -48.8995     7.6032     0.0093     0.1431   119.4603     2.4362
  279.5000     5.0307     6.0552   -48.9026     7.5928     0.0065     0.1287   118.1109     2.4632
  280.0000     5.0307     6.1769   -48.9059     7.5928     0.0036     0.1233   118.7106     2.4775
  280.5000     5.1365     6.3055   -48.7581     7.5928     0.0066     0.1191   119.9100     2.4827
  281.0000     5.2810     6.4808   -48.7004     7.5928     0.0127     0.1155   120.0600     2.4887
  281.5000     5.4674     6.6614   -48.4653     7.5928     0.0188     0.1248   116.4618     2.4932
  282.0000     5.6997     6.8470   -48.3175     7.5928     0.0038     0.1284   115.1124     2.4734
  282.5000     5.8600     7.0373   -48.1708     7.6004    -0.0006     0.1299   116.9115     2.4662
  283.0000     6.0668     7.1833   -47.8950     7.6078     0.0010     0.1302   120.9595     2.4670
  283.5000     6.2374     7.2314   -47.7271     7.6228     0.0025     0.1277   125.4573     2.4707
  284.0000     6.4129     7.0313   -47.2809     7.6323     0.0026     0.1250   130.8646     2.4730
  284.5000     6.2374     6.7899   -47.2837     7.6527     0.0026     0.1289   135.6522     2.4662
  285.0000     6.1090     6.5372   -47.4729     7.6527     0.0072     0.1430   136.8516     2.4444
  285.5000     5.9820     6.3279   -47.7394     7.6527     0.0132     0.1590   136.2519     2.4174
  286.0000     5.7734     6.1923   -48.0425     7.6578     0.0193     0.1610   128.4558     2.4129
  286.5000     5.5823     6.1549   -48.3454     7.6677     0.0178     0.1520   124.4078     2.4339
  287.0000     5.5437     6.1532   -48.3478     7.6677     0.0104     0.1346   131.3044     2.4482
  287.5000     5.5469     6.2177   -48.2009     7.6677     0.0045     0.1217   135.5022     2.4685
  288.0000     5.6603     6.3225   -48.0545     7.6677     0.0030     0.1190   128.4558     2.4895
  288.5000     5.9008     6.4223   -47.7479     7.6677     0.0076     0.1172   125.9070     2.4955
  289.0000     6.1943     6.5877   -47.5259     7.6592     0.0122     0.1160   126.0570     2.4970
  289.5000     6.5149     6.7284   -47.1634     7.6527     0.0137     0.1138   126.3568     2.4962
  290.0000     6.8259     6.9114   -46.5467     7.6527     0.0168     0.1123   123.8081     2.4955
  290.5000     7.0668     7.1040   -46.2114     7.6527     0.0153     0.1102   121.2594     2.4962
  291.0000     7.2656     7.2938   -45.7146     7.6527     0.0139     0.1081   118.8606     2.4985
  291.5000     7.5220     7.4577   -45.3763     7.6527     0.0095     0.1078   117.0015     2.4992
  292.0000     7.6270     7.7676   -45.3057     7.6527     0.0080     0.1072   116.0120     2.5015
  292.5000     7.7874     7.9840   -45.2324     7.6527     0.0081     0.1069   118.7106     2.5026
  293.0000     7.8962     8.1406   -45.2355     7.6527     0.0084     0.1050   120.6597     2.5053
  293.5000     7.8962     8.3215   -45.2838     7.6527     0.0142     0.1000   119.9100     2.5075
  294.0000     7.8416     8.4916   -45.3916     7.6527     0.0187     0.0985   117.2114     2.5098
  294.5000     7.7874     8.6671   -45.3943     7.6677     0.0171     0.1066   116.3118     2.5083
  295.0000     7.7874     8.7259   -45.3906     7.6677     0.0114     0.1138   119.9100     2.5053
  295.5000     7.7336     8.7231   -45.2504     7.6677     0.0084     0.1224   120.5097     2.4954
  296.0000     7.7874     8.7139   -44.9382     7.6677     0.0085     0.1260   119.0105     2.4760
  296.5000     7.7874     8.5979   -44.6570     7.6677     0.0086     0.1257   120.6597     2.4745
  297.0000     7.7874     8.5957   -44.1693     7.6677     0.0116     0.1273   122.1889     2.4745
  297.5000     7.8416     8.5666   -43.9130     7.6677     0.0117     0.1308   123.6582     2.4714
  298.0000     7.8416     8.5912   -43.6162     7.6527     0.0087     0.1260   123.8081     2.4685
  298.5000     7.8416     8.6002   -43.4263     7.6527     0.0208     0.1128   122.4588     2.4790
  299.0000     7.8416     8.6460   -43.2164     7.6527     0.0433     0.1070   121.2394     2.4880
  299.5000     7.8416     8.7037   -43.0254     7.6527     0.0478     0.1035   119.9100     2.4910
  300.0000     7.9511     8.8230   -43.3288     7.6527     0.0464     0.1016   119.6102     2.5008
  300.5000     8.4597     8.5214   -43.9382     7.5477     0.0494     0.0995   113.9130     2.5090
  301.0000     8.5751     8.5326   -45.4463     7.5476     0.0434     0.0998   111.0645     2.5074
  301.5000     8.3957     8.6994   -46.0405     7.5624     0.0390     0.1007   109.0894     2.5074
  302.0000     7.5637     8.7594   -46.3454     7.5623     0.0330     0.1019   110.1649     2.5074
  302.5000     7.3543     8.8812   -46.3497     7.5471     0.0255     0.1064   125.9070     2.4991
  303.0000     7.4031     9.0045   -46.1389     7.5470     0.0181     0.1166   133.2534     2.4765
