~VERSION INFORMATION
 VERS.                2.0:   CWLS LOG ASCII STANDARD - VERSION 2.0
 WRAP.                 NO:   ONE LINE PER DEPTH STEP
~WELL INFORMATION
#MNEM.UNIT      DATA TYPE    INFORMATION
#----------   ------------   ------------------------------
 STRT.F           34.0000:   START DEPTH
 STOP.F          614.0000:   STOP DEPTH
 STEP.F            0.5000:   STEP LENGTH
 NULL.          -999.2500:   NO VALUE
 COMP. FENIX & SCISSON INC:   COMPANY
 WELL.      71-SX-3 #71-3:   WELL
 FLD .             TEAPOT:   FIELD
 LOC .       S3 T38N R78W:   LOCATION
 CNTY.            NATRONA:   COUNTY
 STAT.            WYOMING:   STATE
 CTRY. UNITED STATES OF AMERICA:   COUNTRY
 SRVC.              Welex:   SERVICE COMPANY
 DATE.        10-MAR-1977:   LOGDATE
 API .       490251028900:   API NUMBER
~CURVE INFORMATION
#MNEM.UNIT       API CODE    CURVE DESCRIPTION
#----------   ------------   ------------------------------
 DEPT.F                  :   
 CALD.IN     45 280 60 00:   CALIPER
 GRD .GAPI   45 310 01 00:   GAMMA RAY FROM DENSITY LOG
 RHOB.G/C3   45 350 01 00:   BULK DENSITY
 DPHI.DEC    45 890 12 00:   DENSITY POROSITY SANDSTONE
 CORR.G/C3   45 356 01 00:   DENSITY CORRECTION
 SGRD.OHMM   07 220 05 00:   SHALLOW RESISTIVITY
 ILD .OHMM   07 120 46 00:   INDUCTION LOG DEEP
 ILM .OHMM   07 120 44 00:   INDUCTION LOG MEDIUM
 SPR .MV     07 010 01 00:   SPONTANEOUS POTENTIAL
~PARAMETER INFORMATION
#MNEM.UNIT          VALUE    DESCRIPTION
#----------   ------------   ------------------------------
 PD  .                 GL:   PERMANENT DATUM
 EPD .F              5117:   ELEVATION PERMANENT DATUM
 LMF .                 GL:   LOG MEASURED FROM
 DMF .                 GL:   DRILLING MEASURED FROM
 EGL .F              5117:   GROUND LEVEL
 DATE.          3-10-1977:   RUN DATE
 RUN .                  1:   RUN NUMBER
 DD  .F               630:   DEPTH DRILLER
 DL  .F               619:   DEPTH LOGGER
 BLI .F               617:   BOTTOM LOG INTERVAL
 TLI .F                34:   TOP LOG INTERVAL
 CS  .IN            8.625:   CASING SIZE
 CBD .F                40:   CASING BOTTOM DRILLER
 CBL .F                41:   CASING BOTTOM LOGGER
 BS  .IN            7.875:   BIT SIZE
 BSD .F               630:   BIT SIZE AT DEPTH
 DFT .            KCL MUD:   DRILLING FLUID TYPE
 DFD .                  9:   DRILLING FLUID DENSITY
 DFV .                 33:   DRILLING FLUID VISCOSITY
 MSS .            MUD PIT:   MUD SAMPLE SOURCE
 RMS .OHMM           2.33:   RESISTIVITY MUD SAMPLE
 MST .F                57:   MUD SAMPLE TEMPERATURE
 RMF .OHMM           1.83:   RESISTIVITY MUD FILTRATE SAMPLE
 MFST.F                57:   MUD FILTRATE SAMPLE TEMPERATURE
 RMC .OHMM           2.53:   RESISTIVITY MUD CAKE
 MCST.F                57:   MUD CAKE SAMPLE TEMPERATURE
 MFSS.           FANN KIT:   MUD FILTRATE SAMPLE SOURCE
 MCSS.           FANN KIT:   MUD CAKE SAMPLE SOURCE
 RMB .OHMM            2.1:   RESISTIVITY MUD AT BHT
 BHT .F                63:   BOTTOM HOLE TEMPERATURE
 TCS .HRS             1.5:   TIME CURCULATED STOPPED
 MRT .F                63:   MAXIMUM RECORDED TEMPERATURE
 LUN .               8611:   LOGGING UNIT NUMBER
 LUL .           GILLETTE:   LOGGING UNIT LOCATION
 ENGI.               DOAK:   RECORDING ENGINEER
 WITN.              BURKE:   WITNESSED BY
 CLNT.            A2DTECH:   CLIENT CODE
 ORIG.       2", 5" PRINT:   ORIGIN OF DATA
 UWI .       490251028900:   UNIQUE WELL ID
 DICO. A2D Technologies, Inc.:   DIGITIZING COMPANY
~OTHER INFORMATION
~A   DEPT     CALD        GRD       RHOB       DPHI       CORR       SGRD        ILD        ILM        SPR   
# ...
  545.0000     7.7806    58.0764     2.4748     0.1146     0.0501    12.9586    10.3655    11.2598   -44.8685
  545.5000     7.7816    55.1822     2.4797     0.1140     0.0492    13.0483    10.3481    11.7863   -44.9884
  546.0000     7.7825    52.5230     2.4862     0.1134     0.0484    13.1642    10.3143    11.5109   -45.1083
  546.5000     7.7835    54.6375     2.4834     0.1127     0.0475    13.1447    10.2805    11.2646   -45.2279
  547.0000     7.7845    57.9145     2.4849     0.1121     0.0466    13.1071    10.2469    11.5687   -45.3181
  547.5000     7.7854    61.2100     2.4900     0.1114     0.0457    13.0696    10.2133    12.0081   -45.1929
  548.0000     7.7864    63.7937     2.4872     0.1112     0.0449    13.0437    10.1799    11.9435   -45.0648
  548.5000     7.7874    62.5680     2.4825     0.1118     0.0440    13.1275    10.1466    11.8177   -44.9375
  549.0000     7.7883    61.3140     2.4776     0.1124     0.0458    13.2205    10.1134    11.6932   -44.8102
  549.5000     7.7893    60.0741     2.4728     0.1131     0.0484    13.2857    10.0803    11.5700   -44.6816
  550.0000     7.7902    58.8362     2.4679     0.1134     0.0510    13.0751    10.0473    11.4481   -44.5453
  550.5000     7.7912    58.1509     2.4765     0.1064     0.0537    12.9156    10.0144    11.3637   -44.6871
  551.0000     7.7922    59.0536     2.4866     0.0987     0.0563    12.7581     9.9916    11.3318   -44.8931
  551.5000     7.7931    61.1024     2.4965     0.0910     0.0590    12.6025    10.0538    11.2964   -45.1001
  552.0000     7.7932    63.1412     2.4954     0.0913     0.0616    12.4488    10.1018    11.2612   -45.3092
  552.5000     7.7923    65.1480     2.4795     0.1001     0.0553    12.3438    10.1500    11.2261   -45.5209
  553.0000     7.7915    65.7451     2.4681     0.1064     0.0479    12.8061    10.1985    11.1911   -45.3745
  553.5000     7.7907    62.6661     2.4568     0.1126     0.0405    12.7239    10.2472    11.1562   -45.1981
  554.0000     7.7898    59.7001     2.4454     0.1190     0.0338    12.5651    10.2961    11.1215   -45.0227
  554.5000     7.7890    58.5821     2.4339     0.1236     0.0326    12.4082    10.3453    11.0868   -44.8479
  555.0000     7.7882    66.7462     2.4307     0.1245     0.0315    12.2534    10.3947    11.0522   -44.6730
  555.5000     7.7873    69.5231     2.4346     0.1232     0.0302    12.1004    10.4443    11.0178   -44.4986
  556.0000     7.7865    68.9712     2.4395     0.1200     0.0323    11.9494    10.4942    10.9834   -44.3454
  556.5000     7.7856    73.2595     2.4478     0.1168     0.0356    11.7893    10.5443    10.9578   -44.2995
  557.0000     7.7848    75.6560     2.4562     0.1137     0.0389    11.9059    10.6311    11.0622   -44.2504
  557.5000     7.7840    73.2157     2.4604     0.1105     0.0408    12.0332    10.7323    11.1594   -44.2001
  558.0000     7.7832    72.4450     2.4642     0.1073     0.0422    12.1435    10.8346    11.2574   -44.1509
  558.5000     7.7823    75.7937     2.4677     0.1041     0.0435    12.3319    10.9378    11.3630   -44.2021
  559.0000     7.7815    78.5294     2.4711     0.1034     0.0448    12.5237    11.0420    11.3907   -44.2598
  559.5000     7.7806    81.2811     2.4727     0.1033     0.0462    12.7158    11.1472    11.4288   -44.3175
  560.0000     7.7798    83.6904     2.4696     0.1059     0.0476    12.8061    11.2598    11.4687   -44.1910
  560.5000     7.7790    80.8501     2.4665     0.1086     0.0461    12.0081    11.1443    11.4218   -43.9097
  561.0000     7.7781    77.6222     2.4653     0.1086     0.0437    12.0683    11.0227    11.3590   -43.6172
  561.5000     7.7773    74.4008     2.4648     0.1081     0.0412    12.2309    10.9026    11.2964   -43.7154
  562.0000     7.7765    71.1830     2.4612     0.1115     0.0387    12.0915    10.7837    11.2342   -43.9261
  562.5000     7.7756    69.9161     2.4493     0.1149     0.0362    11.8982    10.6661    11.1725   -44.1405
  563.0000     7.7748    73.0096     2.4375     0.1183     0.0337    11.9354    10.5498    11.0744   -44.1497
  563.5000     7.7740    76.1063     2.4329     0.1194     0.0321    11.9748    10.4347    10.9657   -44.1130
  564.0000     7.7731    77.6102     2.4448     0.1160     0.0340    12.0081    10.3209    10.8533   -44.0010
  564.5000     7.7723    74.9579     2.4568     0.1124     0.0360    11.7995    10.1235    10.7055   -44.1574
  565.0000     7.7715    72.3780     2.4680     0.1087     0.0379    11.6714     9.9738    10.5530   -44.3162
  565.5000     7.7706    70.7688     2.4694     0.1054     0.0398    11.5425     9.8292    10.4027   -44.2117
  566.0000     7.7698    71.5646     2.4671     0.1064     0.0417    11.4160     9.6858    10.2545   -44.0397
  566.5000     7.7689    76.1838     2.4647     0.1078     0.0405    11.2910     9.5441    10.1085   -43.8645
  567.0000     7.7681    78.5459     2.4633     0.1090     0.0385    11.1673     9.3670     9.9645   -43.7144
  567.5000     7.7673    76.0362     2.4629     0.1097     0.0365    11.0450     9.1304     9.8226   -43.4874
  568.0000     7.7664    78.2912     2.4563     0.1107     0.0345    10.9241     8.8997     9.6827   -43.2574
  568.5000     7.7656    81.0519     2.4473     0.1155     0.0325    10.8044     8.6749     9.5449   -43.1883
  569.0000     7.7648    83.8233     2.4381     0.1198     0.0337    10.6374     8.4258     9.4089   -43.2330
  569.5000     7.7639    84.9821     2.4385     0.1187     0.0371    10.4376     8.0966     9.2749   -43.2786
  570.0000     7.7631    88.3974     2.4426     0.1172     0.0406    10.2415     7.7799     9.1428   -43.3249
  570.5000     7.7623    92.8676     2.4467     0.1156     0.0441    10.0838     7.4747     8.8858   -43.3710
  571.0000     7.7614    96.3524     2.4492     0.1211     0.0476     9.7975     7.1766     8.6016   -43.4171
  571.5000     7.7606    97.2312     2.4384     0.1294     0.0440     9.4733     6.7774     8.3264   -43.4635
  572.0000     7.7598    99.4854     2.4253     0.1376     0.0384     9.1597     6.3944     8.0180   -43.5115
  572.5000     7.7589   105.2307     2.4121     0.1458     0.0328     8.8566     6.0330     7.6571   -43.5474
  573.0000     7.7581   111.0104     2.3989     0.1540     0.0272     8.5635     5.6921     7.3132   -43.2595
  573.5000     7.7573   112.2088     2.3904     0.1563     0.0214     7.8930     5.3704     6.8791   -42.9556
  574.0000     7.7564    98.5813     2.4147     0.1435     0.0243     6.7568     5.0669     6.0762   -42.6550
  574.5000     7.7556    86.8375     2.4488     0.1253     0.0287     5.7842     4.7806     5.1061   -42.3579
  575.0000     7.7548    81.4873     2.4799     0.1072     0.0332     5.1113     4.6164     5.1069   -42.4296
  575.5000     7.7539    84.7922     2.4877     0.0959     0.0377     5.5267     4.8451     5.1055   -43.1003
  576.0000     7.7535    89.0199     2.4935     0.0912     0.0422     7.6059     5.0851     5.7037   -43.2642
  576.5000     7.7535    93.1054     2.5029     0.0871     0.0468    10.2064     5.3371     6.2558   -43.0359
  577.0000     7.7535    91.2383     2.5115     0.0833     0.0514    10.0895     5.5993     6.8593   -42.8130
  577.5000     7.7535    88.2423     2.5069     0.0806     0.0550    10.0277     5.9165     7.5142   -42.3917
  578.0000     7.7535    86.2773     2.5004     0.0868     0.0511     9.9916     6.3338     7.9949   -42.6499
  578.5000     7.7535    88.1476     2.4939     0.0940     0.0474    10.3564     6.7805     8.5016   -43.4321
  579.0000     7.7535    90.0093     2.4874     0.0973     0.0437    10.6676     7.2588     8.8113   -43.2062
  579.5000     7.7535    90.9256     2.4811     0.1005     0.0400    10.8533     7.7708     8.9869   -42.7854
  580.0000     7.7535    90.2376     2.4772     0.1038     0.0363    10.5204     8.0239     9.1662   -42.3858
  580.5000     7.7535    87.7834     2.4733     0.1071     0.0377    10.3658     8.2270     9.3011   -42.5552
  581.0000     7.7535    85.3570     2.4727     0.1060     0.0397    10.6711     8.4352     9.4691   -42.7450
