~VERSION INFORMATION
 VERS.                2.0:   CWLS LOG ASCII STANDARD - VERSION 2.0
 WRAP.                 NO:   ONE LINE PER DEPTH STEP
~WELL INFORMATION
#MNEM.UNIT      DATA TYPE    INFORMATION
#----------   ------------   ------------------------------
 STRT.F           28.0000:   START DEPTH
 STOP.F          693.0000:   STOP DEPTH
 STEP.F            0.5000:   STEP LENGTH
 NULL.          -999.2500:   NO VALUE
 COMP. FENIX & SCISSON INC:   COMPANY
 WELL.       NPR-3 #63-15:   WELL
 FLD .             TEAPOT:   FIELD
 LOC .      S15 T38N R78W:   LOCATION
 CNTY.            NATRONA:   COUNTY
 STAT.            WYOMING:   STATE
 CTRY. UNITED STATES OF AMERICA:   COUNTRY
 SRVC.            Unknown:   SERVICE COMPANY
 DATE.        10-JUN-1978:   LOGDATE
 API .       490251063800:   API NUMBER
~CURVE INFORMATION
#MNEM.UNIT       API CODE    CURVE DESCRIPTION
#----------   ------------   ------------------------------
 DEPT.F                  :   
 SPR .MV     05 010 01 00:   SPONTANEOUS POTENTIAL FROM RES.
 SN  .OHMM   05 040 16 00:   SHORT NORMAL 16"
 ILD .OHMM   05 120 46 00:   INDUCTION LOG DEEP
 CALD.IN     45 280 60 00:   CALIPER FROM DENSITY LOG
 GRD .GAPI   45 310 01 00:   GAMMA RAY FROM DENSITY LOG
 CORR.G/C3   45 356 01 00:   DENSITY CORRECTION
 DPHI.DEC    45 890 12 00:   DENSITY POROSITY SANDSTONE
 DEN .G/C3   45 350 01 00:   DENSITY
~PARAMETER INFORMATION
#MNEM.UNIT          VALUE    DESCRIPTION
#----------   ------------   ------------------------------
 PD  .                 GL:   PERMANENT DATUM
 EPD .F              5265:   ELEVATION PERMANENT DATUM
 LMF .                 KB:   LOG MEASURED FROM
 DAPD.F                 4:   FEET ABOVE PERMANENT DATUM
 DMF .                 KB:   DRILLING MEASURED FROM
 EKB .F              5269:   KELLING BUSHING
 EGL .F              5265:   GROUND LEVEL
 DATE.        10-JUN-1978:   RUN DATE
 RUN .                  1:   RUN NUMBER
 DD  .F               690:   DEPTH DRILLER
 DL  .F               697:   DEPTH LOGGER
 BLI .F               690:   BOTTOM LOG INTERVAL
 TLI .F                35:   TOP LOG INTERVAL
 CS  .IN            8.625:   CASING SIZE
 CBD .F                40:   CASING BOTTOM DRILLER
 CBL .F                35:   CASING BOTTOM LOGGER
 BS  .IN            7.875:   BIT SIZE
 BSD .F               690:   BIT SIZE AT DEPTH
 DFT .                KCL:   DRILLING FLUID TYPE
 DFD .                8.7:   DRILLING FLUID DENSITY
 DFV .                 34:   DRILLING FLUID VISCOSITY
 DFPH.                 10:   DRILLING FLUID PH
 DFL .               11.6:   DRILLING FLUID LOSS
 MSS .            MUD PIT:   MUD SAMPLE SOURCE
 RMS .OHMM            .32:   RESISTIVITY MUD SAMPLE
 MST .F                74:   MUD SAMPLE TEMPERATURE
 RMF .OHMM            .28:   RESISTIVITY MUD FILTRATE SAMPLE
 MFST.F                78:   MUD FILTRATE SAMPLE TEMPERATURE
 RMC .OHMM            .36:   RESISTIVITY MUD CAKE
 MCST.F                78:   MUD CAKE SAMPLE TEMPERATURE
 MFSS.               MEAS:   MUD FILTRATE SAMPLE SOURCE
 MCSS.               MEAS:   MUD CAKE SAMPLE SOURCE
 BHT .F                80:   BOTTOM HOLE TEMPERATURE
 TCS .HRS            0100:   TIME CURCULATED STOPPED
 MRT .F                80:   MAXIMUM RECORDED TEMPERATURE
 LUN .               2958:   LOGGING UNIT NUMBER
 LUL .               CASP:   LOGGING UNIT LOCATION
 ENGI.             MILLER:   RECORDING ENGINEER
 WITN.           MCGINLEY:   WITNESSED BY
 CLNT.            A2DTECH:   CLIENT CODE
 ORIG.           5" PRINT:   ORIGIN OF DATA
 UWI .       490251063800:   UNIQUE WELL ID
 DICO. A2D Technologies, Inc.:   DIGITIZING COMPANY
~OTHER INFORMATION
~A   DEPT      SPR         SN        ILD       CALD        GRD       CORR       DPHI        DEN   
# ...
  271.0000    -8.2012     7.8743     7.9500     7.5416    90.0065     0.0138     0.1047     2.5002
  271.5000    -8.1866     7.8791     7.9560     7.5130    90.0240     0.0125     0.1022     2.4972
  272.0000    -8.1719     7.8296     7.9059     7.5593    90.9551     0.0126     0.1002     2.5003
  272.5000    -8.1572     7.8344     7.9107     7.5906    91.2532     0.0128     0.1040     2.5004
  273.0000    -8.1425     7.8392     7.9156     7.6071    88.4394     0.0129     0.1031     2.5005
  273.5000    -8.1279     7.8440     7.9204     7.6234    85.9196     0.0146     0.0989     2.5005
  274.0000    -8.1132     7.7934     7.9253     7.6547    84.1462     0.0147     0.0979     2.5029
  274.5000    -8.0985     7.7994     7.8742     7.6860    84.0101     0.0164     0.0976     2.5052
  275.0000    -8.0838     7.8042     7.8803     7.6720    84.6291     0.0210     0.0967     2.5053
  275.5000    -8.0689     7.8089     7.8851     7.6583    85.9899     0.0272     0.0943     2.5093
  276.0000    -8.0539     7.8137     7.8899     7.7049    87.3508     0.0320     0.0913     2.5175
  276.5000    -8.0361     7.8185     7.8403     7.7512    89.4579     0.0305     0.0996     2.5145
  277.0000    -8.0215     7.8234     7.8451     7.7824    93.3561     0.0186     0.1008     2.5048
  277.5000    -8.1601     7.8292     7.7957     7.7987    96.0602     0.0068     0.0999     2.5011
  278.0000    -8.1418     7.7788     7.8006     7.8300    95.9285    -0.0021     0.1011     2.5004
  278.5000    -8.1271     7.7847     7.8055     7.8313    93.3760    -0.0019     0.1049     2.4960
  279.0000    -8.1125     7.7895     7.8113     7.7875    91.0049    -0.0018     0.1100     2.4901
  279.5000    -8.0978     7.7943     7.7609     7.7142    90.4589     0.0014     0.1106     2.4864
  280.0000    -8.0831     7.7990     7.7669     7.7774    94.5107     0.0045     0.1084     2.4902
  280.5000    -8.2186     7.7488     7.7717     7.8220    96.0208     0.0062     0.1057     2.4971
  281.0000    -8.2034     7.6481     7.7216     7.8532    95.5906     0.0153     0.1012     2.5039
  281.5000    -8.3385     7.6528     7.7275     7.9590    93.6679     0.0170     0.0978     2.5055
  282.0000    -8.3234     7.6575     7.7860     7.7960    91.8944     0.0171     0.0975     2.5026
  282.5000    -8.3054     7.6622     7.7907     7.7671    90.5687     0.0188     0.0990     2.4966
  283.0000    -8.2908     7.6669     7.7955     7.7687    89.3922     0.0189     0.1038     2.4967
  283.5000    -8.2761     7.6790     7.8003     7.7547    89.1069     0.0176     0.1056     2.4975
  284.0000    -8.2614     7.7844     7.8593     7.6965    89.8752     0.0162     0.1019     2.4984
  284.5000    -8.2467     7.8432     7.8641     7.6230    93.0271     0.0164     0.1019     2.4969
  285.0000    -8.2321     7.9025     7.8690     7.5644    94.5373     0.0180     0.1025     2.4910
  285.5000    -8.2174     7.9074     7.8739     7.5508    93.3955     0.0182     0.1045     2.4896
  286.0000    -8.2027     7.9671     7.8788     7.5372    90.6917     0.0138     0.1072     2.4957
  286.5000    -8.1880     7.9720     7.8847     7.5385    91.3107     0.0065     0.1042     2.4965
  287.0000    -8.1734     7.9769     7.8895     7.5398    92.9701     0.0036     0.1066     2.4913
  287.5000    -8.1587     7.9818     7.8943     7.5411    91.7936     0.0022     0.1077     2.4786
  288.0000    -8.2937     7.9313     7.9541     7.4954    91.3590     0.0009     0.1050     2.4796
  288.5000    -8.2784     7.9364     8.0142     7.5142    93.1720     0.0026     0.1020     2.4919
  289.0000    -8.4141     7.9413     8.0749     7.5604    92.7419     0.0042     0.1047     2.4976
  289.5000    -8.3957     7.8913     8.0798     7.5468    92.9087     0.0044     0.1061     2.4977
  290.0000    -8.3810     7.8963     8.1410     7.5182    94.4188     0.0030     0.1052     2.4978
  290.5000    -8.3664     7.9022     8.1460     7.5042    93.8393     0.0016     0.1046     2.4978
  291.0000    -8.3517     7.9070     8.1510     7.4756    92.3642     0.0035     0.1051     2.4971
  291.5000    -8.3370     7.9118     8.0997     7.4323    94.6343     0.0080     0.1051     2.4965
  292.0000    -8.3223     7.8621     8.0486     7.3738    96.4458     0.0126     0.1033     2.4966
  292.5000    -8.3076     7.8126     7.8336     7.3302    96.8955     0.0143     0.1012     2.4966
  293.0000    -8.1433     7.7623     7.6209     7.3162    97.6629     0.0174     0.0984     2.4982
  293.5000    -8.1286     7.5562     7.4721     7.3328    99.6208     0.0191     0.0945     2.5050
  294.0000    -8.1138     7.4557     7.4251     7.4090    99.9369     0.0207     0.0924     2.5224
  294.5000    -8.0988     7.4100     7.3784     7.4702    96.8201     0.0149     0.0932     2.5206
  295.0000    -8.0809     7.4145     7.3840     7.4865    92.2109     0.0120     0.1007     2.4940
  295.5000    -8.0662     7.3679     7.4399     7.5028    91.6270     0.0062     0.1025     2.4926
  296.0000    -8.0515     7.4236     7.4962     7.4994    92.2416     0.0048     0.1000     2.5039
  296.5000    -8.1902     7.4798     7.5529     7.4306    88.8307     0.0140     0.0976     2.5077
  297.0000    -8.1719     7.6424     7.6629     7.4472    86.7582     0.0171     0.0973     2.5011
  297.5000    -8.1572     7.7002     7.7746     7.4785    87.3734     0.0173     0.0976     2.5034
  298.0000    -8.1425     7.7049     7.7793     7.4948    87.8508     0.0158     0.0997     2.5057
  298.5000    -8.1279     7.7632     7.7841     7.4961    89.5293     0.0101     0.1083     2.4975
  299.0000    -8.1132     7.7679     7.7889     7.4226    90.1126     0.0042     0.1077     2.4931
  299.5000    -7.9488     7.8266     7.9023     7.3790    89.3883     0.0013     0.1047     2.4992
  300.0000    -7.9341     7.9528     8.1293     7.3802    89.4405     0.0071     0.1007     2.5113
  300.5000    -8.0372     8.0352     8.1117     7.3965    90.4667     0.0197     0.0959     2.5091
  301.0000    -8.1402     8.1176     8.0942     7.3976    91.2304     0.0199     0.0896     2.5212
  301.5000    -8.2432     8.2000     8.0908     7.3689    89.7553     0.0201     0.0880     2.5190
  302.0000    -8.3174     8.2386     8.1546     7.3244    84.6111     0.0172     0.0898     2.5191
  302.5000    -8.1512     8.2431     8.1607     7.2814    82.1782     0.0174     0.0928     2.5191
  303.0000    -7.9850     8.3048     8.1668     7.2829    85.7821     0.0206     0.0937     2.5154
  303.5000    -7.9654     8.3093     8.1728     7.3140    88.4861     0.0222     0.0960     2.5085
  304.0000    -7.9493     8.3139     8.1790     7.3451    90.8916     0.0150     0.1065     2.4976
  304.5000    -8.0829     8.3184     8.1286     7.3462    94.4912     0.0076     0.1077     2.4947
  305.0000    -8.2204     8.2653     8.0800     7.3774    97.4937     0.0033     0.1056     2.4955
  305.5000    -8.3540     8.2700     8.0860     7.3935    96.3171     0.0035     0.1008     2.4986
  306.0000    -8.3338     8.1607     8.0362     7.4246    93.2002     0.0112     0.0974     2.5032
  306.5000    -8.3177     8.1088     8.0422     7.4707    94.4279     0.0249     0.0968     2.5062
  307.0000    -8.3015     8.0573     8.0482     7.5018    95.5224     0.0266     0.0968     2.5078
  307.5000    -8.2854     8.1187     8.1102     7.5329    96.0928     0.0252     0.0977     2.5086
  308.0000    -8.2692     8.1231     8.1162     7.5344    94.9162     0.0224     0.0988     2.5078
  308.5000    -8.2530     8.1276     8.1223     7.5355    88.5157     0.0196     0.1054     2.5020
  309.0000    -8.2365     8.1320     8.1283     7.5367    87.9318     0.0138     0.1102     2.4901
  309.5000    -8.2168     8.1364     8.1344     7.5076    89.5954     0.0049     0.1059     2.4887
  310.0000    -8.2006     8.1973     8.1406     7.5839    94.9859     0.0051     0.1122     2.4895
  310.5000    -8.1845     8.2587     8.2034     7.6450    93.9586     0.0068     0.1092     2.4896
  311.0000    -8.1683     8.3206     8.3253     7.6761    88.5891     0.0085     0.1056     2.4919
