~VERSION INFORMATION
 VERS.                2.0:   CWLS LOG ASCII STANDARD - VERSION 2.0
 WRAP.                 NO:   ONE LINE PER DEPTH STEP
~WELL INFORMATION
#MNEM.UNIT      DATA TYPE    INFORMATION
#----------   ------------   ------------------------------
 STRT.F          672.0000:   START DEPTH
 STOP.F         2343.5000:   STOP DEPTH
 STEP.F            0.5000:   STEP LENGTH
 NULL.          -999.2500:   NO VALUE
 COMP. FENIX & SCISSON INC:   COMPANY
 WELL.   23 SHX-33 #23-33:   WELL
 FLD .             TEAPOT:   FIELD
 LOC .      S33 T39N R78W:   LOCATION
 CNTY.            NATRONA:   COUNTY
 STAT.            WYOMING:   STATE
 CTRY. UNITED STATES OF AMERICA:   COUNTRY
 SRVC.            Unknown:   SERVICE COMPANY
 DATE.        01-MAY-1978:   LOGDATE
 API .       490251062700:   API NUMBER
~CURVE INFORMATION
#MNEM.UNIT       API CODE    CURVE DESCRIPTION
#----------   ------------   ------------------------------
 DEPT.F                  :   
 IL  .OHMM   05 120 00 00:   INDUCTION LOG
 CIL .MMHO   05 110 00 00:   CONDUCTIVITY INDUCTION LOG
 CALD.IN     45 280 60 00:   CALIPER FROM DENSITY LOG
 GRD .GAPI   45 310 01 00:   GAMMA RAY FROM DENSITY LOG
 DPHI.DEC    45 890 12 00:   DENSITY POROSITY SANDSTONE
 RHOB.G/C3   45 350 01 00:   BULK DENSITY
 CORR.G/C3   45 356 01 00:   DENSITY CORRECTION
~PARAMETER INFORMATION
#MNEM.UNIT          VALUE    DESCRIPTION
#----------   ------------   ------------------------------
 PD  .                 GL:   PERMANENT DATUM
 EPD .F              5163:   ELEVATION PERMANENT DATUM
 LMF .                 KB:   LOG MEASURED FROM
 DAPD.F                10:   FEET ABOVE PERMANENT DATUM
 DMF .                 KB:   DRILLING MEASURED FROM
 EKB .F              5173:   KELLING BUSHING
 EGL .F              5163:   GROUND LEVEL
 DATE.           5-1-1978:   RUN DATE
 RUN .                  1:   RUN NUMBER
 DD  .F              2331:   DEPTH DRILLER
 DL  .F              2260:   DEPTH LOGGER
 BLI .F              2250:   BOTTOM LOG INTERVAL
 TLI .F               690:   TOP LOG INTERVAL
 CS  .IN            9.625:   CASING SIZE
 CBD .F               683:   CASING BOTTOM DRILLER
 CBL .F               690:   CASING BOTTOM LOGGER
 BS  .IN             8.75:   BIT SIZE
 BSD .F              2331:   BIT SIZE AT DEPTH
 DFT .                OIL:   DRILLING FLUID TYPE
 BHT .F               104:   BOTTOM HOLE TEMPERATURE
 TCS .HRS               5:   TIME CURCULATED STOPPED
 MRT .F               104:   MAXIMUM RECORDED TEMPERATURE
 LUN .               2958:   LOGGING UNIT NUMBER
 LUL .               CASP:   LOGGING UNIT LOCATION
 ENGI.             MILLER:   RECORDING ENGINEER
 WITN.           MCGINLEY:   WITNESSED BY
 CLNT.            A2DTECH:   CLIENT CODE
 ORIG.       2", 5" PRINT:   ORIGIN OF DATA
 UWI .       490251062700:   UNIQUE WELL ID
 DICO. A2D Technologies, Inc.:   DIGITIZING COMPANY
~OTHER INFORMATION
~A   DEPT       IL        CIL       CALD         GRD      DPHI       RHOB       CORR   
# ...
 2173.5000     7.8627   113.3895     7.9256   111.5881    -0.0063     2.5419     0.0844
 2174.0000     7.9566   112.4429     7.9040   106.4634    -0.0067     2.5495     0.0863
 2174.5000     8.0502   111.4965     7.8837   101.3296    -0.0071     2.5510     0.0882
 2175.0000     8.1433   110.5499     7.8448    98.5701    -0.0075     2.5515     0.0890
 2175.5000     8.2362   109.6034     7.8072    98.3099    -0.0096     2.5519     0.0858
 2176.0000     8.3289   108.5859     7.7696   101.1374    -0.0123     2.5590     0.0818
 2176.5000     8.4223   108.9798     7.7319   105.0827    -0.0150     2.5668     0.0778
 2177.0000     8.4639   109.4057     7.6951   106.0916    -0.0177     2.5676     0.0738
 2177.5000     8.4650   109.8316     7.6924   106.3036    -0.0206     2.5679     0.0695
 2178.0000     8.4661   110.2576     7.6857   105.7720    -0.0226     2.5719     0.0676
 2178.5000     8.4549   110.9778     7.6790   103.0335    -0.0229     2.5816     0.0648
 2179.0000     8.3862   113.0222     7.6723   102.6230    -0.0233     2.5866     0.0620
 2179.5000     8.1561   115.0667     7.6656   103.7397    -0.0237     2.5852     0.0588
 2180.0000     7.9309   117.8889     7.6583   104.8753    -0.0240     2.5836     0.0528
 2180.5000     7.7059   123.5111     7.6389   106.0316    -0.0244     2.5835     0.0473
 2181.0000     7.4806   127.8130     7.6237   106.1000    -0.0232     2.5867     0.0417
 2181.5000     7.2563   127.9590     7.5924   106.2985    -0.0201     2.5900     0.0361
 2182.0000     7.0886   128.1051     7.5603   106.2893    -0.0171     2.5848     0.0305
 2182.5000     7.1215   128.2511     7.5705   106.2730    -0.0156     2.5765     0.0245
 2183.0000     7.1512   128.3971     7.5915   106.1605    -0.0182     2.5708     0.0262
 2183.5000     7.1806   128.5432     7.5457   103.8203    -0.0226     2.5736     0.0311
 2184.0000     7.2097   128.6892     7.4764   100.3151    -0.0269     2.5813     0.0353
 2184.5000     7.2388   129.0802     7.4821    97.5490    -0.0265     2.5889     0.0364
 2185.0000     7.2357   129.9822     7.5147    96.9052    -0.0245     2.5966     0.0353
 2185.5000     7.1841   130.8841     7.5458    96.2111    -0.0226     2.5977     0.0353
 2186.0000     7.1331   131.8182     7.5769    95.6370    -0.0176     2.5936     0.0353
 2186.5000     7.0897   131.1862     7.6080   101.1533    -0.0126     2.5801     0.0361
 2187.0000     7.0906   130.5309     7.6390   107.0893    -0.0098     2.5676     0.0372
 2187.5000     7.0917   129.8757     7.6701   104.8639    -0.0104     2.5654     0.0387
 2188.0000     7.1186   129.2204     7.7012   101.7500    -0.0111     2.5635     0.0405
 2188.5000     7.1466   128.5651     7.7323    98.5993    -0.0117     2.5615     0.0423
 2189.0000     7.1742   127.9099     7.7633    97.5422    -0.0099     2.5648     0.0442
 2189.5000     7.2023   127.2394     7.7945    97.6474    -0.0050     2.5658     0.0460
 2190.0000     7.2192   125.4996     7.8256    98.9484    -0.0023     2.5586     0.0479
 2190.5000     7.4198   120.3295     7.8540   102.2022    -0.0096     2.5504     0.0497
 2191.0000     7.6690   115.2323     7.8420   105.1568    -0.0102     2.5430     0.0516
 2191.5000     7.9191   113.5847     7.8269   105.5078    -0.0102     2.5498     0.0534
 2192.0000     8.1485   113.5095     7.8117   105.6040    -0.0127     2.5592     0.0553
 2192.5000     8.1273   113.4327     7.7966   105.8145    -0.0214     2.5686     0.0571
 2193.0000     8.1053   113.3592     7.7815   105.8976    -0.0183     2.5781     0.0590
 2193.5000     8.0841   113.2840     7.7664   105.3544    -0.0166     2.5829     0.0608
 2194.0000     8.0629   113.2088     7.7513   103.6764    -0.0155     2.5796     0.0611
 2194.5000     8.0415   113.1337     7.7364   102.4840    -0.0138     2.5756     0.0611
 2195.0000     8.0210   113.0585     7.7200   103.6382    -0.0122     2.5716     0.0612
 2195.5000     8.0206   112.9834     7.7424   106.3949    -0.0119     2.5677     0.0597
 2196.0000     8.0733   112.9082     7.7657   106.6381    -0.0124     2.5653     0.0577
 2196.5000     8.1005   112.8330     7.7905   106.1231    -0.0129     2.5686     0.0557
 2197.0000     8.1012   112.7579     7.8151   105.3780    -0.0134     2.5717     0.0536
 2197.5000     8.1011   112.6827     7.8397   104.6257    -0.0139     2.5621     0.0516
 2198.0000     8.1010   112.7677     7.8643   103.9101    -0.0136     2.5615     0.0496
 2198.5000     8.1012   113.3356     7.8889   103.7734    -0.0120     2.5708     0.0475
 2199.0000     8.1011   113.9035     7.9135   103.6596    -0.0105     2.5647     0.0472
 2199.5000     8.0996   114.4714     7.9381   103.5437    -0.0106     2.5587     0.0472
 2200.0000     8.0255   117.0615     7.9626   103.4286    -0.0115     2.5570     0.0486
 2200.5000     7.8720   120.5529     7.9873   103.2994    -0.0123     2.5594     0.0513
 2201.0000     7.7194   124.0444     8.0119   102.6754    -0.0126     2.5620     0.0540
 2201.5000     7.5661   127.7778     8.0362   101.9869    -0.0091     2.5647     0.0568
 2202.0000     7.4119   127.5620     8.0483   101.2783    -0.0053     2.5676     0.0595
 2202.5000     7.2589   127.3301     8.0382   102.9707    -0.0023     2.5608     0.0623
 2203.0000     7.2570   127.0983     8.0285   106.8221    -0.0052     2.5517     0.0650
 2203.5000     7.2744   126.8664     8.0187   109.9467    -0.0088     2.5523     0.0681
 2204.0000     7.2910   127.2254     8.0089   107.7289    -0.0124     2.5599     0.0725
 2204.5000     7.3074   128.0224     7.9991   105.0596    -0.0160     2.5675     0.0768
 2205.0000     7.3235   128.8194     7.9894   102.4103    -0.0186     2.5751     0.0754
 2205.5000     7.3339   129.6165     7.9796    99.6601    -0.0148     2.5788     0.0680
 2206.0000     7.2964   130.4135     7.9698    99.2706    -0.0096     2.5777     0.0607
 2206.5000     7.2374   131.2105     7.9613   106.6825    -0.0043     2.5721     0.0533
 2207.0000     7.1778   131.7249     7.9640   109.8050     0.0005     2.5605     0.0471
 2207.5000     7.1181   131.3326     7.8706   109.8774     0.0031     2.5491     0.0474
 2208.0000     7.0578   130.9402     7.7670   109.8521     0.0057     2.5429     0.0453
 2208.5000     7.0865   131.2593     7.7920   108.8460     0.0036     2.5389     0.0452
 2209.0000     7.1397   131.9394     7.8499   106.2296     0.0010     2.5349     0.0452
 2209.5000     7.1942   132.6195     7.9123   103.6824    -0.0015     2.5328     0.0469
 2210.0000     7.2494   133.2997     7.8692   102.5598    -0.0023     2.5472     0.0544
 2210.5000     7.2048   133.9798     7.8484   109.4266    -0.0020     2.5441     0.0616
 2211.0000     7.1505   134.6599     7.8259   114.5758    -0.0017     2.5556     0.0686
 2211.5000     7.0967   135.2581     7.8151   114.2337    -0.0015     2.5649     0.0586
 2212.0000     7.0499   135.8586     7.8863   109.7816     0.0058     2.5487     0.0476
 2212.5000     7.0179   135.8586     7.9116   102.8572     0.0112     2.5376     0.0389
 2213.0000     6.9751   136.8976     7.9095   102.4624     0.0041     2.5231     0.0409
 2213.5000     6.9272   139.8124     7.9069   103.2740     0.0061     2.5337     0.0452
 2214.0000     6.7654   142.7273     7.9043   103.3455     0.0068     2.5452     0.0493
 2214.5000     6.5922   144.3686     7.9017   101.6765     0.0077     2.5350     0.0535
 2215.0000     6.4959   145.0630     7.8991   102.1812     0.0012     2.5280     0.0577
 2215.5000     6.4823   145.7708     7.8967   101.7579    -0.0060     2.5296     0.0619
 2216.0000     6.4747   146.4787     7.8948    98.4207    -0.0094     2.5423     0.0663
 2216.5000     6.4669   147.1871     7.9192    95.1340    -0.0091     2.5549     0.0650
 2217.0000     6.4589   147.8956     7.9456    92.0981    -0.0085     2.5631     0.0649
 2217.5000     6.4504   148.5933     7.9722    89.2029    -0.0080     2.5629     0.0646
 2218.0000     6.4237   149.7663     7.9991    88.7631    -0.0075     2.5618     0.0644
 2218.5000     6.3287   151.4174     8.0261    93.2739    -0.0070     2.5600     0.0641
