~VERSION INFORMATION
 VERS.                2.0:   CWLS LOG ASCII STANDARD - VERSION 2.0
 WRAP.                 NO:   ONE LINE PER DEPTH STEP
~WELL INFORMATION
#MNEM.UNIT      DATA TYPE    INFORMATION
#----------   ------------   ------------------------------
 STRT.F           36.0000:   START DEPTH
 STOP.F          686.0000:   STOP DEPTH
 STEP.F            0.5000:   STEP LENGTH
 NULL.          -999.2500:   NO VALUE
 COMP.    FENIX & SCISSON:   COMPANY
 WELL.        NPR #15-S-2:   WELL
 FLD .             TEAPOT:   FIELD
 LOC .       S2 T38N R78W:   LOCATION
 CNTY.            NATRONA:   COUNTY
 STAT.            WYOMING:   STATE
 CTRY. UNITED STATES OF AMERICA:   COUNTRY
 SRVC.       Schlumberger:   SERVICE COMPANY
 DATE.        16-MAR-1977:   LOGDATE
 API .       490251029900:   API NUMBER
~CURVE INFORMATION
#MNEM.UNIT       API CODE    CURVE DESCRIPTION
#----------   ------------   ------------------------------
 DEPT.F                  :   
 SPR .MV     07 010 01 00:   SPONTANEOUS POTENTIAL FROM RES.
 ILD .OHMM   07 120 46 00:   INDUCTION LOG DEEP
 ILM .OHMM   07 120 44 00:   INDUCTION LOG MEDIUM
 LL8 .OHMM   07 220 08 00:   LATEROLOG-8 RES.
 GRD .GAPI   45 310 01 00:   GAMMA RAY FROM DENSITY LOG
 CALD.IN     45 280 60 00:   CALIPER FROM DENSITY LOG
 CORR.G/C3   45 356 01 00:   DENSITY CORRECTION
 RHOB.G/C3   45 350 01 00:   BULK DENSITY
 DPHI.DEC    45 890 12 00:   DENSITY POROSITY SANDSTONE
~PARAMETER INFORMATION
#MNEM.UNIT          VALUE    DESCRIPTION
#----------   ------------   ------------------------------
 PD  .                 GL:   PERMANENT DATUM
 EPD .F              5129:   ELEVATION PERMANENT DATUM
 LMF .                 KB:   LOG MEASURED FROM
 DAPD.F                 4:   FEET ABOVE PERMANENT DATUM
 DMF .                 KB:   DRILLING MEASURED FROM
 EKB .F              5133:   KELLING BUSHING
 EGL .F              5129:   GROUND LEVEL
 DATE.        15-MAR-1977:   RUN DATE
 RUN .                  1:   RUN NUMBER
 DD  .F               680:   DEPTH DRILLER
 DL  .F               680:   DEPTH LOGGER
 BLI .F               683:   BOTTOM LOG INTERVAL
 TLI .F                48:   TOP LOG INTERVAL
 CS  .IN            8.625:   CASING SIZE
 CBD .F                40:   CASING BOTTOM DRILLER
 CBL .F                49:   CASING BOTTOM LOGGER
 BS  .IN            7.875:   BIT SIZE
 BSD .F               680:   BIT SIZE AT DEPTH
 DFT .            KCL MUD:   DRILLING FLUID TYPE
 DFD .                8.8:   DRILLING FLUID DENSITY
 DFV .                 33:   DRILLING FLUID VISCOSITY
 DFPH.                9.6:   DRILLING FLUID PH
 DFL .                9.0:   DRILLING FLUID LOSS
 MSS .                PIT:   MUD SAMPLE SOURCE
 RMS .OHMM           0.22:   RESISTIVITY MUD SAMPLE
 MST .F                50:   MUD SAMPLE TEMPERATURE
 RMF .OHMM           0.21:   RESISTIVITY MUD FILTRATE SAMPLE
 MFST.F                50:   MUD FILTRATE SAMPLE TEMPERATURE
 MFSS.               MEAS:   MUD FILTRATE SAMPLE SOURCE
 TCS .HRS            1800:   TIME CURCULATED STOPPED
 TLAB.HRS            2130:   TIME LOGGER AT BOTTOM
 LUN .               7711:   LOGGING UNIT NUMBER
 LUL .               CSPR:   LOGGING UNIT LOCATION
 ENGI.             TAYLER:   RECORDING ENGINEER
 CLNT.            A2DTECH:   CLIENT CODE
 ORIG.           5" PRINT:   ORIGIN OF DATA
 UWI .       490251029900:   UNIQUE WELL ID
 DICO. A2D Technologies, Inc.:   DIGITIZING COMPANY
~OTHER INFORMATION
~A   DEPT      SPR        ILD        ILM        LL8         GRD      CALD       CORR       RHOB       DPHI   
# ...
  401.0000   -67.1231     6.7968     6.4940     8.6969   134.2900     8.2677    -0.0021     2.4588     0.1044
  401.5000   -66.7989     6.7034     6.4536     8.5234   132.9721     8.2530    -0.0035     2.4815     0.1062
  402.0000   -66.3306     6.4976     6.2405     8.5932   131.8028     8.2463    -0.0012     2.4740     0.1044
  402.5000   -66.0115     6.2378     5.8268     8.7220   130.1877     8.2478     0.0019     2.4771     0.1028
  403.0000   -65.8417     6.0299     5.3281     8.4908   129.1621     8.2493     0.0050     2.4681     0.1079
  403.5000   -65.9755     5.8662     5.0798     7.8729   130.3750     8.2508     0.0096     2.4532     0.1190
  404.0000   -66.5469     5.6702     5.0482     5.4431   134.8521     8.2523     0.0081     2.4217     0.1316
  404.5000   -66.9741     5.5997     5.3065     5.1604   135.4658     8.2537     0.0029     2.4127     0.1412
  405.0000   -67.1079     5.7220     5.6943     5.7487   132.8106     8.2552    -0.0045     2.4203     0.1321
  405.5000   -67.0822     6.0935     5.9842     7.8721   129.5610     8.2567    -0.0036     2.4497     0.1207
  406.0000   -67.0617     6.4445     6.3328     8.7201   126.4552     8.2582    -0.0006     2.4829     0.1068
  406.5000   -67.0411     6.8157     6.7955     8.5483   127.8167     8.2449     0.0025     2.4957     0.0951
  407.0000   -67.1698     7.1093     7.2416     8.4972   126.3502     8.2463     0.0048     2.4988     0.0926
  407.5000   -67.1493     7.4155     7.4531     8.4464   125.9190     8.2478     0.0072     2.4981     0.0908
  408.0000   -67.1284     7.5761     7.6176     8.3979   125.9432     8.2493     0.0087     2.4944     0.0916
  408.5000   -67.1074     7.5812     7.6789     8.4060   125.5168     8.2508     0.0096     2.4915     0.0958
  409.0000   -67.0825     7.4307     7.6856     8.5320   124.3475     8.2374     0.0059     2.4893     0.0970
  409.5000   -67.2112     6.9871     7.1532     8.6599   121.9895     8.2389     0.0090     2.4947     0.0928
  410.0000   -67.3399     6.3467     5.7881     8.6682   122.3060     8.2256     0.0129     2.4925     0.0957
  410.5000   -67.6178     5.8859     5.2149     8.5567   124.1085     8.2122     0.0144     2.4903     0.0960
  411.0000   -67.7465     5.6116     5.1538     7.4525   128.1397     8.2137     0.0129     2.4881     0.0966
  411.5000   -68.1737     5.4246     5.3426     5.3793   131.1309     8.2152     0.0077     2.4724     0.1062
  412.0000   -68.4517     5.3909     5.6538     4.8162   133.9734     8.2167     0.0048     2.4544     0.1185
  412.5000   -68.5855     5.4321     5.9005     5.9410   135.4787     8.2182     0.0040     2.4214     0.1310
  413.0000   -68.2613     5.5136     6.4204     6.9301   134.4580     8.2197    -0.0012     2.4162     0.1406
  413.5000   -67.6437     5.7575     7.0348     7.8076   129.1282     8.2063    -0.0055     2.4216     0.1265
  414.0000   -66.5784     6.3366     7.2909     8.9194   125.4328     8.2078     0.0031     2.4668     0.1114
  414.5000   -65.8116     7.2335     7.2979     9.0531   125.0016     8.2093     0.0052     2.4879     0.0981
  415.0000   -65.1940     7.6529     7.3049     9.0662   125.1744     8.2108     0.0030     2.4955     0.0945
  415.5000   -64.7154     8.1464     7.3630     9.1979   125.1938     8.2123     0.0047     2.5008     0.0912
  416.0000   -64.4060     8.4387     7.4734     9.2069   125.0646     8.2138     0.0084     2.5084     0.0824
  416.5000   -64.2317     8.6813     7.7454     9.4777   124.6382     8.1852     0.0085     2.5153     0.0800
  417.0000   -64.3604     8.8693     8.3114     9.7545   122.7260     8.1574     0.0040     2.5116     0.0883
  417.5000   -64.3399     8.9990     8.6740    10.0394   121.1961     8.1437    -0.0004     2.4981     0.0925
  418.0000   -64.3193     9.0051     8.8040    10.0491   119.8544     8.2346    -0.0003     2.4959     0.0931
  418.5000   -64.1495     8.9492     8.8125     9.9890   117.5995     8.2509    -0.0001     2.4975     0.0888
  419.0000   -63.9797     8.8936     8.8210     9.9986   114.7042     8.2524     0.0015     2.5036     0.0852
  419.5000   -63.9591     8.8997     8.7681    10.0083   115.5201     8.2539     0.0083     2.5150     0.0780
  420.0000   -64.0930     8.9059     8.6555    10.0878   119.6482     8.2401     0.0147     2.5353     0.0692
  420.5000   -64.2217     8.9118     8.4849    10.0975   119.4220     8.2420     0.0189     2.5444     0.0641
  421.0000   -64.3504     8.8564     8.2013    10.2489   117.2995     8.2435     0.0190     2.5483     0.0607
  421.5000   -64.6232     8.8014     7.9825    10.2587   116.6548     8.2450     0.0159     2.5431     0.0652
  422.0000   -64.9011     8.7482     7.8826    10.1950   116.5256     8.2465     0.0130     2.5266     0.0718
  422.5000   -65.1791     8.7542     7.8905    10.0662   115.9410     8.2479     0.0071     2.5222     0.0762
  423.0000   -65.4571     8.8201     8.0088     9.7315   115.2114     8.2494     0.0110     2.5253     0.0747
  423.5000   -65.7542     8.8262     8.3019     9.2136   114.6521     8.2509     0.0096     2.5253     0.0723
  424.0000   -66.0130     8.9560     8.7246     9.3517   115.5912     8.2524     0.0064     2.5164     0.0792
  424.5000   -66.2909     9.3417     9.2973     9.6248   119.8976     8.2387     0.0037     2.5142     0.0815
  425.0000   -66.5637     9.6770     9.6356     9.9059   120.9510     8.2405     0.0045     2.5143     0.0824
  425.5000   -66.9961     9.7508     9.7800    10.3484   120.2274     8.2420     0.0038     2.5136     0.0794
  426.0000   -67.1248     9.6234     9.7193    11.0938   116.6807     8.2435     0.0016     2.5107     0.0847
  426.5000   -66.9498     9.2386     9.3983    11.1046   114.6198     8.2298    -0.0029     2.5047     0.0880
  427.0000   -66.7800     8.4502     8.6540    11.1154   113.1533     8.2317    -0.0019     2.4958     0.0916
  427.5000   -66.7595     7.1629     6.5583    11.1283   113.3213     8.2331     0.0020     2.4936     0.0943
  428.0000   -67.0426     6.5516     5.4405     9.4262   115.5695     8.2346     0.0027     2.4907     0.0996
  428.5000   -67.4698     6.2879     5.1152     6.2590   118.1149     8.2213     0.0013     2.4682     0.1119
  429.0000   -67.8919     6.2036     5.0494     4.8771   120.9574     8.2228     0.0005     2.4577     0.1182
  429.5000   -68.0209     6.1689     5.3435     4.3062   127.5147     8.2243    -0.0026     2.4277     0.1299
  430.0000   -67.7015     6.2170     6.1045     7.3663   131.1002     8.2257     0.0008     2.3970     0.1612
  430.5000   -67.0636     6.3517     6.8775    11.7512   131.7139     8.2272     0.0061     2.3805     0.1645
  431.0000   -66.2965     6.8110     7.4834    12.4357   124.5689     8.2287    -0.0051     2.3836     0.1452
  431.5000   -65.5451     7.8265     8.2569    12.0222   116.8509     8.2302     0.0033     2.4408     0.1187
  432.0000   -65.0768     9.0559     9.3024    11.9475   110.5408     8.2317     0.0131     2.5251     0.0910
  432.5000   -64.9070     9.8460    10.4076    12.0454   109.9473     8.2480     0.0139     2.5350     0.0678
  433.0000   -64.4387    10.2701    11.0907    12.0570   110.8767     8.2495     0.0125     2.5245     0.0741
  433.5000   -64.1196    10.4926    11.2580    12.1528   110.1035     8.2358     0.0073     2.5186     0.0776
  434.0000   -63.6513    10.6459    11.3466    12.2494   109.2354     8.2224     0.0006     2.5081     0.0881
  434.5000   -63.3323    10.8016    11.3577    11.8421   108.5275     8.2243     0.0127     2.5007     0.0890
  435.0000   -63.0132    10.9594    11.3688    11.6895   108.2612     8.2258     0.0128     2.5015     0.0863
  435.5000   -62.8434    11.1196    11.3799    11.7010   108.1320     8.2273     0.0174     2.5038     0.0847
  436.0000   -62.3751    11.3605    11.4726    11.8764   108.6032     8.2288     0.0152     2.5152     0.0784
  436.5000   -62.3545    11.8498    12.2256    11.9772   108.9137     8.2302     0.0100     2.5228     0.0762
  437.0000   -62.1847    12.5323    13.5834    12.3311   108.0355     8.2317     0.0093     2.5138     0.0798
