~VERSION INFORMATION
 VERS.                2.0:   CWLS LOG ASCII STANDARD - VERSION 2.0
 WRAP.                 NO:   ONE LINE PER DEPTH STEP
~WELL INFORMATION
#MNEM.UNIT      DATA TYPE    INFORMATION
#----------   ------------   ------------------------------
 STRT.F           20.0000:   START DEPTH
 STOP.F          600.0000:   STOP DEPTH
 STEP.F            0.5000:   STEP LENGTH
 NULL.          -999.2500:   NO VALUE
 COMP. FENIX & SCISSON INC:   COMPANY
 WELL. TEAPOT DOME #23 SX 3-4:   WELL
 FLD .             TEAPOT:   FIELD
 LOC .       S4 T38N R78W:   LOCATION
 CNTY.            NATRONA:   COUNTY
 STAT.            WYOMING:   STATE
 CTRY. UNITED STATES OF AMERICA:   COUNTRY
 SRVC.            Unknown:   SERVICE COMPANY
 DATE.        31-JUL-1978:   LOGDATE
 API .       490251067600:   API NUMBER
~CURVE INFORMATION
#MNEM.UNIT       API CODE    CURVE DESCRIPTION
#----------   ------------   ------------------------------
 DEPT.F                  :   
 CALD.IN     45 280 60 00:   CALIPER FROM DENSITY LOG
 GRD .GAPI   45 310 01 00:   GAMMA RAY FROM DENSITY LOG
 CORR.G/C3   45 356 01 00:   DENSITY CORRECTION
 DPHI.DEC    45 890 12 00:   DENSITY POROSITY SANDSTONE
 RHOB.G/C3   45 350 01 00:   BULK DENSITY
 SPR .MV     07 010 01 00:   SPONTANEOUS POTENTIAL
 ILD .OHMM   07 120 46 00:   INDUCTION LOG DEEP
 SN  .OHMM   07 040 16 00:   SHORT NORMAL 16"
 CILD.MMHO   07 110 46 00:   CONDUCTIVITY INDUCTION LOG DEEP
~PARAMETER INFORMATION
#MNEM.UNIT          VALUE    DESCRIPTION
#----------   ------------   ------------------------------
 PD  .                 GL:   PERMANENT DATUM
 EPD .F              5181:   ELEVATION PERMANENT DATUM
 LMF .                 KB:   LOG MEASURED FROM
 DAPD.F                 4:   FEET ABOVE PERMANENT DATUM
 DMF .                 KB:   DRILLING MEASURED FROM
 EKB .F              5185:   KELLING BUSHING
 EGL .F              5181:   GROUND LEVEL
 DATE.        31-JUL-1978:   RUN DATE
 RUN .                  1:   RUN NUMBER
 DD  .F               595:   DEPTH DRILLER
 DL  .F               606:   DEPTH LOGGER
 BLI .F               600:   BOTTOM LOG INTERVAL
 TLI .F                40:   TOP LOG INTERVAL
 CBL .F                45:   CASING BOTTOM LOGGER
 BS  .IN            7.875:   BIT SIZE
 BSD .F               595:   BIT SIZE AT DEPTH
 DFT .                KCL:   DRILLING FLUID TYPE
 DFD .                9.0:   DRILLING FLUID DENSITY
 DFV .                 36:   DRILLING FLUID VISCOSITY
 DFPH.                9.0:   DRILLING FLUID PH
 DFL .                8.0:   DRILLING FLUID LOSS
 MSS .           FLOWLINE:   MUD SAMPLE SOURCE
 BHT .F                74:   BOTTOM HOLE TEMPERATURE
 TCS .HRS            0500:   TIME CURCULATED STOPPED
 MRT .F                74:   MAXIMUM RECORDED TEMPERATURE
 LUN .               2958:   LOGGING UNIT NUMBER
 LUL .               CASP:   LOGGING UNIT LOCATION
 ENGI.            POINTER:   RECORDING ENGINEER
 WITN.              AMEND:   WITNESSED BY
 CLNT.            A2DTECH:   CLIENT CODE
 ORIG.           5" PRINT:   ORIGIN OF DATA
 UWI .       490251067600:   UNIQUE WELL ID
 DICO. A2D Technologies, Inc.:   DIGITIZING COMPANY
~OTHER INFORMATION
~A   DEPT     CALD        GRD       CORR       DPHI       RHOB        SPR        ILD         SN       CILD   
# ...
  166.0000     7.5669   122.5184     0.0162     0.1001     2.4908   -32.0531     7.3617     9.2708   127.6700
  166.5000     7.6283   116.6823     0.0184     0.0953     2.4999   -32.1972     7.4164     9.3350   126.1110
  167.0000     7.6599   113.2437     0.0177     0.0974     2.4970   -32.1896     7.5753     9.3402   123.8029
  167.5000     7.6764   117.7729     0.0163     0.1051     2.4843   -32.3337     7.7377     9.4102   119.9967
  168.0000     7.6479   118.9890     0.0156     0.1045     2.5106   -32.3262     7.8491     9.3505   116.1905
  168.5000     7.6194   114.0587     0.0194     0.0847     2.5205   -32.3201     7.9621     9.3560   113.8824
  169.0000     7.5460   115.7302     0.0263     0.0817     2.5183   -32.3141     8.0212     9.3612   113.0725
  169.5000     7.4576   117.1013     0.0233     0.0996     2.5030   -32.3080     8.0808     9.3665   112.2625
  170.0000     7.3958   117.2663     0.0174     0.1098     2.4833   -32.3020     8.0847     9.4366   112.2016
  170.5000     7.3210   116.0195     0.0129     0.1109     2.4722   -32.2972     8.1439     9.4419   112.1407
  171.0000     7.2504   113.0180     0.0115     0.1016     2.4993   -32.2913     8.0917     9.4472   112.8441
  171.5000     7.2078   109.5178     0.0165     0.0863     2.5173   -32.2853     8.1518     9.4525   112.7680
  172.0000     7.1799   111.6397     0.0268     0.0806     2.5107   -32.2794     8.2138     9.4578   111.9581
  172.5000     7.1664   114.2517     0.0237     0.0994     2.4853   -32.2734     8.2732     9.3967   111.0490
  173.0000     7.1680   112.2799     0.0140     0.1108     2.4689   -32.2673     8.4505     9.4033   108.7891
  173.5000     7.2145   112.2997     0.0103     0.1095     2.4667   -32.2613     8.5722     9.4727   105.0309
  174.0000     7.2310   117.2744     0.0081     0.1059     2.4826   -32.4038     8.7559     9.5515   102.7410
  174.5000     7.2625   121.3433     0.0105     0.1023     2.4947   -32.2492     8.9435     9.7527   101.1819
  175.0000     7.2940   116.7084     0.0120     0.0971     2.5060   -32.2432     9.1352     9.9582   101.1211
  175.5000     7.3105   119.1355     0.0129     0.0898     2.5158   -32.3857     9.3310    10.0328   101.0602
  176.0000     7.2970   121.2525     0.0129     0.0826     2.5204   -32.3797     9.5309    10.0385   100.9993
  176.5000     7.3135   113.0190     0.0130     0.0809     2.5153   -32.2251     9.5356     9.9063   100.1893
  177.0000     7.4200   110.1809     0.0108     0.0967     2.4937   -32.2190     9.4095     9.7746    99.3794
  177.5000     7.5115   110.3558     0.0079     0.1001     2.4860   -32.2130     9.2211     9.5150   100.0828
  178.0000     7.5580   111.2765     0.0079     0.0980     2.4763   -32.0584     8.9743     9.2610   103.0029
  178.5000     7.4845   112.1972     0.0072     0.1086     2.4768   -31.7552     8.6144     8.9505   106.6873
  179.0000     7.4111   109.7351     0.0073     0.1086     2.4791   -31.6018     8.4302     9.1443   108.1398
  179.5000     7.4123   107.0706     0.0074     0.1082     2.4792   -31.4474     8.3292     9.2766   109.5770
  180.0000     7.4138   106.4945     0.0067     0.1079     2.4748   -31.7485     8.3372     9.2818   109.5131
  180.5000     7.4153   109.5262     0.0068     0.1073     2.4740   -32.1783     8.4537     9.2870   109.4532
  181.0000     7.4318   111.3528     0.0068     0.1063     2.4854   -31.7265     8.5751     9.3566   109.3933
  181.5000     7.4483   111.8321     0.0092     0.1039     2.4870   -31.4233     8.6985     9.3619   109.3334
  182.0000     7.4498   111.0479     0.0122     0.0952     2.5179   -31.8630     8.7631     9.3764   109.2726
  182.5000     7.4513   111.5868     0.0146     0.0796     2.5382   -32.3028     8.8282     9.4427   109.2117
  183.0000     7.4678   115.8074     0.0169     0.0703     2.5405   -32.4468     8.8325     9.5067   109.9026
  183.5000     7.4843   113.1138     0.0139     0.0813     2.5024   -32.5894     8.8368     9.5120   109.8390
  184.0000     7.5159   113.0235     0.0095     0.0984     2.4883   -32.7319     8.7793     9.5174   109.7781
  184.5000     7.5474   114.1018     0.0043     0.1031     2.4861   -32.5758     8.6046     9.4570   110.4815
  185.0000     7.5939   114.5808     0.0059     0.1004     2.4892   -32.5698     8.5495     9.3324   111.1697
  185.5000     7.6104   115.5092     0.0105     0.0995     2.4903   -32.4152     8.5537     9.2724   111.8578
  186.0000     7.6119   115.9885     0.0135     0.0951     2.5010   -32.2605     8.4991     9.2789   112.5460
  186.5000     7.6284   118.4139     0.0136     0.0925     2.5022   -32.2545     8.3866     9.2841   112.4699
  187.0000     7.6299   119.6417     0.0137     0.0955     2.4956   -32.2485     8.3320     9.2893   112.4090
  187.5000     7.6314   121.0192     0.0137     0.0918     2.5024   -32.2437     8.2217     9.2945   111.5991
  188.0000     7.5430   122.3353     0.0138     0.0906     2.5130   -32.2377     8.2258     9.2997   110.8015
  188.5000     7.4992   117.3371     0.0146     0.0861     2.5124   -32.3805     8.1732     9.3049   110.6489
  189.0000     7.5008   119.3134     0.0154     0.0888     2.5117   -32.5230     8.1772     9.3747   109.9326
  189.5000     7.5022   122.6370     0.0155     0.0908     2.5110   -32.6657     8.1249     9.3799   109.1236
  190.0000     7.5037   125.2121     0.0163     0.0881     2.5112   -32.8083     8.1289     9.3841   109.0627
  190.5000     7.5052   120.4519     0.0164     0.0913     2.5113   -32.6535     8.1329     9.3893   109.7528
  191.0000     7.5218   122.1288     0.0172     0.0853     2.5084   -32.3503     8.1933     9.3298   110.4419
  191.5000     7.5233   126.0436     0.0180     0.0994     2.4942   -31.6013     8.1973     9.3350   111.8762
  192.0000     7.5398   119.9436     0.0173     0.1104     2.4794   -31.0009     8.2013     9.3402   113.3135
  192.5000     7.5713   112.9379     0.0152     0.1349     2.4083   -30.8463     8.2622     9.3455   114.7659
  193.0000     7.6028   112.2120     0.0107     0.1520     2.4009   -30.9889     8.2662     9.3507   114.6898
  193.5000     7.7692   115.2438     0.0093     0.1591     2.4020   -31.5772     8.2124     9.3560   114.6289
  194.0000     8.2505   114.0764     0.0196     0.1447     2.4378   -32.0184     8.2174     9.4261   114.5681
  194.5000     7.9672   109.4583     0.0421     0.0396     2.5856   -31.7137     8.1639     9.4314   114.5072
  195.0000     7.5039   112.7895     0.0764     0.0417     2.5728   -31.5591     8.1689     9.4366   113.6972
  195.5000     7.4901   109.9753     0.0811     0.0619     2.5684   -31.5849     8.1721     9.4419   112.1382
  196.0000     7.5070   116.8918     0.0457     0.0861     2.5078   -31.9943     8.2982     9.5127   111.2111
  196.5000     7.5235   119.7663     0.0187     0.0940     2.4997   -32.1496     8.6497     9.5180   108.9511
  197.0000     7.5397   116.5269     0.0090     0.0969     2.4983   -32.4319     9.0787     9.5880   106.6918
  197.5000     7.5263   114.4561     0.0068     0.0954     2.5074   -32.7191     9.4004     9.5274   103.6702
  198.0000     7.5278   115.0898     0.0054     0.0965     2.5015   -32.7131     9.4050     9.6001   102.0522
  198.5000     7.5293   120.3286     0.0054     0.1005     2.4948   -32.7070     9.2806     9.6044   105.0465
  199.0000     7.5308   110.3194     0.0063     0.0947     2.5069   -32.5524     8.9701     9.6763   107.2328
  199.5000     7.5323   112.6447     0.0108     0.0860     2.5227   -32.5464     8.4922     9.6149   109.4191
  200.0000     7.5487   116.2275     0.0162     0.0901     2.5199   -32.5403     8.2649     9.5541   110.8716
  200.5000     7.5502   117.0062     0.0162     0.0907     2.5229   -32.5293     8.2111     9.5301   109.2993
  201.0000     7.5517   111.3478     0.0163     0.0772     2.5365   -32.5187     8.2162     9.5061   112.1996
  201.5000     7.5533   109.1325     0.0171     0.0607     2.5576   -32.5080     8.2203     9.5013   114.3701
  202.0000     7.5548   109.1627     0.0202     0.0582     2.5509   -32.4973     8.2243     9.4405   115.0616
