~VERSION INFORMATION
 VERS.                2.0:   CWLS LOG ASCII STANDARD - VERSION 2.0
 WRAP.                 NO:   ONE LINE PER DEPTH STEP
~WELL INFORMATION
#MNEM.UNIT      DATA TYPE    INFORMATION
#----------   ------------   ------------------------------
 STRT.F           27.0000:   START DEPTH
 STOP.F          760.0000:   STOP DEPTH
 STEP.F            0.5000:   STEP LENGTH
 NULL.          -999.2500:   NO VALUE
 COMP. FENIX & SCISSON INC:   COMPANY
 WELL.    NPR #3 #33-S-14:   WELL
 FLD .             TEAPOT:   FIELD
 LOC .      S14 T38N R78W:   LOCATION
 CNTY.            NATRONA:   COUNTY
 STAT.            WYOMING:   STATE
 CTRY. UNITED STATES OF AMERICA:   COUNTRY
 SRVC.              Welex:   SERVICE COMPANY
 DATE.        02-FEB-1977:   LOGDATE
 API .       490251027700:   API NUMBER
~CURVE INFORMATION
#MNEM.UNIT       API CODE    CURVE DESCRIPTION
#----------   ------------   ------------------------------
 DEPT.F                  :   
 SPR .MV     07 010 01 00:   SPONTANEOUS POTENTIAL
 SGRD.OHMM   07 220 05 00:   SHALLOW RESISTIVITY
 ILD .OHMM   07 120 46 00:   INDUCTION LOG DEEP
 ILM .OHMM   07 120 44 00:   INDUCTION LOG MEDIUM
 GRD .GAPI   45 310 01 00:   GAMMA RAY FROM DENSITY LOG
 CALD.IN     45 280 60 00:   CALIPER
 RHOB.G/C3   45 350 01 00:   BULK DENSITY
 CORR.G/C3   45 356 01 00:   DENSITY CORRECTION
 DPHI.DEC    45 890 00 00:   DENSITY POROSITY
~PARAMETER INFORMATION
#MNEM.UNIT          VALUE    DESCRIPTION
#----------   ------------   ------------------------------
 PD  .                 GL:   PERMANENT DATUM
 EPD .F              5219:   ELEVATION PERMANENT DATUM
 LMF .                 GL:   LOG MEASURED FROM
 DMF .                 GL:   DRILLING MEASURED FROM
 EKB .F              5224:   KELLING BUSHING
 EGL .F              5219:   GROUND LEVEL
 DATE.           2-2-1977:   RUN DATE
 RUN .                  1:   RUN NUMBER
 DD  .F               761:   DEPTH DRILLER
 DL  .F               762:   DEPTH LOGGER
 BLI .F               760:   BOTTOM LOG INTERVAL
 TLI .F                25:   TOP LOG INTERVAL
 CS  .IN            8.625:   CASING SIZE
 CBD .F              42.5:   CASING BOTTOM DRILLER
 CBL .F                46:   CASING BOTTOM LOGGER
 BS  .IN            7.875:   BIT SIZE
 BSD .F               761:   BIT SIZE AT DEPTH
 DFT .           CHEM-GEL:   DRILLING FLUID TYPE
 DFD .                8.9:   DRILLING FLUID DENSITY
 DFV .                 37:   DRILLING FLUID VISCOSITY
 DFPH.                  7:   DRILLING FLUID PH
 DFL .                8.4:   DRILLING FLUID LOSS
 MSS .          FLOW LINE:   MUD SAMPLE SOURCE
 RMS .OHMM           .231:   RESISTIVITY MUD SAMPLE
 MST .F                45:   MUD SAMPLE TEMPERATURE
 RMF .OHMM           .322:   RESISTIVITY MUD FILTRATE SAMPLE
 MFST.F                45:   MUD FILTRATE SAMPLE TEMPERATURE
 RMC .OHMM           .439:   RESISTIVITY MUD CAKE
 MCST.F                45:   MUD CAKE SAMPLE TEMPERATURE
 MFSS.           MEASURED:   MUD FILTRATE SAMPLE SOURCE
 MCSS.           MEASURED:   MUD CAKE SAMPLE SOURCE
 RMB .OHMM           .182:   RESISTIVITY MUD AT BHT
 BHT .F                57:   BOTTOM HOLE TEMPERATURE
 TCS .HRS             5.5:   TIME CURCULATED STOPPED
 MRT .F                57:   MAXIMUM RECORDED TEMPERATURE
 LUN .               8611:   LOGGING UNIT NUMBER
 LUL .           GILLETTE:   LOGGING UNIT LOCATION
 ENGI.             LAWSON:   RECORDING ENGINEER
 WITN. VOORHEES/RHOADES/JAPP/PETTINGILL/STUEBINGER:   WITNESSED BY
 CLNT.            A2DTECH:   CLIENT CODE
 ORIG.     1", 2.5" PRINT:   ORIGIN OF DATA
 UWI .       490251027700:   UNIQUE WELL ID
 DICO. A2D Technologies, Inc.:   DIGITIZING COMPANY
~OTHER INFORMATION
~A   DEPT      SPR       SGRD        ILD        ILM        GRD       CALD         RHOB      CORR      DPHI   
# ...
  246.0000   -30.1439     9.9621     7.0533     8.1850   112.1592     8.8999     2.4883     0.0795     0.0934
  246.5000   -30.1620    10.0246     7.1141     8.3043   112.2182     8.9629     2.4797     0.0756     0.1001
  247.0000   -30.1801    10.0719     7.1753     8.4254   111.1779     9.0258     2.4712     0.0717     0.1044
  247.5000   -30.1982    10.0567     7.2370     8.5485   110.1837     9.0807     2.4626     0.0678     0.1078
  248.0000   -30.2163    10.0419     7.2995     8.6734   109.1882     9.0796     2.4571     0.0639     0.1111
  248.5000   -30.2344    10.0270     7.3624     8.8481   108.1876     9.0799     2.4539     0.0600     0.1144
  249.0000   -30.2525    10.0119     7.4258     8.8100   107.1459     9.0804     2.4508     0.0591     0.1149
  249.5000   -30.2706     9.9969     7.4898     8.7396   108.5947     9.0809     2.4476     0.0601     0.1131
  250.0000   -30.2886     9.9820     7.4380     8.6717   110.4418     9.0813     2.4444     0.0610     0.1145
  250.5000   -30.3070     9.9665     7.3866     8.6044   112.2937     9.0818     2.4413     0.0620     0.1174
  251.0000   -30.3248     9.9515     7.3355     8.5376   114.1396     9.0823     2.4381     0.0630     0.1204
  251.5000   -30.3425     9.9366     7.2848     8.4713   115.9876     9.0828     2.4369     0.0639     0.1201
  252.0000   -30.3729     9.9216     7.2344     8.4055   117.8269     9.0833     2.4452     0.0651     0.1160
  252.5000   -30.4396     9.9067     7.1842     8.3403   119.3067     9.0837     2.4554     0.0667     0.1119
  253.0000   -30.5061     9.8900     7.1343     8.2755   119.2877     9.0842     2.4657     0.0683     0.1078
  253.5000   -30.5724     9.5712     7.0848     8.2113   116.9283     9.0847     2.4762     0.0699     0.1037
  254.0000   -30.6396     9.1834     7.0356     8.1475   114.6118     9.0852     2.4786     0.0715     0.0996
  254.5000   -30.7085     9.2921     6.9868     8.0689   112.3203     9.0856     2.4754     0.0731     0.0987
  255.0000   -30.7365     9.5301     6.9572     8.0754   110.3483     9.0861     2.4722     0.0747     0.1010
  255.5000   -30.6707     9.7084     6.9684     8.0885   109.7189     9.0866     2.4691     0.0763     0.1034
  256.0000   -30.6080     9.6528     6.9804     8.1015   109.6576     9.0871     2.4673     0.0778     0.1034
  256.5000   -30.5429     9.5776     6.9915     8.1146   110.2952     9.0876     2.4698     0.0794     0.1007
  257.0000   -30.4781     9.5301     7.0023     8.1279   110.9299     9.0880     2.4723     0.0810     0.1013
  257.5000   -30.4137     9.5301     7.0135     8.1411   111.5640     9.0885     2.4669     0.0818     0.1047
  258.0000   -30.3490     9.6817     7.0248     8.1542   111.9874     9.0890     2.4592     0.0783     0.1082
  258.5000   -30.2843     9.8150     7.0360     8.1673   111.4673     9.0895     2.4521     0.0749     0.1117
  259.0000   -30.2197     9.8924     7.0472     8.1805   110.9676     9.0899     2.4532     0.0715     0.1149
  259.5000   -30.1556     9.8882     7.0584     8.1938   110.4690     9.0904     2.4545     0.0696     0.1108
  260.0000   -30.0896     9.8910     7.0697     8.2070   109.9699     9.0909     2.4558     0.0684     0.1071
  260.5000   -30.0271     9.8426     7.0809     8.2203   109.4569     9.0914     2.4567     0.0672     0.1069
  261.0000   -29.9644     9.7965     7.0922     8.2336   109.3245     9.0919     2.4554     0.0660     0.1097
  261.5000   -29.9757     9.7508     7.1034     8.2469   110.5547     9.0924     2.4542     0.0647     0.1125
  262.0000   -29.9890     9.7093     7.1147     8.2603   112.4447     9.0928     2.4530     0.0635     0.1153
  262.5000   -30.0056     9.7924     7.1261     8.2737   114.3235     9.0933     2.4520     0.0623     0.1140
  263.0000   -30.0203     9.8695     7.1375     8.2872   116.1989     9.0938     2.4533     0.0611     0.1121
  263.5000   -30.0355     9.9829     7.1487     8.3008   118.0499     9.0943     2.4546     0.0599     0.1108
  264.0000   -30.0508    10.1120     7.1599     8.3147   118.8616     9.0947     2.4547     0.0587     0.1123
  264.5000   -30.0660    10.2429     7.1709     8.3284   116.7205     9.0952     2.4504     0.0575     0.1138
  265.0000   -30.0812    10.4531     7.1828     8.3408   114.8116     9.0957     2.4458     0.0566     0.1153
  265.5000   -30.0963    10.3474     7.1945     8.3543   114.4922     9.0962     2.4412     0.0571     0.1168
  266.0000   -30.1115    10.0447     7.2034     8.3678   114.5731     9.0967     2.4433     0.0575     0.1185
  266.5000   -30.1266     9.7546     7.2126     8.2177   114.5711     9.0971     2.4480     0.0580     0.1157
  267.0000   -30.1418     9.4968     7.1268     8.0273   114.5593     9.0975     2.4527     0.0584     0.1128
  267.5000   -30.1569     9.3362     7.0417     7.8413   114.9899     9.0981     2.4574     0.0588     0.1098
  268.0000   -30.1721     9.1784     6.9554     7.6596   116.2537     9.1038     2.4622     0.0593     0.1069
  268.5000   -30.1872     9.0233     6.8701     7.4798   117.5320     9.1295     2.4602     0.0597     0.1058
  269.0000   -30.2024     8.8492     6.7858     7.3056   118.8013     9.1544     2.4571     0.0601     0.1076
  269.5000   -30.2175     8.9162     6.7026     7.0877   118.9266     9.1764     2.4540     0.0606     0.1093
  270.0000   -30.2327     8.9949     6.6204     7.2312   117.5008     9.1765     2.4509     0.0610     0.1110
  270.5000   -30.2479     9.0744     6.5620     7.5855   116.0779     9.1771     2.4481     0.0614     0.1128
  271.0000   -30.2630     9.1545     6.5279     7.5810   114.6508     9.1778     2.4503     0.0619     0.1139
  271.5000   -30.2783     9.2353     6.4939     7.4307   113.2112     9.1785     2.4528     0.0623     0.1129
  272.0000   -30.2934     9.3551     6.4602     7.2188   111.7781     9.1791     2.4552     0.0627     0.1119
  272.5000   -30.3086     9.2704     6.4266     7.2262   112.8290     9.1798     2.4549     0.0632     0.1116
  273.0000   -30.3243     9.1137     6.3932     7.2465   114.2152     9.1805     2.4487     0.0636     0.1136
  273.5000   -30.3383     8.9596     6.3600     7.2669   113.5783     9.1812     2.4425     0.0640     0.1157
  274.0000   -30.3532     8.8082     6.3392     7.2872   111.6381     9.1818     2.4364     0.0645     0.1177
  274.5000   -30.3120     8.6867     6.4416     7.3075   111.0030     9.1825     2.4332     0.0649     0.1198
  275.0000   -30.2524     8.9125     6.5482     7.3278   113.8996     9.1832     2.4369     0.0653     0.1196
  275.5000   -30.1930     9.1075     6.6565     7.3519   116.2282     9.1839     2.4406     0.0658     0.1169
  276.0000   -30.1350     9.3067     6.7667     7.4418   116.6692     9.1845     2.4443     0.0662     0.1143
  276.5000   -30.0745     9.5103     6.8786     7.5540   115.6101     9.1852     2.4480     0.0669     0.1117
  277.0000   -30.0173     9.7084     6.9924     7.6675   114.6342     9.1859     2.4527     0.0680     0.1093
  277.5000   -29.9642     9.5731     7.1081     7.7828   115.5902     9.1865     2.4615     0.0692     0.1057
  278.0000   -29.9884     9.3833     7.2173     7.8998   116.6027     9.1872     2.4680     0.0703     0.1020
  278.5000   -30.0127     9.4442     7.2983     8.0185   117.3488     9.1879     2.4694     0.0715     0.0983
  279.0000   -30.0404     9.7680     7.3747     8.1390   116.0675     9.1886     2.4709     0.0726     0.0974
  279.5000   -30.0664    10.2599     7.4898     8.2613   114.8011     9.1892     2.4724     0.0738     0.0989
  280.0000   -30.0927    10.1960     7.4565     8.3707   113.5553     9.1899     2.4779     0.0768     0.0983
  280.5000   -30.1192    10.0557     7.3920     8.0990   113.2155     9.1906     2.4864     0.0828     0.0911
  281.0000   -30.1455     9.9169     7.3281     7.8660   114.1100     9.1912     2.4950     0.0887     0.0839
  281.5000   -30.1720     9.7780     7.2648     7.6291   114.9894     9.1919     2.5028     0.0949     0.0834
  282.0000   -30.1983     9.6440     7.2020     7.6517   115.4729     9.1926     2.4985     0.0934     0.0859
