~VERSION INFORMATION
 VERS.                2.0:   CWLS LOG ASCII STANDARD - VERSION 2.0
 WRAP.                 NO:   ONE LINE PER DEPTH STEP
~WELL INFORMATION
#MNEM.UNIT      DATA TYPE    INFORMATION
#----------   ------------   ------------------------------
 STRT.F           32.0000:   START DEPTH
 STOP.F          557.0000:   STOP DEPTH
 STEP.F            0.5000:   STEP LENGTH
 NULL.          -999.2500:   NO VALUE
 COMP. FENIX & SCISSON U.S. NAVY:   COMPANY
 WELL.   S-3 NPR #3 #31-3:   WELL
 FLD .              NPR-3:   FIELD
 LOC .       S3 T38N R78W:   LOCATION
 CNTY.            NATRONA:   COUNTY
 STAT.            WYOMING:   STATE
 CTRY. UNITED STATES OF AMERICA:   COUNTRY
 SRVC.              Welex:   SERVICE COMPANY
 DATE.        05-MAR-1977:   LOGDATE
 API .       490251039500:   API NUMBER
~CURVE INFORMATION
#MNEM.UNIT       API CODE    CURVE DESCRIPTION
#----------   ------------   ------------------------------
 DEPT.F                  :   
 CALD.IN     45 280 60 00:   CALIPER FROM DENSITY LOG
 DPHI.DEC    45 890 12 00:   DENSITY POROSITY SANDSTONE
 DRHO.G/C3   45 356 01 00:   DENSITY CORRECTION
 GRD .GAPI   45 310 01 00:   GAMMA RAY FROM DENSITY LOG
 RHOB.G/C3   45 350 01 00:   BULK DENSITY
 ILD .OHMM   07 120 46 00:   INDUCTION LOG DEEP
 ILM .OHMM   07 120 44 00:   INDUCTION LOG MEDIUM
 SGRD.OHMM   07 220 05 00:   SHALLOW GUARD RESISTIVITY
 SPR .MV     07 010 01 00:   SPONTANEOUS POTENTIAL FROM RES.
~PARAMETER INFORMATION
#MNEM.UNIT          VALUE    DESCRIPTION
#----------   ------------   ------------------------------
 PD  .                 GL:   PERMANENT DATUM
 EPD .F              5178:   ELEVATION PERMANENT DATUM
 LMF .                 GL:   LOG MEASURED FROM
 DMF .                 GL:   DRILLING MEASURED FROM
 EGL .F              5178:   GROUND LEVEL
 DATE.        05-MAR-1977:   RUN DATE
 RUN .                  1:   RUN NUMBER
 DD  .F               560:   DEPTH DRILLER
 DL  .F               560:   DEPTH LOGGER
 BLI .F               558:   BOTTOM LOG INTERVAL
 TLI .F                40:   TOP LOG INTERVAL
 CS  .IN            8.625:   CASING SIZE
 CBD .F                43:   CASING BOTTOM DRILLER
 CBL .F                43:   CASING BOTTOM LOGGER
 BS  .IN            7.875:   BIT SIZE
 BSD .F               560:   BIT SIZE AT DEPTH
 DFT .                KCL:   DRILLING FLUID TYPE
 DFD .                8.8:   DRILLING FLUID DENSITY
 DFV .                 32:   DRILLING FLUID VISCOSITY
 MSS .           FLOWLINE:   MUD SAMPLE SOURCE
 RMS .OHMM           1.46:   RESISTIVITY MUD SAMPLE
 MST .F                48:   MUD SAMPLE TEMPERATURE
 RMF .OHMM          0.972:   RESISTIVITY MUD FILTRATE SAMPLE
 MFST.F                48:   MUD FILTRATE SAMPLE TEMPERATURE
 RMC .OHMM           2.32:   RESISTIVITY MUD CAKE
 MCST.F                48:   MUD CAKE SAMPLE TEMPERATURE
 MFSS.               MEAS:   MUD FILTRATE SAMPLE SOURCE
 MCSS.               MEAS:   MUD CAKE SAMPLE SOURCE
 RMB .OHMM           1.03:   RESISTIVITY MUD AT BHT
 BHT .F                68:   BOTTOM HOLE TEMPERATURE
 TCS .HRS               2:   TIME CURCULATED STOPPED
 MRT .F                68:   MAXIMUM RECORDED TEMPERATURE
 LUN .               8611:   LOGGING UNIT NUMBER
 LUL .           GILLETTE:   LOGGING UNIT LOCATION
 ENGI.          D. LAWSON:   RECORDING ENGINEER
 WITN.     MR. STUEBINGER:   WITNESSED BY
 CLNT.            A2DTECH:   CLIENT CODE
 ORIG.           5" PRINT:   ORIGIN OF DATA
 UWI .       490251039500:   UNIQUE WELL ID
 DICO. A2D Technologies, Inc.:   DIGITIZING COMPANY
~OTHER INFORMATION
~A   DEPT       CALD     DPHI        DRHO        GRD        RHOB      ILD        ILM       SGRD        SPR   
# ...
   68.5000     8.3170     0.1032     0.0465   137.2117     2.4756     7.0377     8.0199   959.7134   -34.2710
   69.0000     8.2738     0.1010     0.0467   136.1888     2.4779     6.9929     8.0233  1146.3928   -34.5734
   69.5000     8.2779     0.0935     0.0499   136.3582     2.4930     6.9485     7.9700  1035.1477   -35.5776
   70.0000     8.3515     0.0836     0.0546   137.8689     2.5059     6.9532     7.9178  1273.7157   -36.9023
   70.5000     8.3827     0.0836     0.0593   139.4098     2.5067     6.9569     7.9211  2067.0598   -39.2688
   71.0000     8.3841     0.0871     0.0655   141.4914     2.5015     6.9607     7.9238  2038.2380   -40.7424
   71.5000     8.3558     0.0952     0.0720   142.7040     2.4889     6.9645     8.0368  1441.7977   -41.6243
   72.0000     8.2382     0.1041     0.0809   141.6811     2.4732     6.9691     8.0396  1373.3459   -41.0109
   72.5000     8.1798     0.1160     0.0841   140.6532     2.4613     6.9729     8.0424  1005.6704   -39.8059
   73.0000     8.1816     0.1169     0.0903   140.3755     2.4547     7.0251     8.0457  1335.3148   -39.4938
   73.5000     8.2724     0.1157     0.0905   142.9345     2.4525     7.0776     8.1604  1102.9829   -39.7966
   74.0000     8.5863     0.1144     0.0936   145.7864     2.4541     7.0814     8.1632   408.7778   -42.5198
   74.5000     8.9323     0.1210     0.0938   146.1192     2.4467     7.0852     8.1660  1202.8739   -43.1705
   75.0000     8.8621     0.1275     0.0942   145.2310     2.4273     7.0891     8.1687  1334.2379   -43.0035
   75.5000     8.6357     0.1263     0.0731   142.1520     2.4337     7.0929     8.1715   911.6634   -42.0962
   76.0000     8.3990     0.0805     0.0673   137.8252     2.5069     7.0968     8.1178  1061.3599   -40.7424
   76.5000     8.3109     0.0834     0.0907   138.1436     2.5040     7.1007     8.1770  1270.3160   -39.0909
   77.0000     8.3424     0.0909     0.1128   140.2504     2.4906     7.1053     8.1798  1098.2816   -37.8859
   77.5000     8.4034     0.1070     0.1100   142.3572     2.4472     7.2082     8.1826   848.0883   -37.8224
   78.0000     8.4049     0.1207     0.0801   145.3582     2.4361     7.2121     8.1859   740.0120   -39.6426
   78.5000     8.3911     0.1087     0.0426   147.7631     2.4684     7.3164     8.2455  1120.5850   -41.2798
   79.0000     8.3780     0.0936     0.0368   147.3363     2.4955     7.3204     8.3632  1322.7671   -42.9464
   79.5000     8.3646     0.0919     0.0355   145.1212     2.5016     7.3751     8.4240  1097.1191   -44.6550
   80.0000     8.3512     0.0918     0.0326   142.7571     2.4957     7.4303     8.5442   526.7551   -44.4916
   80.5000     8.3527     0.0876     0.0268   146.3398     2.5063     7.4343     8.6661   391.1064   -44.0307
   81.0000     8.3544     0.0798     0.0239   150.0000     2.5153     7.5420     8.7292   309.0499   -42.8257
   81.5000     8.3559     0.0774     0.0211   151.3146     2.5184     7.5462     8.7927   414.5569   -40.7278
   82.0000     8.3574     0.0779     0.0198   152.8654     2.5185     7.6562     8.9182  1168.3553   -39.5228
   82.5000     8.3588     0.0791     0.0185   155.8271     2.5156     7.6604     8.9213  1603.2289   -38.6155
   83.0000     8.3603     0.0797     0.0187   150.9300     2.5112     7.6645     8.9250   330.9092   -38.3033
   83.5000     8.3617     0.0802     0.0189   147.3641     2.5060     7.6686     8.9280   407.1731   -38.8939
   84.0000     8.3781     0.0829     0.0175   146.5001     2.4994     7.6728     8.9310   242.2807   -41.0119
   84.5000     8.3795     0.0941     0.0162   148.1649     2.4890     7.7302     8.9340   300.1887   -42.4264
   85.0000     8.3810     0.0996     0.0134   149.8195     2.4801     7.7880     9.0615   230.7198   -42.1107
   85.5000     8.3675     0.1049     0.0106   147.7585     2.4727     7.8465     9.1907   199.4743   -41.5009
   86.0000     8.3690     0.1022     0.0077   143.3079     2.4833     8.0152     9.3219   296.2881   -40.8912
   86.5000     8.3556     0.0950     0.0079   140.7947     2.4925     8.1321     9.4549   673.9310   -40.2814
   87.0000     8.3421     0.0902     0.0081   139.7668     2.4992     8.3647     9.5943   985.8641   -39.6717
   87.5000     8.3440     0.0907     0.0083   139.7922     2.4925     8.4858     9.7380   806.4491   -38.7643
   88.0000     8.3302     0.0988     0.0100   142.4951     2.4851     8.7285    10.0036   384.5462   -37.8569
   88.5000     8.3469     0.0936     0.0117   140.2653     2.4972     8.8548    10.1463   434.8536   -37.2470
   89.0000     8.3331     0.0852     0.0118   139.5552     2.5078     8.8596    10.2911   243.4469   -36.4683
   89.5000     8.3498     0.0822     0.0165   141.0710     2.5109     8.9878    10.3660   441.3356   -34.8335
   90.0000     8.3512     0.0810     0.0152   142.5816     2.5124     8.9926    10.4414   459.9525   -32.5869
   90.5000     8.3527     0.0797     0.0154   142.2988     2.5140     9.1885    10.5904   351.3064   -30.1914
   91.0000     8.3690     0.0749     0.0160   140.8340     2.5246     9.2640    10.7415   207.4489   -28.5400
   91.5000     8.3705     0.0716     0.0248   139.6570     2.5285     9.3900    10.8948   184.3886   -27.0374
   92.0000     8.3723     0.0790     0.0250   139.8264     2.5169     9.2660    10.8985   636.1915   -25.5347
   92.5000     8.3585     0.0826     0.0206   137.0202     2.5039     9.2710    10.9023  1068.7957   -23.7345
   93.0000     8.3603     0.0927     0.0193   133.7619     2.4860     9.2121    10.9067   983.4312   -22.5295
   93.5000     8.3618     0.1020     0.0150   130.7819     2.4741     9.1523    10.9861   267.7119   -21.3221
   94.0000     8.3632     0.1064     0.0106   122.8744     2.4689     9.0327    10.9141   105.8419   -20.2659
   94.5000     8.3495     0.1061     0.0078   118.9198     2.4713     9.0376    10.7669    13.6467   -20.1026
   95.0000     8.3513     0.1039     0.0050   120.4356     2.4804     8.9182    10.4054     3.2784   -20.0881
   95.5000     8.3378     0.0980     0.0051   122.3933     2.4977     8.8005     9.9174     0.2366   -20.0736
   96.0000     8.3393     0.0844     0.0053   125.8414     2.5060     8.8666     9.9207    10.2035   -20.0590
   96.5000     8.3408     0.0853     0.0055   127.6502     2.5031     8.9339     9.7878     9.9224   -20.0445
   97.0000     8.3423     0.0822     0.0072   128.8628     2.5124     9.0632     9.7236     9.7840   -20.0298
   97.5000     8.3589     0.0768     0.0089   129.7773     2.5228     9.0681     9.6597     9.7146   -20.0149
   98.0000     8.3604     0.0726     0.0151   130.3938     2.5304     9.0730     9.7977     9.7802   -19.9973
   98.5000     8.3618     0.0693     0.0153   130.4141     2.5320     9.2043     9.8010     9.7781   -19.9828
   99.0000     8.3633     0.0710     0.0154   129.6503     2.5276     9.2093     9.8044     9.7829   -20.2696
   99.5000     8.3495     0.0761     0.0141   128.0754     2.5217     9.2142     9.8084    10.0480   -20.2514
  100.0000     8.3513     0.0808     0.0128   126.0094     2.5113     9.2192     9.8117    10.1865   -20.3857
  100.5000     8.3526     0.0886     0.0099   124.9865     2.5023     9.0971     9.9517     9.9842   -20.2262
  101.0000     8.3539     0.0892     0.0071   125.1559     2.4976     9.1665     9.9551    10.0597   -20.2143
  101.5000     8.3552     0.0825     0.0103   126.9646     2.5085     9.2351     9.9584     9.9949   -20.2000
  102.0000     8.3565     0.0795     0.0104   127.8792     2.5161     9.1752     9.8334     9.8656   -20.1883
  102.5000     8.3581     0.0773     0.0106   127.4524     2.5184     9.1169     9.8388     9.8020   -20.1766
  103.0000     8.3594     0.0768     0.0108   127.0253     2.5177     9.1231     9.8441     9.8095   -20.1649
  103.5000     8.3607     0.0746     0.0109   127.9603     2.5215     9.1281     9.7140     9.8155   -20.1532
  104.0000     8.3468     0.0704     0.0141   131.0015     2.5283     9.0075     9.7195     9.8216   -20.1415
  104.5000     8.3485     0.0620     0.0173   131.5577     2.5412     9.0125     9.7248     9.8276   -20.1298
