~VERSION INFORMATION
 VERS.                2.0:   CWLS LOG ASCII STANDARD - VERSION 2.0
 WRAP.                 NO:   ONE LINE PER DEPTH STEP
~WELL INFORMATION
#MNEM.UNIT      DATA TYPE    INFORMATION
#----------   ------------   ------------------------------
 STRT.F            8.5000:   START DEPTH
 STOP.F         2140.0000:   STOP DEPTH
 STEP.F            0.5000:   STEP LENGTH
 NULL.          -999.2500:   NO VALUE
 COMP. LAWRENCE/ALLISON INC:   COMPANY
 WELL.   11-61 SHX #61-11:   WELL
 FLD .             TEAPOT:   FIELD
 LOC .      S11 T38N R78W:   LOCATION
 CNTY.            NATRONA:   COUNTY
 STAT.            WYOMING:   STATE
 CTRY. UNITED STATES OF AMERICA:   COUNTRY
 SRVC.      NL McCullough:   SERVICE COMPANY
 DATE.        04-MAY-1988:   LOGDATE
 API .       490251115600:   API NUMBER
~CURVE INFORMATION
#MNEM.UNIT       API CODE    CURVE DESCRIPTION
#----------   ------------   ------------------------------
 DEPT.F                  :   
 GRR .GAPI   81 310 01 00:   GAMMY RAY
 ROP .FT/HR  91 810 01 00:   RAT OF DRILLING PENETRATION
 TGAS.TC/CC  91 830 01 00:   TOTAL GAS UNIT
~PARAMETER INFORMATION
#MNEM.UNIT          VALUE    DESCRIPTION
#----------   ------------   ------------------------------
 PD  .                 GL:   PERMANENT DATUM
 EPD .F              5135:   ELEVATION PERMANENT DATUM
 LMF .                 KB:   LOG MEASURED FROM
 DAPD.F                 8:   FEET ABOVE PERMANENT DATUM
 DMF .                 KB:   DRILLING MEASURED FROM
 EKB .F              5143:   KELLING BUSHING
 EGL .F              5135:   GROUND LEVEL
 DATE.        04-MAY-1988:   RUN DATE
 RUN .                  1:   RUN NUMBER
 DD  .F              2140:   DEPTH DRILLER
 DL  .F               572:   DEPTH LOGGER
 BLI .F               568:   BOTTOM LOG INTERVAL
 CS  .IN              5.5:   CASING SIZE
 CBD .F               622:   CASING BOTTOM DRILLER
 BSD .F              2140:   BIT SIZE AT DEPTH
 DFT .         KCL/ WATER:   DRILLING FLUID TYPE
 TCS .HRS               1:   TIME CURCULATED STOPPED
 ENGI.               DALY:   RECORDING ENGINEER
 WITN.           MR. LOWL:   WITNESSED BY
 CLNT.            A2DTECH:   CLIENT CODE
 ORIG.           5" PRINT:   ORIGIN OF DATA
 UWI .       490251115600:   UNIQUE WELL ID
 DICO. A2D Technologies, Inc.:   DIGITIZING COMPANY
~OTHER INFORMATION
~A    DEPT      GRR       ROP       TGAS   
# ...
 1100.5000  -999.2500     0.2831    -0.0545
 1101.0000  -999.2500     0.2832    -0.0470
 1101.5000  -999.2500     0.2833    -0.0394
 1102.0000  -999.2500     0.2834    -0.0274
 1102.5000  -999.2500     0.2738    -0.0135
 1103.0000  -999.2500     0.2721     0.0003
 1103.5000  -999.2500     0.2703     0.0142
 1104.0000  -999.2500     0.2686     0.0280
 1104.5000  -999.2500     0.2669     0.0419
 1105.0000  -999.2500     0.2651     0.0557
 1105.5000  -999.2500     0.2634     0.0696
 1106.0000  -999.2500     0.2617     0.0835
 1106.5000  -999.2500     0.2599     0.0973
 1107.0000  -999.2500     0.2582     0.1112
 1107.5000  -999.2500     0.2565     0.1250
 1108.0000  -999.2500     0.2547     0.1389
 1108.5000  -999.2500     0.2830     0.1527
 1109.0000  -999.2500     0.2830     0.1666
 1109.5000  -999.2500     0.2830     0.1805
 1110.0000  -999.2500     0.2830     0.1943
 1110.5000  -999.2500     0.2771     0.2082
 1111.0000  -999.2500     0.2736     0.2220
 1111.5000  -999.2500     0.2736     0.2359
 1112.0000  -999.2500     0.2774     0.2497
 1112.5000  -999.2500     0.2830     0.2636
 1113.0000  -999.2500     0.2830     0.2774
 1113.5000  -999.2500     0.2830     0.2913
 1114.0000  -999.2500     0.2830     0.3052
 1114.5000  -999.2500     0.2830     0.3190
 1115.0000  -999.2500     0.2736     0.3329
 1115.5000  -999.2500     0.2736     0.3467
 1116.0000  -999.2500     0.2736     0.3606
 1116.5000  -999.2500     0.2736     0.3744
 1117.0000  -999.2500     0.2736     0.3883
 1117.5000  -999.2500     0.2736     0.4022
 1118.0000  -999.2500     0.2736     0.4160
 1118.5000  -999.2500     0.2736     0.4299
 1119.0000  -999.2500     0.2736     0.4437
 1119.5000  -999.2500     0.2736     0.4576
 1120.0000  -999.2500     0.2736     0.4714
 1120.5000  -999.2500     0.2736     0.4853
 1121.0000  -999.2500     0.2736     0.4992
 1121.5000  -999.2500     0.2642     0.5130
 1122.0000  -999.2500     0.2642     0.5269
 1122.5000  -999.2500     0.2642     0.5407
 1123.0000  -999.2500     0.2642     0.5509
 1123.5000  -999.2500     0.2642     0.5547
 1124.0000  -999.2500     0.2642     0.5585
 1124.5000  -999.2500     0.2642     0.5623
 1125.0000  -999.2500     0.2642     0.5660
 1125.5000  -999.2500     0.2642     0.5698
 1126.0000  -999.2500     0.2642     0.5736
 1126.5000  -999.2500     0.2642     0.5774
 1127.0000  -999.2500     0.2642     0.5811
 1127.5000  -999.2500     0.2642     0.5849
 1128.0000  -999.2500     0.2642     0.5887
 1128.5000  -999.2500     0.2642     0.5925
 1129.0000  -999.2500     0.2642     0.5962
 1129.5000  -999.2500     0.2642     0.6000
 1130.0000  -999.2500     0.2642     0.6038
 1130.5000  -999.2500     0.2642     0.6075
 1131.0000  -999.2500     0.2642     0.6113
 1131.5000  -999.2500     0.2642     0.6151
 1132.0000  -999.2500     0.2642     0.6189
 1132.5000  -999.2500     0.2642     0.6226
 1133.0000  -999.2500     0.2642     0.6264
 1133.5000  -999.2500     0.2642     0.6302
 1134.0000  -999.2500     0.2642     0.6340
 1134.5000  -999.2500     0.2642     0.6377
 1135.0000  -999.2500     0.2642     0.6415
 1135.5000  -999.2500     0.2642     0.6453
 1136.0000  -999.2500     0.2642     0.6491
 1136.5000  -999.2500     0.2642     0.6528
 1137.0000  -999.2500     0.2642     0.6566
 1137.5000  -999.2500     0.2642     0.6604
 1138.0000  -999.2500     0.2642     0.6642
 1138.5000  -999.2500     0.2642     0.6679
 1139.0000  -999.2500     0.2642     0.6717
 1139.5000  -999.2500     0.2642     0.6755
 1140.0000  -999.2500     0.2642     0.6792
 1140.5000  -999.2500     0.2642     0.6830
 1141.0000  -999.2500     0.2736     0.6868
 1141.5000  -999.2500     0.2736     0.6906
 1142.0000  -999.2500     0.2736     0.6943
 1142.5000  -999.2500     0.2841     0.6981
 1143.0000  -999.2500     0.3396     0.7019
 1143.5000  -999.2500     0.3679     0.7057
 1144.0000  -999.2500     0.3679     0.7094
 1144.5000  -999.2500     0.3679     0.7132
 1145.0000  -999.2500     0.3679     0.7170
 1145.5000  -999.2500     0.3679     0.7208
 1146.0000  -999.2500     0.3679     0.7245
 1146.5000  -999.2500     0.3679     0.7283
 1147.0000  -999.2500     0.3679     0.7321
 1147.5000  -999.2500     0.3693     0.7358
 1148.0000  -999.2500     0.3774     0.7396
 1148.5000  -999.2500     0.3868     0.7434
 1149.0000  -999.2500     0.3962     0.7472
 1149.5000  -999.2500     0.3868     0.7509
 1150.0000  -999.2500     0.3868     0.7547
 1150.5000  -999.2500     0.3868     0.7585
 1151.0000  -999.2500     0.3868     0.7623
 1151.5000  -999.2500     0.3868     0.7653
 1152.0000  -999.2500     0.3868     0.7676
 1152.5000  -999.2500     0.3868     0.7700
 1153.0000  -999.2500     0.3868     0.7723
 1153.5000  -999.2500     0.3774     0.7747
 1154.0000  -999.2500     0.3774     0.7770
 1154.5000  -999.2500     0.3774     0.7794
 1155.0000  -999.2500     0.3774     0.7818
 1155.5000  -999.2500     0.3679     0.7841
 1156.0000  -999.2500     0.3691     0.7865
 1156.5000  -999.2500     0.3692     0.7888
 1157.0000  -999.2500     0.3693     0.7912
 1157.5000  -999.2500     0.3693     0.7936
 1158.0000  -999.2500     0.3789     0.7959
 1158.5000  -999.2500     0.3902     0.7983
 1159.0000  -999.2500     0.3979     0.8006
 1159.5000  -999.2500     0.3980     0.8030
 1160.0000  -999.2500     0.3981     0.8054
 1160.5000  -999.2500     0.4076     0.8077
 1161.0000  -999.2500     0.4077     0.8101
 1161.5000  -999.2500     0.4078     0.8124
 1162.0000  -999.2500     0.4079     0.8148
 1162.5000  -999.2500     0.4080     0.8172
 1163.0000  -999.2500     0.3987     0.8195
 1163.5000  -999.2500     0.3988     0.8219
 1164.0000  -999.2500     0.3989     0.4389
 1164.5000  -999.2500     0.3990     0.4341
 1165.0000  -999.2500     0.3991     0.4294
 1165.5000  -999.2500     0.3992     0.4246
 1166.0000  -999.2500     0.3898     0.4199
 1166.5000  -999.2500     0.3899     0.4151
 1167.0000  -999.2500     0.3900     0.4104
 1167.5000  -999.2500     0.3901     0.4056
 1168.0000  -999.2500     0.3902     0.4009
 1168.5000  -999.2500     0.3903     0.3961
 1169.0000  -999.2500     0.3904     0.3914
 1169.5000  -999.2500     0.3905     0.3866
 1170.0000  -999.2500     0.3906     0.3819
 1170.5000  -999.2500     0.3907     0.3771
 1171.0000  -999.2500     0.3813     0.3724
 1171.5000  -999.2500     0.3814     0.3676
 1172.0000  -999.2500     0.3815     0.3629
 1172.5000  -999.2500     0.3816     0.3581
 1173.0000  -999.2500     0.3817     0.3534
 1173.5000  -999.2500     0.3818     0.3486
 1174.0000  -999.2500     0.3819     0.3439
 1174.5000  -999.2500     0.3820     0.3391
 1175.0000  -999.2500     0.3821     0.3344
 1175.5000  -999.2500     0.3822     0.3296
 1176.0000  -999.2500     0.3728     0.3248
 1176.5000  -999.2500     0.3729     0.3201
 1177.0000  -999.2500     0.3730     0.3153
 1177.5000  -999.2500     0.3731     0.3106
 1178.0000  -999.2500     0.3732     0.3058
 1178.5000  -999.2500     0.3733     0.3011
 1179.0000  -999.2500     0.3734     0.2963
 1179.5000  -999.2500     0.3735     0.2916
 1180.0000  -999.2500     0.3736     0.2868
 1180.5000  -999.2500     0.3737     0.2821
 1181.0000  -999.2500     0.3738     0.2773
 1181.5000  -999.2500     0.3739     0.2726
 1182.0000  -999.2500     0.3740     0.2678
 1182.5000  -999.2500     0.3741     0.2631
 1183.0000  -999.2500     0.3742     0.2583
 1183.5000  -999.2500     0.2988     0.2536
 1184.0000  -999.2500     0.2706     0.2488
 1184.5000  -999.2500     0.2707     0.2441
 1185.0000  -999.2500     0.2708     0.2393
 1185.5000  -999.2500     0.2708     0.2346
 1186.0000  -999.2500     0.2709     0.2298
 1186.5000  -999.2500     0.2710     0.2251
 1187.0000  -999.2500     0.2711     0.2203
 1187.5000  -999.2500     0.2712     0.2156
 1188.0000  -999.2500     0.2713     0.2108
 1188.5000  -999.2500     0.2714     0.2061
 1189.0000  -999.2500     0.2715     0.2013
 1189.5000  -999.2500     0.2716     0.1965
 1190.0000  -999.2500     0.2717     0.1918
 1190.5000  -999.2500     0.2718     0.1870
 1191.0000  -999.2500     0.2749     0.1823
