~VERSION INFORMATION
 VERS.                2.0:   CWLS LOG ASCII STANDARD - VERSION 2.0
 WRAP.                 NO:   ONE LINE PER DEPTH STEP
~WELL INFORMATION
#MNEM.UNIT      DATA TYPE    INFORMATION
#----------   ------------   ------------------------------
 STRT.F           34.0000:   START DEPTH
 STOP.F          496.0000:   STOP DEPTH
 STEP.F            0.5000:   STEP LENGTH
 NULL.          -999.2500:   NO VALUE
 COMP. LAWRENCE/ALLISON INC:   COMPANY
 WELL.   55-55 SX FI #3-3:   WELL
 FLD .             TEAPOT:   FIELD
 LOC .       S3 T38N R78W:   LOCATION
 CNTY.            NATRONA:   COUNTY
 STAT.            WYOMING:   STATE
 CTRY. UNITED STATES OF AMERICA:   COUNTRY
 SRVC.       Schlumberger:   SERVICE COMPANY
 DATE.        18-JUL-1982:   LOGDATE
 API .       490251089500:   API NUMBER
~CURVE INFORMATION
#MNEM.UNIT       API CODE    CURVE DESCRIPTION
#----------   ------------   ------------------------------
 DEPT.F                  :   
 CALD.IN     45 280 60 00:   CALIPER FROM DENSITY LOG
 GRD .GAPI   45 310 01 00:   GAMMA RAY FROM DENSITY LOG
 CORR.G/C3   45 356 01 00:   DENSITY CORRECTION
 RHOB.G/C3   45 350 01 00:   BULK DENSITY
 DPHI.DEC    45 890 12 00:   DENSITY POROSITY SANDSTONE
 SPR .MV     07 010 01 00:   SPONTANEOUS POTENTIAL
 ILD .OHMM   07 120 46 00:   INDUCTION LOG DEEP
 ILM .OHMM   07 120 44 00:   INDUCTION LOG MEDIUM
 SFL .OHMM   07 220 01 00:   SHALLOW FOCUSED LOG RESISTIVITY
~PARAMETER INFORMATION
#MNEM.UNIT          VALUE    DESCRIPTION
#----------   ------------   ------------------------------
 PD  .                 GL:   PERMANENT DATUM
 EPD .F              5167:   ELEVATION PERMANENT DATUM
 LMF .                 KB:   LOG MEASURED FROM
 DAPD.F                 9:   FEET ABOVE PERMANENT DATUM
 DMF .                 KB:   DRILLING MEASURED FROM
 EKB .F              5176:   KELLING BUSHING
 EDF .F                  :   DRILLING FLOOR
 EGL .F              5167:   GROUND LEVEL
 DATE.        18-JUL-1982:   RUN DATE
 RUN .                  1:   RUN NUMBER
 DD  .F               500:   DEPTH DRILLER
 DL  .F               499:   DEPTH LOGGER
 BLI .F               436:   BOTTOM LOG INTERVAL
 TLI .F                50:   TOP LOG INTERVAL
 CS  .IN           13.375:   CASING SIZE
 CBD .F                50:   CASING BOTTOM DRILLER
 CBL .F                50:   CASING BOTTOM LOGGER
 BS  .IN            12.25:   BIT SIZE
 BSD .F               500:   BIT SIZE AT DEPTH
 DFT .         KCL FILLED:   DRILLING FLUID TYPE
 DFD .                   :   DRILLING FLUID DENSITY
 DFV .                   :   DRILLING FLUID VISCOSITY
 DFPH.                   :   DRILLING FLUID PH
 DFL .                   :   DRILLING FLUID LOSS
 MSS .           WELLHEAD:   MUD SAMPLE SOURCE
 RMS .OHMM           2.82:   RESISTIVITY MUD SAMPLE
 MST .F                80:   MUD SAMPLE TEMPERATURE
 RMF .OHMM               :   RESISTIVITY MUD FILTRATE SAMPLE
 MFST.F                  :   MUD FILTRATE SAMPLE TEMPERATURE
 RMC .OHMM               :   RESISTIVITY MUD CAKE
 MCST.F                  :   MUD CAKE SAMPLE TEMPERATURE
 MFSS.                   :   MUD FILTRATE SAMPLE SOURCE
 MCSS.                   :   MUD CAKE SAMPLE SOURCE
 RMB .OHMM           2.62:   RESISTIVITY MUD AT BHT
 BHT .F                86:   BOTTOM HOLE TEMPERATURE
 TCS .HRS            1530:   TIME CURCULATED STOPPED
 TLAB.HRS            1800:   TIME LOGGER AT BOTTOM
 MRT .F                86:   MAXIMUM RECORDED TEMPERATURE
 LUN .               8035:   LOGGING UNIT NUMBER
 LUL .             CASPER:   LOGGING UNIT LOCATION
 ENGI.              PENNY:   RECORDING ENGINEER
 WITN.             TAYLOR:   WITNESSED BY
 CLNT.            A2DTECH:   CLIENT CODE
 ORIG.           5" PRINT:   ORIGIN OF DATA
 UWI .       490251089500:   UNIQUE WELL ID
 DICO. A2D Technologies, Inc.:   DIGITIZING COMPANY
 OS  .                   :   OTHER SERVICES
 PWI .                   :   PRIMARY WELL IDENTIFIER
 R1  . POROSITY WITH SANDSTONE:   REMARKS 1
 R2  .                   :   REMARKS 2
 LSRV.                   :   LOG MNEMONIC
~OTHER INFORMATION
~A   DEPT     CALD         GRD      CORR       RHOB       DPHI        SPR        ILD        ILM        SFL   
   34.0000  -999.2500    93.5890  -999.2500  -999.2500  -999.2500  -999.2500  -999.2500  -999.2500  -999.2500
   34.5000  -999.2500    92.6733  -999.2500  -999.2500  -999.2500  -999.2500  -999.2500  -999.2500  -999.2500
   35.0000  -999.2500    91.9833  -999.2500  -999.2500  -999.2500  -999.2500  -999.2500  -999.2500  -999.2500
   35.5000  -999.2500    92.6466  -999.2500  -999.2500  -999.2500  -999.2500  -999.2500  -999.2500  -999.2500
   36.0000  -999.2500    93.5355  -999.2500  -999.2500  -999.2500  -999.2500  -999.2500  -999.2500  -999.2500
   36.5000  -999.2500    94.8755  -999.2500  -999.2500  -999.2500  -999.2500  -999.2500  -999.2500  -999.2500
   37.0000  -999.2500    96.6667  -999.2500  -999.2500  -999.2500  -999.2500  -999.2500  -999.2500  -999.2500
   37.5000  -999.2500    95.7510  -999.2500  -999.2500  -999.2500  -999.2500  -999.2500  -999.2500  -999.2500
   38.0000  -999.2500    93.7076  -999.2500  -999.2500  -999.2500  -999.2500  -999.2500  -999.2500  -999.2500
   38.5000  -999.2500    93.6942  -999.2500  -999.2500  -999.2500  -999.2500  -999.2500  -999.2500  -999.2500
   39.0000  -999.2500    94.5831  -999.2500  -999.2500  -999.2500  -999.2500  -999.2500  -999.2500  -999.2500
   39.5000  -999.2500    98.1788  -999.2500  -999.2500  -999.2500  -999.2500  -999.2500  -999.2500  -999.2500
   40.0000  -999.2500    92.3008  -999.2500  -999.2500  -999.2500  -999.2500  -999.2500  -999.2500  -999.2500
   40.5000  -999.2500    89.2757  -999.2500  -999.2500  -999.2500  -999.2500  -999.2500  -999.2500  -999.2500
   41.0000  -999.2500    84.6045  -999.2500  -999.2500  -999.2500  -999.2500  -999.2500  -999.2500  -999.2500
   41.5000  -999.2500    84.8841  -999.2500  -999.2500  -999.2500  -999.2500  -999.2500  -999.2500  -999.2500
   42.0000  -999.2500    87.2815  -999.2500  -999.2500  -999.2500  -999.2500  -999.2500  -999.2500  -999.2500
   42.5000  -999.2500    89.2982  -999.2500  -999.2500  -999.2500  -999.2500  -999.2500  -999.2500  -999.2500
   43.0000  -999.2500    91.5439  -999.2500  -999.2500  -999.2500  -999.2500  -999.2500  -999.2500  -999.2500
   43.5000  -999.2500    89.9482  -999.2500  -999.2500  -999.2500  -999.2500  -999.2500  -999.2500  -999.2500
   44.0000  -999.2500    88.1303  -999.2500  -999.2500  -999.2500  -999.2500  -999.2500  -999.2500  -999.2500
   44.5000  -999.2500    86.9891  -999.2500  -999.2500  -999.2500  -999.2500  -999.2500  -999.2500  -999.2500
   45.0000  -999.2500    85.1713  -999.2500  -999.2500  -999.2500  -999.2500  -999.2500  -999.2500  -999.2500
   45.5000  -999.2500    83.5789  -999.2500  -999.2500  -999.2500  -999.2500  -999.2500  -999.2500  -999.2500
   46.0000  -999.2500    83.5656  -999.2500  -999.2500  -999.2500  -999.2500  -999.2500  -999.2500  -999.2500
   46.5000  -999.2500    85.1312  -999.2500  -999.2500  -999.2500  -999.2500  -999.2500  -999.2500  -999.2500
   47.0000  -999.2500    86.6967  -999.2500  -999.2500  -999.2500  -999.2500  -999.2500  -999.2500  -999.2500
   47.5000  -999.2500    91.1947  -999.2500  -999.2500  -999.2500  -999.2500  -999.2500  -999.2500  -999.2500
   48.0000  -999.2500    91.8613  -999.2500  -999.2500  -999.2500  -999.2500  -999.2500  -999.2500  -999.2500
   48.5000  -999.2500    88.6867  -999.2500  -999.2500  -999.2500  -999.2500  -999.2500  -999.2500  -999.2500
   49.0000  -999.2500    87.0944  -999.2500  -999.2500  -999.2500  -999.2500  -999.2500  -999.2500  -999.2500
   49.5000  -999.2500    89.7878  -999.2500  -999.2500  -999.2500  -999.2500  -999.2500  -999.2500  -999.2500
   50.0000  -999.2500    99.6992  -999.2500  -999.2500  -999.2500  -999.2500  -999.2500  -999.2500  -999.2500
   50.5000    12.5702   114.9004    -0.0039     2.4896     0.1150    20.3504  -999.2500     1.6071  1079.7900
   51.0000    12.5373   120.5365    -0.0030     2.4705     0.1214    20.9416  -999.2500     1.5883  1256.4681
   51.5000    12.5077   124.3466     0.0056     2.4369     0.1379    21.2353  -999.2500     4.7812  1799.6254
   52.0000    12.5062   127.1612    -0.0010     2.4238     0.1532    20.8723  -999.2500    11.1128  1849.3579
   52.5000    12.5050   129.1779     0.0042     2.4214     0.1557     9.5035     4.1465     5.1951  1861.1587
   53.0000    12.4888   130.5180     0.0019     2.4191     0.1567    -6.6856     2.5225     2.7053  1837.6600
   53.5000    12.4729   128.9256    -0.0043     2.4098     0.1607   -17.8682     4.5825     3.0330  1133.8708
   54.0000    12.4867   121.4687    -0.0036     2.3958     0.1684   -25.0499    13.9630     3.4748   289.1865
   54.5000    12.5153   112.4327     0.0100     2.3829     0.1756   -27.0324   655.8802     3.9588    22.1537
   55.0000    12.5593   104.0735     0.0539     2.3820     0.1787   -28.2385   932.9844     4.6762     6.1550
   55.5000    12.5731    95.7143     0.1106     2.3247     0.1975   -29.4257   234.9874     6.1433     4.1466
   56.0000    12.7223    84.1972     0.1643     2.0026     0.2347   -29.5888    26.5059     5.7277     3.5590
   56.5000    12.8715    72.4545     0.0711     1.9561     0.3164   -29.4386     5.8529     4.5868     2.8505
   57.0000    13.3966    69.7377     0.0172     1.9821     0.3066   -29.4464     5.8902     4.0749     3.1170
   57.5000    13.2751    72.8789    -0.0351     2.0461     0.3012   -29.4540     6.0080     5.1166     4.5582
   58.0000    12.7927    75.3467    -0.0390     2.2772     0.2974   -29.6113     6.4339     6.0368     7.5497
   58.5000    12.4306    77.5890    -0.0103     2.4073     0.1651   -29.9183     7.0346     6.6924     8.9706
   59.0000    12.4144    76.8989    -0.0080     2.4300     0.1484   -30.5247     7.4812     7.2167     8.5416
   59.5000    12.4283    75.7577    -0.0028     2.4332     0.1490   -31.1311     7.6339     7.3642     7.9111
   60.0000    12.4271    74.6165    -0.0031     2.4276     0.1512   -31.5878     7.5739     7.1076     7.4293
   60.5000    12.4259    74.1520    -0.0045     2.4199     0.1534   -31.8948     7.4640     7.2016     7.5809
   61.0000    12.4247    76.5064    -0.0038     2.4175     0.1562   -32.2018     7.3557     7.3476     7.8445
   61.5000    12.4232    80.5759    -0.0031     2.4197     0.1574   -32.5088     7.2993     7.2918     7.9494
   62.0000    12.4220    84.7101    -0.0016     2.4219     0.1545   -32.8158     7.2948     7.1866     7.6737
   62.5000    12.4058    85.8246    -0.0002     2.4267     0.1511   -33.1213     7.2895     7.1816     7.5640
   63.0000    12.4046    83.1044    -0.0025     2.4361     0.1469   -33.4441     7.3855     7.2766     7.5076
   63.5000    12.4034    78.8054    -0.0003     2.4459     0.1403   -33.8917     7.4827     7.2715     7.5034
   64.0000    12.4023    77.6642     0.0041     2.4565     0.1357   -34.1916     7.5813     7.2664     7.5524
   64.5000    12.4161    79.0042     0.0064     2.4701     0.1269   -34.6483     7.6281     7.3131     7.6095
   65.0000    12.4149    82.1487     0.0002     2.4730     0.1236   -34.9553     7.6752     7.3067     7.7092
   65.5000    12.4288    84.8421     0.0062     2.4607     0.1259   -35.4120     7.7227     7.3536     7.8101
   66.0000    12.4429    87.3099     0.0031     2.4553     0.1310   -35.5693     7.7167     7.3472     7.8549
   66.5000    12.4568    86.6199     0.0008     2.4552     0.1341   -35.8763     7.7108     7.2914     7.8498
   67.0000    12.4703    84.8020     0.0022     2.4559     0.1342   -36.1833     7.5989     7.1367     7.7383
   67.5000    12.4691    83.8864     0.0082     2.4588     0.1321   -36.7897     7.4886     7.0337     7.6277
   68.0000    12.4679    83.4219     0.0165     2.4641     0.1291   -37.0967     7.3799     6.9803     7.5709
   68.5000    12.4668    84.0852     0.0187     2.4686     0.1264   -37.4037     7.3233     6.9754     7.4626
   69.0000    12.4505    85.6508     0.0113     2.4616     0.1280   -37.7107     7.2672     7.0202     7.4070
   69.5000    12.4493    87.4419     0.0034     2.4546     0.1344   -38.0177     7.3135     7.0718     7.4029
   70.0000    12.4180    85.3985     0.0109     2.4568     0.1287   -38.3247     7.3587     7.2137     7.4512
