~VERSION INFORMATION
 VERS.                2.0:   CWLS LOG ASCII STANDARD - VERSION 2.0
 WRAP.                 NO:   ONE LINE PER DEPTH STEP
~WELL INFORMATION
#MNEM.UNIT      DATA TYPE    INFORMATION
#----------   ------------   ------------------------------
 STRT.F           32.0000:   START DEPTH
 STOP.F          662.0000:   STOP DEPTH
 STEP.F            0.5000:   STEP LENGTH
 NULL.          -999.2500:   NO VALUE
 COMP.    FENIX & SCISSON:   COMPANY
 WELL.   NPR 67SX34 #3-34:   WELL
 FLD .             TEAPOT:   FIELD
 LOC .      S34 T39N R78W:   LOCATION
 CNTY.            NATRONA:   COUNTY
 STAT.            WYOMING:   STATE
 CTRY. UNITED STATES OF AMERICA:   COUNTRY
 SRVC.            Unknown:   SERVICE COMPANY
 DATE.        03-SEP-1978:   LOGDATE
 API .       490251070500:   API NUMBER
~CURVE INFORMATION
#MNEM.UNIT       API CODE    CURVE DESCRIPTION
#----------   ------------   ------------------------------
 DEPT.F                  :   
 ILD .OHMM   05 120 46 00:   INDUCTION LOG DEEP
 SN  .OHMM   05 040 00 00:   SHORT NORMAL
 SPR .MV     05 010 01 00:   SPONTANEOUS POTENTIAL FROM RES.
 CALD.IN     45 280 60 00:   CALIPER FROM DENSITY LOG
 DEN .G/C3   45 350 01 00:   COMPENSATED BULK DENSTIY
 DPHI.DEC    45 890 12 00:   DENSITY POROSITY SANDSTONE
 DRHO.G/C3   45 356 01 00:   DENSITY CORRECTION
 GRD .GAPI   45 310 01 00:   GAMMA RAY FROM DENSITY LOG
~PARAMETER INFORMATION
#MNEM.UNIT          VALUE    DESCRIPTION
#----------   ------------   ------------------------------
 PD  .                 GL:   PERMANENT DATUM
 EPD .F              5076:   ELEVATION PERMANENT DATUM
 LMF .                 KB:   LOG MEASURED FROM
 DAPD.F                 4:   FEET ABOVE PERMANENT DATUM
 DMF .                 KB:   DRILLING MEASURED FROM
 EKB .F              5080:   KELLING BUSHING
 EGL .F              5076:   GROUND LEVEL
 DATE.        03-SEP-1978:   RUN DATE
 RUN .                  1:   RUN NUMBER
 DD  .F               660:   DEPTH DRILLER
 DL  .F               662:   DEPTH LOGGER
 BLI .F               662:   BOTTOM LOG INTERVAL
 TLI .F                40:   TOP LOG INTERVAL
 CS  .IN            8.625:   CASING SIZE
 CBD .F                40:   CASING BOTTOM DRILLER
 BS  .IN            7.875:   BIT SIZE
 BSD .F               660:   BIT SIZE AT DEPTH
 DFT .                KCL:   DRILLING FLUID TYPE
 DFD .                9.0:   DRILLING FLUID DENSITY
 DFV .                 34:   DRILLING FLUID VISCOSITY
 MSS .           FLOWLINE:   MUD SAMPLE SOURCE
 RMS .OHMM            1.4:   RESISTIVITY MUD SAMPLE
 MST .F                65:   MUD SAMPLE TEMPERATURE
 RMF .OHMM            3.2:   RESISTIVITY MUD FILTRATE SAMPLE
 MFST.F                77:   MUD FILTRATE SAMPLE TEMPERATURE
 RMC .OHMM            2.1:   RESISTIVITY MUD CAKE
 MCST.F                78:   MUD CAKE SAMPLE TEMPERATURE
 MFSS.               MEAS:   MUD FILTRATE SAMPLE SOURCE
 TCS .HRS               1:   TIME CURCULATED STOPPED
 LUN .               3006:   LOGGING UNIT NUMBER
 LUL .               CASP:   LOGGING UNIT LOCATION
 ENGI.             MILLER:   RECORDING ENGINEER
 WITN.           MCGINLEY:   WITNESSED BY
 CLNT.            A2DTECH:   CLIENT CODE
 ORIG.        2" 5" PRINT:   ORIGIN OF DATA
 UWI .       490251070500:   UNIQUE WELL ID
 DICO. A2D Technologies, Inc.:   DIGITIZING COMPANY
~OTHER INFORMATION
~A   DEPT      ILD         SN        SPR       CALD        DEN       DPHI       DRHO         GRD  
# ...
  599.0000     7.0401     7.3692   -14.2919     7.7758     2.4873     0.1274     0.0391    81.9913
  599.5000     6.7431     7.1190   -14.5891     7.7610     2.4835     0.1274     0.0376    81.1000
  600.0000     6.3465     6.8299   -14.4359     7.7786     2.4827     0.1314     0.0285    78.2712
  600.5000     5.9635     6.5970   -14.4344     7.7598     2.4790     0.1425     0.0270    77.8241
  601.0000     5.7212     6.4543   -14.2826     7.7031     2.4700     0.1407     0.0255    79.0164
  601.5000     5.6426     6.2837   -14.1198     7.6887     2.4609     0.1422     0.0300    80.0596
  602.0000     5.6818     6.1967   -13.6780     7.7046     2.4594     0.1692     0.0285    80.0596
  602.5000     5.8009     6.1532   -13.5262     7.7202     2.4497     0.1698     0.0285    80.2086
  603.0000     5.9688     6.1996   -13.0736     7.7060     2.4264     0.1572     0.0345    83.1893
  603.5000     6.3027     6.4118   -12.6120     7.7071     2.4286     0.1335     0.0586    90.7899
  604.0000     6.6612     6.7753   -12.0178     7.7673     2.4752     0.1130     0.0781    97.7943
  604.5000     7.1876     7.4111   -11.4149     7.7828     2.4992     0.1110     0.0601    94.8137
  605.0000     7.7184     7.9513   -10.8120     7.7387     2.5090     0.1218     0.0480    86.2695
  605.5000     8.3109     8.7452   -10.6602     7.6947     2.5070     0.1275     0.0480    80.5067
  606.0000     8.6630     9.1774   -10.6584     7.6508     2.4932     0.1101     0.0526    78.4203
  606.5000     9.0299     9.5646   -10.6570     7.6366     2.4961     0.1014     0.0706    79.0164
  607.0000     9.2879     9.6964   -10.5052     7.6224     2.5209     0.1038     0.0721    79.9106
  607.5000     9.6764     9.8301   -10.5038     7.6233     2.5217     0.1044     0.0721    80.6557
  608.0000     9.9478     9.9084   -10.5020     7.6240     2.5171     0.1104     0.0706    79.6125
  608.5000    10.0863    10.0330   -10.5008     7.5799     2.5134     0.1083     0.0691    80.8525
  609.0000    10.2268    10.1476   -10.4992     7.5359     2.5134     0.1134     0.0676    81.5499
  609.5000    10.3692    10.3111   -10.4977     7.4769     2.5149     0.1068     0.0692    80.8048
  610.0000    10.5136    10.3816   -10.4960     7.4328     2.5044     0.1005     0.0721    79.0164
  610.5000    10.5865    10.4522   -10.4946     7.3888     2.5149     0.0983     0.0811    75.8867
  611.0000    10.6615    10.6308   -10.4931     7.3746     2.5284     0.1011     0.0946    75.2906
  611.5000    10.8084    10.8165   -10.4917     7.4203     2.5261     0.1029     0.1006    74.9925
  612.0000    10.9589    10.9656   -10.4900     7.4658     2.5238     0.1025     0.1021    78.2712
  612.5000    10.9589    10.9638   -10.4885     7.5113     2.5231     0.1005     0.1051    83.1893
  613.0000    10.9589    10.9623   -10.6379     7.5418     2.5231     0.1032     0.1067    81.1206
  613.5000    10.9589    10.9609   -10.7865     7.5724     2.5231     0.1011     0.1156    76.9300
  614.0000    10.9589    10.9448   -10.9353     7.5897     2.5231     0.0950     0.1216    75.2906
  614.5000    10.9589    10.8822   -11.0844     7.6337     2.5261     0.0905     0.1306    75.4396
  615.0000    10.9589    10.8808   -11.2330     7.6343     2.5696     0.0881     0.1486    76.6319
  615.5000    10.9589    10.8794   -11.0812     7.6352     2.5501     0.0851     0.1276    77.9732
  616.0000    10.9589    10.8027   -10.9294     7.6208     2.5440     0.0946     0.1126    78.2712
  616.5000    10.9589    10.8013   -11.0784     7.6217     2.5395     0.1014     0.1034    74.6945
  617.0000    10.9589    10.7999   -11.0766     7.6373     2.5290     0.0998     0.0856    75.1416
  617.5000    10.9589    10.7985   -11.0752     7.6381     2.5260     0.1110     0.0646    77.6751
  618.0000    10.9589    10.7224   -11.0734     7.6539     2.5253     0.1218     0.0526    78.7183
  618.5000    10.9589    10.7212   -11.0720     7.6695     2.5072     0.1245     0.0405    78.1222
  619.0000    10.8834    10.7196   -10.9202     7.7001     2.4952     0.1275     0.0285    77.8241
  619.5000    10.9589    10.7182   -10.7684     7.7242     2.4877     0.1266     0.0300    77.8241
  620.0000    10.9589    10.7165   -10.4659     7.7527     2.4869     0.1238     0.0301    70.9687
  620.5000    10.8834    10.6413   -10.4645     7.7920     2.4884     0.1194     0.0315    68.7332
  621.0000    10.8084    10.6399   -10.4630     7.8397     2.4899     0.1134     0.0360    65.9016
  621.5000    10.6600    10.4925   -10.7624     7.8979     2.4922     0.1077     0.0420    65.1565
  622.0000    10.5865    10.3468   -11.0617     7.9434     2.5072     0.1056     0.0495    68.5842
  622.5000    10.5136    10.2035   -11.5111     7.9441     2.5169     0.1116     0.0420    75.2906
  623.0000    10.5136    10.1319   -11.6604     7.9297     2.5230     0.1146     0.0345    74.3726
  623.5000    10.4411    10.1086   -11.8090     7.9008     2.5183     0.1167     0.0300    73.5022
  624.0000    10.3692    10.0530   -11.8072     7.9015     2.5026     0.1164     0.0285    74.0984
  624.5000    10.1563     9.9199   -12.1066     7.8576     2.5011     0.1188     0.0285    74.5455
  625.0000    10.0168     9.8503   -12.2559     7.8432     2.5011     0.1170     0.0285    74.5455
  625.5000     9.9478     9.8490   -12.5549     7.8290     2.4981     0.1149     0.0270    74.6945
  626.0000     9.8792     9.7799   -12.8542     7.8001     2.4959     0.1179     0.0225    75.8867
  626.5000     9.8112     9.7110   -12.8524     7.8008     2.5019     0.1212     0.0195    81.5499
  627.0000     9.8112     9.6429   -12.8510     7.8015     2.5018     0.1242     0.0165    81.6990
  627.5000     9.7436     9.6416   -12.8496     7.8022     2.4936     0.1218     0.0150    80.0596
  628.0000     9.6764     9.5739   -12.8481     7.8031     2.4891     0.1162     0.0150    79.0164
  628.5000     9.7436     9.5724   -12.8464     7.8337     2.4951     0.1143     0.0195    80.5067
  629.0000     9.6764     9.5052   -12.9957     7.8493     2.5041     0.1137     0.0225    83.9583
  629.5000     9.6764     9.5040   -12.9940     7.8948     2.5048     0.1109     0.0240    82.2951
  630.0000     9.5435     9.1717   -12.9925     7.9105     2.5086     0.1020     0.0240    80.3179
  630.5000     9.4124     8.8669   -12.9910     7.9261     2.5161     0.0998     0.0225    80.9538
  631.0000     9.2192     8.6839   -13.1397     7.9418     2.5259     0.1047     0.0240    81.8480
  631.5000     9.0299     8.5046   -13.1383     7.9576     2.5213     0.1059     0.0240    82.8912
  632.0000     8.7231     8.3868   -13.1368     7.9583     2.5168     0.1101     0.0240    79.9106
  632.5000     8.4851     8.3277   -13.1351     7.9590     2.5145     0.1140     0.0255    78.4203
  633.0000     8.3686     8.3266   -13.2844     7.9648     2.5048     0.1097     0.0300    78.4203
  633.5000     8.3109     8.3835   -13.1323     7.9754     2.5100     0.1065     0.0390    78.4441
  634.0000     8.3109     8.3821   -13.1308     7.9761     2.5175     0.1119     0.0450    79.9106
  634.5000     8.2536     8.3231   -13.1291     7.9918     2.5159     0.1077     0.0435    82.5931
  635.0000     8.1968     8.3220   -13.1277     8.0076     2.5130     0.1050     0.0435    84.6796
  635.5000     8.0842     8.2636   -13.2766     8.0232     2.5145     0.1065     0.0435    85.4247
  636.0000     7.9732     8.2625   -13.2892     8.0089     2.5182     0.1050     0.0450    83.7854
  636.5000     7.8637     8.1478   -13.7246     7.9946     2.5182     0.0977     0.0465    83.3383
  637.0000     7.8095     8.0907   -13.8739     7.9806     2.5197     0.0911     0.0511    84.0835
  637.5000     7.7022     8.0711   -14.0225     7.9664     2.5302     0.0908     0.0526    85.8718
  638.0000     7.6491     8.0329   -13.8707     7.9672     2.5512     0.0962     0.0511    83.3383
  638.5000     7.5441     8.0318   -13.8689     7.9680     2.5437     0.0974     0.0480    82.8912
  639.0000     7.4921     7.9752   -13.8677     7.9688     2.5339     0.1074     0.0450    83.4873
