~VERSION INFORMATION
 VERS.                2.0:   CWLS LOG ASCII STANDARD - VERSION 2.0
 WRAP.                 NO:   ONE LINE PER DEPTH STEP
~WELL INFORMATION
#MNEM.UNIT      DATA TYPE    INFORMATION
#----------   ------------   ------------------------------
 STRT.F           89.0000:   START DEPTH
 STOP.F         1360.0000:   STOP DEPTH
 STEP.F            0.5000:   STEP LENGTH
 NULL.          -999.2500:   NO VALUE
 COMP.           U S NAVY:   COMPANY
 WELL.     NPR 3 #85 S-11:   WELL
 FLD .             TEAPOT:   FIELD
 LOC .      S11 T38N R78W:   LOCATION
 CNTY.            NATRONA:   COUNTY
 STAT.            WYOMING:   STATE
 CTRY. UNITED STATES OF AMERICA:   COUNTRY
 SRVC.       Schlumberger:   SERVICE COMPANY
 DATE.        15-AUG-1966:   LOGDATE
 API .       490250959000:   API NUMBER
~CURVE INFORMATION
#MNEM.UNIT       API CODE    CURVE DESCRIPTION
#----------   ------------   ------------------------------
 DEPT.F                  :   
 SPR .MV     05 010 01 00:   SPONTANEOUS POTENTIAL FROM RES.
 CILD.MMHO   05 110 46 00:   CONDUCTIVITY INDUCTION LOG DEEP
 ASN .OHMM   05 041 16 00:   AMPLIFIED SHORT NORMAL 16"
 ILD .OHMM   05 120 46 00:   INDUCTION LOG DEEP
 GR  .GAPI   30 310 01 00:   GAMMA RAY
~PARAMETER INFORMATION
#MNEM.UNIT          VALUE    DESCRIPTION
#----------   ------------   ------------------------------
 PD  .                 GL:   PERMANENT DATUM
 EPD .F              5288:   ELEVATION PERMANENT DATUM
 LMF .                 KB:   LOG MEASURED FROM
 DAPD.F                 5:   FEET ABOVE PERMANENT DATUM
 DMF .                 KB:   DRILLING MEASURED FROM
 EKB .F            5286.9:   KELLING BUSHING
 EGL .F            5281.9:   GROUND LEVEL
 DATE.        15-AUG-1966:   RUN DATE
 RUN .                  1:   RUN NUMBER
 DD  .F              1360:   DEPTH DRILLER
 DL  .F              1361:   DEPTH LOGGER
 BLI .F              1360:   BOTTOM LOG INTERVAL
 TLI .F                88:   TOP LOG INTERVAL
 CS  .IN            8.625:   CASING SIZE
 CBD .F                12:   CASING BOTTOM DRILLER
 BS  .IN            7.875:   BIT SIZE
 BSD .F              1360:   BIT SIZE AT DEPTH
 DFT .          CHEM- GEL:   DRILLING FLUID TYPE
 DFD .                9.6:   DRILLING FLUID DENSITY
 DFV .                 60:   DRILLING FLUID VISCOSITY
 DFPH.                7.2:   DRILLING FLUID PH
 DFL .                6.4:   DRILLING FLUID LOSS
 MSS .         CIRCULATED:   MUD SAMPLE SOURCE
 RMS .OHMM           1.41:   RESISTIVITY MUD SAMPLE
 MST .F                72:   MUD SAMPLE TEMPERATURE
 RMF .OHMM           0.75:   RESISTIVITY MUD FILTRATE SAMPLE
 MFST.F                73:   MUD FILTRATE SAMPLE TEMPERATURE
 MFSS.               MEAS:   MUD FILTRATE SAMPLE SOURCE
 TCS .HRS             2.5:   TIME CURCULATED STOPPED
 LUN .               3527:   LOGGING UNIT NUMBER
 LUL .              CSPR.:   LOGGING UNIT LOCATION
 ENGI.               HAUG:   RECORDING ENGINEER
 WITN.             TUTTLE:   WITNESSED BY
 CLNT.            A2DTECH:   CLIENT CODE
 ORIG.       2", 5" PRINT:   ORIGIN OF DATA
 UWI .       490250959000:   UNIQUE WELL ID
 DICO. A2D Technologies, Inc.:   DIGITIZING COMPANY
~OTHER INFORMATION
~A   DEPT      SPR       CILD          ASN        ILD       GR   
# ...
  882.0000   -37.6460   164.8642     8.1774     5.2609    92.1402
  882.5000   -37.8064   164.8917     8.1316     5.2550    86.8980
  883.0000   -37.8154   167.8988     8.1609     5.2491    85.4703
  883.5000   -37.8262   170.9059     8.1752     5.1679    85.4610
  884.0000   -37.8351   173.9130     8.1444     5.0114    81.9903
  884.5000   -37.8440   176.9201     8.0960     5.0055    81.0393
  885.0000   -37.8529   179.1809     7.9923     4.8490    84.6464
  885.5000   -37.8617   181.4418     7.8412     4.6924    91.5600
  886.0000   -37.7171   182.9563     7.6751     4.6865    90.7640
  886.5000   -37.5747   184.4709     7.5841     4.6806    89.4960
  887.0000   -37.5858   185.9854     7.5683     4.7500    86.1826
  887.5000   -37.4433   187.5000     7.5676     4.7440    88.8480
  888.0000   -37.4523   189.0149     7.5669     4.8135    92.9295
  888.5000   -37.4614   188.2903     7.5812     4.8061    93.8716
  889.0000   -37.3188   186.8198     7.5956     4.8002    89.7620
  889.5000   -37.3300   185.3548     7.6248     4.8696    86.7735
  890.0000   -37.1853   183.1380     7.6391     4.8637    84.5534
  890.5000   -37.1965   182.4082     7.6685     4.8578    91.7816
  891.0000   -37.0518   180.9432     7.7128     4.9286    87.3646
  891.5000   -37.0630   180.9653     7.7442     4.9212    84.9952
  892.0000   -37.0718   181.7336     7.7863     4.9153    90.3354
  892.5000   -37.0807   181.7556     7.8158     4.9094    88.1233
  893.0000   -37.0896   182.5239     7.7999     4.9788    87.3274
  893.5000   -37.0985   183.2921     7.7240     5.0482    89.5231
  894.0000   -37.1074   183.3142     7.7082     5.0361    85.5780
  894.5000   -37.1165   182.5896     7.7225     4.9609    88.8728
  895.0000   -37.1256   181.8657     7.7518     5.0305    85.8741
  895.5000   -37.1363   180.3455     7.7663     5.0231    84.6061
  896.0000   -37.1452   178.0795     7.8105     5.0172    76.5726
  896.5000   -37.1541   175.9616     7.8549     5.0113    82.5421
  897.0000   -37.1630   174.4911     7.9143     5.0821    81.2741
  897.5000   -37.0184   173.7668     8.0038     5.1864    85.0670
  898.0000   -36.8782   171.5555     8.0948     5.2707    90.0664
  898.5000   -36.8871   171.5776     8.1845     5.3549    84.8527
  899.0000   -36.7443   170.1015     8.2570     5.4281    82.9676
  899.5000   -36.7536   168.6310     8.3016     5.5750    88.4628
  900.0000   -36.7625   167.1605     8.3758     5.6481    92.2319
  900.5000   -36.7760   164.9492     8.4803     5.7204    90.4911
  901.0000   -36.8726   162.3324     8.5849     5.7167    94.1005
  901.5000   -36.8479   160.3259     8.7195     5.7138    87.1352
  902.0000   -36.8231   156.7765     8.8992     5.7108    80.0784
  902.5000   -36.7984   154.5524     9.0189     5.7078    83.7194
  903.0000   -36.7692   153.8157     9.0483     5.7802    87.6099
  903.5000   -36.7761   153.0893     9.0323     5.7771    85.7125
  904.0000   -36.7836   153.8507     9.0165     5.7735    82.3991
  904.5000   -36.7911   155.3582     9.0308     5.8466    84.4351
  905.0000   -36.6469   154.6260     9.0752     5.8429    83.4817
  905.5000   -36.6544   153.8945     9.1527     5.9905    88.3498
  906.0000   -36.6619   151.6740     9.2568     5.9876    86.6098
  906.5000   -36.8211   150.1962     9.3735     6.0599    80.9378
  907.0000   -36.8286   147.9685     9.5833     6.1322    84.3170
  907.5000   -36.9879   145.7480     9.7931     6.2046    87.2126
  908.0000   -36.9954   144.2702     9.9129     6.2777    86.4142
  908.5000   -37.0029   142.0461     9.9520     6.3500    78.3807
  909.0000   -36.7069   139.0758     9.9974     6.4969    83.4061
  909.5000   -36.5627   137.5980    10.0428     6.5693    86.8582
  910.0000   -36.5721   136.1201    10.0752     6.6416    85.5901
  910.5000   -36.4259   135.3881    10.1504     6.7139    81.6473
  911.0000   -36.4353   133.9108    10.2256     6.8615    82.7393
  911.5000   -36.5946   133.1791    10.3008     6.8578    87.4524
  912.0000   -36.6021   131.7014    10.3759     6.9309    82.4060
  912.5000   -36.6096   130.2236    10.4511     7.0033    75.6311
  913.0000   -36.6161   129.4920    10.5263     6.9996    77.6671
  913.5000   -36.6246   128.0179    10.5263     6.9966    85.9967
  914.0000   -36.6321   128.0326    10.6015     6.9936    90.5501
  914.5000   -36.7914   128.0473    10.5263     6.9154    92.7435
  915.0000   -36.7989   128.8083    10.3697     6.9124    94.1501
  915.5000   -36.8064   129.5693    10.2124     6.9094    95.5592
  916.0000   -36.6603   130.3303    10.1504     6.8312    89.0966
  916.5000   -36.6696   131.0913    10.1504     6.8282    84.6818
  917.0000   -36.6771   131.8522    10.1504     6.8253    81.9977
  917.5000   -36.6847   133.3595    10.0752     6.7470    84.6948
  918.0000   -36.6922   134.1205    10.0752     6.7440    84.1718
  918.5000   -36.6997   134.8815    10.0000     6.7410    88.7835
  919.0000   -37.0107   136.3887    10.0000     6.7374    88.8832
  919.5000   -37.0182   137.1497    10.0000     6.7344    87.4578
  920.0000   -36.8739   137.1644    10.0000     6.7314    89.0108
  920.5000   -36.5779   137.9254    10.0069     6.7285    91.3725
  921.0000   -36.4337   138.6866    10.1504     6.6502    90.1021
  921.5000   -36.2895   139.4478    10.0752     6.4966    91.5088
  922.0000   -36.1452   140.2090     9.9248     6.4937    92.4458
  922.5000   -36.1546   142.4656     9.9248     6.4907    90.0764
  923.0000   -36.1621   142.4803     9.9319     6.3372    99.0329
  923.5000   -36.1696   143.2413     9.9347     6.3342   100.1273
  924.0000   -36.1771   143.2560     9.8736     6.3312    94.6088
  924.5000   -36.0329   142.5208     9.8278     6.4036    91.7673
  925.0000   -35.8886   141.7892     9.8573     6.4759    87.9819
  925.5000   -35.8962   141.0576     9.9165     6.4729    87.6602
  926.0000   -35.7500   139.5835     9.9609     6.4699    97.8754
  926.5000   -35.7594   139.5982     9.9752     6.4663    95.5060
  927.0000   -35.7669   139.6129    10.0045     6.4633    95.8137
  927.5000   -35.7744   140.3739     9.9887     6.4603    95.4896
  928.0000   -35.9337   141.8812     9.8958     6.4574    97.9954
  928.5000   -35.9412   143.3884     9.7289     6.3038   105.2235
  929.0000   -35.9487   145.6420     9.5895     6.2256   102.0674
  929.5000   -35.9562   146.4104     9.4868     6.1473    94.5059
  930.0000   -35.9637   148.7063     9.4735     6.0690    97.0351
  930.5000   -36.1230   151.0025     9.4728     5.9908    95.0862
  931.0000   -36.1305   153.2984     9.3969     5.8372    98.2539
  931.5000   -35.9862   156.9133     9.2758     5.5330    97.3005
  932.0000   -35.8420   159.9131     9.0946     5.3042    94.6063
  932.5000   -35.6977   163.6591     8.7330     5.2259    91.5543
  933.0000   -35.5535   168.1514     8.4315     5.1476    91.4510
  933.5000   -35.5629   174.8826     8.2202     5.1446    91.4219
  934.0000   -35.4168   175.6436     7.9939     5.2170    90.9348
  934.5000   -35.4262   175.6583     7.9633     5.2133    88.5885
  935.0000   -35.4337   174.1805     8.0977     5.2864    89.9952
  935.5000   -35.4412   172.6989     8.2924     5.2827    85.5804
  936.0000   -35.4487   170.4785     8.5022     5.5056    83.6830
  936.5000   -35.4562   168.2545     8.6970     5.5027    82.1003
  937.0000   -35.4637   166.0304     8.8015     5.6510    82.2506
  937.5000   -35.3176   163.8063     8.8308     5.7234    82.3986
  938.0000   -35.3270   162.3284     8.7849     5.7197    80.9732
  938.5000   -35.3345   160.0819     8.7541     5.7167    81.5932
  939.0000   -35.3420   157.8803     8.7838     5.7138    78.1200
  939.5000   -35.3495   156.4025     8.8439     5.6355    79.2120
  940.0000   -35.5087   154.9283     8.9023     5.7078    87.6989
  940.5000   -35.6680   154.1968     8.9339     5.7048    88.6359
  941.0000   -35.8272   153.4615     8.9910     5.7018    82.4881
  941.5000   -35.6829   155.7187     8.9901     5.6982    77.7586
  942.0000   -35.6905   157.9723     8.9442     5.6952    78.5359
  942.5000   -35.5463   160.9720     8.8984     5.6170    82.7747
