~VERSION INFORMATION
 VERS.                2.0:   CWLS LOG ASCII STANDARD - VERSION 2.0
 WRAP.                 NO:   ONE LINE PER DEPTH STEP
~WELL INFORMATION
#MNEM.UNIT      DATA TYPE    INFORMATION
#----------   ------------   ------------------------------
 STRT.F            2.0000:   START DEPTH
 STOP.F          508.0000:   STOP DEPTH
 STEP.F            0.1000:   STEP LENGTH
 NULL.          -999.2500:   NO VALUE
 COMP. LAWRENCE/ALLISON INC:   COMPANY
 WELL.      48-41 SX #3-3:   WELL
 FLD .             TEAPOT:   FIELD
 LOC .       S3 T38N R78W:   LOCATION
 CNTY.            NATRONA:   COUNTY
 STAT.            WYOMING:   STATE
 CTRY. UNITED STATES OF AMERICA:   COUNTRY
 SRVC.           Gearhart:   SERVICE COMPANY
 DATE.        09-JUL-1988:   LOGDATE
 API .       490251123300:   API NUMBER
~CURVE INFORMATION
#MNEM.UNIT       API CODE    CURVE DESCRIPTION
#----------   ------------   ------------------------------
 DEPT.F                  :   
 GRR .GAPI   07 310 01 00:   GAMMA RAY
 RILD.OHMM   07 120 46 00:   INDUCTION LOG DEEP RESISTIVITY
 RILM.OHMM   07 120 44 00:   INDUCTION LOG MEDIUM RESISTIVITY
~PARAMETER INFORMATION
#MNEM.UNIT          VALUE    DESCRIPTION
#----------   ------------   ------------------------------
 PD  .                 GL:   PERMANENT DATUM
 EPD .F              5200:   ELEVATION PERMANENT DATUM
 LMF .                 KB:   LOG MEASURED FROM
 DAPD.F                 5:   FEET ABOVE PERMANENT DATUM
 DMF .                 KB:   DRILLING MEASURED FROM
 EKB .F              5205:   KELLING BUSHING
 EDF .F              5204:   DRILLING FLOOR
 EGL .F              5200:   GROUND LEVEL
 DATE.        09-JUL-1988:   RUN DATE
 RUN .                  1:   RUN NUMBER
 DD  .F               510:   DEPTH DRILLER
 DL  .F               516:   DEPTH LOGGER
 BLI .F               508:   BOTTOM LOG INTERVAL
 TLI .F               1.5:   TOP LOG INTERVAL
 CS  .IN            9.625:   CASING SIZE
 CBD .F                40:   CASING BOTTOM DRILLER
 CBL .F                45:   CASING BOTTOM LOGGER
 BS  .IN             8.75:   BIT SIZE
 BSD .F               510:   BIT SIZE AT DEPTH
 DFT .                AIR:   DRILLING FLUID TYPE
 TCS .HRS            1800:   TIME CURCULATED STOPPED
 TLAB.HRS            1843:   TIME LOGGER AT BOTTOM
 MRT .F                70:   MAXIMUM RECORDED TEMPERATURE
 LUN .               7597:   LOGGING UNIT NUMBER
 LUL .           GILLETTE:   LOGGING UNIT LOCATION
 ENGI.         WEATHERMON:   RECORDING ENGINEER
 WITN.              FIVAS:   WITNESSED BY
 CLNT.            A2DTECH:   CLIENT CODE
 ORIG.           5" PRINT:   ORIGIN OF DATA
 UWI .       490251123300:   UNIQUE WELL ID
 DICO. A2D Technologies, Inc.:   DIGITIZING COMPANY
~OTHER INFORMATION
~A    DEPT      GRR      RILD       RILM   
# ...
  438.8000   110.1353     9.6949     9.7926
  438.9000   110.3910     9.4708     9.7092
  439.0000   110.4352     9.2518     9.6116
  439.1000   109.9048     9.0585     9.4440
  439.2000   109.0704     8.9116     9.2776
  439.3000   108.8413     8.8062     9.0234
  439.4000   108.4050     8.6294     8.9389
  439.5000   107.8972     8.5027     8.8346
  439.6000   107.3897     8.3228     8.7532
  439.7000   106.8823     8.1302     8.6894
  439.8000   106.3626     7.9685     8.5879
  439.9000   105.8672     7.8757     8.4747
  440.0000   105.5607     7.7767     8.3464
  440.1000   105.1538     7.6114     8.2336
  440.2000   104.6460     7.4992     8.1142
  440.3000   104.1977     7.3648     7.9586
  440.4000   103.9565     7.2248     7.7796
  440.5000   103.9579     7.1406     7.6354
  440.6000   105.2743     7.0571     7.5520
  440.7000   106.4579     7.0082     7.4316
  440.8000   107.4765     6.9750     7.3021
  440.9000   108.7276     6.9342     7.1439
  441.0000   110.4197     6.8936     6.9527
  441.1000   111.5066     6.8431     6.8313
  441.2000   112.6942     6.7691     6.6446
  441.3000   114.1571     6.7690     6.4582
  441.4000   115.3996     6.7338     6.2809
  441.5000   116.5144     6.7220     6.1512
  441.6000   117.7875     6.7220     6.0351
  441.7000   119.0594     6.7088     5.8975
  441.8000   120.2633     6.6754     5.7828
  441.9000   121.3054     6.6752     5.7233
  442.0000   122.5781     6.7129     5.6565
  442.1000   123.7375     6.7215     5.5740
  442.2000   124.6903     6.7213     5.4871
  442.3000   125.4544     6.7213     5.4230
  442.4000   126.3036     6.7212     5.3565
  442.5000   127.6615     6.7211     5.2972
  442.6000   128.6528     6.7210     5.3057
  442.7000   129.4173     6.7546     5.3544
  442.8000   130.1814     6.7675     5.4045
  442.9000   130.9829     6.7675     5.4358
  443.0000   132.0423     6.7674     5.4677
  443.1000   132.7766     6.7673     5.5424
  443.2000   133.3439     6.7672     5.5962
  443.3000   133.4043     6.7671     5.6830
  443.4000   132.7409     6.7966     5.7673
  443.5000   131.4695     6.8364     5.8532
  443.6000   130.1989     6.8764     5.9878
  443.7000   128.7326     6.9166     6.1042
  443.8000   127.6578     6.9573     6.2005
  443.9000   126.2187     7.0538     6.3096
  444.0000   124.5723     7.0878     6.4206
  444.1000   122.7929     7.1560     6.5335
  444.2000   120.9874     7.2401     6.6484
  444.3000   118.7850     7.3251     6.7696
  444.4000   116.9203     7.4111     6.9233
  444.5000   114.7008     7.5072     7.0543
  444.6000   112.6892     7.6265     7.2034
  444.7000   111.1837     7.7290     7.3905
  444.8000   110.1674     7.8443     7.5986
  444.9000   109.1391     7.9993     7.7772
  445.0000   108.2355     8.1805     7.9897
  445.1000   107.4199     8.3289     8.0682
  445.2000   106.8741     8.5211     8.1939
  445.3000   106.5113     8.6824     8.3380
  445.4000   106.0038     8.8677     8.4989
  445.5000   105.5263     9.0775     8.6985
  445.6000   105.5278     9.2790     8.9222
  445.7000   105.5288     9.4457     9.1134
  445.8000   105.7050     9.6997     9.3283
  445.9000   106.0882     9.8482     9.5177
  446.0000   106.5178     9.9825     9.6454
  446.1000   106.7735    10.0999     9.7011
  446.2000   107.0432    10.1999     9.7587
  446.3000   107.0443    10.2671     9.8698
  446.4000   107.4317    10.3949     9.9390
  446.5000   107.7958    10.4522     9.9966
  446.6000   107.9530    10.5134    10.0544
  446.7000   107.9541    10.5396    10.1125
  446.8000   107.9594    10.5157    10.1709
  446.9000   108.2584    10.4665    10.2383
  447.0000   108.2595    10.4664    10.2889
  447.1000   108.2607    10.4662    10.3082
  447.2000   108.1451    10.4661    10.3657
  447.3000   107.8920    10.4659    10.4685
  447.4000   107.6388    10.4377    10.5224
  447.5000   107.3606    10.3934    10.5216
  447.6000   107.1323    10.3932    10.5776
  447.7000   106.8791    10.3931    10.6388
  447.8000   106.6260    10.4483    10.7003
  447.9000   106.3728    10.4651    10.7622
  448.0000   106.1197    10.4649    10.8244
  448.1000   105.8595    10.4648    10.8878
  448.2000   105.6132    10.4647    10.9625
  448.3000   105.3600    10.4645    11.0133
  448.4000   104.9540    10.4643    11.0770
  448.5000   104.5520    10.4642    11.1411
  448.6000   104.2989    10.4640    11.1897
  448.7000   104.0349    10.4902    11.1890
  448.8000   103.4548    10.5366    11.1881
  448.9000   103.2376    10.5364    11.2443
  449.0000   102.9844    10.5362    11.3093
  449.1000   102.7313    10.5361    11.3418
  449.2000   102.4781    10.5359    11.3411
  449.3000   102.2248    10.5670    11.3483
  449.4000   101.9536    10.6288    11.4182
  449.5000   101.9548    10.6910    11.4175
  449.6000   101.9560    10.7567    11.4666
  449.7000   102.2408    10.8165    11.4953
  449.8000   102.7509    10.8312    11.4945
  449.9000   103.2608    10.9050    11.5062
  450.0000   103.7707    11.0166    11.5727
  450.1000   104.3755    11.1041    11.6522
  450.2000   104.5835    11.1916    11.6515
  450.3000   105.3635    11.2791    11.6935
  450.4000   105.5957    11.3666    11.7309
  450.5000   105.5995    11.4540    11.7419
  450.6000   105.6033    11.5415    11.7879
  450.7000   105.5620    11.6290    11.8339
  450.8000   104.8389    11.7165    11.8798
  450.9000   104.6260    11.7944    11.9258
  451.0000   104.3814    11.8608    11.9722
  451.1000   104.1369    11.9275    12.0400
  451.2000   103.8925    11.9948    12.1087
  451.3000   103.6458    12.0624    12.1778
  451.4000   103.4032    12.1304    12.2474
  451.5000   103.1587    12.1987    12.3173
  451.6000   102.9141    12.2674    12.3888
  451.7000   102.6695    12.3435    12.3880
  451.8000   102.4527    12.4061    12.4432
  451.9000   102.7569    12.4760    12.5143
  452.0000   102.9799    12.5463    12.5858
  452.1000   103.3959    12.6170    12.6447
  452.2000   103.7799    12.6870    12.6436
  452.3000   104.0876    12.6863    12.7143
  452.4000   104.5838    12.7428    12.7298
  452.5000   105.0804    12.8563    12.7289
  452.6000   105.3799    12.9763    12.7555
  452.7000   105.9141    13.0401    12.8157
  452.8000   106.5692    13.0392    12.8146
  452.9000   107.0658    13.1058    12.8858
  453.0000   107.6026    13.1285    12.9019
  453.1000   107.8317    13.1623    12.9435
  453.2000   108.2538    13.2183    13.0175
  453.3000   108.6317    13.2191    13.0793
  453.4000   108.8168    13.2936    13.0782
  453.5000   108.8193    13.3081    13.0773
  453.6000   108.8221    13.3511    13.1343
  453.7000   108.6213    13.3991    13.1664
  453.8000   108.3767    13.3984    13.1930
  453.9000   108.1321    13.3976    13.2562
  454.0000   107.8875    13.3969    13.2551
  454.1000   107.6291    13.4488    13.3278
  454.2000   107.6313    13.4886    13.3454
  454.3000   107.6337    13.4878    13.3876
  454.4000   107.6361    13.4871    13.4363
  454.5000   107.6386    13.4862    13.4353
  454.6000   107.6570    13.5474    13.4343
  454.7000   107.9449    13.5786    13.5076
  454.8000   107.9470    13.6058    13.5259
  454.9000   107.9494    13.6716    13.5249
  455.0000   107.9518    13.6707    13.5514
  455.1000   107.9542    13.7415    13.6172
  455.2000   107.9567    13.7643    13.6160
  455.3000   107.9590    13.7635    13.6898
  455.4000   107.5918    13.7628    13.7088
  455.5000   107.2309    13.7647    13.7511
  455.6000   106.9863    13.8568    13.8022
  455.7000   106.7198    13.8562    13.8012
  455.8000   106.1642    13.8554    13.8002
  455.9000   105.7367    13.8546    13.7993
  456.0000   105.2450    13.8654    13.7984
  456.1000   104.7534    13.9494    13.7974
  456.2000   104.2620    13.9487    13.7965
  456.3000   103.7663    13.9479    13.7955
  456.4000   103.5237    13.9854    13.7945
  456.5000   103.2792    14.0434    13.8683
  456.6000   103.1711    14.0426    13.8885
  456.7000   103.1735    14.0417    13.8875
  456.8000   103.1759    14.1064    13.8866
  456.9000   103.1786    14.1379    13.8856
