~VERSION INFORMATION
 VERS.                2.0:   CWLS LOG ASCII STANDARD - VERSION 2.0
 WRAP.                 NO:   ONE LINE PER DEPTH STEP
~WELL INFORMATION
#MNEM.UNIT      DATA TYPE    INFORMATION
#----------   ------------   ------------------------------
 STRT.F            2.0000:   START DEPTH
 STOP.F          518.0000:   STOP DEPTH
 STEP.F            0.5000:   STEP LENGTH
 NULL.          -999.2500:   NO VALUE
 COMP. LAWRENCE/ALLISON INC:   COMPANY
 WELL.    54-51 SX #10-10:   WELL
 FLD .             TEAPOT:   FIELD
 LOC .      S10 T38N R78W:   LOCATION
 CNTY.            NATRONA:   COUNTY
 STAT.            WYOMING:   STATE
 CTRY. UNITED STATES OF AMERICA:   COUNTRY
 SRVC.            Unknown:   SERVICE COMPANY
 DATE.        14-AUG-1984:   LOGDATE
 API .       490251098800:   API NUMBER
~CURVE INFORMATION
#MNEM.UNIT       API CODE    CURVE DESCRIPTION
#----------   ------------   ------------------------------
 DEPT.F                  :   
 CALD.IN     45 280 60 00:   CALIPER
 DEN .G/C3   45 350 01 00:   COMPENSATED BULK DENSTIY
 CORR.G/C3   45 356 01 00:   DENSITY CORRECTION
 CNC .DEC    42 890 03 00:   NEUTRON POROSITY SANDSTONE
 PORD.DEC    45 890 12 00:   POROSITY DENSITY SANDSTONE
 GRR .GAPI   07 310 01 00:   GAMMA RAY FROM RES. LOG.
 RFOC.OHMM   07 220 04 00:   RESISTIVITY FOCUSED LOG
 RILD.OHMM   07 120 46 00:   INDUCTION LOG DEEP RESISTIVITY
 RILM.OHMM   07 120 44 00:   INDUCTION LOG MEDIUM RESISTIVITY
 AC  .US/F   60 520 00 00:   ACOUSTIC SONIC
 SPR .MV     07 010 01 00:   SPONTANEOUS POTENTIAL
~PARAMETER INFORMATION
#MNEM.UNIT          VALUE    DESCRIPTION
#----------   ------------   ------------------------------
 PD  .                 GL:   PERMANENT DATUM
 EPD .F              5197:   ELEVATION PERMANENT DATUM
 LMF .                 GL:   LOG MEASURED FROM
 DMF .                 GL:   DRILLING MEASURED FROM
 EGL .F              5197:   GROUND LEVEL
 DATE.        14-AUG-1984:   RUN DATE
 RUN .                  1:   RUN NUMBER
 DD  .F               530:   DEPTH DRILLER
 DL  .F               520:   DEPTH LOGGER
 BLI .F               518:   BOTTOM LOG INTERVAL
 CS  .IN            9.625:   CASING SIZE
 CBD .F                40:   CASING BOTTOM DRILLER
 CBL .F                42:   CASING BOTTOM LOGGER
 BS  .IN            7.875:   BIT SIZE
 BSD .F               530:   BIT SIZE AT DEPTH
 DFT .          KCL WATER:   DRILLING FLUID TYPE
 MSS .           FLOWLINE:   MUD SAMPLE SOURCE
 RMS .OHMM            .19:   RESISTIVITY MUD SAMPLE
 MST .F                80:   MUD SAMPLE TEMPERATURE
 RMB .OHMM            .17:   RESISTIVITY MUD AT BHT
 BHT .F                90:   BOTTOM HOLE TEMPERATURE
 TCS .HRS               4:   TIME CURCULATED STOPPED
 MRT .F                90:   MAXIMUM RECORDED TEMPERATURE
 LUN .               6274:   LOGGING UNIT NUMBER
 LUL .               GLTE:   LOGGING UNIT LOCATION
 ENGI.             RAUTIO:   RECORDING ENGINEER
 WITN.              FIVAS:   WITNESSED BY
 CLNT.            A2DTECH:   CLIENT CODE
 ORIG.       2", 5" PRINT:   ORIGIN OF DATA
 UWI .       490251098800:   UNIQUE WELL ID
 DICO. A2D Technologies, Inc.:   DIGITIZING COMPANY
~OTHER INFORMATION
~A    DEPT    CALD        DEN       CORR        CNC       PORD         GRR      RFOC       RILD       RILM         AC        SPR   
# ...
  459.5000     8.2516     2.5241     0.0374     0.2723     0.0939    89.4841    12.0506    11.1099    10.6959    90.9219    61.9101
  460.0000     8.2520     2.5154     0.0267     0.2639     0.0974    87.1005    12.1092    11.1120    10.6550    90.9838    61.7316
  460.5000     8.2532     2.5085     0.0213     0.2643     0.1013    84.1320    12.1808    11.1124    10.6139    91.0458    61.5587
  461.0000     8.2551     2.5108     0.0300     0.2637     0.1002    85.4194    12.1339    11.1373    10.5721    91.1297    61.3859
  461.5000     8.2571     2.5154     0.0385     0.2572     0.0972    88.3193    12.0543    11.1617    10.5300    91.2949    61.2129
  462.0000     8.2591     2.5200     0.0450     0.2508     0.0944    90.9840    11.9750    11.1890    10.3968    91.5337    61.0402
  462.5000     8.2611     2.5191     0.0433     0.2478     0.0971    89.4329    11.8484    11.3127    10.2962    91.8806    60.8679
  463.0000     8.2631     2.5132     0.0342     0.2601     0.1006    86.0903    11.8524    11.0690    10.1936    92.2270    60.6930
  463.5000     8.2651     2.5071     0.0177     0.2609     0.1039    84.8607    11.4713    10.7567    10.0919    92.5734    60.4784
  464.0000     8.2671     2.5009     0.0031     0.2627     0.1072    86.5957    11.2146    10.4546     9.9913    93.1979    60.1282
  464.5000     8.2691     2.4948     0.0052     0.2649     0.1106    88.2780    10.7661    10.1612     9.5927    94.2778    59.7860
  465.0000     8.2711     2.4900     0.0136     0.2563     0.1112    89.6221    10.3329     9.8770     9.1577    95.0370    59.4452
  465.5000     8.2718     2.4912     0.0217     0.2501     0.1107    90.6177     9.9070     9.1521     8.5077    95.7592    59.1078
  466.0000     8.2718     2.4969     0.0298     0.2614     0.1111    91.5893     9.4987     8.2369     7.5525    96.2547    58.7672
  466.5000     8.2718     2.4933     0.0199     0.2758     0.1140    91.9839     9.1072     7.4131     6.5169    96.7662    58.0614
  467.0000     8.2718     2.4774    -0.0065     0.2975     0.1228    90.7610     8.7318     6.3631     5.6892    97.8053    57.3833
  467.5000     8.2718     2.4561    -0.0266     0.3266     0.1349    90.2551     8.1321     5.4100     4.8689    99.5249    56.7096
  468.0000     8.2718     2.4345    -0.0155     0.3577     0.1512    91.6515     7.0883     4.5997     4.1044   102.0368    56.0376
  468.5000     8.2718     2.4063     0.0008     0.3889     0.1728    93.0267     5.9728     3.9107     3.4560   107.7353    55.4394
  469.0000     8.2717     2.3676     0.0174     0.4015     0.2187    92.9382     5.0329     3.3250     3.0408   113.6025    55.5547
  469.5000     8.2725     2.3017     0.0460     0.4091     0.2624    92.7617     4.2409     3.0247     2.8531   120.4433    55.8249
  470.0000     8.2863     2.2264     0.0761     0.3936     0.3030    91.5109     3.6917     2.9345     2.9356   127.2884    56.6785
  470.5000     8.3443     2.1579     0.1040     0.3625     0.3104    88.1750     3.5586     3.1260     3.3005   131.7910    57.6220
  471.0000     8.4131     2.1558     0.0981     0.3213     0.3086    83.1785     3.5586     3.3181     3.7036   130.4975    58.5633
  471.5000     8.2991     2.2130     0.0816     0.3054     0.2450    79.5200     4.3114     3.5221     4.1218   121.4266    59.5041
  472.0000     7.5961     2.3020     0.0575     0.2839     0.1857    81.4327     5.8053     3.9071     4.7108   111.6911    59.8767
  472.5000     7.5551     2.3912     0.0240     0.2755     0.1296    83.9820     9.4191     4.4279     5.3361   101.9555    59.6816
  473.0000     7.5567     2.4643     0.0088     0.2760     0.1089    86.6506     9.2634     5.0180     6.0444    96.7200    59.4882
  473.5000     7.5575     2.4970     0.0350     0.2771     0.1120    87.8470     8.9487     5.8891     6.8467    96.1237    59.2909
  474.0000     7.5575     2.4963     0.0359     0.2720     0.1173    89.0159     8.6720     6.9431     7.7555    96.6575    59.3439
  474.5000     7.5575     2.4791     0.0287     0.2665     0.1214    90.2096     9.0282     8.0578     8.2898    96.2537    59.6497
  475.0000     7.5575     2.4732     0.0134     0.2665     0.1244    91.4430     9.3674     8.2099     8.4596    95.6343    59.9668
  475.5000     7.5575     2.4699    -0.0014     0.2757     0.1263    91.3017     9.7193     8.3513     8.6330    95.0746    60.0384
  476.0000     7.5575     2.4671     0.0027     0.2821     0.1270    91.5128    10.0445     8.4951     8.8098    95.3976    60.0981
  476.5000     7.5575     2.4659     0.0092     0.2868     0.1259    93.0828     9.9607     8.6414     8.9904    96.1600    60.1594
  477.0000     7.5575     2.4689     0.0150     0.2928     0.1245    94.6675     9.8693     8.7902     9.0794    96.9223    60.2213
  477.5000     7.5575     2.4713     0.0128     0.2988     0.1239    94.5581     9.7715     8.8745     9.0794    97.3464    60.2826
  478.0000     7.5575     2.4693     0.0079     0.3040     0.1253    93.7028     9.8258     8.9332     8.9156    97.6132    60.3438
  478.5000     7.5575     2.4672    -0.0028     0.2944     0.1266    90.4062     9.9016     8.9961     8.7628    97.8617    60.3041
  479.0000     7.5575     2.4665    -0.0135     0.2860     0.1260    91.1907     9.9780     8.9196     8.6127    97.9940    60.1630
  479.5000     7.5575     2.4701    -0.0231     0.2777     0.1228    92.9934    10.0549     8.8382     8.5142    98.1176    60.0217
  480.0000     7.5575     2.4743    -0.0170     0.2738     0.1222    94.1574    10.1371     8.7524     8.4085    98.2410    59.8833
  480.5000     7.5575     2.4718    -0.0084     0.2817     0.1244    94.6338    10.0787     8.6861     8.3570    98.3582    59.8469
  481.0000     7.5575     2.4692     0.0002     0.2861     0.1247    94.0725    10.0170     8.6161     8.3058    98.2710    60.1065
  481.5000     7.5575     2.4717     0.0087     0.2831     0.1218    93.5083     9.9557     8.5468     8.2605    98.1884    60.3645
  482.0000     7.5575     2.4762     0.0114     0.2780     0.1190    94.0625     9.8951     8.4782     8.1973    98.1058    60.3311
  482.5000     7.5574     2.4784     0.0058     0.2734     0.1178    94.7233     9.8354     8.4100     8.1346    98.0232    60.2369
  483.0000     7.5566     2.4781     0.0060     0.2736     0.1182    94.8866     9.7737     8.3425     8.0723    98.0450    60.1440
  483.5000     7.5558     2.4778     0.0120     0.2864     0.1187    94.5486     9.5563     8.2758     7.9842    98.4029    60.0513
  484.0000     7.5550     2.4776     0.0180     0.2952     0.1190    94.3372     9.2821     8.2071     7.9942    98.7607    59.9585
  484.5000     7.5542     2.4801     0.0186     0.2988     0.1175    95.8524     9.0158     8.2298     8.0117    99.1186    59.8661
  485.0000     7.5534     2.4831     0.0108     0.2912     0.1160    97.3088     8.7520     8.2694     8.0293    99.1381    59.7826
  485.5000     7.5526     2.4860     0.0139     0.2849     0.1145    98.5888     8.9277     8.3092     8.0469    98.9552    59.7084
  486.0000     7.5518     2.4889     0.0208     0.2842     0.1129    96.9137     9.1106     8.3492     8.0646    98.2839    59.6264
  486.5000     7.5510     2.4919     0.0267     0.2842     0.1108    93.8495     9.2973     8.3893     8.0823    97.6232    59.5850
  487.0000     7.5502     2.4952     0.0243     0.2809     0.1087    93.0188     9.4878     8.4297     8.1001    96.9652    59.5868
  487.5000     7.5494     2.4985     0.0217     0.2758     0.1068    92.8532     9.6822     8.4703     8.1179    96.9652    59.5883
  488.0000     7.5486     2.5019     0.0193     0.2707     0.1082    92.6406     9.5329     8.5111     8.1401    96.9652    59.7815
  488.5000     7.5477     2.5050     0.0215     0.2676     0.1099    91.9017     9.3497     8.5520     8.1797    97.7055    59.7856
  489.0000     7.5469     2.5010     0.0265     0.2737     0.1101    92.4753     9.1699     8.5927     8.2195    98.3247    59.7828
  489.5000     7.5461     2.4968     0.0309     0.2781     0.1094    94.7125     8.9964     8.5927     8.2828    98.7562    59.7836
