~VERSION INFORMATION
 VERS.                2.0:   CWLS LOG ASCII STANDARD - VERSION 2.0
 WRAP.                 NO:   ONE LINE PER DEPTH STEP
~WELL INFORMATION
#MNEM.UNIT      DATA TYPE    INFORMATION
#----------   ------------   ------------------------------
 STRT.F           34.5000:   START DEPTH
 STOP.F          880.5000:   STOP DEPTH
 STEP.F            0.5000:   STEP LENGTH
 NULL.          -999.2500:   NO VALUE
 COMP. FENIX & SCISSON INC:   COMPANY
 WELL. NAVAL PETROLEUM RESERVE 3 S-14 #35-14:   WELL
 FLD .             TEAPOT:   FIELD
 LOC .      S14 T38N R78W:   LOCATION
 CNTY.            NATRONA:   COUNTY
 STAT.            WYOMING:   STATE
 CTRY. UNITED STATES OF AMERICA:   COUNTRY
 SRVC.            Unknown:   SERVICE COMPANY
 DATE.        24-APR-1978:   LOGDATE
 API .       490251062000:   API NUMBER
~CURVE INFORMATION
#MNEM.UNIT       API CODE    CURVE DESCRIPTION
#----------   ------------   ------------------------------
 DEPT.F                  :   
 RHOB.G/C3   45 350 01 00:   BULK DENSITY
 DPHI.DEC    45 890 12 00:   DENSITY POROSITY SANDSTONE
 CORR.G/C3   45 356 01 00:   DENSITY CORRECTION
 GRD .GAPI   45 310 01 00:   GAMMA RAY FROM DENSITY LOG
 CALD.IN     45 280 60 00:   CALIPER FROM DENSITY LOG
 SPR .MV     05 010 01 00:   SPONTANEOUS POTENTIAL FROM RES.
 SN  .OHMM   05 040 16 00:   SHORT NORMAL 16"
 ILD .OHMM   05 120 46 00:   INDUCTION LOG DEEP
~PARAMETER INFORMATION
#MNEM.UNIT          VALUE    DESCRIPTION
#----------   ------------   ------------------------------
 PD  .                 GL:   PERMANENT DATUM
 EPD .F              5246:   ELEVATION PERMANENT DATUM
 LMF .                 KB:   LOG MEASURED FROM
 DMF .                 KB:   DRILLING MEASURED FROM
 EKB .F              5250:   KELLING BUSHING
 EGL .F              5246:   GROUND LEVEL
 DATE.          4-24-1978:   RUN DATE
 RUN .                  1:   RUN NUMBER
 DD  .F               880:   DEPTH DRILLER
 DL  .F               880:   DEPTH LOGGER
 BLI .F               884:   BOTTOM LOG INTERVAL
 TLI .F                50:   TOP LOG INTERVAL
 CS  .IN            8.625:   CASING SIZE
 CBD .F                40:   CASING BOTTOM DRILLER
 CBL .F                50:   CASING BOTTOM LOGGER
 BS  .IN            7.875:   BIT SIZE
 BSD .F               880:   BIT SIZE AT DEPTH
 DFT .                KCL:   DRILLING FLUID TYPE
 DFD .                8.6:   DRILLING FLUID DENSITY
 DFV .                 32:   DRILLING FLUID VISCOSITY
 DFPH.                 10:   DRILLING FLUID PH
 DFL .               12.8:   DRILLING FLUID LOSS
 MSS .            MUD PIT:   MUD SAMPLE SOURCE
 RMS .OHMM            .34:   RESISTIVITY MUD SAMPLE
 MST .F                62:   MUD SAMPLE TEMPERATURE
 RMF .OHMM             .3:   RESISTIVITY MUD FILTRATE SAMPLE
 MFST.F                70:   MUD FILTRATE SAMPLE TEMPERATURE
 RMC .OHMM            .58:   RESISTIVITY MUD CAKE
 MCST.F                70:   MUD CAKE SAMPLE TEMPERATURE
 MFSS.           MEASURED:   MUD FILTRATE SAMPLE SOURCE
 RMB .OHMM            .28:   RESISTIVITY MUD AT BHT
 BHT .F                74:   BOTTOM HOLE TEMPERATURE
 TCS .HRS               4:   TIME CURCULATED STOPPED
 MRT .F                74:   MAXIMUM RECORDED TEMPERATURE
 LUN .               2958:   LOGGING UNIT NUMBER
 LUL .              CASP.:   LOGGING UNIT LOCATION
 ENGI.             MILLER:   RECORDING ENGINEER
 WITN.           MCGINLEY:   WITNESSED BY
 CLNT.            A2DTECH:   CLIENT CODE
 ORIG.       2", 5" PRINT:   ORIGIN OF DATA
 UWI .       490251062000:   UNIQUE WELL ID
 DICO. A2D Technologies, Inc.:   DIGITIZING COMPANY
~OTHER INFORMATION
~A   DEPT     RHOB       DPHI       CORR         GRD      CALD        SPR         SN        ILD   
   34.5000  -999.2500  -999.2500  -999.2500    70.5775  -999.2500  -999.2500  -999.2500  -999.2500
   35.0000  -999.2500  -999.2500  -999.2500    70.5762  -999.2500  -999.2500  -999.2500  -999.2500
   35.5000  -999.2500  -999.2500  -999.2500    70.6342  -999.2500  -999.2500  -999.2500  -999.2500
   36.0000  -999.2500  -999.2500  -999.2500    70.6922  -999.2500  -999.2500  -999.2500  -999.2500
   36.5000  -999.2500  -999.2500  -999.2500    71.1715  -999.2500  -999.2500  -999.2500  -999.2500
   37.0000  -999.2500  -999.2500  -999.2500    71.1158  -999.2500  -999.2500  -999.2500  -999.2500
   37.5000  -999.2500  -999.2500  -999.2500    71.0068  -999.2500  -999.2500  -999.2500  -999.2500
   38.0000  -999.2500  -999.2500  -999.2500    71.8070  -999.2500  -999.2500  -999.2500  -999.2500
   38.5000  -999.2500  -999.2500  -999.2500    70.7729  -999.2500  -999.2500  -999.2500  -999.2500
   39.0000  -999.2500  -999.2500  -999.2500    68.7967  -999.2500  -999.2500  -999.2500  -999.2500
   39.5000  -999.2500  -999.2500  -999.2500    70.2989  -999.2500  -999.2500  -999.2500  -999.2500
   40.0000  -999.2500  -999.2500  -999.2500    71.7521  -999.2500  -999.2500  -999.2500  -999.2500
   40.5000  -999.2500  -999.2500  -999.2500    72.6274  -999.2500  -999.2500  -999.2500  -999.2500
   41.0000  -999.2500  -999.2500  -999.2500    72.0184  -999.2500  -999.2500  -999.2500  -999.2500
   41.5000  -999.2500  -999.2500  -999.2500    74.7264  -999.2500  -999.2500  -999.2500  -999.2500
   42.0000  -999.2500  -999.2500  -999.2500    76.7083  -999.2500  -999.2500  -999.2500  -999.2500
   42.5000  -999.2500  -999.2500  -999.2500    70.2303  -999.2500  -999.2500  -999.2500  -999.2500
   43.0000  -999.2500  -999.2500  -999.2500    70.8751  -999.2500  -999.2500  -999.2500  -999.2500
   43.5000  -999.2500  -999.2500  -999.2500    71.7731  -999.2500  -999.2500  -999.2500  -999.2500
   44.0000  -999.2500  -999.2500  -999.2500    72.1721  -999.2500  -999.2500  -999.2500  -999.2500
   44.5000  -999.2500  -999.2500  -999.2500    70.9332  -999.2500  -999.2500  -999.2500  -999.2500
   45.0000  -999.2500  -999.2500  -999.2500    67.9568  -999.2500  -999.2500  -999.2500  -999.2500
   45.5000  -999.2500  -999.2500  -999.2500    62.6068  -999.2500  -999.2500  -999.2500  -999.2500
   46.0000  -999.2500  -999.2500  -999.2500    59.1463  -999.2500  -999.2500  -999.2500  -999.2500
   46.5000  -999.2500  -999.2500  -999.2500    56.9779  -999.2500  -999.2500  -999.2500  -999.2500
   47.0000  -999.2500  -999.2500  -999.2500    56.2698  -999.2500  -999.2500  -999.2500  -999.2500
   47.5000  -999.2500  -999.2500  -999.2500    58.7057  -999.2500  -999.2500  -999.2500  -999.2500
   48.0000  -999.2500  -999.2500  -999.2500    61.4167  -999.2500  -999.2500  -999.2500  -999.2500
   48.5000  -999.2500  -999.2500  -999.2500    64.1514  -999.2500  -999.2500  -999.2500  -999.2500
   49.0000  -999.2500  -999.2500  -999.2500    64.3211  -999.2500  -999.2500  -999.2500  -999.2500
   49.5000  -999.2500  -999.2500  -999.2500    62.8967    10.2723  -999.2500  -999.2500  -999.2500
   50.0000  -999.2500  -999.2500     0.2301    61.4926    10.7538  -999.2500     3.7094  -999.2500
   50.5000     2.0295     0.2970     0.2170    61.0210    10.9861    12.8486     3.9316    20.9066
   51.0000     2.0794     0.2788     0.2940    62.3825     9.9929    12.8486     4.4097    11.9382
   51.5000     2.0654     0.2710     0.2581    65.4305     9.0676     9.4781     4.8360     5.9536
   52.0000     2.0699     0.2998     0.0032    72.8461     9.4423     3.5258     5.4551     6.0243
   52.5000     2.0022     0.2993    -0.0643    79.7629     9.4781    -2.4437     5.6559     5.7797
   53.0000     2.0018     0.2937     0.0717    79.7995     9.4927    -5.1926     5.8683     5.6561
   53.5000     2.1530     0.2754     0.1369    75.7294     9.5536    -7.4302     6.0959     5.5308
   54.0000     2.2455     0.2560     0.1337    72.2759     9.5670    -8.5786     6.0913     5.4083
   54.5000     2.2349     0.2382     0.1242    72.5965     9.5611    -9.6878     6.0772     5.2885
   55.0000     2.2618     0.2161     0.1619    72.7647     9.5549   -10.8032     6.0676     5.1714
   55.5000     2.2770     0.2207     0.1708    72.9543     9.5316   -11.9202     6.0582     5.0569
   56.0000     2.2677     0.2301     0.1649    72.2350     9.4592   -13.0372     6.0488     4.9449
   56.5000     2.2500     0.2395     0.1586    71.2914     9.3259   -14.1557     6.0401     4.8354
   57.0000     2.2369     0.2426     0.1533    71.4294     9.2480   -15.2753     6.1415     4.7116
   57.5000     2.2422     0.2367     0.1586    72.0924     9.2382   -16.1736     6.2430     4.7186
   58.0000     2.2502     0.2320     0.1639    72.1714     9.2278   -16.9640     6.3459     4.7296
   58.5000     2.2542     0.2286     0.1683    72.3884     9.2181   -17.7936     6.4503     4.7406
   59.0000     2.2424     0.2428     0.1464    73.3397     9.1564   -18.8573     6.5564     4.7551
   59.5000     2.2165     0.2573     0.1230    75.6809     9.0545   -19.9883     6.6643     4.7529
   60.0000     2.1985     0.2682     0.0998    77.8878     8.9523   -21.1249     6.7739     4.7496
   60.5000     2.2125     0.2482     0.0817    77.7890     8.8556   -22.2586     6.8347     4.7464
   61.0000     2.2387     0.2316     0.0778    77.6070     8.7730   -23.3097     6.8745     4.7431
   61.5000     2.2646     0.2214     0.0821    77.4319     8.6912   -23.7915     6.9145     4.7399
   62.0000     2.2890     0.2132     0.0886    78.1904     8.6104   -24.5335     7.2637     4.7367
   62.5000     2.2960     0.2050     0.0828    79.8168     8.5536   -25.4324     7.9589     4.7334
   63.0000     2.2991     0.2080     0.0588    81.4778     8.5505   -26.9178     8.1067     4.7302
   63.5000     2.3031     0.1959     0.0333    80.6039     8.5463   -28.3677     8.1816     4.7270
   64.0000     2.3270     0.1807     0.0301    78.0787     8.5423   -29.2643     7.4945     4.7237
   64.5000     2.3384     0.1796     0.0290    76.0791     8.5383   -29.7973     6.9847     4.7205
   65.0000     2.3372     0.1838     0.0317    76.2517     8.5342   -30.1330     6.9377     4.7172
   65.5000     2.3460     0.1707     0.0401    83.5650     8.5302   -30.2717     6.6475     4.7141
   66.0000     2.3651     0.1629     0.0485    91.2843     8.5262   -30.3770     6.2087     4.7118
   66.5000     2.3652     0.1648     0.0552    93.6339     8.5221   -30.4823     6.1525     4.7327
   67.0000     2.3659     0.1605     0.0549    87.5460     8.5181   -30.6135     6.0849     4.7502
   67.5000     2.3714     0.1552     0.0566    83.6302     8.5141   -30.9115     6.0179     4.7678
   68.0000     2.3828     0.1502     0.0699    82.3450     8.5100   -31.2153     5.9518     4.7854
   68.5000     2.3942     0.1453     0.0846    82.4470     8.5060   -31.5178     5.8863     4.8031
   69.0000     2.4057     0.1403     0.0994    83.5555     8.5020   -31.7915     5.8215     4.8208
   69.5000     2.4168     0.1334     0.1143    85.0289     8.4980   -31.8629     5.7573     4.8386
   70.0000     2.4161     0.1391     0.1116    82.7296     8.4686   -31.9409     5.6946     4.8565
   70.5000     2.4070     0.1502     0.0980    80.9140     8.4183   -31.9176     5.6624     4.8744
   71.0000     2.3982     0.1479     0.0847    79.7769     8.4268   -31.8270     5.6627     4.8924
   71.5000     2.3964     0.1442     0.0855    79.8756     8.4477   -31.7349     5.6631     4.9103
   72.0000     2.3956     0.1462     0.0907    80.0568     8.5086   -31.6436     5.6631     4.9286
   72.5000     2.3943     0.1484     0.0861    80.9440     8.5677   -31.5859     5.6631     4.9654
   73.0000     2.3919     0.1498     0.0737    82.4888     8.5981   -31.6566     5.6631     5.0249
   73.5000     2.3896     0.1498     0.0611    84.4657     8.6237   -31.7240     5.6631     5.0851
   74.0000     2.3872     0.1522     0.0486    86.4488     8.6338   -31.7912     5.6631     5.1460
   74.5000     2.3853     0.1524     0.0370    87.3126     8.6314   -31.8584     5.6632     5.2077
