~VERSION INFORMATION
 VERS.                2.0:   CWLS LOG ASCII STANDARD - VERSION 2.0
 WRAP.                 NO:   ONE LINE PER DEPTH STEP
~WELL INFORMATION
#MNEM.UNIT      DATA TYPE    INFORMATION
#----------   ------------   ------------------------------
 STRT.F           29.0000:   START DEPTH
 STOP.F          642.0000:   STOP DEPTH
 STEP.F            0.5000:   STEP LENGTH
 NULL.          -999.2500:   NO VALUE
 COMP. FENIX & SCISSON INC:   COMPANY
 WELL.    NPR-3 SX #21-10:   WELL
 FLD .  TEAPOT DOME NPR 3:   FIELD
 LOC .      S10 T38N R78W:   LOCATION
 CNTY.            NATRONA:   COUNTY
 STAT.            WYOMING:   STATE
 CTRY. UNITED STATES OF AMERICA:   COUNTRY
 SRVC.            Unknown:   SERVICE COMPANY
 DATE.        03-JUL-1978:   LOGDATE
 API .       490251065400:   API NUMBER
~CURVE INFORMATION
#MNEM.UNIT       API CODE    CURVE DESCRIPTION
#----------   ------------   ------------------------------
 DEPT.F                  :   
 SPR .MV     05 010 01 00:   SPONTANEOUS POTENTIAL FROM RES.
 SN  .OHMM   05 040 16 00:   SHORT NORMAL 16"
 ILD .OHMM   05 120 46 00:   INDUCTION LOG DEEP
 CALD.IN     45 280 60 00:   CALIPER FROM DENSITY
 GRD .GAPI   45 310 01 00:   GAMMA RAY FROM DENSITY LOG
 CORR.G/C3   45 356 01 00:   DENSITY CORRECTION
 DPHI.DEC    45 890 12 00:   DENSITY POROSITY SANDSTONE
 DEN .G/C3   45 350 01 00:   COMPENSATED BULK DENSTIY
~PARAMETER INFORMATION
#MNEM.UNIT          VALUE    DESCRIPTION
#----------   ------------   ------------------------------
 PD  .                 GL:   PERMANENT DATUM
 EPD .F              5253:   ELEVATION PERMANENT DATUM
 LMF .                 KB:   LOG MEASURED FROM
 DAPD.F                 4:   FEET ABOVE PERMANENT DATUM
 DMF .                 KB:   DRILLING MEASURED FROM
 EKB .F              5257:   KELLING BUSHING
 EGL .F              5253:   GROUND LEVEL
 DATE.           7-3-1978:   RUN DATE
 RUN .                  1:   RUN NUMBER
 DD  .F               650:   DEPTH DRILLER
 DL  .F               648:   DEPTH LOGGER
 BLI .F               642:   BOTTOM LOG INTERVAL
 TLI .F                40:   TOP LOG INTERVAL
 CS  .IN            8.625:   CASING SIZE
 CBD .F                40:   CASING BOTTOM DRILLER
 CBL .F                40:   CASING BOTTOM LOGGER
 BS  .IN            7.875:   BIT SIZE
 BSD .F               650:   BIT SIZE AT DEPTH
 DFT .                KCL:   DRILLING FLUID TYPE
 DFD .                8.6:   DRILLING FLUID DENSITY
 DFV .                 32:   DRILLING FLUID VISCOSITY
 DFPH.                  9:   DRILLING FLUID PH
 MSS .           FLOWLINE:   MUD SAMPLE SOURCE
 RMS .OHMM            .24:   RESISTIVITY MUD SAMPLE
 MST .F                88:   MUD SAMPLE TEMPERATURE
 RMF .OHMM            .24:   RESISTIVITY MUD FILTRATE SAMPLE
 MFST.F                94:   MUD FILTRATE SAMPLE TEMPERATURE
 RMC .OHMM            .46:   RESISTIVITY MUD CAKE
 MCST.F                96:   MUD CAKE SAMPLE TEMPERATURE
 MFSS.               MEAS:   MUD FILTRATE SAMPLE SOURCE
 MCSS.               MEAS:   MUD CAKE SAMPLE SOURCE
 TCS .HRS               2:   TIME CURCULATED STOPPED
 LUN .               2958:   LOGGING UNIT NUMBER
 LUL .               CASP:   LOGGING UNIT LOCATION
 CLNT.            A2DTECH:   CLIENT CODE
 ORIG.           5" PRINT:   ORIGIN OF DATA
 UWI .       490251065400:   UNIQUE WELL ID
 DICO. A2D Technologies, Inc.:   DIGITIZING COMPANY
~OTHER INFORMATION
~A   DEPT      SPR         SN        ILD       CALD        GRD       CORR       DPHI        DEN   
# ...
  150.5000   -29.7615     7.5114     7.5847     8.1587   109.8820    -0.0053     0.1368     2.4653
  151.0000   -29.8026     7.5182     7.6213     8.1587   110.3245    -0.0008     0.1389     2.4750
  151.5000   -29.8438     7.5263     7.6276     8.1587   112.6844     0.0037     0.1449     2.4653
  152.0000   -29.8850     7.5849     7.6351     8.1758   115.3392     0.0096     0.1471     2.4502
  152.5000   -29.9261     7.5916     7.6413     8.2036   115.9292     0.0126     0.1390     2.4581
  153.0000   -29.9673     7.7035     7.8070     8.2036   115.3392     0.0140     0.1372     2.4726
  153.5000   -30.0084     7.7103     7.8134     8.1886   112.0944     0.0155     0.1372     2.4756
  154.0000   -30.0496     7.7171     7.8197     8.1587   108.2596     0.0050     0.1369     2.4756
  154.5000   -30.0907     7.7239     7.8261     8.1437   108.2596    -0.0040     0.1366     2.4763
  155.0000   -30.1319     7.7307     7.8325     8.1437   108.5644    -0.0085     0.1433     2.4785
  155.5000   -30.1443     7.7440     7.7835     8.1437   111.2724    -0.0086     0.1508     2.4718
  156.0000   -30.7201     7.7677     7.7365     8.1437   111.7994    -0.0071     0.1564     2.4441
  156.5000   -31.2963     7.7913     7.6897     8.1437   111.1268    -0.0056     0.1573     2.4388
  157.0000   -31.8724     7.7580     7.6975     8.1587   110.1770    -0.0057     0.1486     2.4433
  157.5000   -32.1701     7.6062     7.7038     8.1737   110.0295    -0.0072     0.1462     2.4583
  158.0000   -32.4563     7.5607     7.6571     8.1587   113.1268    -0.0087     0.1528     2.4597
  158.5000   -32.5592     7.4602     7.5069     8.1587   115.6342    -0.0087     0.1570     2.4433
  159.0000   -32.3865     7.4194     7.4615     8.1587   113.2743    -0.0088     0.1567     2.4388
  159.5000   -31.9210     7.2758     7.3618     8.1587   112.2419    -0.0073     0.1558     2.4365
  160.0000   -31.9019     7.2307     7.3210     8.1587   110.0295    -0.0043     0.1549     2.4387
  160.5000   -32.4780     7.2387     7.3285     8.1737   109.1445    -0.0029     0.1546     2.4455
  161.0000   -32.9102     7.1938     7.2827     8.1737   110.6195    -0.0029     0.1573     2.4477
  161.5000   -33.4863     7.2017     7.2901     8.1737   110.9145    -0.0029     0.1576     2.4469
  162.0000   -34.2113     7.2081     7.2961     8.1886   109.7345    -0.0013     0.1576     2.4394
  162.5000   -34.6386     7.2144     7.3020     8.2036   110.9145     0.0030     0.1579     2.4372
  163.0000   -34.6147     7.2208     7.3079     8.2036   112.2419     0.0030     0.1573     2.4387
  163.5000   -34.5956     7.2271     7.3139     8.2036   111.2094     0.0014     0.1487     2.4536
  164.0000   -34.5766     7.2335     7.3198     8.2036   108.8496    -0.0046     0.1445     2.4604
  164.5000   -34.5575     7.2399     7.3258     8.2036   110.4720    -0.0091     0.1460     2.4625
  165.0000   -34.6875     7.2463     7.3318     8.1886   112.2419    -0.0091     0.1490     2.4579
  165.5000   -34.9657     7.3027     7.3374     8.1587   112.4031    -0.0032     0.1475     2.4517
  166.0000   -34.9466     7.3092     7.3434     8.1587   111.0620    -0.0002     0.1556     2.4452
  166.5000   -35.0763     7.3157     7.4014     8.1737   111.2094    -0.0167     0.1379     2.4483
  167.0000   -35.2272     7.3728     7.4075     8.1886   111.2055    -0.0332     0.1438     2.4737
  167.5000   -35.6334     7.4829     7.4135     8.2036   110.2655    -0.0287     0.1644     2.4565
  168.0000   -35.7631     7.5412     7.4195     8.2036   104.5093     0.0086     0.1495     2.4295
  168.5000   -36.3345     7.7052     7.5804     8.2335   104.2773     0.0056     0.1426     2.4632
  169.0000   -36.9106     7.7652     7.6389     8.2036   107.7522    -0.0004     0.1424     2.4654
  169.5000   -37.4868     7.9889     7.8584     8.2036   110.7670    -0.0019     0.1490     2.4684
  170.0000   -37.9189     8.0511     7.8648     8.2036   113.1268     0.0025     0.1502     2.4729
  170.5000   -38.4903     8.0012     7.8712     8.2036   110.1770     0.0070     0.1452     2.4504
  171.0000   -38.9176     8.0100     7.8776     8.2036   112.6844     0.0085     0.1413     2.4556
  171.5000   -39.1608     8.0170     7.9385     8.2036   117.5516     0.0084     0.1392     2.4593
  172.0000   -39.4199     8.0241     7.9998     8.2036   116.5192     0.0039     0.1413     2.4631
  172.5000   -39.6060     8.0866     8.0615     8.2036   110.6195     0.0009     0.1422     2.4713
  173.0000   -39.5863     8.2058     8.1238     8.2036   110.0295    -0.0006     0.1416     2.4683
  173.5000   -39.5670     8.2697     8.1865     8.2036   110.4720     0.0023     0.1422     2.4653
  174.0000   -39.6975     8.4497     8.3068     8.2036   108.5546     0.0038     0.1476     2.4578
  174.5000   -39.6736     8.5156     8.3710     8.1886   107.6696     0.0083     0.1488     2.4540
  175.0000   -39.9522     8.5232     8.5526     8.1886   107.6696     0.0052     0.1458     2.4600
  175.5000   -39.9331     8.6505     8.6201     8.1886   110.0295     0.0007     0.1341     2.4689
  176.0000   -39.6164     8.4813     8.6271     8.1886   115.9292    -0.0053     0.1419     2.4779
  176.5000   -39.4485     8.3728     8.6341     8.1886   112.2419    -0.0068     0.1476     2.4689
  177.0000   -39.4294     8.3801     8.5802     8.2036   110.6195    -0.0054     0.1524     2.4554
  177.5000   -38.8151     8.4454     8.4699     8.2036   112.0944    -0.0039     0.1506     2.4502
  178.0000   -38.2007     8.5112     8.4186     8.2186   115.4867    -0.0009     0.1476     2.4562
  178.5000   -36.9912     8.5775     8.4272     8.2335   119.9115    -0.0010     0.1467     2.4546
  179.0000   -35.7816     8.6443     8.4923     8.2316   116.5192    -0.0040     0.1441     2.4563
  179.5000   -34.5720     8.8323     8.6169     8.2161   114.5978    -0.0040     0.1363     2.4671
  180.0000   -32.1720     8.8401     8.6835     8.1886   114.4543    -0.0010     0.1438     2.4733
  180.5000   -29.9207     9.0323     8.8717     8.1587   114.4543    -0.0041     0.1450     2.4673
  181.0000   -28.5624     9.1027     8.9403     8.1287   114.7709    -0.0041     0.1463     2.4658
  181.5000   -17.8169     9.1736     9.1341     8.0689   115.8092     0.0078     0.1493     2.4538
  182.0000   -17.2143     9.3124     9.2046     8.0090   117.1091     0.0153     0.1381     2.4456
  182.5000   -17.1949     9.4616     9.4053     7.9790   118.1416     0.0048     0.1285     2.4605
  183.0000   -17.1756     9.6519     9.4818     7.9790   114.0118    -0.0042     0.1384     2.4859
  183.5000   -17.1526     9.7960     9.6912     7.9641   112.6844    -0.0042     0.1384     2.4739
  184.0000   -17.1335     9.9405     9.7700     7.9790   116.8142     0.0017     0.1453     2.4649
  184.5000   -17.2680     9.9492     9.9706     7.9790   115.3392     0.0077     0.1387     2.4627
  185.0000   -17.2442    10.1656    10.0476     7.9940   114.6018     0.0076     0.1346     2.4649
  185.5000   -17.3787    10.2448    10.1951     7.9940   114.6018    -0.0014     0.1172     2.4754
  186.0000   -17.3548    10.2538    10.3447     8.0090   114.7493     0.0016     0.1145     2.5068
  186.5000   -17.3357    10.2628    10.3531     8.0240   114.8968     0.0075     0.1280     2.5083
  187.0000   -17.1678    10.2719    10.3616     8.0389   108.1121     0.0015     0.1331     2.5067
  187.5000   -17.1487    10.2105    10.1582     8.0838   105.8997     0.0015     0.1352     2.5060
  188.0000   -17.1296    10.0103    10.0276     8.1287   110.1770     0.0104     0.1469     2.4656
  188.5000   -17.1105     9.7476     9.8308     8.1587   113.1268     0.0029     0.1454     2.4588
  189.0000   -17.0914     9.6892     9.7693     8.1587   114.0118    -0.0046     0.1409     2.4678
  189.5000   -17.0723     9.4996     9.5796     8.1587   112.0944    -0.0046     0.1399     2.4680
  190.0000   -17.0533     9.2501     9.5135     8.1886   111.0620     0.0013     0.1508     2.4528
  190.5000   -17.0342     9.1869     9.4441     8.2036   111.2094     0.0148     0.1496     2.4453
