~VERSION INFORMATION
 VERS.                2.0:   CWLS LOG ASCII STANDARD - VERSION 2.0
 WRAP.                 NO:   ONE LINE PER DEPTH STEP
~WELL INFORMATION
#MNEM.UNIT      DATA TYPE    INFORMATION
#----------   ------------   ------------------------------
 STRT.F           30.0000:   START DEPTH
 STOP.F          655.5000:   STOP DEPTH
 STEP.F            0.5000:   STEP LENGTH
 NULL.          -999.2500:   NO VALUE
 COMP. FENIX & SCISSON INC:   COMPANY
 WELL.    NPR-3 SX #52-15:   WELL
 FLD .             TEAPOT:   FIELD
 LOC .      S15 T38N R78W:   LOCATION
 CNTY.            NATRONA:   COUNTY
 STAT.            WYOMING:   STATE
 CTRY. UNITED STATES OF AMERICA:   COUNTRY
 SRVC.            Unknown:   SERVICE COMPANY
 DATE.        27-MAY-1978:   LOGDATE
 API .       490251062200:   API NUMBER
~CURVE INFORMATION
#MNEM.UNIT       API CODE    CURVE DESCRIPTION
#----------   ------------   ------------------------------
 DEPT.F                  :   
 GRD .GAPI   45 310 01 00:   GAMMA RAY FROM DENSITY LOG
 CALD.IN     45 280 60 00:   CALIPER
 RHOB.G/C3   45 350 01 00:   BULK DENSITY
 DPHI.DEC    45 890 12 00:   DENSITY POROSITY SANDSTONE
 CORR.G/C3   45 356 01 00:   DENSITY CORRECTION
 SN  .OHMM   05 040 16 00:   SHORT NORMAL 16"
 IL  .OHMM   05 120 00 00:   INDUCTION LOG
 SPR .MV     05 010 01 00:   SPONTANEOUS POTENTIAL FROM RES.
~PARAMETER INFORMATION
#MNEM.UNIT          VALUE    DESCRIPTION
#----------   ------------   ------------------------------
 PD  .                 GL:   PERMANENT DATUM
 EPD .F              5240:   ELEVATION PERMANENT DATUM
 LMF .                 KB:   LOG MEASURED FROM
 DAPD.F                 4:   FEET ABOVE PERMANENT DATUM
 DMF .                 GL:   DRILLING MEASURED FROM
 EKB .F              5244:   KELLING BUSHING
 EGL .F              5240:   GROUND LEVEL
 DATE.          5-27-1978:   RUN DATE
 RUN .                  1:   RUN NUMBER
 DD  .F               645:   DEPTH DRILLER
 DL  .F               655:   DEPTH LOGGER
 BLI .F               650:   BOTTOM LOG INTERVAL
 TLI .F                50:   TOP LOG INTERVAL
 CS  .IN            8.625:   CASING SIZE
 CBD .F                40:   CASING BOTTOM DRILLER
 CBL .F                40:   CASING BOTTOM LOGGER
 BS  .IN            7.875:   BIT SIZE
 BSD .F               645:   BIT SIZE AT DEPTH
 DFT .                KCL:   DRILLING FLUID TYPE
 DFD .                8.6:   DRILLING FLUID DENSITY
 DFV .                 32:   DRILLING FLUID VISCOSITY
 DFPH.               10.5:   DRILLING FLUID PH
 DFL .                7.4:   DRILLING FLUID LOSS
 MSS .           FLOWLINE:   MUD SAMPLE SOURCE
 RMS .OHMM            .30:   RESISTIVITY MUD SAMPLE
 MST .F                66:   MUD SAMPLE TEMPERATURE
 RMF .OHMM            .32:   RESISTIVITY MUD FILTRATE SAMPLE
 MFST.F                64:   MUD FILTRATE SAMPLE TEMPERATURE
 RMC .OHMM            .50:   RESISTIVITY MUD CAKE
 MCST.F                64:   MUD CAKE SAMPLE TEMPERATURE
 MFSS.           MEASURED:   MUD FILTRATE SAMPLE SOURCE
 BHT .F                68:   BOTTOM HOLE TEMPERATURE
 TCS .HRS               2:   TIME CURCULATED STOPPED
 MRT .F                68:   MAXIMUM RECORDED TEMPERATURE
 LUN .               2958:   LOGGING UNIT NUMBER
 LUL .              CASP.:   LOGGING UNIT LOCATION
 ENGI.            POINTER:   RECORDING ENGINEER
 WITN.           MCGINLEY:   WITNESSED BY
 CLNT.            A2DTECH:   CLIENT CODE
 ORIG.      2" , 5" PRINT:   ORIGIN OF DATA
 UWI .       490251062200:   UNIQUE WELL ID
 DICO. A2D Technologies, Inc.:   DIGITIZING COMPANY
~OTHER INFORMATION
~A   DEPT       GRD      CALD       RHOB       DPHI       CORR         SN         IL        SPR   
# ...
  435.0000   107.0888     7.6690     2.4729     0.1185     0.1366     6.7769     6.5922   -19.7598
  435.5000   110.7674     7.6832     2.4888     0.1094     0.1383     6.7765     6.5922   -19.7785
  436.0000   114.4593     7.6973     2.5051     0.1003     0.1383     6.9334     6.5922   -19.7969
  436.5000   115.0235     7.7115     2.5213     0.0918     0.1383     7.0984     6.9073   -19.8106
  437.0000   109.2853     7.7255     2.5328     0.0890     0.1383     7.2669     7.2389   -20.0796
  437.5000   107.5805     7.7400     2.5368     0.0862     0.1384     7.4393     7.5863   -20.4176
  438.0000   107.5492     7.7322     2.5407     0.1046     0.1311     7.6157     7.9504   -20.7571
  438.5000   107.8209     7.7141     2.5380     0.1025     0.1209     7.7104     8.2991   -21.0974
  439.0000   107.5812     7.7113     2.5195     0.1002     0.1158     7.7104     8.2991   -21.3248
  439.5000   105.1477     7.7248     2.5111     0.0980     0.1148     7.5274     7.9022   -21.4943
  440.0000   102.5033     7.7385     2.5150     0.1038     0.1105     7.1817     7.6096   -21.6634
  440.5000   102.4680     7.7375     2.5222     0.1202     0.1002     6.8528     7.3278   -21.8327
  441.0000   108.0542     7.7242     2.5139     0.1285     0.0899     6.5390     7.0565   -22.0021
  441.5000   112.5089     7.6897     2.4920     0.1368     0.0882     6.2395     6.7951   -22.1714
  442.0000   115.0054     7.6537     2.4703     0.1463     0.0903     6.0667     6.5433   -22.3435
  442.5000   118.0156     7.6176     2.4484     0.1287     0.1008     5.9726     6.3006   -22.4102
  443.0000   122.0672     7.5936     2.4391     0.1142     0.1112     5.8940     6.1152   -22.2811
  443.5000   122.0196     7.5758     2.4440     0.1174     0.1145     5.8596     6.0678   -21.5873
  444.0000   114.7753     7.5582     2.4777     0.0994     0.1033     5.8483     6.3781   -20.9106
  444.5000   109.2815     7.5405     2.5086     0.1029     0.0908     6.0967     6.8695   -20.3704
  445.0000   103.7415     7.5237     2.5184     0.1066     0.0861     7.0015     7.2568   -20.2153
  445.5000   100.3095     7.5176     2.5204     0.1039     0.0818     7.2120     7.5039   -20.0569
  446.0000   101.6153     7.5111     2.5145     0.1053     0.0774     7.4435     7.7597   -19.8985
  446.5000   103.5461     7.5045     2.5196     0.1054     0.0729     7.6798     8.0238   -19.7401
  447.0000   105.4557     7.4980     2.5087     0.1042     0.0721     7.9236     8.2973   -19.5826
  447.5000   107.0206     7.4914     2.5055     0.1058     0.0743     8.1752     8.5793   -19.4159
  448.0000   105.3453     7.4849     2.5068     0.1048     0.0770     8.4347     8.7394   -19.0331
  448.5000   101.1725     7.4783     2.5084     0.1038     0.0797     8.5728     8.8197   -18.6411
  449.0000   100.5659     7.4718     2.5100     0.1081     0.0824     8.6381     8.9007   -18.2498
  449.5000   101.0598     7.4652     2.5116     0.1102     0.0851     8.7039     8.9825   -17.8557
  450.0000   102.7642     7.4587     2.5132     0.1033     0.0878     8.7703     9.0650   -17.4502
  450.5000   105.6450     7.4522     2.5148     0.0974     0.0900     8.8371     9.1483   -17.3962
  451.0000   106.4269     7.4450     2.5164     0.0971     0.0874     8.9044     9.2324   -17.3649
  451.5000   108.0551     7.4137     2.5188     0.0967     0.0848     8.9364     9.2736   -17.3314
  452.0000   110.7877     7.3796     2.5229     0.0963     0.0823     8.9413     9.2817   -17.2973
  452.5000   111.7290     7.3733     2.5269     0.0959     0.0801     8.9462     9.2898   -17.2633
  453.0000   107.8701     7.3865     2.5286     0.0955     0.0804     8.9510     9.2980   -17.2292
  453.5000   106.5900     7.4000     2.5256     0.0951     0.0806     8.9559     9.3061   -17.1952
  454.0000   105.1070     7.4135     2.5255     0.0971     0.0808     8.9608     9.3143   -17.1611
  454.5000   102.8668     7.4271     2.5270     0.0996     0.0810     8.9657     9.3225   -17.1269
  455.0000   100.6463     7.4403     2.5246     0.1000     0.0812     8.9705     9.3306   -17.0914
  455.5000    98.4263     7.4745     2.5201     0.0989     0.0814     8.9754     9.3386   -17.0581
  456.0000    98.3139     7.5179     2.5195     0.0979     0.0816     8.9803     9.3493   -17.1297
  456.5000   101.1067     7.5625     2.5236     0.0969     0.0818     8.9852     9.3514   -17.6766
  457.0000   103.9212     7.5408     2.5210     0.0959     0.0820     8.9901     9.5820   -18.2142
  457.5000   104.9809     7.5134     2.5211     0.0973     0.0818     8.9950     9.8033   -18.7502
  458.0000   102.1729     7.4862     2.5263     0.1025     0.0782     8.9999    10.0290   -19.2570
  458.5000    98.6664     7.4591     2.5240     0.1179     0.0650     9.0050    10.2593   -19.4138
  459.0000    97.2085     7.4320     2.5124     0.1258     0.0505     9.0131    10.5446   -19.5831
  459.5000    97.7497     7.4058     2.4930     0.1312     0.0415     9.0182    10.5446   -19.7536
  460.0000    97.9742     7.3998     2.4708     0.1416     0.0402     8.8389     9.7784   -19.9227
  460.5000    96.8065     7.3947     2.4589     0.1558     0.0452     8.5695     8.9352   -20.0007
  461.0000    95.6573     7.3896     2.4495     0.1700     0.0505     8.3083     8.1648   -19.9532
  461.5000    94.5252     7.3844     2.4281     0.1902     0.0558     8.0552     7.4607   -19.9078
  462.0000    95.1051     7.3791     2.4050     0.2154     0.0610     7.8095     7.1619   -19.8614
  462.5000    98.6305     7.3738     2.3563     0.1750     0.0673     7.5197     7.2951   -19.7656
  463.0000   105.7190     7.3688     2.3243     0.1048     0.1064     7.2062     7.4111   -19.3709
  463.5000   117.5249     7.3898     2.3555     0.0919     0.1712     7.0963     7.5282   -18.9807
  464.0000   123.2042     7.5096     2.3473     0.0884     0.2110     7.0963     7.6476   -18.2910
  464.5000   116.2619     8.3449     2.5037     0.0884     0.0907     7.5497     7.9267   -17.4306
  465.0000   107.7996     7.6922     2.5301     0.0899     0.0978     8.2559     8.8060   -16.6241
  465.5000   100.5990     7.7036     2.5336     0.0913     0.1069     9.0282    10.2101   -16.2383
  466.0000    96.0782     7.6938     2.5336     0.0925     0.1219     9.7585    11.8380   -15.8774
  466.5000    94.2330     7.6897     2.5336     0.0915     0.1367    10.0396    12.9250   -15.6086
  467.0000    94.6324     7.6852     2.5336     0.0905     0.1515    10.2572    12.6368   -15.5371
  467.5000    95.0669     7.6846     2.5358     0.0896     0.1665    10.5356    12.4075   -15.4616
  468.0000    95.0370     7.6851     2.5420     0.0797     0.1723    10.8077    12.1849   -15.3870
  468.5000    93.8416     7.7096     2.5480     0.0725     0.1724    11.0867    11.9934   -15.3123
  469.0000    92.9718     7.7620     2.5541     0.0880     0.1706    11.3729    12.2982   -15.2377
  469.5000    91.2770     7.7578     2.5604     0.1195     0.1520    11.6689    12.6311   -15.1632
  470.0000    92.2208     7.7497     2.5676     0.1313     0.1188    12.1999    12.9719   -15.0871
  470.5000    94.8053     7.7418     2.4889     0.1391     0.1090    12.7595    13.8526   -14.9129
  471.0000    97.3516     7.7339     2.4707     0.1413     0.1330    13.3448    14.9161   -14.5440
  471.5000    97.3681     7.7265     2.4588     0.1739     0.1611    13.9569    16.0613   -14.1839
  472.0000    85.2395     7.6772     2.4473     0.1585     0.1882    14.5971    17.2944   -13.4940
  472.5000    73.6372     7.5987     2.4474     0.1282     0.2170    15.2667    18.6222   -12.6310
  473.0000    66.9417     7.5195     2.4496     0.0978     0.2234    16.2566    20.0519   -11.7614
  473.5000    61.8567     7.4460     2.4579     0.0903     0.2245    16.2278    20.7433   -10.8618
  474.0000    60.6337     7.4440     2.4952     0.1413     0.1744    16.1799    20.9627   -10.5513
  474.5000    59.4618     7.5061     2.5291     0.1794     0.0971    16.1321    21.0809   -10.4041
  475.0000    57.2771     7.5947     2.4624     0.1882     0.0666    15.9371    21.1718   -10.2520
