~VERSION INFORMATION
 VERS.                2.0:   CWLS LOG ASCII STANDARD - VERSION 2.0
 WRAP.                 NO:   ONE LINE PER DEPTH STEP
~WELL INFORMATION
#MNEM.UNIT      DATA TYPE    INFORMATION
#----------   ------------   ------------------------------
 STRT.F           16.0000:   START DEPTH
 STOP.F          900.0000:   STOP DEPTH
 STEP.F            0.5000:   STEP LENGTH
 NULL.          -999.2500:   NO VALUE
 COMP. FENIX & SCISSON INC:   COMPANY
 WELL.    NPR-3 #65S15-15:   WELL
 FLD .             TEAPOT:   FIELD
 LOC .      S15 T38N R78W:   LOCATION
 CNTY.            NATRONA:   COUNTY
 STAT.            WYOMING:   STATE
 CTRY. UNITED STATES OF AMERICA:   COUNTRY
 SRVC.            Unknown:   SERVICE COMPANY
 DATE.        11-MAY-1978:   LOGDATE
 API .       490251062400:   API NUMBER
~CURVE INFORMATION
#MNEM.UNIT       API CODE    CURVE DESCRIPTION
#----------   ------------   ------------------------------
 DEPT.F                  :   
 RHOB.G/C3   45 350 01 00:   BULK DENSITY
 DPHI.DEC    45 890 12 00:   DENSITY POROSITY SANDSTONE
 CORR.G/C3   45 356 01 00:   DENSITY CORRECTION
 GRD .GAPI   45 310 01 00:   GAMMA RAY FROM DENSITY LOG
 CALD.IN     45 280 60 00:   CALIPER FROM DENSITY LOG
 SPR .MV     05 010 01 00:   SPONTANEOUS POTENTIAL FROM RES.
 SN  .OHMM   05 040 16 00:   SHORT NORMAL 16"
 IL  .OHMM   05 120 00 00:   INDUCTION LOG
~PARAMETER INFORMATION
#MNEM.UNIT          VALUE    DESCRIPTION
#----------   ------------   ------------------------------
 PD  .                 GL:   PERMANENT DATUM
 EPD .F              5289:   ELEVATION PERMANENT DATUM
 LMF .                 KB:   LOG MEASURED FROM
 DAPD.F                 4:   FEET ABOVE PERMANENT DATUM
 DMF .                 KB:   DRILLING MEASURED FROM
 EKB .F              5293:   KELLING BUSHING
 EDF .F                  :   DRILLING FLOOR
 EGL .F              5289:   GROUND LEVEL
 DATE.          5-11-1978:   RUN DATE
 RUN .                  1:   RUN NUMBER
 DD  .F               887:   DEPTH DRILLER
 DL  .F               889:   DEPTH LOGGER
 BLI .F               883:   BOTTOM LOG INTERVAL
 TLI .F                40:   TOP LOG INTERVAL
 CS  .IN            8.625:   CASING SIZE
 CBD .F                40:   CASING BOTTOM DRILLER
 CBL .F                40:   CASING BOTTOM LOGGER
 BS  .IN            7.875:   BIT SIZE
 BSD .F               887:   BIT SIZE AT DEPTH
 DFT .                KCL:   DRILLING FLUID TYPE
 DFD .                8.6:   DRILLING FLUID DENSITY
 DFV .                 30:   DRILLING FLUID VISCOSITY
 DFPH.                9.5:   DRILLING FLUID PH
 DFL .                  8:   DRILLING FLUID LOSS
 MSS .                   :   MUD SAMPLE SOURCE
 RMS .OHMM            .42:   RESISTIVITY MUD SAMPLE
 MST .F                68:   MUD SAMPLE TEMPERATURE
 RMF .OHMM            .38:   RESISTIVITY MUD FILTRATE SAMPLE
 MFST.F                68:   MUD FILTRATE SAMPLE TEMPERATURE
 RMC .OHMM            .68:   RESISTIVITY MUD CAKE
 MCST.F                66:   MUD CAKE SAMPLE TEMPERATURE
 MFSS.           MEASURED:   MUD FILTRATE SAMPLE SOURCE
 MCSS.                   :   MUD CAKE SAMPLE SOURCE
 RMB .OHMM               :   RESISTIVITY MUD AT BHT
 BHT .F                72:   BOTTOM HOLE TEMPERATURE
 TCS .HRS               2:   TIME CURCULATED STOPPED
 TLAB.HRS                :   TIME LOGGER AT BOTTOM
 MRT .F                72:   MAXIMUM RECORDED TEMPERATURE
 LUN .              CASP.:   LOGGING UNIT NUMBER
 LUL .               2958:   LOGGING UNIT LOCATION
 ENGI.             MILLER:   RECORDING ENGINEER
 WITN.           MCGINLEY:   WITNESSED BY
 CLNT.            A2DTECH:   CLIENT CODE
 ORIG.      2" & 5" PRINT:   ORIGIN OF DATA
 UWI .       490251062400:   UNIQUE WELL ID
 DICO. A2D Technologies, Inc.:   DIGITIZING COMPANY
 OS  .                   :   OTHER SERVICES
 PWI .                   :   PRIMARY WELL IDENTIFIER
 R1  .                   :   REMARKS 1
 R2  .                   :   REMARKS 2
~OTHER INFORMATION
~A   DEPT     RHOB       DPHI       CORR         GRD      CALD        SPR         SN         IL   
# ...
  542.5000     2.4650     0.1225     0.0027    82.5177     7.5351   -40.2208     6.9043     6.1884
  543.0000     2.4696     0.1250     0.0028    80.1329     7.5149   -40.1503     7.0184     6.2186
  543.5000     2.4710     0.1289     0.0035    78.1654     7.4946   -40.1961     7.1344     6.2489
  544.0000     2.4688     0.1275     0.0041    77.9179     7.4744   -40.2674     7.2523     6.2793
  544.5000     2.4656     0.1238     0.0048    78.0653     7.4542   -40.3392     7.3630     6.3018
  545.0000     2.4698     0.1202     0.0055    78.2031     7.4339   -40.4106     7.4000     6.3153
  545.5000     2.4765     0.1192     0.0061    77.5120     7.4137   -40.4821     7.4307     6.3288
  546.0000     2.4802     0.1188     0.0068    76.7579     7.3934   -40.5535     7.3925     6.3423
  546.5000     2.4823     0.1160     0.0075    76.0156     7.3732   -40.6249     7.3208     6.3538
  547.0000     2.4829     0.1156     0.0081    75.6284     7.3527   -40.6964     7.2498     6.2991
  547.5000     2.4835     0.1153     0.0079    76.7822     7.3572   -40.7681     7.1795     6.2522
  548.0000     2.4841     0.1175     0.0046    77.2244     7.3757   -40.8388     7.1098     6.2057
  548.5000     2.4848     0.1211     0.0014    76.7449     7.3945   -40.9143     7.0409     6.1595
  549.0000     2.4804     0.1244    -0.0018    76.2747     7.4134   -40.7144     6.9726     6.1136
  549.5000     2.4738     0.1218     0.0000    75.9921     7.4322   -40.3786     6.9050     6.0681
  550.0000     2.4711     0.1162     0.0073    75.9197     7.4510   -40.1366     6.8380     6.0230
  550.5000     2.4804     0.1112     0.0114    75.8351     7.4697   -40.5224     6.7717     5.9781
  551.0000     2.4877     0.1200     0.0070    76.2819     7.4885   -40.9509     6.7147     5.8521
  551.5000     2.4822     0.1271     0.0028    76.9062     7.5073   -41.3787     6.5136     5.6581
  552.0000     2.4737     0.1292    -0.0013    77.6708     7.5262   -41.7863     6.3056     5.4700
  552.5000     2.4653     0.1312    -0.0005    79.1141     7.5447   -42.0585     6.1042     5.2881
  553.0000     2.4571     0.1330     0.0006    80.5563     7.5547   -42.3235     5.9093     5.1130
  553.5000     2.4550     0.1337     0.0016    81.9966     7.5643   -42.3326     5.7206     5.0470
  554.0000     2.4532     0.1407     0.0026    82.7357     7.5741   -42.3322     5.5379     5.0470
  554.5000     2.4516     0.1496     0.0037    82.8558     7.5840   -42.3305     5.3610     5.0470
  555.0000     2.4388     0.1496     0.0065    77.1247     7.5737   -42.2426     5.2364     5.0470
  555.5000     2.4238     0.1375     0.0158    71.8486     7.5610   -41.8546     5.2364     5.0470
  556.0000     2.4367     0.1242     0.0164    73.8201     7.5482   -41.4810     5.5994     5.3131
  556.5000     2.4526     0.1156     0.0134    77.0988     7.5259   -41.1081     5.9524     5.5681
  557.0000     2.4683     0.1182     0.0103    76.7770     7.5005   -40.7164     6.3288     5.8354
  557.5000     2.4796     0.1200     0.0072    76.6484     7.4750   -40.5925     6.7256     6.1155
  558.0000     2.4809     0.1170     0.0076    76.5270     7.4494   -40.6810     6.9522     6.3701
  558.5000     2.4829     0.1140     0.0091    76.4756     7.4259   -40.7738     7.0319     6.4595
  559.0000     2.4850     0.1110     0.0104    77.5959     7.4327   -40.8669     7.1147     6.5502
  559.5000     2.4871     0.1164     0.0090    78.3889     7.4399   -40.9334     7.1985     6.6421
  560.0000     2.4886     0.1240     0.0074    77.8619     7.4335   -40.8130     7.2833     6.7353
  560.5000     2.4787     0.1254     0.0075    76.3954     7.3843   -40.6927     7.3692     6.8299
  561.0000     2.4685     0.1221     0.0099    75.5538     7.3359   -40.5696     7.4735     6.9250
  561.5000     2.4698     0.1187     0.0123    76.0133     7.3135   -40.6507     7.6225     7.0993
  562.0000     2.4782     0.1154     0.0145    76.4499     7.2978   -40.8099     7.7744     7.0960
  562.5000     2.4868     0.1121     0.0137    76.8838     7.2959   -40.9718     7.9294     7.1010
  563.0000     2.4915     0.1088     0.0128    77.0345     7.3583   -41.1281     7.9989     7.1092
  563.5000     2.4950     0.1058     0.0120    75.9859     7.4098   -41.0651     7.9989     7.1140
  564.0000     2.4985     0.1085     0.0112    75.3450     7.4262   -40.9925     7.9989     7.1187
  564.5000     2.4992     0.1089     0.0104    78.1234     7.4431   -41.0491     7.9989     7.1235
  565.0000     2.4982     0.1060     0.0096    79.2343     7.4609   -41.6574     7.9989     7.1283
  565.5000     2.5031     0.1032     0.0088    77.5893     7.4635   -42.2497     7.9989     7.1330
  566.0000     2.5033     0.1090     0.0092    77.0696     7.4614   -42.3981     7.9989     7.1378
  566.5000     2.5024     0.1093     0.0102    76.8418     7.4591   -42.4741     7.9989     7.1426
  567.0000     2.5015     0.1049     0.0113    76.6390     7.4569   -42.5497     7.9989     7.1474
  567.5000     2.5005     0.0986     0.0122    76.8417     7.4547   -42.6261     7.9989     7.1522
  568.0000     2.5006     0.0904     0.0184    77.0579     7.4524   -42.7026     7.9989     7.1571
  568.5000     2.5131     0.0973     0.0241    76.9873     7.4502   -42.7791     7.9989     7.1619
  569.0000     2.5244     0.1084     0.0168    75.7949     7.4480   -42.8557     7.9989     7.1276
  569.5000     2.5229     0.1067     0.0103    75.2649     7.4460   -42.9322     7.9989     7.0832
  570.0000     2.5082     0.1048     0.0105    74.8473     7.4305   -43.0088     7.9989     7.0390
  570.5000     2.5012     0.1028     0.0105    74.4257     7.4098   -43.0853     7.9990     6.9951
  571.0000     2.5010     0.1073     0.0105    74.3078     7.3888   -43.1451     7.9985     6.9515
  571.5000     2.5004     0.1120     0.0105    74.5455     7.3678   -43.1840     8.0010     6.9082
  572.0000     2.4966     0.1105     0.0105    75.6030     7.3469   -43.2230     7.8627     6.8652
  572.5000     2.4931     0.1086     0.0105    77.7419     7.3259   -43.2620     7.7711     6.8224
  573.0000     2.4947     0.1067     0.0105    78.6401     7.3056   -43.3009     7.6805     6.7769
  573.5000     2.4964     0.1111     0.0115    76.3637     7.2954   -43.3400     7.5910     6.6580
  574.0000     2.4964     0.1152     0.0137    75.8497     7.2858   -43.3789     7.5026     6.5324
  574.5000     2.4956     0.1052     0.0189    75.6234     7.2764   -43.4179     7.4152     6.4092
  575.0000     2.4951     0.1072     0.0240    76.4411     7.2658   -43.4569     7.3289     6.2882
  575.5000     2.4965     0.1074     0.0291    77.4061     7.2043   -43.4959     7.2443     6.1696
  576.0000     2.4978     0.1066     0.0357    77.5449     7.0670   -43.5349     7.1610     6.0532
  576.5000     2.4992     0.1091     0.0455    77.3837     6.8990   -43.5739     6.9090     5.8690
  577.0000     2.4990     0.1128     0.0553    77.2535     6.9045   -43.6129     6.6732     5.6530
  577.5000     2.4922     0.1165     0.0650    77.3614     7.0197   -43.6517     6.4454     5.4449
  578.0000     2.4853     0.1231     0.0747    77.6113     7.1787   -43.6905     6.2261     5.2445
  578.5000     2.4787     0.1319     0.0820    77.4475     7.3372   -43.7482     6.0121     5.0514
  579.0000     2.4650     0.1406     0.0853    77.5724     7.4166   -43.9290     5.7123     4.8022
  579.5000     2.4474     0.1539     0.0889    78.1585     7.3951   -44.1115     5.3909     4.5438
  580.0000     2.4297     0.1606     0.0991    77.7290     7.3617   -44.2936     5.0937     4.1463
  580.5000     2.4122     0.1633     0.1095    77.5708     7.3133   -44.4756     4.5857     3.6807
  581.0000     2.4049     0.1718     0.1119    78.7542     7.2651   -44.6582     4.1200     3.2675
  581.5000     2.3951     0.1810     0.1110    79.9280     7.2152   -44.8403     3.7011     2.9005
  582.0000     2.3753     0.1988     0.1033    80.2474     7.2197   -45.0172     3.3249     2.5746
  582.5000     2.3556     0.2221     0.0932    79.6208     7.2382   -44.8791     2.9872     2.4026
