~VERSION INFORMATION
 VERS.                2.0:   CWLS LOG ASCII STANDARD - VERSION 2.0
 WRAP.                 NO:   ONE LINE PER DEPTH STEP
~WELL INFORMATION
#MNEM.UNIT      DATA TYPE    INFORMATION
#----------   ------------   ------------------------------
 STRT.F           34.0000:   START DEPTH
 STOP.F          662.0000:   STOP DEPTH
 STEP.F            0.5000:   STEP LENGTH
 NULL.          -999.2500:   NO VALUE
 COMP. FENIX & SCISSON INC:   COMPANY
 WELL.     55 S 34 #34-34:   WELL
 FLD .          N.P.R. #3:   FIELD
 LOC .      S34 T39N R78W:   LOCATION
 CNTY.            NATRONA:   COUNTY
 STAT.            WYOMING:   STATE
 CTRY. UNITED STATES OF AMERICA:   COUNTRY
 SRVC.       Schlumberger:   SERVICE COMPANY
 DATE.        15-MAR-1977:   LOGDATE
 API .       490251030500:   API NUMBER
~CURVE INFORMATION
#MNEM.UNIT       API CODE    CURVE DESCRIPTION
#----------   ------------   ------------------------------
 DEPT.F                  :   
 GRD .GAPI   45 310 01 00:   GAMMA RAY FROM DENSITY LOG
 CORR.G/C3   45 356 01 00:   DENSITY CORRECTION
 RHOB.G/C3   45 350 01 00:   BULK DENSITY
 DPOR.DEC    45 890 12 00:   DENSITY POROSITY SANDSTONE
 SPR .MV     07 010 01 00:   SPONTANEOUS POTENTIAL
 LL8 .OHMM   07 220 08 00:   LATEROLOG-8 RES.
 ILD .OHMM   07 120 46 00:   INDUCTION LOG DEEP
 ILM .OHMM   07 120 44 00:   INDUCTION LOG MEDIUM
 CALD.IN     45 280 60 00:   CALIPER
~PARAMETER INFORMATION
#MNEM.UNIT          VALUE    DESCRIPTION
#----------   ------------   ------------------------------
 PD  .                 GL:   PERMANENT DATUM
 EPD .F              5087:   ELEVATION PERMANENT DATUM
 LMF .                 GL:   LOG MEASURED FROM
 DMF .                 GL:   DRILLING MEASURED FROM
 EKB .F              5091:   KELLING BUSHING
 EGL .F              5087:   GROUND LEVEL
 DATE.            3-15-77:   RUN DATE
 RUN .                  1:   RUN NUMBER
 DD  .F               670:   DEPTH DRILLER
 DL  .F               663:   DEPTH LOGGER
 BLI .F               657:   BOTTOM LOG INTERVAL
 TLI .F                40:   TOP LOG INTERVAL
 CS  .IN            8.625:   CASING SIZE
 CBD .F                40:   CASING BOTTOM DRILLER
 CBL .F                40:   CASING BOTTOM LOGGER
 BS  .IN            7.875:   BIT SIZE
 BSD .F               670:   BIT SIZE AT DEPTH
 DFT .                KCL:   DRILLING FLUID TYPE
 DFD .                8.6:   DRILLING FLUID DENSITY
 DFV .                 31:   DRILLING FLUID VISCOSITY
 DFPH.                  8:   DRILLING FLUID PH
 DFL .                8.8:   DRILLING FLUID LOSS
 MSS .                PIT:   MUD SAMPLE SOURCE
 RMS .OHMM           .246:   RESISTIVITY MUD SAMPLE
 MST .F                76:   MUD SAMPLE TEMPERATURE
 RMF .OHMM           .243:   RESISTIVITY MUD FILTRATE SAMPLE
 MFST.F                76:   MUD FILTRATE SAMPLE TEMPERATURE
 MFSS.                  M:   MUD FILTRATE SAMPLE SOURCE
 RMB .OHMM           .267:   RESISTIVITY MUD AT BHT
 BHT .F                70:   BOTTOM HOLE TEMPERATURE
 TCS .HRS            1800:   TIME CURCULATED STOPPED
 TLAB.HRS            2200:   TIME LOGGER AT BOTTOM
 MRT .F                70:   MAXIMUM RECORDED TEMPERATURE
 LUN .               5642:   LOGGING UNIT NUMBER
 LUL .               CSPR:   LOGGING UNIT LOCATION
 ENGI.             MARTIN:   RECORDING ENGINEER
 WITN.              BURKE:   WITNESSED BY
 CLNT.            A2DTECH:   CLIENT CODE
 ORIG. 2", 2.5", 5" PRINT:   ORIGIN OF DATA
 UWI .       490251030500:   UNIQUE WELL ID
 DICO. A2D Technologies, Inc.:   DIGITIZING COMPANY
~OTHER INFORMATION
~A   DEPT       GRD      CORR       RHOB       DPOR        SPR        LL8        ILD        ILM       CALD   
# ...
   70.5000   139.7347     0.0677     2.2449     0.2601  -130.8592   873.8641     2.0111     2.1871     8.3956
   71.0000   135.0949     0.0350     2.2822     0.2235  -132.5391  1031.2316     2.0113     2.2300     8.3956
   71.5000   129.9788     0.0005     2.3239     0.1832  -134.4940  1185.9312     2.2051     2.3809     8.3956
   72.0000   125.7401     0.0196     2.3914     0.1547  -136.4780  1207.8380     2.4212     2.5363     8.3956
   72.5000   124.8965     0.0118     2.3832     0.1595  -138.4578  1236.1578     2.6596     2.9070     8.3956
   73.0000   124.4627     0.0017     2.3733     0.1658  -140.4509  1302.0931     2.9684     3.3092     8.3956
   73.5000   124.0607     0.0007     2.3631     0.1721  -142.4844  1407.5674     3.4406     3.7671     8.3957
   74.0000   125.1143     0.0108     2.3748     0.1752  -142.9250  1466.4351     3.9843     4.2884     8.3956
   74.5000   127.7219     0.0166     2.3706     0.1666  -141.0742  1466.4401     4.4825     4.8817     8.3902
   75.0000   128.0395    -0.0016     2.3718     0.1687  -133.2020  1466.2266     4.6161     5.0725     8.3588
   75.5000   127.0277     0.0056     2.3833     0.1645  -125.3242  1465.9907     4.7549     5.2033     8.3258
   76.0000   126.6511     0.0126     2.3821     0.1604  -122.5606  1466.0416     4.8977     5.3376     8.3416
   76.5000   126.7944     0.0052     2.3767     0.1643  -119.9379  1467.9021     5.0136     5.4751     8.3546
   77.0000   126.5587    -0.0043     2.3711     0.1691  -117.5200  1469.8678     5.2167     5.6163     8.3681
   77.5000   125.8557    -0.0109     2.3696     0.1691  -117.2986  1471.8279     5.4238     5.7612     8.3764
   78.0000   124.1717     0.0075     2.3813     0.1547  -117.2876  1473.7886     5.6519     5.9185     8.3428
   78.5000   123.1460    -0.0008     2.3932     0.1518  -117.8728  1475.7496     5.8326     6.1238     8.2910
   79.0000   124.4567     0.0071     2.4039     0.1467  -119.2977  1477.7354     6.0083     6.3305     8.2767
   79.5000   126.0300    -0.0030     2.3992     0.1521  -120.7707  1479.4170     6.1892     6.5441     8.2713
   80.0000   126.8113     0.0024     2.4061     0.1502  -121.6901  1478.6969     6.3756     6.7649     8.2613
   80.5000   124.7881     0.0137     2.4126     0.1464  -122.8395  1477.8387     6.5501     7.0514     8.2513
   81.0000   124.2766     0.0207     2.4015     0.1447  -123.9404  1476.9944     6.5439     7.0377     8.2415
   81.5000   124.3091     0.0030     2.3677     0.1433  -126.2045  1476.1519     6.5385     7.0132     8.2439
   82.0000   126.4325     0.0113     2.3732     0.1418  -128.8859  1475.3098     6.5331     6.9888     8.2701
   82.5000   130.0746     0.0210     2.3859     0.1386  -130.7259  1474.4681     6.5277     6.9644     8.2956
   83.0000   133.7432     0.0187     2.3824     0.1371  -128.7677  1473.6271     6.5223     6.9402     8.3083
   83.5000   136.2631     0.0096     2.3760     0.1387  -120.9374  1472.7864     6.5170     6.9160     8.3207
   84.0000   138.4622     0.0002     2.3911     0.1390  -115.2667  1471.9463     6.5116     6.8920     8.3331
   84.5000   139.3492    -0.0010     2.4119     0.1374  -114.8972  1471.1066     6.5062     6.8680     8.3465
   85.0000   136.2245    -0.0010     2.4259     0.1367  -114.3758  1470.2673     6.5008     6.8441     8.3727
   85.5000   134.0591    -0.0009     2.4139     0.1349  -114.0448  1469.4286     6.4955     6.8203     8.3908
   86.0000   132.7036     0.0053     2.3932     0.1330  -113.6380  1468.5903     6.4891     6.7961     8.3950
   86.5000   131.4724     0.0155     2.3976     0.1312  -109.7469  1467.7526     6.5392     6.9615     8.3725
   87.0000   128.8816     0.0093     2.4026     0.1339  -103.6951  1466.9153     6.6020     7.1771     8.3496
   87.5000   120.9337    -0.0005     2.3824     0.1371   -99.9153  1466.0785     6.6641     7.2491     8.3268
   88.0000   113.8572     0.0115     2.4046     0.1334   -95.8902  1381.6331     6.7337     6.5945     8.3030
   88.5000   110.8724     0.0130     2.3963     0.1323   -89.7436  1092.4230     6.8724     6.1862     8.2964
   89.0000   110.9414     0.0093     2.3915     0.1344   -83.6262   907.7500     6.9504     5.8032     8.2954
   89.5000   109.2232     0.0047     2.4033     0.1307   -77.4838  1989.4863     7.0292     5.3925     8.2923
   90.0000   105.0549     0.0002     2.3755     0.1391   -74.7592  1990.6343     7.1125     5.7062     8.2893
   90.5000   100.4278     0.0038     2.3929     0.1365   -75.0854  1961.3076     7.0805     6.2127     8.2863
   91.0000    98.6487     0.0140     2.4337     0.1333   -75.4876  1949.1393     7.0406     6.5478     8.2832
   91.5000    97.2428     0.0064     2.4288     0.1307   -75.6690  1968.9570     6.9881     6.9816     8.2801
   92.0000    98.7176     0.0056     2.4271     0.1286   -74.9826   816.8258     7.1115     7.4523     8.2771
   92.5000   101.1275     0.0087     2.4455     0.1266   -74.3354   470.6924     7.2715     8.1094     8.2783
   93.0000   102.9674     0.0116     2.4387     0.1247   -74.2528   271.2346     7.4184     8.7821     8.2851
   93.5000   103.0669     0.0141     2.4251     0.1235   -74.4945   156.2978     7.5697     9.3806     8.2915
   94.0000   100.5345     0.0107     2.4116     0.1293   -74.7384    90.0659     7.6613     9.1926     8.2980
   94.5000    96.4984     0.0064     2.3981     0.1323   -74.9058    51.9001     7.7380     9.0440     8.3045
   95.0000    95.8166     0.0081     2.3921     0.1332   -74.8793    41.4610     7.7612     9.1277     8.3109
   95.5000    96.8582     0.0073     2.4067     0.1342   -74.5740    38.8032     7.7845     8.7107     8.3163
   96.0000    98.3964     0.0002     2.3491     0.1462   -74.0624    26.7139     7.8038     8.3562     8.3189
   96.5000    97.3074     0.0013     2.3553     0.1454   -73.4128    12.5240     7.8038     8.0226     8.3217
   97.0000    94.9749     0.0026     2.3602     0.1443   -73.7722     9.8273     6.7035     7.3846     8.3245
   97.5000    93.0295     0.0048     2.3402     0.1528   -74.8182     7.6932     5.7748     6.6803     8.3273
   98.0000    98.9303     0.0237     2.3173     0.1653   -76.4713     6.5625     4.9748     5.6612     8.3301
   98.5000   106.2368     0.0178     2.2611     0.1823   -78.1515     7.1339     4.0746     4.6722     8.3329
   99.0000   113.7668     0.0296     2.2088     0.2312   -78.9624     5.3415     3.2057     3.8559     8.3356
   99.5000   119.1347     0.0195     2.1560     0.2861   -79.5634     3.4544     2.5243     3.1823     8.3344
  100.0000   123.0413     0.0270     2.1022     0.2989   -80.1605     2.4184     2.2326     2.6263     8.3310
  100.5000   123.6075     0.0169     2.0646     0.2991   -80.7797     1.9401     2.0460     2.1958     8.3276
  101.0000   121.4737     0.0007     2.0389     0.2992   -80.8226     2.1005     1.8725     1.9845     8.3242
  101.5000   119.2803     0.0157     2.0550     0.2992   -80.7184     2.3312     1.7210     1.8022     8.3212
  102.0000   115.0132     0.0644     2.0984     0.2993   -79.9232     2.5346     1.7210     1.8022     8.3182
  102.5000   107.2621     0.0854     2.1479     0.2994   -78.7437     2.0369     1.7858     1.9180     8.3770
  103.0000    99.6326    -0.0001     2.1970     0.2802   -77.5691     1.8527     1.8167     2.2159     8.4853
  103.5000    91.9121     0.0175     2.3264     0.2007   -76.5270     2.8793     2.1981     2.7571     8.5735
  104.0000    89.0765     0.0388     2.4530     0.1283   -75.8427     5.7703     2.8646     3.4278     8.3523
  104.5000    89.8454     0.0293     2.4302     0.1305   -75.1657    10.8749     3.7225     4.2618     8.2576
  105.0000    90.8972     0.0045     2.3976     0.1365   -74.4889    10.1543     4.6677     5.0302     8.2549
  105.5000    90.2435     0.0019     2.3638     0.1424   -73.8107     9.6454     6.3529     5.6549     8.2461
  106.0000    89.2610     0.0026     2.3376     0.1426   -73.1124     9.2976     8.6956     6.9367     8.2380
  106.5000    88.4064     0.0050     2.3949     0.1406   -72.2311    10.4210    12.0203     8.6059     8.2440
