~VERSION INFORMATION
 VERS.                2.0:   CWLS LOG ASCII STANDARD - VERSION 2.0
 WRAP.                 NO:   ONE LINE PER DEPTH STEP
~WELL INFORMATION
#MNEM.UNIT      DATA TYPE    INFORMATION
#----------   ------------   ------------------------------
 STRT.F           40.0000:   START DEPTH
 STOP.F          490.0000:   STOP DEPTH
 STEP.F            0.5000:   STEP LENGTH
 NULL.          -999.2500:   NO VALUE
 COMP.    FENIX & SCISSON:   COMPANY
 WELL. RES 3 TEAPOT DOM #76-10:   WELL
 FLD .        TEAPOT DOME:   FIELD
 LOC .      S10 T38N R78W:   LOCATION
 CNTY.            NATRONA:   COUNTY
 STAT.            WYOMING:   STATE
 CTRY. UNITED STATES OF AMERICA:   COUNTRY
 SRVC.           BIRDWELL:   SERVICE COMPANY
 DATE.        19-JUN-1978:   LOGDATE
 API .       490251065100:   API NUMBER
~CURVE INFORMATION
#MNEM.UNIT       API CODE    CURVE DESCRIPTION
#----------   ------------   ------------------------------
 DEPT.F                  :   
 CALD.IN     45 280 60 00:   CALIPER FROM DENSITY LOG
 CORR.G/C3   45 356 01 00:   DENSITY CORRECTION
 DPHI.DEC    45 890 12 00:   DENSITY POROSITY SANDSTONE
 GRD .GAPI   45 310 01 00:   GAMMA RAY FROM DENSITY LOG
 RHOB.G/C3   45 350 01 00:   BULK DENSITY
 ILD .OHMM   05 120 46 00:   INDUCTION LOG DEEP
 SN  .OHMM   05 040 16 00:   SHORT NORMAL 16"
 SPR .MV     05 010 01 00:   SPONTANEOUS POTENTIAL FROM RES.
~PARAMETER INFORMATION
#MNEM.UNIT          VALUE    DESCRIPTION
#----------   ------------   ------------------------------
 PD  .                 GL:   PERMANENT DATUM
 EPD .F              5185:   ELEVATION PERMANENT DATUM
 LMF .                 KB:   LOG MEASURED FROM
 DAPD.F                 4:   FEET ABOVE PERMANENT DATUM
 DMF .                 KB:   DRILLING MEASURED FROM
 EKB .F              5189:   KELLING BUSHING
 EGL .F              5185:   GROUND LEVEL
 DATE.        19-JUN-1978:   RUN DATE
 RUN .                  1:   RUN NUMBER
 DD  .F               485:   DEPTH DRILLER
 DL  .F               490:   DEPTH LOGGER
 BLI .F               490:   BOTTOM LOG INTERVAL
 TLI .F                50:   TOP LOG INTERVAL
 CS  .IN            8.625:   CASING SIZE
 CBD .F                30:   CASING BOTTOM DRILLER
 CBL .F                30:   CASING BOTTOM LOGGER
 BS  .IN            7.875:   BIT SIZE
 BSD .F               485:   BIT SIZE AT DEPTH
 DFT .                KCL:   DRILLING FLUID TYPE
 DFD .                8.7:   DRILLING FLUID DENSITY
 DFV .                 34:   DRILLING FLUID VISCOSITY
 DFPH.               10.5:   DRILLING FLUID PH
 MSS .           FLOWLINE:   MUD SAMPLE SOURCE
 RMS .OHMM           0.24:   RESISTIVITY MUD SAMPLE
 MST .F                70:   MUD SAMPLE TEMPERATURE
 RMF .OHMM           0.24:   RESISTIVITY MUD FILTRATE SAMPLE
 MFST.F                72:   MUD FILTRATE SAMPLE TEMPERATURE
 RMC .OHMM           0.28:   RESISTIVITY MUD CAKE
 MCST.F                78:   MUD CAKE SAMPLE TEMPERATURE
 MFSS.               MEAS:   MUD FILTRATE SAMPLE SOURCE
 MCSS.               MEAS:   MUD CAKE SAMPLE SOURCE
 RMB .OHMM           0.27:   RESISTIVITY MUD AT BHT
 BHT .F                74:   BOTTOM HOLE TEMPERATURE
 TCS .HRS               1:   TIME CURCULATED STOPPED
 MRT .F                74:   MAXIMUM RECORDED TEMPERATURE
 LUN .               2958:   LOGGING UNIT NUMBER
 LUL .               CASP:   LOGGING UNIT LOCATION
 ENGI.           REYNOLDS:   RECORDING ENGINEER
 WITN.           MCGINLEY:   WITNESSED BY
 CLNT.            A2DTECH:   CLIENT CODE
 ORIG.           5" PRINT:   ORIGIN OF DATA
 UWI .       490251065100:   UNIQUE WELL ID
 DICO. A2D Technologies, Inc.:   DIGITIZING COMPANY
~OTHER INFORMATION
~A   DEPT     CALD       CORR       DPHI        GRD       RHOB        ILD         SN        SPR   
# ...
  242.5000     7.3427     0.0076     0.1124   121.4438     2.4778     5.6758     7.0555   -44.8878
  243.0000     7.3884     0.0106     0.1133   119.0484     2.4801     5.6750     7.1546   -44.7593
  243.5000     7.3739     0.0121     0.1148   118.0055     2.4816     5.6742     7.2052   -44.7610
  244.0000     7.3748     0.0092     0.1157   117.8663     2.4839     5.6734     7.2061   -44.6112
  244.5000     7.4057     0.0077     0.1096   117.8805     2.4838     5.6725     7.2073   -44.4613
  245.0000     7.4214     0.0033     0.1072   118.1931     2.4800     5.6718     7.1583   -44.4631
  245.5000     7.4521     0.0033     0.1075   119.1948     2.4787     5.6321     7.1595   -44.4645
  246.0000     7.4528     0.0034     0.1141   123.0379     2.4758     5.6703     7.1111   -44.4663
  246.5000     7.4085     0.0034     0.1156   124.2541     2.4751     5.6694     7.1121   -44.4677
  247.0000     7.3794     0.0065     0.1159   122.7594     2.4758     5.6687     7.0640   -44.4691
  247.5000     7.3649     0.0065     0.1180   120.7430     2.4781     5.6679     7.0651   -44.4705
  248.0000     7.3658     0.0080     0.1167   118.7187     2.4789     5.6670     7.0174   -44.6236
  248.5000     7.3667     0.0066     0.1143   119.7843     2.4789     5.6663     7.0185   -44.6250
  249.0000     7.3674     0.0051     0.1128   121.3016     2.4790     5.6656     7.0195   -44.6264
  249.5000     7.3681     0.0037     0.1122   123.5030     2.4782     5.6648     7.0204   -44.6278
  250.0000     7.3688     0.0022     0.1137   126.4477     2.4775     5.7033     7.0700   -44.4779
  250.5000     7.3814     0.0023     0.1128   126.7602     2.4753     5.7451     6.9729   -44.7842
  251.0000     7.3939     0.0023     0.1133   126.6210     2.4731     5.7817     6.9249   -44.7870
  251.5000     7.4065     0.0024     0.1236   125.8414     2.4731     5.7812     6.9249   -44.7898
  252.0000     7.4157     0.0054     0.1214   120.4217     2.4778     5.7807     6.9729   -44.7933
  252.5000     7.4161     0.0084     0.1100   120.5723     2.4859     5.7012     6.9796   -44.7961
  253.0000     7.4165     0.0100     0.1115   120.7229     2.4867     5.5841     7.0213   -44.9501
  253.5000     7.4170     0.0100     0.1099   120.8735     2.4860     5.5073     6.9729   -45.1160
  254.0000     7.4324     0.0071     0.1072   122.9839     2.4852     5.4690     6.9729   -45.2591
  254.5000     7.4328     0.0041     0.1069   123.1325     2.4800     5.3567     6.9249   -45.4132
  255.0000     7.4333     0.0027     0.1072   123.2831     2.4733     5.3196     6.7829   -45.4160
  255.5000     7.4187    -0.0002     0.1111   124.3373     2.4704     5.3192     6.5927   -45.4191
  256.0000     7.4192    -0.0017     0.1177   129.0060     2.4673     5.3188     6.4181   -45.4221
  256.5000     7.4196    -0.0017     0.1204   130.8323     2.4641     5.3185     6.3739   -45.4251
  257.0000     7.4051    -0.0016     0.1237   131.7169     2.4610     5.3549     6.3739   -45.4287
  257.5000     7.4206    -0.0016     0.1261   130.3615     2.4578     5.2089     6.3300   -45.4316
  258.0000     7.4210     0.0000     0.1282   124.9398     2.4547     4.8616     6.2431   -45.4342
  258.5000     7.4214     0.0015     0.1333   121.9277     2.4515     4.5374     6.1575   -45.4372
  259.0000     7.4220     0.0045     0.1433   121.0241     2.4385     4.3532     5.9855   -45.4402
  259.5000     7.4074     0.0082     0.1487   123.7349     2.4235     4.4134     5.6675   -45.4438
  260.0000     7.3927     0.0217     0.1508   125.0904     2.4131     4.4437     5.4374   -45.4463
  260.5000     7.3783     0.0343     0.1563   124.9398     2.4206     4.4128     5.3627   -45.6011
  261.0000     7.3787     0.0373     0.1598   124.5668     2.4401     4.3821     5.3627   -45.7549
  261.5000     7.4242     0.0119     0.1393   124.3373     2.4439     4.3818     5.3627   -45.9092
  262.0000     7.4696     0.0045     0.1414   126.4458     2.4486     4.4119     5.3999   -45.9123
  262.5000     7.4700     0.0075     0.1159   127.9518     2.4702     4.5978     5.6774   -46.0670
  263.0000     7.4482     0.0075     0.1140   128.4036     2.4762     4.8248     6.3300   -46.0696
  263.5000     7.4259     0.0060     0.1149   127.9498     2.4740     5.1688     6.5074   -46.0726
  264.0000     7.4265     0.0070     0.1161   121.0241     2.4741     5.4250     6.5074   -46.2385
  264.5000     7.4269     0.0076     0.1158   119.2169     2.4764     5.4990     6.5074   -46.3815
  265.0000     7.4181     0.0076     0.1140   119.3675     2.4779     5.4986     6.4626   -46.3843
  265.5000     7.4127     0.0062     0.1128   116.9578     2.4787     5.3119     6.4181   -46.3220
  266.0000     7.4112     0.0062     0.1161   113.0019     2.4735     5.0265     6.3300   -46.2389
  266.5000     7.3986     0.0062     0.1200   113.6446     2.4689     4.7565     6.1575   -46.2162
  267.0000     7.3991     0.0063     0.1221   117.1084     2.4660     4.4088     5.9074   -46.0937
  267.5000     7.3996     0.0048     0.1224   117.8614     2.4646     4.3782     5.6675   -46.0973
  268.0000     7.4000     0.0063     0.1236   117.7108     2.4564     4.3779     5.3258   -46.0656
  268.5000     7.4005     0.0168     0.1364   118.1782     2.4383     4.3475     5.1806   -45.9516
  269.0000     7.4009     0.0303     0.1500   120.4217     2.4347     4.3174     5.2527   -45.8031
  269.5000     7.3864     0.0169     0.1311   124.6386     2.4617     4.3470     5.3627   -45.5034
  270.0000     7.3718     0.0124     0.1211   126.1446     2.4820     4.4070     5.5130   -44.9017
  270.5000     7.3572     0.0161     0.1127   125.5422     2.4873     4.6565     5.7068   -44.1488
  271.0000     7.3427     0.0170     0.1091   127.7661     2.4881     4.9230     6.0311   -43.8484
  271.5000     7.3582     0.0125     0.1079   129.6084     2.4926     5.3075     6.5525   -43.6999
  272.0000     7.3736     0.0095     0.1091   121.3253     2.5024     5.6080     6.8772   -43.7035
  272.5000     7.3891     0.0051     0.1012   113.3258     2.5114     5.8445     7.1190   -43.7070
  273.0000     7.3896     0.0028     0.0955   113.0422     2.5167     5.9663     7.3202   -43.7098
  273.5000     7.3900     0.0022     0.0964   112.8916     2.5070     6.0904     7.4203   -43.7126
  274.0000     7.3904     0.0052     0.1006   115.0000     2.4966     6.0901     7.4718   -43.7156
  274.5000     7.3759     0.0082     0.1042   118.1627     2.4928     6.0897     7.4718   -43.7189
  275.0000     7.3763     0.0082     0.1078   117.7108     2.4906     6.0892     7.4718   -43.7216
  275.5000     7.3768     0.0097     0.1114   116.8072     2.4959     6.0888     7.4718   -43.7247
  276.0000     7.3692     0.0068     0.1081   116.0542     2.4990     6.0884     7.4718   -43.7277
  276.5000     7.3626     0.0053     0.1027   115.0000     2.4997     6.0879     7.4718   -43.7307
  277.0000     7.3380     0.0054     0.1009   114.0954     2.4990     6.0875     7.4718   -43.7337
  277.5000     7.3336     0.0039     0.1019   113.3434     2.4945     6.0871     7.4718   -43.7368
  278.0000     7.3191     0.0054     0.1054   117.1084     2.4924     6.0867     7.4203   -43.7398
  278.5000     7.3345     0.0054     0.1062   119.5181     2.4961     6.0863     7.4203   -43.7429
  279.0000     7.3499     0.0055     0.1038   117.4096     2.4992     6.0858     7.4203   -43.7458
  279.5000     7.3804     0.0101     0.1032   115.1249     2.4992     6.0436     7.4203   -43.7492
  280.0000     7.4109     0.0160     0.1041   113.6446     2.5023     6.0432     7.4203   -43.7519
  280.5000     7.4413     0.0205     0.1035   114.6988     2.5053     6.0428     7.4203   -43.7549
  281.0000     7.4117     0.0205     0.0984   115.6069     2.5076     6.0424     7.4203   -43.7579
  281.5000     7.3672     0.0191     0.0972   116.8072     2.5091     6.0838     7.4203   -43.7610
  282.0000     7.3226     0.0176     0.0987   117.4096     2.5084     6.1255     7.4478   -43.7640
  282.5000     7.3381     0.0176     0.0993   115.3012     2.5054     6.2530     7.4718   -43.7675
