~VERSION INFORMATION
 VERS.                2.0:   CWLS LOG ASCII STANDARD - VERSION 2.0
 WRAP.                 NO:   ONE LINE PER DEPTH STEP
~WELL INFORMATION
#MNEM.UNIT      DATA TYPE    INFORMATION
#----------   ------------   ------------------------------
 STRT.F            0.5000:   START DEPTH
 STOP.F         2271.5000:   STOP DEPTH
 STEP.F            0.5000:   STEP LENGTH
 NULL.          -999.2500:   NO VALUE
 COMP. BROWN JOHN E&C INC:   COMPANY
 WELL. NPR 3 STX-11 #27-11:   WELL
 FLD .             TEAPOT:   FIELD
 LOC .      S11 T38N R78W:   LOCATION
 CNTY.            NATRONA:   COUNTY
 STAT.            WYOMING:   STATE
 CTRY. UNITED STATES OF AMERICA:   COUNTRY
 SRVC.      Dresser Atlas:   SERVICE COMPANY
 DATE.        20-JAN-1993:   LOGDATE
 API .       490251108500:   API NUMBER
~CURVE INFORMATION
#MNEM.UNIT       API CODE    CURVE DESCRIPTION
#----------   ------------   ------------------------------
 DEPT.F                  :   
 ILD .OHMM   07 120 46 00:   INDUCTION LOG DEEP
 ILM .OHMM   07 120 44 00:   INDUCTION LOG MEDIUM
 GRR .GAPI   07 310 01 00:   GAMMA RAY FROM RES. LOG.
~PARAMETER INFORMATION
#MNEM.UNIT          VALUE    DESCRIPTION
#----------   ------------   ------------------------------
 PD  .                 GL:   PERMANENT DATUM
 EPD .F              5187:   ELEVATION PERMANENT DATUM
 LMF .                 KB:   LOG MEASURED FROM
 DAPD.F                12:   FEET ABOVE PERMANENT DATUM
 DMF .                 KB:   DRILLING MEASURED FROM
 EKB .F            5198.8:   KELLING BUSHING
 EDF .F            5197.8:   DRILLING FLOOR
 EGL .F              5187:   GROUND LEVEL
 DATE.            1-20-93:   RUN DATE
 RUN .                  1:   RUN NUMBER
 DD  .F              2279:   DEPTH DRILLER
 DL  .F              2279:   DEPTH LOGGER
 BLI .F              2271:   BOTTOM LOG INTERVAL
 TLI .F               692:   TOP LOG INTERVAL
 CS  .IN            8.625:   CASING SIZE
 CBD .F               689:   CASING BOTTOM DRILLER
 CBL .F               692:   CASING BOTTOM LOGGER
 BS  .IN            7.875:   BIT SIZE
 BSD .F              2279:   BIT SIZE AT DEPTH
 DFT .                OIL:   DRILLING FLUID TYPE
 BHT .F                92:   BOTTOM HOLE TEMPERATURE
 TCS .HRS               2:   TIME CURCULATED STOPPED
 MRT .F                92:   MAXIMUM RECORDED TEMPERATURE
 LUN .            HL-6274:   LOGGING UNIT NUMBER
 LUL .             CASPER:   LOGGING UNIT LOCATION
 ENGI.             RAUTIO:   RECORDING ENGINEER
 WITN.             STRONG:   WITNESSED BY
 CLNT.            A2DTECH:   CLIENT CODE
 ORIG.  2", 5", 20" PRINT:   ORIGIN OF DATA
 UWI .       490251108500:   UNIQUE WELL ID
 DICO. A2D Technologies, Inc.:   DIGITIZING COMPANY
~OTHER INFORMATION
~A    DEPT     ILD        ILM         GRR  
# ...
 1547.5000     7.6588     7.4847   112.2280
 1548.0000     7.6476     7.4847   111.1654
 1548.5000     7.6365     7.4847   110.1456
 1549.0000     7.6249     7.4847   109.1127
 1549.5000     7.6574     7.4847   109.6292
 1550.0000     7.6947     7.4847   113.2912
 1550.5000     7.7322     7.4847   115.6525
 1551.0000     7.7660     7.4847   113.2204
 1551.5000     7.7364     7.4848   110.7610
 1552.0000     7.7095     7.4852   109.9452
 1552.5000     7.6828     7.4534   109.1917
 1553.0000     7.6561     7.4159   110.3232
 1553.5000     7.6296     7.4248   113.2341
 1554.0000     7.6031     7.4323   116.1367
 1554.5000     7.5767     7.4399   116.8011
 1555.0000     7.5546     7.4475   115.6134
 1555.5000     7.5683     7.4552   115.0813
 1556.0000     7.5809     7.4630   115.0340
 1556.5000     7.5935     7.4711   113.5945
 1557.0000     7.6060     7.4783   112.0444
 1557.5000     7.6242     7.4847   110.6147
 1558.0000     7.4783     7.2762   110.0325
 1558.5000     7.4390     7.2510   111.7905
 1559.0000     7.4000     7.2258   113.7894
 1559.5000     7.3611     7.2008   114.2588
 1560.0000     7.3225     7.1758   114.5513
 1560.5000     7.2840     7.1509   117.4431
 1561.0000     7.2457     7.1261   121.3716
 1561.5000     7.2077     7.1014   121.6125
 1562.0000     7.1699     7.0814   117.5282
 1562.5000     7.1472     7.1066   113.1258
 1563.0000     7.2483     7.1319   110.9832
 1563.5000     7.3219     7.1698   110.2584
 1564.0000     7.3963     7.2252   112.2437
 1564.5000     7.4709     7.2812   114.5966
 1565.0000     7.5541     7.3377   114.3654
 1565.5000     7.5541     7.3946   113.9725
 1566.0000     7.6242     7.4522   113.6161
 1566.5000     7.6394     7.4847   111.6404
 1567.0000     7.6748     7.4676   108.8108
 1567.5000     7.6941     7.4557   105.9734
 1568.0000     7.6783     7.4439   103.7838
 1568.5000     7.6669     7.4319   104.8669
 1569.0000     7.6554     7.4157   107.2597
 1569.5000     7.6440     7.4912   109.2222
 1570.0000     7.6325     7.5541   109.9100
 1570.5000     7.6181     7.4906   111.7964
 1571.0000     7.5931     7.4474   115.1517
 1571.5000     7.5686     7.4043   117.0703
 1572.0000     7.5442     7.3616   116.2747
 1572.5000     7.5198     7.3191   116.5037
 1573.0000     7.4956     7.2768   117.8771
 1573.5000     7.4713     7.2344   117.8843
 1574.0000     7.4472     7.2136   117.3498
 1574.5000     7.4233     7.2551   117.0714
 1575.0000     7.4154     7.2804   117.0657
 1575.5000     7.4700     7.3217   116.5734
 1576.0000     7.5119     7.3595   115.9882
 1576.5000     7.5540     7.3974   116.4815
 1577.0000     7.5964     7.4356   117.3467
 1577.5000     7.6390     7.4740   118.2234
 1578.0000     7.6818     7.5126   117.3233
 1578.5000     7.7249     7.5513   114.9863
 1579.0000     7.7682     7.5903   112.1704
 1579.5000     7.8117     7.6948   110.4544
 1580.0000     7.8555     7.7096   112.3037
 1580.5000     7.9000     7.7254   113.7947
 1581.0000     7.9249     7.7412   112.9996
 1581.5000     7.9440     7.7570   112.7280
 1582.0000     7.9631     7.7729   112.9117
 1582.5000     7.9822     7.7888   112.4126
 1583.0000     8.0013     7.8047   110.5759
 1583.5000     8.0205     7.8207   108.9930
 1584.0000     8.0398     7.8367   111.2573
 1584.5000     8.0591     7.8527   116.4284
 1585.0000     8.0784     7.8688   118.9287
 1585.5000     8.0978     7.8849   117.6060
 1586.0000     8.1172     7.9010   117.2528
 1586.5000     8.1330     7.9108   117.0993
 1587.0000     8.0115     7.8025   114.4647
 1587.5000     7.9110     7.7127   111.8998
 1588.0000     7.8116     7.6238   110.9510
 1588.5000     7.7135     7.5360   110.5350
 1589.0000     7.6166     7.4492   115.0649
 1589.5000     7.5209     7.3635   120.5463
 1590.0000     7.4265     7.2787   120.9919
 1590.5000     7.3333     7.1948   115.5329
 1591.0000     7.2804     7.1472   114.0769
 1591.5000     7.3189     7.1765   115.1028
 1592.0000     7.3461     7.1975   113.3263
 1592.5000     7.3734     7.2185   110.3125
 1593.0000     7.4008     7.2394   110.7609
 1593.5000     7.4282     7.2604   113.3857
 1594.0000     7.4558     7.2814   114.6843
 1594.5000     7.4835     7.3026   115.0816
 1595.0000     7.5113     7.3238   113.9602
 1595.5000     7.5394     7.3451   112.3318
 1596.0000     7.5540     7.3479   111.4426
 1596.5000     7.5286     7.3479   111.4413
 1597.0000     7.5111     7.3478   111.4329
 1597.5000     7.4937     7.3479   111.5338
 1598.0000     7.4847     7.3481   114.8593
 1598.5000     7.6546     7.3460   119.4434
 1599.0000     7.7338     7.4451   123.0371
 1599.5000     7.8138     7.5356   123.4080
 1600.0000     7.8947     7.6272   119.1140
 1600.5000     7.9842     7.7200   115.0218
 1601.0000     7.9657     7.7662   110.8329
 1601.5000     7.9452     7.7662   109.3559
 1602.0000     7.9248     7.7664   108.7735
 1602.5000     7.8785     7.7455   111.7239
 1603.0000     7.7778     7.6805   116.9116
 1603.5000     7.6783     7.6160   121.5836
 1604.0000     7.5541     7.5521   118.8738
 1604.5000     7.5684     7.4847   116.0045
 1605.0000     7.5879     7.4847   113.1407
 1605.5000     7.6075     7.4847   112.1526
 1606.0000     7.6271     7.4847   114.1280
 1606.5000     7.6467     7.4847   115.2109
 1607.0000     7.6664     7.4847   113.3714
 1607.5000     7.6862     7.5032   112.0542
 1608.0000     7.7328     7.6011   113.7092
 1608.5000     7.8009     7.6854   114.9363
 1609.0000     7.8696     7.7706   113.8910
 1609.5000     7.9389     7.8568   113.0673
 1610.0000     8.0087     7.9197   113.2846
 1610.5000     8.0793     7.9727   113.1929
 1611.0000     8.1504     8.0316   111.6246
 1611.5000     8.2084     8.0582   111.3361
 1612.0000     8.1876     7.8713   113.1960
 1612.5000     8.0821     7.8382   114.8624
 1613.0000     7.9779     7.8723   115.1189
 1613.5000     7.8751     7.9066   114.1852
 1614.0000     7.7736     7.9410   114.8328
 1614.5000     7.6948     7.9756   116.4068
 1615.0000     7.7383     8.0103   116.4622
 1615.5000     7.7807     8.0451   116.3085
 1616.0000     7.8482     8.0802   116.5243
 1616.5000     7.9157     8.1153   115.9901
 1617.0000     7.9840     8.1507   115.2390
 1617.5000     8.0527     8.1861   116.2304
 1618.0000     8.1221     8.2218   117.8195
 1618.5000     8.1426     8.2576   116.7113
 1619.0000     8.1541     8.2845   113.4939
 1619.5000     8.1655     8.1180   114.0021
 1620.0000     8.1770     7.9628   114.5867
 1620.5000     8.1884     7.9068   116.7452
 1621.0000     8.2000     7.8998   119.1419
 1621.5000     8.2095     7.8924   120.2605
 1622.0000     8.1507     7.8850   113.7778
 1622.5000     8.0966     7.8776   107.7656
 1623.0000     8.0431     7.8701   107.9094
 1623.5000     7.9901     7.8627   111.3849
 1624.0000     7.9374     7.8552   114.6354
 1624.5000     7.9109     7.8477   117.0597
 1625.0000     8.0955     7.8382   119.2723
 1625.5000     8.1910     7.9101   119.5973
 1626.0000     8.2744     8.0139   117.2178
 1626.5000     8.3587     8.1190   115.0846
 1627.0000     8.4438     8.2255   115.8848
 1627.5000     8.5298     8.3334   115.9862
 1628.0000     8.6167     8.4426   115.1012
 1628.5000     8.6757     8.5183   115.2579
 1629.0000     8.6757     8.5167   115.1490
 1629.5000     8.6565     8.5172   112.7523
 1630.0000     8.5994     8.4421   109.1575
 1630.5000     8.5427     8.3864   105.5516
 1631.0000     8.4863     8.3311   106.5249
 1631.5000     8.4388     8.2845   108.0487
 1632.0000     8.4524     8.2979   109.5805
 1632.5000     8.4644     8.3095   110.0031
 1633.0000     8.4762     8.3212   109.6171
 1633.5000     8.4881     8.3328   108.4073
 1634.0000     8.5003     8.3446   106.6085
 1634.5000     8.5168     8.3613   107.2504
 1635.0000     8.4528     8.2786   111.1245
 1635.5000     8.3410     8.1373   114.7555
 1636.0000     8.2313     7.9985   113.4777
 1636.5000     8.1231     7.8621   111.8583
 1637.0000     8.0162     7.7279   112.3217
 1637.5000     7.9107     7.5961   115.2274
 1638.0000     7.8068     7.4665   117.1824
