~VERSION INFORMATION
 VERS.                2.0:   CWLS LOG ASCII STANDARD - VERSION 2.0
 WRAP.                 NO:   ONE LINE PER DEPTH STEP
~WELL INFORMATION
#MNEM.UNIT      DATA TYPE    INFORMATION
#----------   ------------   ------------------------------
 STRT.F           16.0000:   START DEPTH
 STOP.F         1254.0000:   STOP DEPTH
 STEP.F            0.5000:   STEP LENGTH
 NULL.          -999.2500:   NO VALUE
 COMP. FENIX & SCISSON INC:   COMPANY
 WELL. NAVAL PET RESERVE 3   75-S-14 #75-14:   WELL
 FLD .             TEAPOT:   FIELD
 LOC .      S14 T38N R78W:   LOCATION
 CNTY.            NATRONA:   COUNTY
 STAT.            WYOMING:   STATE
 CTRY. UNITED STATES OF AMERICA:   COUNTRY
 SRVC.              Welex:   SERVICE COMPANY
 DATE.        17-FEB-1977:   LOGDATE
 API .       490251027400:   API NUMBER
~CURVE INFORMATION
#MNEM.UNIT       API CODE    CURVE DESCRIPTION
#----------   ------------   ------------------------------
 DEPT.F                  :   
 SGRD.OHMM   07 220 05 00:   SHALLOW RESISTIVITY
 ILM .OHMM   07 120 44 00:   INDUCTION LOG MEDIUM
 SPR .MV     07 010 01 00:   SPONTANEOUS POTENTIAL
 ILD .OHMM   07 120 46 00:   INDUCTION LOG DEEP
 CALD.IN     45 280 60 00:   CALIPER
 GRD .GAPI   45 310 01 00:   GAMMA RAY FROM DENSITY LOG
 DPHI.DEC    45 890 12 00:   DENSITY POROSITY SANDSTONE
 RHOB.G/C3   45 350 01 00:   BULK DENSITY
 CORR.G/C3   45 356 01 00:   DENSITY CORRECTION
~PARAMETER INFORMATION
#MNEM.UNIT          VALUE    DESCRIPTION
#----------   ------------   ------------------------------
 PD  .                 GL:   PERMANENT DATUM
 EPD .F              5336:   ELEVATION PERMANENT DATUM
 LMF .                 GL:   LOG MEASURED FROM
 DMF .                 GL:   DRILLING MEASURED FROM
 EKB .F              5341:   KELLING BUSHING
 EGL .F              5336:   GROUND LEVEL
 DATE.          2-17-1977:   RUN DATE
 RUN .                  1:   RUN NUMBER
 DD  .F              1260:   DEPTH DRILLER
 DL  .F              1258:   DEPTH LOGGER
 BLI .F              1256:   BOTTOM LOG INTERVAL
 TLI .F                30:   TOP LOG INTERVAL
 CS  .IN            8.625:   CASING SIZE
 CBD .F                42:   CASING BOTTOM DRILLER
 CBL .F                42:   CASING BOTTOM LOGGER
 BS  .IN            7.875:   BIT SIZE
 BSD .F              1260:   BIT SIZE AT DEPTH
 DFT .          KCL WATER:   DRILLING FLUID TYPE
 DFD .                9.5:   DRILLING FLUID DENSITY
 DFV .                 34:   DRILLING FLUID VISCOSITY
 MSS .          FLOW LINE:   MUD SAMPLE SOURCE
 RMS .OHMM            .30:   RESISTIVITY MUD SAMPLE
 MST .F                43:   MUD SAMPLE TEMPERATURE
 RMF .OHMM            .28:   RESISTIVITY MUD FILTRATE SAMPLE
 MFST.F                43:   MUD FILTRATE SAMPLE TEMPERATURE
 RMC .OHMM            .40:   RESISTIVITY MUD CAKE
 MCST.F                43:   MUD CAKE SAMPLE TEMPERATURE
 MFSS.           MEASURED:   MUD FILTRATE SAMPLE SOURCE
 MCSS.           MEASURED:   MUD CAKE SAMPLE SOURCE
 RMB .OHMM            .13:   RESISTIVITY MUD AT BHT
 BHT .F               101:   BOTTOM HOLE TEMPERATURE
 TCS .HRS               5:   TIME CURCULATED STOPPED
 MRT .F               101:   MAXIMUM RECORDED TEMPERATURE
 LUN .               8611:   LOGGING UNIT NUMBER
 LUL .           GILLETTE:   LOGGING UNIT LOCATION
 ENGI.             LAWSON:   RECORDING ENGINEER
 WITN.         STUEBINGER:   WITNESSED BY
 CLNT.            A2DTECH:   CLIENT CODE
 ORIG.       2", 5" PRINT:   ORIGIN OF DATA
 UWI .       490251027400:   UNIQUE WELL ID
 DICO. A2D Technologies, Inc.:   DIGITIZING COMPANY
~OTHER INFORMATION
~A   DEPT     SGRD        ILM        SPR        ILD       CALD         GRD      DPHI       RHOB       CORR   
# ...
  673.0000     2.5551     2.4592   -46.7260     1.7786     8.0634   143.5220     0.2713     2.1896     0.0522
  673.5000     2.4079     2.4325   -46.0441     1.7155     8.0687   143.4647     0.2697     2.1950     0.0521
  674.0000     2.5573     2.4059   -45.2183     1.6640     8.0864   138.6908     0.2510     2.2247     0.0521
  674.5000     2.7805     2.3794   -44.3990     1.6209     8.1039   134.0257     0.2305     2.2555     0.0528
  675.0000     2.9218     2.3409   -43.5871     1.7462     8.1215   129.2935     0.2133     2.2859     0.0537
  675.5000     2.5664     2.3454   -42.7685     1.9198     8.1391   120.2034     0.1844     2.3586     0.0564
  676.0000     2.3226     2.3440   -41.9504     2.1106     8.1566   109.1955     0.1493     2.4537     0.0610
  676.5000     5.4877     3.6680   -41.1322     2.3380     8.1742   104.6626     0.1176     2.4665     0.0700
  677.0000     8.4529     4.8489   -40.3120     2.7281     8.1843   105.6839     0.1143     2.4780     0.0785
  677.5000     9.5796     5.5834   -39.6676     3.1833     8.1897   103.3345     0.1110     2.4855     0.0793
  678.0000     8.9821     6.5711   -39.1188     3.7144     8.1949    99.2481     0.1110     2.4855     0.0802
  678.5000     9.6079     7.7336   -38.5492     4.3342     8.2001    95.1308     0.1118     2.4839     0.0811
  679.0000    10.7651     8.3801   -38.4181     5.0574     8.2054    93.1849     0.1145     2.4815     0.0820
  679.5000    11.4107     8.9125   -38.6229     5.9012     8.2107    94.8012     0.1170     2.4784     0.0829
  680.0000    11.7398     9.4788   -38.8881     7.2689     8.2161    98.5655     0.1219     2.4651     0.0839
  680.5000    12.2812    10.1203   -39.1529     7.0312     8.2203   103.0993     0.1309     2.4446     0.0848
  681.0000    11.7398    10.3224   -39.4171     6.5912     8.1970   107.6480     0.1398     2.4232     0.0857
  681.5000    10.8056     9.5237   -39.6812     6.1788     8.1726   112.1819     0.1487     2.4017     0.0866
  682.0000     9.9457     8.5856   -39.9468     5.7922     8.1488   116.0527     0.1576     2.3803     0.0875
  682.5000     9.1421     7.7403   -40.2088     5.4297     8.1566   118.3472     0.1692     2.3588     0.0861
  683.0000     7.4403     6.9781   -40.4322     5.0900     8.1619   120.6223     0.1820     2.3373     0.0790
  683.5000     5.6393     6.2886   -39.7698     4.7715     8.1632   122.3215     0.1947     2.3162     0.0719
  684.0000     4.2754     5.6729   -38.7488     4.4729     8.0873   116.2743     0.2024     2.3066     0.0649
  684.5000     3.2422     5.4109   -37.7173     4.1851     7.9929   109.9076     0.1673     2.3550     0.0582
  685.0000     5.9200     5.7508   -36.6866     4.1855     7.9185   103.5348     0.1522     2.4078     0.0581
  685.5000     9.6682     6.1407   -35.6565     4.1490     7.9956    98.9219     0.1383     2.4175     0.0581
  686.0000    10.0692     6.5692   -34.6267     4.1427     8.0813    99.0106     0.1350     2.4257     0.0592
  686.5000    10.1234     7.7904   -33.5941     4.6548     8.1660   100.0415     0.1320     2.4341     0.0614
  687.0000     9.7781     9.0025   -32.7194     5.0418     8.2210   101.0715     0.1290     2.4426     0.0636
  687.5000     9.5169     9.1792   -32.0348     5.4611     8.2179   102.4132     0.1260     2.4457     0.0658
  688.0000     9.4050     9.3602   -31.4121     5.9152     8.2158   104.2498     0.1247     2.4476     0.0680
  688.5000     9.8966     9.5431   -30.8744     6.4071     8.2135   105.2291     0.1237     2.4437     0.0702
  689.0000    10.2546     9.7304   -30.2702     6.9399     8.2112   102.6523     0.1227     2.4393     0.0724
  689.5000    10.6256     9.9215   -29.6653     7.2689     8.2089   100.5547     0.1218     2.4353     0.0746
  690.0000    11.0080    10.1162   -29.0610     7.3892     8.2066    98.4550     0.1208     2.4397     0.0767
  690.5000    11.2063    10.4067   -28.4662     7.5036     8.2044    97.9465     0.1198     2.4444     0.0778
  691.0000    11.0586    10.3129   -27.9847     7.6199     8.2021    98.7887     0.1194     2.4438     0.0768
  691.5000    10.9509    10.1365   -27.5522     7.7379     8.2012    97.9719     0.1213     2.4371     0.0758
  692.0000    10.8446     9.9647   -27.1153     7.8577     8.2003    97.1437     0.1231     2.4304     0.0748
  692.5000    10.7393     9.7959   -26.7942     7.9794     8.1959    98.8300     0.1250     2.4236     0.0738
  693.0000    10.6350     9.5758   -26.5470     8.1030     8.1916   101.6521     0.1255     2.4167     0.0728
  693.5000    10.5031     9.7342   -26.2988     8.1418     8.1873   104.5322     0.1220     2.4260     0.0729
  694.0000    10.7195    10.0489   -26.0608     8.1694     8.1832   107.3757     0.1185     2.4382     0.0754
  694.5000    11.0288    10.3755   -25.8209     8.1971     8.1903   106.5711     0.1149     2.4504     0.0778
  695.0000    11.3469    10.7128   -25.5775     8.2249     8.2146   104.9730     0.1144     2.4626     0.0802
  695.5000    11.6741    11.0610   -25.3457     8.2528     8.2387   103.3811     0.1167     2.4703     0.0835
  696.0000    12.0108    11.4205   -24.8063     8.2808     8.2607   101.7830     0.1190     2.4699     0.0886
  696.5000    12.3572    11.7916   -24.3321     8.3098     8.2611   101.6883     0.1214     2.4615     0.0937
  697.0000    12.7135    12.2812   -23.8290     8.3337     8.2611   102.3980     0.1239     2.4553     0.0989
  697.5000    13.0983    11.9581   -23.3282     8.4218     8.2607   103.0978     0.1258     2.4493     0.1035
  698.0000    12.5285    11.5282   -22.8278     8.4218     8.2434   103.8101     0.1289     2.4432     0.1080
  698.5000    11.4097    11.1137   -22.3270     8.4218     8.1954   104.4169     0.1320     2.4371     0.1059
  699.0000    11.7296    10.7141   -21.8277     8.4218     8.1479   102.9293     0.1351     2.4310     0.1035
  699.5000    12.2634    10.5029   -21.4112     8.4218     8.1003   101.3909     0.1355     2.4249     0.1011
  700.0000    13.0983    10.7499   -21.2454     8.4217     8.0527   100.6212     0.1371     2.4189     0.0987
  700.5000    12.8556    11.2772   -21.0781     8.4218     8.0051   102.0855     0.1409     2.4128     0.0964
  701.0000    12.4016    11.8303   -20.9105     8.4218     7.9574   103.4687     0.1452     2.4067     0.0908
  701.5000    11.9636    12.4105   -20.7426     8.5017     7.9096   104.8533     0.1494     2.4006     0.0835
  702.0000    11.6451    13.2193   -20.5771     8.7002     7.8862   106.2416     0.1527     2.3945     0.0762
  702.5000    11.4607    13.1062   -20.4459     8.9033     7.9331   107.6272     0.1524     2.3884     0.0717
  703.0000    11.2749    12.9419   -20.4090     9.1112     7.9715   108.8649     0.1518     2.3852     0.0709
  703.5000    11.1024    12.7798   -20.3700     9.3239     7.9889   107.2562     0.1511     2.3853     0.0700
  704.0000    11.1675    12.6184   -20.3315     9.5417     7.9658   104.1737     0.1505     2.3947     0.0692
  704.5000    11.2188    13.3124   -20.2929     9.7645     7.9429   101.0478     0.1495     2.4063     0.0683
  705.0000    11.2664    14.2291   -20.2514     9.9924     7.9420   100.1919     0.1449     2.4179     0.0681
  705.5000    11.8046    14.2865   -20.1974    10.2258     7.9413   103.1397     0.1392     2.4295     0.0680
  706.0000    13.3686    14.3606   -20.1425    10.4645     7.9731   101.3694     0.1335     2.4411     0.0712
  706.5000    15.0132    13.7741   -20.0876    10.7036     8.0084    98.6616     0.1278     2.4526     0.0749
  707.0000    12.8805    13.0845   -20.0328    10.8046     8.0439    95.9057     0.1221     2.4598     0.0785
  707.5000    11.9257    12.5093   -19.9779    10.5039     8.0792    93.6922     0.1174     2.4672     0.0821
  708.0000    15.5331    15.1757   -19.9229    10.2357     8.1146    95.1662     0.1208     2.4651     0.0835
  708.5000    20.7498    14.7114   -19.8659     9.9764     8.1501    98.5946     0.1243     2.4578     0.0848
  709.0000    16.6383    13.9558   -19.8421     9.7241     8.1821   100.8900     0.1275     2.4453     0.0862
