~VERSION INFORMATION
 VERS.                2.0:   CWLS LOG ASCII STANDARD - VERSION 2.0
 WRAP.                 NO:   ONE LINE PER DEPTH STEP
~WELL INFORMATION
#MNEM.UNIT      DATA TYPE    INFORMATION
#----------   ------------   ------------------------------
 STRT.F           28.0000:   START DEPTH
 STOP.F          551.0000:   STOP DEPTH
 STEP.F            0.5000:   STEP LENGTH
 NULL.          -999.2500:   NO VALUE
 COMP. FENIX & SCISSON, INC.:   COMPANY
 WELL.        NPR #85-S-3:   WELL
 FLD .             TEAPOT:   FIELD
 LOC .       S3 T38N R78W:   LOCATION
 CNTY.            NATRONA:   COUNTY
 STAT.            WYOMING:   STATE
 CTRY. UNITED STATES OF AMERICA:   COUNTRY
 SRVC.            Unknown:   SERVICE COMPANY
 DATE.        22-JAN-1977:   LOGDATE
 API .       490251055800:   API NUMBER
~CURVE INFORMATION
#MNEM.UNIT       API CODE    CURVE DESCRIPTION
#----------   ------------   ------------------------------
 DEPT.F                  :   
 ILD .OHMM   05 120 46 00:   INDUCTION LOG DEEP
 SN  .OHMM   05 040 16 00:   SHORT NORMAL 16"
 SPR .MV     05 010 01 00:   SPONTANEOUS POTENTIAL FROM RES.
 CALD.IN     45 280 60 00:   CALIPER FROM DENSITY LOG
 CORR.G/C3   45 356 01 00:   DENSITY CORRECTION
 DPHI.DEC    45 890 12 00:   DENSITY POROSITY SANDSTONE
 GRD .GAPI   45 310 01 00:   GAMMA RAY FROM DENSITY LOG
 RHOB.G/C3   45 350 01 00:   BULK DENSITY
~PARAMETER INFORMATION
#MNEM.UNIT          VALUE    DESCRIPTION
#----------   ------------   ------------------------------
 PD  .                 GL:   PERMANENT DATUM
 EPD .F              5132:   ELEVATION PERMANENT DATUM
 LMF .                 KB:   LOG MEASURED FROM
 DAPD.F                 4:   FEET ABOVE PERMANENT DATUM
 DMF .                 KB:   DRILLING MEASURED FROM
 EKB .F              5136:   KELLING BUSHING
 EGL .F              5132:   GROUND LEVEL
 DATE.          1-22-1977:   RUN DATE
 RUN .                  1:   RUN NUMBER
 DD  .F               550:   DEPTH DRILLER
 DL  .F               550:   DEPTH LOGGER
 BLI .F               545:   BOTTOM LOG INTERVAL
 TLI .F                50:   TOP LOG INTERVAL
 CS  .IN            8.625:   CASING SIZE
 CBD .F                40:   CASING BOTTOM DRILLER
 CBL .F                40:   CASING BOTTOM LOGGER
 BS  .IN            7.875:   BIT SIZE
 BSD .F               550:   BIT SIZE AT DEPTH
 DFT .                KCL:   DRILLING FLUID TYPE
 DFD .                8.6:   DRILLING FLUID DENSITY
 DFV .                 36:   DRILLING FLUID VISCOSITY
 DFPH.                 10:   DRILLING FLUID PH
 DFL .                7.2:   DRILLING FLUID LOSS
 MSS .           FLOWLINE:   MUD SAMPLE SOURCE
 RMS .OHMM             .3:   RESISTIVITY MUD SAMPLE
 MST .F                56:   MUD SAMPLE TEMPERATURE
 RMF .OHMM             .3:   RESISTIVITY MUD FILTRATE SAMPLE
 MFST.F                58:   MUD FILTRATE SAMPLE TEMPERATURE
 RMC .OHMM             .3:   RESISTIVITY MUD CAKE
 MCST.F                58:   MUD CAKE SAMPLE TEMPERATURE
 MFSS.           MEASURED:   MUD FILTRATE SAMPLE SOURCE
 MCSS.           MEASURED:   MUD CAKE SAMPLE SOURCE
 RMB .OHMM            .25:   RESISTIVITY MUD AT BHT
 BHT .F                68:   BOTTOM HOLE TEMPERATURE
 TCS .HRS               3:   TIME CURCULATED STOPPED
 MRT .F                68:   MAXIMUM RECORDED TEMPERATURE
 LUN .               2958:   LOGGING UNIT NUMBER
 LUL .             CASPER:   LOGGING UNIT LOCATION
 ENGI.           REYNOLDS:   RECORDING ENGINEER
 WITN.             GINLEY:   WITNESSED BY
 CLNT.            A2DTECH:   CLIENT CODE
 ORIG.           5" PRINT:   ORIGIN OF DATA
 UWI .       490251055800:   UNIQUE WELL ID
 DICO. A2D Technologies, Inc.:   DIGITIZING COMPANY
~OTHER INFORMATION
~A   DEPT      ILD         SN        SPR       CALD       CORR       DPHI         GRD      RHOB   
# ...
   68.5000     7.6996     7.6399   -48.0871     8.6381     0.2490     0.1533    96.5196     2.4044
   69.0000     7.7539     7.7477   -48.0915     8.5283     0.2792     0.1475    98.3348     2.4109
   69.5000     7.8628     7.8570   -48.0959     8.3638     0.2973     0.1412   101.0363     2.4136
   70.0000     7.9182     7.9679   -48.1003     8.2085     0.3018     0.1353   103.7208     2.4301
   70.5000     7.9741     7.9693   -48.1047     8.1495     0.3003     0.1336   106.1157     2.4367
   71.0000     8.0303     8.0260   -48.1091     8.0906     0.2854     0.1393   107.2797     2.4395
   71.5000     8.0313     8.0831   -48.1135     8.0465     0.2704     0.1477   108.3289     2.4355
   72.0000     8.0322     8.1406   -48.1179     8.0471     0.2479     0.1561   109.5430     2.4245
   72.5000     8.0331     8.1420   -48.1223     8.0477     0.2238     0.1708   111.3214     2.4140
   73.0000     8.0898     8.2000   -48.1267     8.0632     0.2119     0.1717   109.8540     2.3743
   73.5000     8.0909     8.2581   -48.1311     8.0935     0.2119     0.1762   108.3322     2.3660
   74.0000     8.1480     8.2598   -48.1355     8.1239     0.2104     0.1870   108.6347     2.3706
   74.5000     8.3197     8.3185   -48.1401     8.1542     0.2105     0.1891   108.0430     2.3451
   75.0000     8.4951     8.3777   -47.8322     8.1846     0.2105     0.1887   109.7367     2.3451
   75.5000     8.7949     8.3792   -47.3748     8.2001     0.2106     0.1914   110.9628     2.3444
   76.0000     9.0426     8.3806   -47.2164     8.2304     0.2106     0.1878   112.5274     2.3421
   76.5000     9.1696     8.4403   -47.2075     8.2757     0.2107     0.1809   111.1905     2.3474
   77.0000     9.3628     8.5003   -47.0490     8.3060     0.2106     0.1731   111.4942     2.3632
   77.5000     9.4289     8.5018   -47.1898     8.3512     0.2092     0.1650   110.0083     2.3864
   78.0000     9.5613     8.6218   -47.0312     8.3965     0.2093     0.1557   108.3734     2.3992
   78.5000     9.6955     8.6831   -47.0222     8.4566     0.2003     0.1488   111.3585     2.4127
   79.0000     9.6967     8.7449   -47.0133     8.5167     0.1928     0.1479   114.0455     2.4187
   79.5000     9.7651     8.6860   -46.8548     8.5322     0.1884     0.1485   112.5597     2.4232
   80.0000     9.8339     8.6876   -46.5469     8.5476     0.1854     0.1491   112.2650     2.4233
   80.5000     9.9033     8.7494   -46.5504     8.5482     0.1855     0.1491   114.3570     2.4225
   81.0000     9.9732     8.7509   -46.5667     8.5339     0.1900     0.1490   116.0008     2.4218
   81.5000     9.9743     8.8744   -46.5831     8.5345     0.1946     0.1490   113.7698     2.4218
   82.0000    10.0447     9.0267   -46.5995     8.5351     0.1992     0.1490   109.7504     2.4218
   82.5000    10.1155     9.1266   -46.6158     8.5357     0.2053     0.1487   108.5615     2.4218
   83.0000    10.2575     9.2554   -46.6322     8.5363     0.2115     0.1439   109.7593     2.4218
   83.5000    10.3299     9.4512   -46.6485     8.5369     0.2334     0.1385   106.7832     2.4219
   84.0000    10.4749     9.5846   -46.6649     8.5375     0.2631     0.1370   107.8308     2.4369
   84.5000    10.6220     9.7873   -46.6813     8.5381     0.2795     0.1340   108.5793     2.4414
   85.0000    10.8459     9.9254   -46.6976     8.5388     0.2884     0.1277   105.7533     2.4444
   85.5000    11.0745    10.0654   -46.7140     8.5243     0.2927     0.1247   104.4165     2.4482
   86.0000    11.2300    10.1371   -46.7303     8.5102     0.2957     0.1238   103.2287     2.4609
   86.5000    11.2670    10.2093   -46.7467     8.4959     0.2973     0.1238   101.4448     2.4617
   87.0000    11.3105    10.2819   -46.7631     8.4965     0.2913     0.1238   100.4060     2.4617
   87.5000    11.3118    10.3551   -46.7794     8.4822     0.2853     0.1240    98.7700     2.4617
   88.0000    11.3916    10.3569   -46.7958     8.4828     0.2824     0.1381    99.8188     2.4618
   88.5000    11.3929    10.3587   -46.8121     8.4834     0.2839     0.1453   101.4626     2.4475
   89.0000    11.3157    10.3605   -46.8285     8.4840     0.2930     0.1471   104.8948     2.4190
   89.5000    11.2390    10.3626   -46.6756     8.4846     0.2991     0.1477   108.1780     2.4145
   90.0000    11.1543    10.3644   -46.6667     8.4852     0.3021     0.1468   109.6727     2.4243
   90.5000    10.9245    10.3662   -46.5082     8.4707     0.3022     0.1438   112.0617     2.4281
   91.0000    10.7117    10.2965   -46.4763     8.3822     0.3022     0.1411   108.7875     2.4266
   91.5000    10.4932    10.2272   -46.3408     8.2786     0.3007     0.1396   110.5803     2.4296
   92.0000    10.4944    10.0884   -46.4817     8.1750     0.2933     0.1393   113.1183     2.4349
   92.5000    10.7156    10.0901   -46.4723     8.0863     0.2858     0.1414   112.8247     2.4364
   93.0000    10.7169    10.0916   -46.4634     7.9976     0.2768     0.1444   112.3809     2.4310
   93.5000    10.7925    10.0936   -46.6021     7.9387     0.2633     0.1498   114.1749     2.4206
   94.0000    10.7937    10.0954   -46.6225     7.9095     0.2498     0.1558   115.2226     2.4098
   94.5000    10.7949    10.0971   -46.6635     7.9250     0.2409     0.1668   113.8857     2.3933
   95.0000    10.7962    10.0988   -46.7045     7.9669     0.2334     0.1755   112.2509     2.3849
   95.5000    10.7974    10.1006   -46.7180     8.0085     0.2319     0.1839   111.8071     2.3597
   96.0000    10.8736    10.1023   -46.7085     8.0368     0.2335     0.1913   114.1972     2.3387
   96.5000    10.8748    10.1040   -46.6996     8.0762     0.2350     0.1851   113.0094     2.3429
   97.0000    10.8761    10.1058   -46.6906     8.1088     0.2381     0.1797   112.8637     2.3503
   97.5000    10.9528    10.1075   -46.6816     8.1572     0.2381     0.1743   113.0183     2.3653
   98.0000    11.0300     9.9703   -46.6726     8.2567     0.2382     0.1737   113.0228     2.3713
   98.5000    10.9550     9.6329   -46.6637     8.3168     0.2367     0.1707   113.7724     2.3706
   99.0000    10.8807     9.3715   -46.6547     8.3769     0.2337     0.1650   114.5220     2.3766
   99.5000    10.8070     9.3732   -46.6457     8.4370     0.2293     0.1605   113.7813     2.3953
  100.0000    10.6598     9.3748   -46.6368     8.4822     0.2158     0.1566   113.1885     2.3991
  100.5000    10.5149     9.3764   -46.6278     8.4977     0.2023     0.1548   115.2805     2.4014
  101.0000    10.4062     9.3779   -46.6188     8.4983     0.2008     0.1532   116.4772     2.4059
  101.5000    10.3200     9.3796   -46.6099     8.4839     0.2039     0.1622   118.2701     2.3999
  102.0000    10.2352     9.3812   -46.6009     8.4846     0.2070     0.1680   115.2939     2.3909
  102.5000    10.0967     9.3177   -46.5919     8.4777     0.2220     0.1685   113.9571     2.3864
  103.0000     9.9913     9.3197   -46.5830     8.4697     0.2522     0.1610   113.5133     2.3999
  103.5000     9.8175     9.2570   -46.5740     8.4618     0.2853     0.1517   114.4131     2.4135
  104.0000     9.6836     9.1947   -46.5667     8.4538     0.2943     0.1424   115.7589     2.4262
  104.5000     9.5896     9.0699   -46.5879     8.4458     0.2959     0.1361   117.2536     2.4322
  105.0000     9.4865     9.0715   -46.6058     8.4286     0.2959     0.1352   116.1101     2.4435
  105.5000     9.3571     9.0731   -46.6237     8.4292     0.2960     0.1424   117.6413     2.4354
  106.0000     9.2421     9.0747   -46.6415     8.4298     0.2960     0.1382   118.5127     2.4316
  106.5000     9.1175     9.0762   -46.6594     8.4304     0.2961     0.1354   115.9702     2.4407
  107.0000     8.9941     9.0152   -46.6773     8.4310     0.2961     0.1345   117.4890     2.4452
  107.5000     8.8720     8.9689   -46.6962     8.4316     0.2962     0.1399   125.9927     2.4407
  108.0000     8.8127     8.6663   -46.8412     8.4173     0.2962     0.1483   129.7273     2.4160
  108.5000     8.6340     8.4314   -46.9832     8.3881     0.2963     0.1549   131.5246     2.4107
