~VERSION INFORMATION
 VERS.                2.0:   CWLS LOG ASCII STANDARD - VERSION 2.0
 WRAP.                 NO:   ONE LINE PER DEPTH STEP
~WELL INFORMATION
#MNEM.UNIT      DATA TYPE    INFORMATION
#----------   ------------   ------------------------------
 STRT.F           87.0000:   START DEPTH
 STOP.F          987.0000:   STOP DEPTH
 STEP.F            0.5000:   STEP LENGTH
 NULL.          -999.2500:   NO VALUE
 COMP.   FLUOR DANIEL INC:   COMPANY
 WELL. NAVAL PETROLEUM RESERVE 3 SH-2 #53-2:   WELL
 FLD .        TEAPOT DOME:   FIELD
 LOC .       S2 T38N R78W:   LOCATION
 CNTY.            NATRONA:   COUNTY
 STAT.            WYOMING:   STATE
 CTRY. UNITED STATES OF AMERICA:   COUNTRY
 SRVC. Schlumberger Well Surveying Corp:   SERVICE COMPANY
 DATE.        17-JUL-1963:   LOGDATE
 API .       490250645200:   API NUMBER
~CURVE INFORMATION
#MNEM.UNIT       API CODE    CURVE DESCRIPTION
#----------   ------------   ------------------------------
 DEPT.F                  :   
 GR  .GAPI   30 310 01 00:   GAMMA RAY
 SPR .MV     05 010 01 00:   SPONTANEOUS POTENTIAL
 CILD.MMHO   05 110 46 00:   CONDUCTIVITY INDUCTION LOG DEEP
 ILD .OHMM   05 120 46 00:   INDUCTION LOG DEEP
 ASN .OHMM   05 041 16 00:   AMPLIFIED SHORT NORMAL 16"
~PARAMETER INFORMATION
#MNEM.UNIT          VALUE    DESCRIPTION
#----------   ------------   ------------------------------
 PD  .                 GL:   PERMANENT DATUM
 EPD .F              5165:   ELEVATION PERMANENT DATUM
 LMF .                 KB:   LOG MEASURED FROM
 DAPD.F                 5:   FEET ABOVE PERMANENT DATUM
 DMF .                 KB:   DRILLING MEASURED FROM
 EKB .F              5170:   KELLING BUSHING
 EGL .F              5165:   GROUND LEVEL
 DATE.          7-17-1963:   RUN DATE
 RUN .                  1:   RUN NUMBER
 DD  .F               986:   DEPTH DRILLER
 DL  .F               987:   DEPTH LOGGER
 BLI .F               986:   BOTTOM LOG INTERVAL
 TLI .F                30:   TOP LOG INTERVAL
 CS  .IN            8.625:   CASING SIZE
 CBD .F                10:   CASING BOTTOM DRILLER
 BS  .IN            7.875:   BIT SIZE
 BSD .F               986:   BIT SIZE AT DEPTH
 DFT .            GEL-OIL:   DRILLING FLUID TYPE
 DFD .                9.4:   DRILLING FLUID DENSITY
 DFV .                 67:   DRILLING FLUID VISCOSITY
 DFPH.                8.5:   DRILLING FLUID PH
 DFL .                4.6:   DRILLING FLUID LOSS
 MSS .           FLOWLINE:   MUD SAMPLE SOURCE
 RMS .OHMM           3.37:   RESISTIVITY MUD SAMPLE
 MST .F                79:   MUD SAMPLE TEMPERATURE
 RMF .OHMM           1.49:   RESISTIVITY MUD FILTRATE SAMPLE
 MFST.F                83:   MUD FILTRATE SAMPLE TEMPERATURE
 MFSS.           MEASURED:   MUD FILTRATE SAMPLE SOURCE
 BHT .F                80:   BOTTOM HOLE TEMPERATURE
 TCS .HRS            0030:   TIME CURCULATED STOPPED
 MRT .F                80:   MAXIMUM RECORDED TEMPERATURE
 LUN .               4507:   LOGGING UNIT NUMBER
 LUL .              CSPR.:   LOGGING UNIT LOCATION
 ENGI.            WINKLER:   RECORDING ENGINEER
 WITN.          JORGENSON:   WITNESSED BY
 CLNT.            A2DTECH:   CLIENT CODE
 ORIG.      2" & 5" PRINT:   ORIGIN OF DATA
 UWI .       490250645200:   UNIQUE WELL ID
 DICO. A2D Technologies, Inc.:   DIGITIZING COMPANY
~OTHER INFORMATION
~A   DEPT       GR        SPR       CILD          ILD        ASN 
# ...
  697.0000   106.7852   -50.8028   118.0904     8.6368     9.8594
  697.5000   106.3886   -50.7085   119.6554     8.5724     9.8573
  698.0000   111.8626   -50.6148   121.0940     8.5078     9.8485
  698.5000   114.0058   -50.5213   122.2813     8.4434     9.8406
  699.0000   108.9694   -50.4277   122.8631     8.3791     9.8214
  699.5000   107.0464   -50.3340   123.4449     8.3147     9.8029
  700.0000   100.5162   -50.2407   124.0267     8.2502     9.7419
  700.5000   105.6670   -50.1468   124.6086     8.1862     9.6779
  701.0000   100.9320   -50.1518   125.0452     8.1214     9.6138
  701.5000   105.4527   -50.2516   124.3230     8.1712     9.5556
  702.0000   100.3582   -50.3521   122.7976     8.3260     9.5582
  702.5000   108.1884   -50.4528   120.9593     8.4815     9.6365
  703.0000   103.0660   -50.5534   119.1211     8.6371     9.8126
  703.5000   112.4495   -50.6541   117.2786     8.7921     9.9636
  704.0000    95.8154   -50.7544   115.1443     8.9612    10.0292
  704.5000    97.6501   -50.8554   112.4019     9.1559    10.1012
  705.0000   103.9943   -50.9028   109.6700     9.3526    10.2833
  705.5000   117.1004   -50.9037   106.9374     9.5599    10.4757
  706.0000   112.0659   -50.9037   104.2048     9.7738    10.6680
  706.5000   110.0862   -50.9036   101.4722     9.9876    10.8601
  707.0000   108.2977   -50.9036    98.7396    10.2014    11.0522
  707.5000   103.8623   -50.9036    95.9799    10.4154    11.2443
  708.0000    96.5473   -50.9036    94.2585    10.6248    11.4364
  708.5000    97.4203   -50.9036    92.4386    10.8319    11.6286
  709.0000   102.7120   -50.9036    90.6187    11.0388    11.8207
  709.5000    82.9932   -50.9036    88.7976    11.2455    12.0106
  710.0000    77.7435   -50.9036    86.9747    11.4355    12.1809
  710.5000    88.5138   -50.9033    85.6238    11.5612    12.3495
  711.0000    90.7021   -50.9033    84.8995    11.6875    12.5180
  711.5000    88.7970   -50.9222    84.1788    11.8139    12.6865
  712.0000    92.1365   -51.0572    83.4564    11.9401    12.8561
  712.5000    80.8190   -51.1917    82.7348    12.0688    12.9611
  713.0000    86.9786   -51.3084    82.0040    12.0543    13.0163
  713.5000    94.9222   -51.3057    82.3920    11.9717    13.0163
  714.0000    97.1365   -51.3052    82.9493    11.8877    12.9525
  714.5000    86.4592   -51.3052    83.5201    11.8052    12.8607
  715.0000    89.4647   -51.3052    84.3271    11.7009    12.7678
  715.5000    87.2972   -51.3054    85.8678    11.5994    12.6749
  716.0000    87.2946   -51.3055    87.1792    11.4983    12.5820
  716.5000    86.7486   -51.3042    88.0218    11.3970    12.4892
  717.0000    82.2776   -51.2330    88.8643    11.2960    12.3963
  717.5000    84.4324   -51.0298    89.7069    11.1940    12.3034
  718.0000    85.2341   -50.8306    89.8620    11.1124    12.2099
  718.5000    83.4817   -50.7011    89.7387    11.0250    12.1149
  719.0000    82.8172   -50.7030    89.6154    11.0054    12.0985
  719.5000    76.1397   -50.7027    89.4921    11.0215    12.0867
  720.0000    84.8203   -50.7028    89.3688    11.0746    12.0745
  720.5000    90.8291   -50.7028    89.2455    11.1270    12.0622
  721.0000    92.9680   -50.7028    89.1222    11.1794    12.0499
  721.5000    87.3699   -50.7028    88.9989    11.2314    12.0376
  722.0000    82.8052   -50.7028    89.6249    11.2849    12.0254
  722.5000    88.9945   -50.7028    90.8382    11.2161    12.0150
  723.0000    83.7930   -50.7029    92.0515    11.0592    11.9061
  723.5000    87.4328   -50.7028    93.2644    10.9012    11.7717
  724.0000    79.9589   -50.6985    94.4774    10.7431    11.6375
  724.5000    90.9863   -50.6735    95.8273    10.5852    11.4436
  725.0000    92.3149   -50.6489    97.2720    10.4269    11.2356
  725.5000    89.0866   -50.6244    98.7171    10.2613    11.0283
  726.0000    92.1409   -50.5999   100.1638    10.0822    10.8881
  726.5000    90.6348   -50.5753   101.3049    10.0075    10.8519
  727.0000    89.3264   -50.5510   102.0287     9.9311    10.8142
  727.5000    88.8932   -50.5272   102.7499     9.8546    10.7769
  728.0000    85.2111   -50.4976   103.4716     9.7780    10.7397
  728.5000    83.2196   -50.3421   104.1938     9.7013    10.7013
  729.0000    90.1395   -50.1821   104.9160     9.6244    10.6264
  729.5000    80.8455   -50.0236   105.6382     9.5705    10.5518
  730.0000    74.6732   -49.9063   106.3604     9.5284    10.4774
  730.5000    70.8600   -49.9605   107.0826     9.4863    10.4030
  731.0000    67.6377   -50.0112   107.8047     9.4442    10.3287
  731.5000    78.0688   -50.0616   108.2024     9.4020    10.2544
  732.0000    93.2398   -50.1119   108.4432     9.3600    10.1917
  732.5000    97.9828   -50.1622   108.6839     9.3181    10.1576
  733.0000    94.9121   -50.2127   108.9246     9.3130    10.1243
  733.5000    91.3284   -50.2627   108.6065     9.3468    10.1150
  734.0000    81.8139   -50.2906   107.7273     9.3805    10.1684
  734.5000    84.5711   -50.2324   106.8482     9.4110    10.2208
  735.0000    87.2755   -50.1762   105.9690     9.4395    10.2732
  735.5000    91.7611   -50.1207   105.0251     9.4679    10.3252
  736.0000    99.2856   -50.0445   105.0251     9.4961    10.3782
  736.5000    93.6594   -49.9588   106.6472     9.4986    10.3336
  737.0000   101.5805   -49.8726   110.0379     9.3505    10.2081
  737.5000    99.7964   -49.7863   113.7321     9.0803    10.0851
  738.0000    92.5975   -49.7002   117.4264     8.8096     9.9966
  738.5000    98.7220   -49.6133   121.1206     8.5384     9.8503
  739.0000    93.6566   -49.5303   124.8148     8.2663     9.5974
  739.5000    95.1328   -49.2543   127.8069     7.9977     9.3833
  740.0000    95.3271   -48.8923   129.6124     7.9107     9.1969
  740.5000    92.4148   -48.6990   131.4178     7.8319     8.9243
  741.0000    98.1893   -48.8109   132.7558     7.7526     8.8742
  741.5000    98.9348   -48.8867   133.7668     7.6862     8.8740
  742.0000   103.9959   -49.2843   132.7912     7.7423     8.9893
  742.5000   106.4784   -49.6896   130.4934     7.8312     9.1366
  743.0000   104.2196   -49.6400   128.8191     7.9204     9.1134
  743.5000   109.7843   -49.5803   128.0259     8.0022     9.0917
  744.0000   112.6389   -49.5223   127.2383     8.0562     9.0781
  744.5000   111.9769   -49.4648   126.4494     8.1103     9.1649
  745.0000   111.4600   -49.4076   125.6603     8.1644     9.2534
  745.5000   110.0775   -49.3512   124.8759     8.2187     9.3348
  746.0000    99.9758   -49.2875   124.1126     8.2723     9.3188
  746.5000   100.2440   -49.0808   122.4482     8.3565     9.2766
  747.0000    97.7845   -48.8915   120.8459     8.4540     9.2656
  747.5000    94.6950   -48.7738   119.2487     8.5523     9.4774
  748.0000    88.8350   -48.6621   117.6525     8.6506     9.6883
  748.5000    98.3226   -48.5512   116.0561     8.7490     9.8673
  749.0000    99.8106   -48.5436   114.4597     8.8472     9.9628
  749.5000   103.6402   -48.6462   112.8633     8.9456     9.9467
  750.0000   112.4397   -48.7793   112.0603     8.9952    10.1731
  750.5000   109.0108   -48.9483   112.0603     8.9952     9.9163
  751.0000   103.2904   -49.1008   112.5273     8.9856     9.9259
  751.5000   112.9554   -49.0971   114.0171     8.9042     9.9662
  752.0000   106.3262   -49.0965   115.5070     8.8222     9.9861
  752.5000   113.3628   -49.0960   117.0854     8.7405     9.8663
  753.0000   116.7098   -49.0656   117.6147     8.6586     9.8146
  753.5000   107.8488   -48.9726   118.1776     8.5762     9.7776
  754.0000   101.6430   -48.8807   118.7404     8.4965     9.6710
  754.5000    96.4175   -48.7886   118.8618     8.5371     9.5753
  755.0000    95.3184   -48.6966   118.2286     8.5848     9.6032
  755.5000   100.5849   -48.6046   117.5955     8.6321     9.7626
  756.0000   100.8519   -48.5126   116.9568     8.6793     9.9164
  756.5000    90.4184   -48.4207   116.2964     8.7264     9.9785
  757.0000    98.0611   -48.3279   115.6347     8.7735    10.0005
  757.5000    99.9784   -48.2937   114.9718     8.8207     9.9968
