~VERSION INFORMATION
 VERS.                2.0:   CWLS LOG ASCII STANDARD - VERSION 2.0
 WRAP.                 NO:   ONE LINE PER DEPTH STEP
~WELL INFORMATION
#MNEM.UNIT      DATA TYPE    INFORMATION
#----------   ------------   ------------------------------
 STRT.F            0.0000:   START DEPTH
 STOP.F          860.0000:   STOP DEPTH
 STEP.F            0.5000:   STEP LENGTH
 NULL.          -999.2500:   NO VALUE
 COMP.          U.S. NAVY:   COMPANY
 WELL. NPR #3 TEAPOT DOME #28S-35:   WELL
 FLD .             TEAPOT:   FIELD
 LOC .      S35 T39N R78W:   LOCATION
 CNTY.            NATRONA:   COUNTY
 STAT.            WYOMING:   STATE
 CTRY. UNITED STATES OF AMERICA:   COUNTRY
 SRVC.       Schlumberger:   SERVICE COMPANY
 DATE.        10-NOV-1958:   LOGDATE
 API .       490250649800:   API NUMBER
~CURVE INFORMATION
#MNEM.UNIT       API CODE    CURVE DESCRIPTION
#----------   ------------   ------------------------------
 DEPT.F                  :   
 SPR .MV     01 010 01 00:   SPONTANEOUS POTENTIAL FROM RES.
 ASN .OHMM   01 041 16 00:   AMPLIFIED SHORT NORMAL 16"
 LT18.OHMM   01 070 18 00:   LATERAL 18'
 LN  .OHMM   01 060 64 00:   LONG NORMAL 64"
 GRN .CPS    35 310 30 00:   GAMMA RAY
 NEUT.CPS    35 330 30 00:   NEUTRON
 MCAL.IN     15 280 01 00:   CALIPER FROM MICRO LOG
~PARAMETER INFORMATION
#MNEM.UNIT          VALUE    DESCRIPTION
#----------   ------------   ------------------------------
 LMF .                 KB:   LOG MEASURED FROM
 DMF .                 KB:   DRILLING MEASURED FROM
 EKB .F              5113:   KELLING BUSHING
 EGL .F              5103:   GROUND LEVEL
 DATE.         11-10-1958:   RUN DATE
 RUN .                  1:   RUN NUMBER
 DD  .F               860:   DEPTH DRILLER
 DL  .F               861:   DEPTH LOGGER
 BLI .F               860:   BOTTOM LOG INTERVAL
 TLI .F                90:   TOP LOG INTERVAL
 CBD .F                34:   CASING BOTTOM DRILLER
 BS  .IN             6.75:   BIT SIZE
 BSD .F               860:   BIT SIZE AT DEPTH
 DFT .          OIL ADDED:   DRILLING FLUID TYPE
 DFD .                 10:   DRILLING FLUID DENSITY
 DFV .                 20:   DRILLING FLUID VISCOSITY
 DFPH.                7.5:   DRILLING FLUID PH
 DFL .                4.2:   DRILLING FLUID LOSS
 RMS .OHMM              2:   RESISTIVITY MUD SAMPLE
 MST .F                62:   MUD SAMPLE TEMPERATURE
 RMF .OHMM            1.4:   RESISTIVITY MUD FILTRATE SAMPLE
 MFST.F                72:   MUD FILTRATE SAMPLE TEMPERATURE
 RMC .OHMM            1.9:   RESISTIVITY MUD CAKE
 MCST.F                72:   MUD CAKE SAMPLE TEMPERATURE
 MFSS.                  M:   MUD FILTRATE SAMPLE SOURCE
 MCSS.                  M:   MUD CAKE SAMPLE SOURCE
 RMB .OHMM            1.7:   RESISTIVITY MUD AT BHT
 BHT .F                72:   BOTTOM HOLE TEMPERATURE
 TCS .HRS               1:   TIME CURCULATED STOPPED
 MRT .F                72:   MAXIMUM RECORDED TEMPERATURE
 LUN .               2754:   LOGGING UNIT NUMBER
 LUL .                 NC:   LOGGING UNIT LOCATION
 ENGI.             QUINBY:   RECORDING ENGINEER
 WITN.             MARTIN:   WITNESSED BY
 CLNT.            A2DTECH:   CLIENT CODE
 ORIG.     1", 2.5" PRINT:   ORIGIN OF DATA
 UWI .       490250649800:   UNIQUE WELL ID
 DICO. A2D Technologies, Inc.:   DIGITIZING COMPANY
~OTHER INFORMATION
~A    DEPT     SPR        ASN       LT18         LN          GRN     NEUT       MCAL   
# ...
  409.5000   -20.8979     9.8700     9.7554     9.4009     8.3683   434.7665     6.9244
  410.0000   -20.8966     9.8703     9.7928     9.2663     7.9501   439.3816     6.9235
  410.5000   -21.4387     9.8706     9.9333     9.1318     7.7653   443.9966     6.9227
  411.0000   -21.7092     9.8708    10.0297     9.1331     8.0633   427.2344     6.9218
  411.5000   -21.9796     9.8711    10.1662     9.1345     8.1166   418.1070     6.9210
  412.0000   -21.9782     9.7362    10.3027     9.1359     7.8933   418.9047     6.9202
  412.5000   -21.7051     9.6014    10.3040     9.0013     7.7627   417.4120     6.9194
  413.0000   -21.7038     9.4665    10.2450     9.0027     7.5564   412.0998     6.9184
  413.5000   -21.4307     9.9262    10.3067     9.0041     7.3200   416.7169     6.9176
  414.0000   -21.4293     9.8084    10.3081     9.0055     7.1313   428.9667     6.9168
  414.5000   -21.1563     9.7540    10.3095     8.8708     7.3824   441.9799     6.9160
  415.0000   -21.1549     9.7378    10.2342     8.8723     7.5876   433.6159     6.9152
  415.5000   -21.1690     9.7381    10.1770     8.8308     7.8113   438.2310     6.9144
  416.0000   -21.7174     9.7257    10.0432     8.5561     7.8809   442.0826     6.9136
  416.5000   -22.2378     9.6984    10.0448     8.4685     8.2937   430.6647     6.9128
  417.0000   -21.9647     9.5479    10.0462     8.5258     8.3911   431.4624     6.9120
  417.5000   -21.6916     9.2729    10.0475     8.5473     8.2681   446.0026     6.9112
  418.0000   -21.3714     9.0296    10.1840     8.3369     8.5158   452.9081     6.8831
  418.5000   -21.1455     8.7679    10.1853     8.1338     7.9225   446.0710     6.8822
  419.0000   -21.4756     8.3887    10.1866     8.0679     7.7730   461.3747     6.8797
  419.5000   -21.6863     8.1187    10.1879     7.9334     7.6208   462.9358     6.8533
  420.0000   -21.6124     7.9568    10.1893     7.9351     7.4806   458.3892     6.8524
  420.5000   -21.4119     7.8760    10.1906     7.9364     7.3332   441.5820     6.8470
  421.0000   -22.1240     7.9844    10.0567     7.9377     7.4065   443.2401     6.8235
  421.5000   -22.4962     8.2819     9.9230     8.0749     7.6142   441.6199     6.8227
  422.0000   -21.5815     8.4984     9.6541     8.0763     7.3999   434.0949     6.8219
  422.5000   -21.4065     8.7419     9.3806     8.2135     7.3406   440.5567     6.8297
  423.0000   -21.6766     8.8503     8.9747     8.2148     7.2360   444.0885     6.8477
  423.5000   -21.6753     8.8235     8.8369     8.2162     7.2897   436.3112     6.8467
  424.0000   -21.6739     8.7157     8.7134     8.3534     7.1841   430.3646     6.8732
  424.5000   -21.9443     8.7970     8.6964     8.3547     7.3708   432.4931     6.8724
  425.0000   -21.9429     8.8784     8.7162     8.4919     7.2685   445.7560     6.8716
  425.5000   -21.7994     8.9057     8.7175     8.4932     7.4166   457.5197     6.8708
  426.0000   -21.6685     8.9059     8.5836     8.6304     7.8076   465.5201     6.8700
  426.5000   -21.6671     8.8522     8.5505     8.6318     7.7777   469.5226     6.8690
  427.0000   -21.6658     8.7713     8.4512     8.6331     7.4975   471.0858     6.8956
  427.5000   -21.3924     8.7986     8.4527     8.7704     7.7349   468.8300     6.8947
  428.0000   -21.3911     8.7160     8.5009     8.7718     8.1725   443.7711     6.8939
  428.5000   -21.6617     8.7550     8.6415     8.6184     8.3759   443.7014     6.8931
  429.0000   -21.3884     9.0044     8.7820     8.0950     8.1976   439.1548     6.8649
  429.5000   -21.1153     9.3515     8.9987     8.0964     8.0613   439.1917     6.7548
  430.0000   -21.3857     9.7189     9.1351     8.2337     7.6455   437.6989     6.6721
  430.5000   -21.6563     9.5904     9.3387     8.2351     7.5431   427.5415     6.6986
  431.0000   -21.6547     9.4762     9.5433     8.0602     7.2966   428.9615     6.8071
  431.5000   -21.6534     9.6247     9.6198     7.8299     7.0501   439.9143     6.8882
  432.0000   -21.9238     9.7272     9.7370     7.9674     7.0508   441.6505     6.8874
  432.5000   -22.7377     9.7473     9.5473     8.1579     7.1749   430.0770     6.8593
  433.0000   -22.4646     9.5769     9.2786     8.4352     7.4638   432.0259     6.8858
  433.5000   -22.1915     9.5224     9.0097     8.5149     7.5468   444.4864     6.8850
  434.0000   -21.9184     9.4310     9.0110     8.6521     7.6298   453.2394     6.8841
  434.5000   -21.6453     9.2630     8.8770     8.6536     7.9599   444.6357     6.8560
  435.0000   -21.6440     9.0774     8.7432     8.6549     7.9851   425.0631     6.8552
  435.5000   -21.6427     9.0192     8.7447     8.6562     7.7964   421.2762     6.8544
  436.0000   -22.4601     9.0321     8.7461     8.6579     7.6322   432.2072     6.8536
  436.5000   -22.7269     9.0738     8.6122     8.6592     7.6106   426.6889     6.8528
  437.0000   -22.7256     9.0880     8.6136     8.6605     7.8188   434.2485     6.8519
  437.5000   -22.7242     9.1014     8.6149     8.5260     7.8812   441.5223     6.8511
  438.0000   -22.7228     9.0863     8.6163     8.5273     7.7583   452.2204     6.8503
  438.5000   -22.7568     9.0319     8.4824     8.5287     7.5529   438.2779     6.8495
  439.0000   -23.3470     8.9670     8.4838     8.5300     7.1211   437.3121     6.8486
  439.5000   -23.8537     8.9403     8.3500     8.5314     7.2659   434.3057     6.8478
  440.0000   -23.4239     8.8865     8.3513     8.3967     7.3283   429.9823     6.8468
  440.5000   -22.6553     8.8598     8.3527     8.2622     7.1436   436.9323     6.8460
  441.0000   -22.4429     8.7790     8.3712     8.2636     7.1648   436.0885     6.8452
  441.5000   -22.3682     8.8063     8.4905     8.2650     7.2272   437.6817     6.8444
  442.0000   -22.1687     8.8335     8.5172     8.1304     7.3513   446.9156     6.8436
  442.5000   -22.4391     8.8394     8.6284     7.9959     7.3108   423.8606     6.8428
  443.0000   -22.7095     8.8071     8.6297     8.1331     7.1466   419.4990     6.8420
  443.5000   -22.7079     8.7803     8.6685     8.1346     7.2502   436.1066     6.8412
  444.0000   -23.0833     8.7265     8.7674     8.1359     7.5597   450.1132     6.8404
  444.5000   -23.2486     8.6727     8.5883     8.1372     7.4985   451.8143     6.8415
  445.0000   -23.2835     8.5919     8.4998     8.1386     7.5815   445.6649     6.8388
  445.5000   -22.7025     8.6192     8.4478     8.1400     7.6027   430.9391     6.8380
  446.0000   -22.7011     8.6735     8.3676     8.1078     8.0152   418.9227     6.8372
  446.5000   -22.6997     8.7008     8.2338     8.0066     8.2629   409.8396     6.8343
  447.0000   -22.6984     8.7011     8.3702     7.7362     7.8929   399.7009     6.8082
  447.5000   -22.6970     8.6743     8.2365     7.8736     7.5640   421.5953     6.8032
  448.0000   -22.8515     8.6476     8.2378     7.8750     7.5852   444.1784     6.7519
  448.5000   -23.2378     8.6183     8.1040     8.0122     7.2975   454.6405     6.7238
  449.0000   -22.9644     8.5400     7.9703     8.0136     7.3599   448.3191     6.6956
  449.5000   -22.6913     8.4824     8.1070     8.0149     7.1958   431.4555     6.6867
  450.0000   -22.6900     8.4324     8.1083     8.0163     7.3200   424.1857     6.6667
  450.5000   -22.4169     8.4056     8.2448     8.0177     7.6322   420.0081     6.6386
  451.0000   -22.1438     8.4329     8.3813     8.0190     8.0221   417.3704     6.6266
  451.5000   -22.6860     8.4733     8.5177     7.8848     8.1455   415.4706     6.5974
  452.0000   -23.4998     8.5902     8.5191     7.8861     7.9155   408.4682     6.5683
  452.5000   -24.0420     8.7198     8.5204     7.8875     7.7524   387.9013     6.5533
  453.0000   -24.3125     8.8296     8.5217     8.0247     7.6288   385.3021     6.5827
  453.5000   -24.3110     8.9393     8.5231     8.0260     7.5920   405.7397     6.7205
  454.0000   -24.0379     9.0490     8.5244     8.0273     7.6989   411.2015     6.8512
  454.5000   -23.4931     9.1752     8.5257     8.0287     7.9320   416.8028     6.8504
