~VERSION INFORMATION
 VERS.                2.0:   CWLS LOG ASCII STANDARD - VERSION 2.0
 WRAP.                 NO:   ONE LINE PER DEPTH STEP
~WELL INFORMATION
#MNEM.UNIT      DATA TYPE    INFORMATION
#----------   ------------   ------------------------------
 STRT.F           30.0000:   START DEPTH
 STOP.F          547.0000:   STOP DEPTH
 STEP.F            0.5000:   STEP LENGTH
 NULL.          -999.2500:   NO VALUE
 COMP.   FINIX & SCISSION:   COMPANY
 WELL. SX-11 NPR #3 #11-11:   WELL
 FLD .             TEAPOT:   FIELD
 LOC .      S11 T38N R78W:   LOCATION
 CNTY.            NATRONA:   COUNTY
 STAT.            WYOMING:   STATE
 CTRY. UNITED STATES OF AMERICA:   COUNTRY
 SRVC.       Schlumberger:   SERVICE COMPANY
 DATE.        01-MAR-1977:   LOGDATE
 API .       490251058500:   API NUMBER
~CURVE INFORMATION
#MNEM.UNIT       API CODE    CURVE DESCRIPTION
#----------   ------------   ------------------------------
 DEPT.F                  :   
 ILD .OHMM               :   INDUCTION LOG DEEP
 ILM .OHMM   07 120 44 00:   INDUCTION LOG MEDIUM
 LL8 .OHMM   07 220 08 00:   
 SPR .MV     07 010 01 00:   SPONTANEOUS POTENTIAL
 CALD.IN     45 280 60 00:   CALIPER FROM DENSITY LOG
 CORR.G/C3   45 356 01 00:   DENSITY CORRECTION
 DPHI.DEC    45 890 12 00:   DENSITY POROSITY SANDSTONE
 GRD .GAPI   45 310 01 00:   GAMMA RAY FROM DENSITY LOG
 RHOB.G/C3   45 350 01 00:   BULK DENSITY
~PARAMETER INFORMATION
#MNEM.UNIT          VALUE    DESCRIPTION
#----------   ------------   ------------------------------
 PD  .                 GL:   PERMANENT DATUM
 EPD .F              5158:   ELEVATION PERMANENT DATUM
 LMF .                 GL:   LOG MEASURED FROM
 DMF .                 GL:   DRILLING MEASURED FROM
 EKB .F              5161:   KELLING BUSHING
 EGL .F              5158:   GROUND LEVEL
 DATE.        01-MAR-1977:   RUN DATE
 RUN .                  1:   RUN NUMBER
 DD  .F               575:   DEPTH DRILLER
 DL  .F               548:   DEPTH LOGGER
 BLI .F               547:   BOTTOM LOG INTERVAL
 TLI .F                45:   TOP LOG INTERVAL
 CS  .IN            8.625:   CASING SIZE
 CBD .F                40:   CASING BOTTOM DRILLER
 CBL .F                45:   CASING BOTTOM LOGGER
 BS  .IN            7.875:   BIT SIZE
 BSD .F               575:   BIT SIZE AT DEPTH
 DFT .                PIT:   DRILLING FLUID TYPE
 DFD .                8.7:   DRILLING FLUID DENSITY
 DFV .                 46:   DRILLING FLUID VISCOSITY
 DFPH.                  8:   DRILLING FLUID PH
 DFL .                6.8:   DRILLING FLUID LOSS
 MSS .                PIT:   MUD SAMPLE SOURCE
 RMS .OHMM          0.632:   RESISTIVITY MUD SAMPLE
 MST .F                65:   MUD SAMPLE TEMPERATURE
 RMF .OHMM          0.465:   RESISTIVITY MUD FILTRATE SAMPLE
 MFST.F                65:   MUD FILTRATE SAMPLE TEMPERATURE
 MFSS.               MEAS:   MUD FILTRATE SAMPLE SOURCE
 RMB .OHMM          0.635:   RESISTIVITY MUD AT BHT
 BHT .F                68:   BOTTOM HOLE TEMPERATURE
 TCS .HRS              12:   TIME CURCULATED STOPPED
 MRT .F                68:   MAXIMUM RECORDED TEMPERATURE
 LUN .               5642:   LOGGING UNIT NUMBER
 LUL .               CSPR:   LOGGING UNIT LOCATION
 ENGI.         JIM MARTIN:   RECORDING ENGINEER
 WITN.         STUEBINGER:   WITNESSED BY
 CLNT.            A2DTECH:   CLIENT CODE
 ORIG.           5" PRINT:   ORIGIN OF DATA
 UWI .       490251058500:   UNIQUE WELL ID
 DICO. A2D Technologies, Inc.:   DIGITIZING COMPANY
~OTHER INFORMATION
~A   DEPT      ILD        ILM        LL8        SPR       CALD       CORR       DPHI         GRD      RHOB   
# ...
  176.0000     9.0666     9.1657     8.8833   -30.1428     8.1224     0.0180     0.0940    93.6142     2.4997
  176.5000     9.1295     9.2906     9.1757   -30.1325     8.1505     0.0269     0.0799    87.0450     2.5282
  177.0000     9.1295     9.3555     9.3556   -30.2720     8.1662     0.0382     0.0712    84.7216     2.5177
  177.5000     9.1295     9.4211     9.4865   -30.2617     8.1670     0.0344     0.0928    83.9953     2.5312
  178.0000     9.0666     9.4218     9.4871   -29.9520     8.1677     0.0269     0.1033    87.4453     2.5057
  178.5000     9.0666     9.3970     9.4877   -30.0914     8.1834     0.0237     0.1072    90.7191     2.4907
  179.0000     9.0666     9.3581     9.4883   -30.0639     8.1842     0.0337     0.0982    92.4153     2.4952
  179.5000     9.0973     9.2942     9.4890   -29.7689     8.1699     0.0434     0.0913    91.0734     2.5163
  180.0000     9.1295     9.2949     9.4243   -29.7586     8.1707     0.0397     0.0907    90.0313     2.5208
  180.5000     9.1295     9.2957     9.4228   -30.0503     8.1715     0.0337     0.0937    89.1392     2.4953
  181.0000     9.1295     9.2762     9.3606   -30.3394     8.1871     0.0374     0.0949    88.0972     2.4998
  181.5000     9.1295     9.2329     9.3614   -30.6260     8.1879     0.0382     0.0901    87.8030     2.5043
  182.0000     9.0666     9.1698     9.2975   -30.9176     8.2037     0.0291     0.0982    89.6114     2.4938
  182.5000     9.0666     9.1705     9.2341   -31.2042     8.2043     0.0301     0.0964    88.8692     2.4898
  183.0000     9.0666     9.1080     9.0740   -31.3462     8.2052     0.0444     0.0894    87.5273     2.5006
  183.5000     9.0042     9.0460     8.9754   -31.1836     8.2058     0.0425     0.0933    86.9351     2.4976
  184.0000     8.9422     8.9225     8.8001   -31.0236     8.2066     0.0430     0.0975    89.9410     2.4946
  184.5000     8.8194     8.8006     8.6639   -31.0135     8.1924     0.0539     0.0942    93.6966     2.4879
  185.0000     8.7587     8.7046     8.4829   -31.0803     8.1851     0.0337     0.0996    95.2014     2.4729
  185.5000     8.6385     8.5352     8.2712   -31.2253     8.1786     0.0232     0.1128    92.8119     2.4563
  186.0000     8.5200     8.3291     8.1582   -31.5813     8.1673     0.0165     0.1233    89.6709     2.4435
  186.5000     8.4441     8.2373     8.0467   -32.0176     8.1504     0.0277     0.1161    86.8298     2.4464
  187.0000     8.3079     8.1335     7.9369   -32.4564     8.1512     0.0344     0.1064    85.6378     2.4740
  187.5000     8.2306     8.1037     7.9375   -32.7470     8.1519     0.0419     0.0992    86.0951     2.4857
  188.0000     8.1740     8.1042     8.0412   -33.0372     8.1527     0.0459     0.0897    89.8506     2.5173
  188.5000     8.1177     8.1374     8.1610   -33.1766     8.1536     0.0359     0.0912    91.8071     2.5278
  189.0000     8.1177     8.2085     8.2893   -33.1638     8.1550     0.0269     0.0993    92.5642     2.4993
  189.5000     8.1420     8.3423     8.3909   -33.1535     8.1699     0.0367     0.0864    93.1713     2.5158
  190.0000     8.2306     8.5673     8.5672   -33.1432     8.1708     0.0479     0.0882    94.0783     2.5023
  190.5000     8.4032     8.7087     8.7499   -32.9832     8.1865     0.0195     0.0957    94.8354     2.4903
  191.0000     8.5745     8.8868     8.9395   -32.8232     8.1871     0.0112     0.1017    94.0932     2.4829
  191.5000     8.7027     9.0560     9.0561   -32.6587     8.1880     0.0240     0.1059    92.3016     2.4799
  192.0000     8.8806     9.1195     9.1195   -32.3373     8.1887     0.0404     0.0948    91.9950     2.4964
  192.5000     8.9613     9.2087     9.1940   -31.5669     8.1743     0.0464     0.0882    92.7662     2.5084
  193.0000     9.0666     9.3117     9.3118   -30.3843     8.1453     0.0389     0.0924    93.2235     2.4979
  193.5000     9.1928     9.4419     9.5074   -29.0267     8.1311     0.0314     0.1026    92.4813     2.4852
  194.0000     9.2565     9.6261     9.5916   -27.8189     8.0867     0.0277     0.1086    88.7327     2.4897
  194.5000     9.3853     9.8131     9.7955   -27.3595     8.0278     0.0412     0.0942    88.4482     2.5040
  195.0000     9.4711     9.9807     9.9119   -27.9480     7.9685     0.0479     0.0873    93.1434     2.4980
  195.5000     9.5974    10.1203     9.9811   -28.6862     7.9393     0.0352     0.0984    94.6242     2.4815
  196.0000     9.7152     9.9820     9.7235   -29.2747     7.9702     0.0225     0.1083    95.5352     2.4620
  196.5000     9.5819     9.8457     9.5018   -29.7136     8.1056     0.0172     0.1152    96.4240     2.4568
  197.0000     9.4861     9.6270     9.3814   -30.0027     8.1513     0.0120     0.1134    94.0269     2.4673
  197.5000     9.3853     9.4212     9.2533   -30.2918     8.1670     0.0135     0.1092    90.8935     2.4778
  198.0000     9.2629     9.1903     9.1046   -30.7306     8.1677     0.0262     0.1086    89.1019     2.4843
  198.5000     9.1554     9.0605     9.0619   -30.7201     8.1533     0.0240     0.1134    89.5591     2.4726
  199.0000     9.0666     8.9409     9.0029   -30.7096     8.1543     0.0180     0.1176    90.3162     2.4651
  199.5000     8.9422     8.8188     8.9417   -30.6972     8.0802     0.0135     0.1212    90.7734     2.4561
  200.0000     8.8587     8.7510     8.8805   -30.8392     8.0059     0.0075     0.1179    91.9273     2.4479
  200.5000     8.5913     8.7200     9.1934   -30.8263     8.0070     0.0300     0.1091    93.1204     2.4749
  201.0000     8.4823     8.6891     9.1307   -30.9623     7.9033     0.0367     0.1049    94.0995     2.4913
  201.5000     8.5232     8.6581     9.0647   -31.1031     7.9794     0.0187     0.1166    92.1608     2.4576
  202.0000     8.6216     8.6984     9.0066   -31.5374     8.0253     0.0105     0.1193    90.6718     2.4591
  202.5000     8.6739     8.7587     8.9452   -31.5256     8.0563     0.0314     0.1064    89.6327     2.4755
  203.0000     8.7654     8.8194     8.8842   -31.5137     8.1022     0.0419     0.0980    88.8736     2.4920
  203.5000     8.8859     8.9422     8.8237   -31.2024     8.1482     0.0397     0.1031    88.1344     2.4838
  204.0000     9.0666     9.1295     8.8244   -31.0409     8.1642     0.0202     0.1121    87.5673     2.4611
  204.5000     9.1858     9.3853     9.1986   -30.8283     8.1652     0.0172     0.1178    87.4277     2.4624
  205.0000     9.3853     9.5819     9.8573   -30.5681     8.1635     0.0225     0.1115    86.0887     2.4717
  205.5000     9.5159     9.7826    10.7844   -30.5562     8.1520     0.0165     0.1121    82.9506     2.4662
  206.0000     9.7152     9.8504    12.2135   -30.9935     8.1441     0.0127     0.1139    81.4616     2.4754
  206.5000     9.9187    10.0567    13.3620   -31.2242     8.1095     0.0097     0.1118    82.8213     2.4739
  207.0000    10.1264    10.2673    12.3851   -31.4860     8.0955     0.0181     0.1070    85.0805     2.4844
  207.5000    10.3385    10.4824    11.4795   -31.7064     8.0966     0.0337     0.1049    87.4896     2.4979
  208.0000    10.7019    10.8508    10.7138   -31.6945     8.1060     0.0249     0.1114    90.3485     2.4731
  208.5000    10.9897    11.1549    10.3505   -31.5329     8.1138     0.0202     0.1165    88.2599     2.4581
  209.0000    11.4675    11.5470    11.6416   -31.2136     8.1163     0.0344     0.1121    84.6720     2.4768
  209.5000    11.9529    11.9554    12.2191   -30.7465     8.1309     0.0284     0.1046    82.5834     2.4956
  210.0000    12.5453    12.3791    11.6432   -30.2794     8.1167     0.0187     0.1004    81.5442     2.5008
  210.5000    13.0763    12.9061    11.4842   -29.8383     8.1180     0.0112     0.1064    80.7951     2.4806
  211.0000    13.6298    13.5490    12.6515   -29.9767     8.1038     0.0240     0.1076    80.5154     2.4723
  211.5000    14.0117    14.1261    13.9374   -30.2642     8.0601     0.0397     0.0989    81.4279     2.4918
  212.0000    13.7243    13.8949    13.9931   -30.0997     8.0312     0.0516     0.0884    82.1878     2.5075
