~VERSION INFORMATION
 VERS.                2.0:   CWLS LOG ASCII STANDARD - VERSION 2.0
 WRAP.                 NO:   ONE LINE PER DEPTH STEP
~WELL INFORMATION
#MNEM.UNIT      DATA TYPE    INFORMATION
#----------   ------------   ------------------------------
 STRT.F           33.0000:   START DEPTH
 STOP.F         1310.0000:   STOP DEPTH
 STEP.F            0.5000:   STEP LENGTH
 NULL.          -999.2500:   NO VALUE
 COMP. FENIX & SCISSON INC:   COMPANY
 WELL.    NPR-3 #76-14 SX:   WELL
 FLD .        TEAPOT DOME:   FIELD
 LOC .      S14 T38N R78W:   LOCATION
 CNTY.            NATRONA:   COUNTY
 STAT.            WYOMING:   STATE
 CTRY. UNITED STATES OF AMERICA:   COUNTRY
 SRVC.            Unknown:   SERVICE COMPANY
 DATE.        12-APR-1978:   LOGDATE
 API .       490251061200:   API NUMBER
~CURVE INFORMATION
#MNEM.UNIT       API CODE    CURVE DESCRIPTION
#----------   ------------   ------------------------------
 DEPT.F                  :   
 SPR .MV     05 010 01 00:   SPONTANEOUS POTENTIAL FROM RES.
 SN  .OHMM   05 040 16 00:   SHORT NORMAL 16"
 ILD .OHMM   05 120 46 00:   INDUCTION LOG DEEP
 CALD.IN     45 280 60 00:   CALIPER FROM DENSITY LOG
 GRD .GAPI   45 310 01 00:   GAMMA RAY FROM DENSITY LOG
 DPOR.DEC    45 890 12 00:   DENSITY POROSITY SANDSTONE
 CORR.G/C3   45 356 01 00:   DENSITY CORRECTION
 RHOB.G/C3   45 350 01 00:   BULK DENSITY
~PARAMETER INFORMATION
#MNEM.UNIT          VALUE    DESCRIPTION
#----------   ------------   ------------------------------
 PD  .                 GL:   PERMANENT DATUM
 EPD .F              5332:   ELEVATION PERMANENT DATUM
 LMF .                 KB:   LOG MEASURED FROM
 DMF .                 KB:   DRILLING MEASURED FROM
 EKB .F              5336:   KELLING BUSHING
 EGL .F              5332:   GROUND LEVEL
 DATE.          4-12-1978:   RUN DATE
 RUN .                  1:   RUN NUMBER
 DD  .F              1300:   DEPTH DRILLER
 DL  .F              1302:   DEPTH LOGGER
 BLI .F              1298:   BOTTOM LOG INTERVAL
 TLI .F                50:   TOP LOG INTERVAL
 CS  .IN            8.625:   CASING SIZE
 CBD .F                40:   CASING BOTTOM DRILLER
 CBL .F                46:   CASING BOTTOM LOGGER
 BS  .IN            7.875:   BIT SIZE
 BSD .F              1300:   BIT SIZE AT DEPTH
 DFT .                KCL:   DRILLING FLUID TYPE
 DFD .                8.5:   DRILLING FLUID DENSITY
 DFV .                 28:   DRILLING FLUID VISCOSITY
 MSS .            MUD PIT:   MUD SAMPLE SOURCE
 RMS .OHMM           1.45:   RESISTIVITY MUD SAMPLE
 MST .F                50:   MUD SAMPLE TEMPERATURE
 RMF .OHMM           1.25:   RESISTIVITY MUD FILTRATE SAMPLE
 MFST.F                62:   MUD FILTRATE SAMPLE TEMPERATURE
 RMC .OHMM           1.65:   RESISTIVITY MUD CAKE
 MCST.F                61:   MUD CAKE SAMPLE TEMPERATURE
 MFSS.           MEASURED:   MUD FILTRATE SAMPLE SOURCE
 MCSS.           MEASURED:   MUD CAKE SAMPLE SOURCE
 RMB .OHMM            .93:   RESISTIVITY MUD AT BHT
 BHT .F                78:   BOTTOM HOLE TEMPERATURE
 TCS .HRS               6:   TIME CURCULATED STOPPED
 MRT .F                78:   MAXIMUM RECORDED TEMPERATURE
 LUN .               2958:   LOGGING UNIT NUMBER
 LUL .                CAS:   LOGGING UNIT LOCATION
 ENGI.             MILLER:   RECORDING ENGINEER
 WITN.           MCGINLEY:   WITNESSED BY
 CLNT.            A2DTECH:   CLIENT CODE
 ORIG.      2" , 5" PRINT:   ORIGIN OF DATA
 UWI .       490251061200:   UNIQUE WELL ID
 DICO. A2D Technologies, Inc.:   DIGITIZING COMPANY
~OTHER INFORMATION
~A   DEPT      SPR         SN        ILD       CALD         GRD      DPOR       CORR       RHOB   
# ...
 1207.5000   -28.4989    11.2361    10.9894     8.0208    44.6906     0.1187     0.1141     2.4355
 1208.0000   -28.3633    11.2932    11.0394     7.8901    45.7323     0.1148     0.1138     2.4430
 1208.5000   -28.2789    11.3506    11.0896     7.6686    44.6232     0.1170     0.1001     2.4506
 1209.0000   -28.2361    11.4082    11.1307     7.5735    42.9364     0.1192     0.0865     2.4542
 1209.5000   -28.1945    11.4431    11.2352     7.5439    43.0753     0.1208     0.0822     2.4541
 1210.0000   -28.1529    11.6563    11.4378     7.4816    43.5211     0.1155     0.0798     2.4530
 1210.5000   -28.1112    11.8735    11.7201     7.3748    43.9791     0.1088     0.0795     2.4548
 1211.0000   -28.0695    12.3200    11.9979     7.2682    44.4589     0.1056     0.0790     2.4648
 1211.5000   -28.0279    12.5495    12.2825     7.1621    44.5111     0.1044     0.0786     2.4746
 1212.0000   -27.9862    13.2448    12.5738     7.1498    44.4672     0.1036     0.0782     2.4728
 1212.5000   -27.9445    14.2687    12.6658     7.1633    43.6903     0.1024     0.0799     2.4725
 1213.0000   -27.9028    15.3717    12.6277     7.2193    42.9090     0.0984     0.0853     2.4757
 1213.5000   -27.8612    16.4005    12.5058     7.2736    40.2127     0.0946     0.0903     2.4798
 1214.0000   -27.8196    16.5526    12.3850     7.3255    34.7241     0.0908     0.0904     2.4876
 1214.5000   -27.7783    16.4005    12.2655     7.2264    29.2249     0.1024     0.0867     2.4939
 1215.0000   -27.7369    15.5628    12.1471     7.1599    25.4273     0.1164     0.0886     2.4688
 1215.5000   -27.6616    14.2111    12.0299     7.4053    26.8805     0.1216     0.1090     2.4410
 1216.0000   -27.3725    12.9769    11.6499     7.6493    32.1109     0.1228     0.1634     2.4159
 1216.5000   -27.0846    11.9509    11.1163     7.8925    37.3376     0.1236     0.2012     2.4149
 1217.0000   -26.8975    11.3375    10.6072     8.1398    37.9380     0.1198     0.1966     2.4440
 1217.5000   -26.9003    10.7558    10.1214     8.2449    37.7004     0.1183     0.1157     2.4329
 1218.0000   -26.8998    10.2435     9.8723     8.2712    38.3694     0.1489     0.0740     2.4109
 1218.5000   -26.9000     9.8723     9.7816     8.2732    38.8146     0.1410     0.0843     2.3919
 1219.0000   -26.9000     9.6037     9.8745     7.7834    38.2956     0.1304     0.0938     2.4149
 1219.5000   -26.9000     9.6179     9.8821     7.5592    37.7937     0.1285     0.0943     2.4229
 1220.0000   -26.9000     9.6280     9.8896     7.4109    38.2026     0.1264     0.0818     2.4288
 1220.5000   -26.9000     9.6382     9.8972     7.2634    39.4347     0.1315     0.0680     2.4328
 1221.0000   -26.9000     9.6483     9.9047     7.0981    40.6622     0.1383     0.0540     2.4245
 1221.5000   -26.9000     9.6585     9.9123     6.8558    41.5483     0.1421     0.0480     2.4156
 1222.0000   -26.9000     9.6687     9.9198     6.6289    42.2500     0.1422     0.0479     2.4066
 1222.5000   -26.9000     9.6789     9.9274     6.6718    42.9529     0.1402     0.0479     2.4021
 1223.0000   -26.9000     9.6891     9.9349     6.7936    43.6552     0.1381     0.0479     2.4020
 1223.5000   -26.9000     9.6993     9.9425     6.9171    44.2844     0.1361     0.0500     2.4033
 1224.0000   -26.9000     9.7095     9.9501     7.0311    43.8210     0.1346     0.0577     2.4065
 1224.5000   -26.9000     9.7197     9.9577     7.0757    42.8064     0.1332     0.0732     2.4099
 1225.0000   -26.9000     9.7300     9.9653     7.1176    41.8007     0.1318     0.0886     2.4168
 1225.5000   -26.9000     9.7402     9.9729     7.1599    40.7913     0.1285     0.1040     2.4239
 1226.0000   -26.9000     9.7505     9.9805     7.2014    39.7845     0.1240     0.1169     2.4336
 1226.5000   -26.9000     9.7608     9.9881     7.2142    38.7716     0.1196     0.0981     2.4440
 1227.0000   -26.9000     9.7712     9.9957     7.0795    38.3060     0.1215     0.0881     2.4260
 1227.5000   -26.9000     9.7806    10.0034     6.9446    39.4222     0.1179     0.0880     2.4375
 1228.0000   -26.9000     9.7746    10.0110     6.8087    42.2328     0.1056     0.0880     2.4568
 1228.5000   -26.9000     9.7672    10.0186     6.6749    45.0961     0.1048     0.0880     2.4694
 1229.0000   -26.9001     9.7599    10.0262     6.7049    46.2548     0.1040     0.0881     2.4709
 1229.5000   -26.9089     9.7526    10.0339     6.9449    46.9932     0.1032     0.0900     2.4722
 1230.0000   -26.9186     9.7454    10.0416     7.1832    48.1066     0.0988     0.0981     2.4741
 1230.5000   -26.9284     9.7381    10.0493     7.4232    49.4965     0.0936     0.1068     2.4773
 1231.0000   -26.9382     9.7309    10.0558     7.5094    49.1186     0.0885     0.1156     2.4893
 1231.5000   -26.9479     9.7237    10.0483     7.5317    47.5862     0.0827     0.1202     2.5009
 1232.0000   -26.9576     9.7164    10.0409     7.5180    46.1498     0.0880     0.1096     2.5153
 1232.5000   -26.9674     9.7092    10.0336     7.4988    45.7472     0.0941     0.0819     2.5057
 1233.0000   -26.9771     9.7020    10.0263     7.4794    44.9522     0.1002     0.0552     2.4911
 1233.5000   -26.9869     9.6948    10.0190     7.4601    44.0483     0.1068     0.0419     2.4764
 1234.0000   -26.9967     9.6875    10.0118     7.4409    43.1292     0.1062     0.0467     2.4657
 1234.5000   -27.0064     9.6803    10.0045     7.4399    42.1675     0.1004     0.0521     2.4728
 1235.0000   -27.0161     9.6731     9.9972     7.4625    44.1595     0.0983     0.0577     2.4822
 1235.5000   -27.0259     9.6659     9.9900     7.4849    46.5850     0.0972     0.0581     2.4840
 1236.0000   -27.0357     9.6587     9.9827     7.5074    48.9842     0.0942     0.0582     2.4852
 1236.5000   -27.0454     9.6516     9.9754     7.5061    49.1870     0.0916     0.0584     2.4899
 1237.0000   -27.0551     9.6444     9.9682     7.5014    45.7788     0.0924     0.0585     2.4963
 1237.5000   -27.0649     9.6372     9.9609     7.4968    44.0682     0.0931     0.0587     2.4923
 1238.0000   -27.0746     9.6300     9.9537     7.4921    45.4627     0.0911     0.0589     2.4910
 1238.5000   -27.0844     9.6229     9.9465     7.5206    48.1943     0.0873     0.0590     2.4972
 1239.0000   -27.0942     9.6158     9.9392     7.5803    49.8618     0.0835     0.0592     2.5035
 1239.5000   -27.1039     9.6086     9.9320     7.6400    50.6308     0.0811     0.0593     2.5098
 1240.0000   -27.1136     9.5987     9.9248     7.7000    51.3763     0.0822     0.0595     2.5159
 1240.5000   -27.1234     9.5749     9.9176     7.7597    52.1337     0.0831     0.0597     2.5135
 1241.0000   -27.1332     9.5513     9.9104     7.8116    51.9086     0.0831     0.0598     2.5116
 1241.5000   -27.1429     9.5277     9.9032     7.8098    50.7333     0.0831     0.0598     2.5106
 1242.0000   -27.1527     9.5042     9.8960     7.7961    50.6741     0.0831     0.0566     2.5139
 1242.5000   -27.1624     9.4808     9.8889     7.7415    50.9751     0.0831     0.0532     2.5136
 1243.0000   -27.1721     9.4574     9.8815     7.6800    51.0834     0.0831     0.0498     2.5109
 1243.5000   -27.1819     9.4341     9.8739     7.6247    50.6051     0.0831     0.0465     2.5115
 1244.0000   -27.1917     9.4109     9.8142     7.6025    50.2637     0.0842     0.0431     2.5139
 1244.5000   -27.2014     9.3877     9.7295     7.5797    51.6855     0.0890     0.0422     2.5099
 1245.0000   -27.2111     9.3645     9.6464     7.5567    52.6664     0.0935     0.0427     2.5049
 1245.5000   -27.2209     9.3405     9.5639     7.5331    51.9575     0.0935     0.0432     2.4998
 1246.0000   -27.2306     9.2622     9.4822     7.5492    52.9279     0.0940     0.0437     2.4948
 1246.5000   -27.2404     9.1812     9.4011     7.5724    53.9414     0.0940     0.0441     2.4931
 1247.0000   -27.2502     9.1008     9.3208     7.5958    54.9901     0.0943     0.0446     2.4920
 1247.5000   -27.2599     9.0212     9.2411     7.6191    53.1396     0.0951     0.0451     2.4909
