~VERSION INFORMATION
 VERS.                2.0:   CWLS LOG ASCII STANDARD - VERSION 2.0
 WRAP.                 NO:   ONE LINE PER DEPTH STEP
~WELL INFORMATION
#MNEM.UNIT      DATA TYPE    INFORMATION
#----------   ------------   ------------------------------
 STRT.F            0.0000:   START DEPTH
 STOP.F          883.0000:   STOP DEPTH
 STEP.F            0.5000:   STEP LENGTH
 NULL.          -999.2500:   NO VALUE
 COMP.       F D SERV INC:   COMPANY
 WELL. N P R 3 SX-35 #26-1-35:   WELL
 FLD .             TEAPOT:   FIELD
 LOC .      S35 T39N R78W:   LOCATION
 CNTY.            NATRONA:   COUNTY
 STAT.            WYOMING:   STATE
 CTRY. UNITED STATES OF AMERICA:   COUNTRY
 SRVC.     Atlas Wireline:   SERVICE COMPANY
 DATE.        21-NOV-1991:   LOGDATE
 API .       490252247800:   API NUMBER
~CURVE INFORMATION
#MNEM.UNIT       API CODE    CURVE DESCRIPTION
#----------   ------------   ------------------------------
 DEPT.F                  :   
 GRR .GAPI   07 310 01 00:   GAMMA RAY
 RILD.OHMM   07 120 46 00:   INDUCTION LOG DEEP RESISTIVITY
 RILM.OHMM   07 120 44 00:   INDUCTION LOG MEDIUM RESISTIVITY
 SPR .MV     07 010 01 00:   SPONTANEOUS POTENTIAL
 RFOC.OHMM   07 270 04 00:   RESISTIVITY FOCUSED LOG
~PARAMETER INFORMATION
#MNEM.UNIT          VALUE    DESCRIPTION
#----------   ------------   ------------------------------
 PD  .                 GL:   PERMANENT DATUM
 EPD .F              5098:   ELEVATION PERMANENT DATUM
 LMF .                 KB:   LOG MEASURED FROM
 DAPD.F                10:   FEET ABOVE PERMANENT DATUM
 DMF .                 KB:   DRILLING MEASURED FROM
 EKB .F              5108:   KELLING BUSHING
 EGL .F              5098:   GROUND LEVEL
 DATE.        21-NOV-1991:   RUN DATE
 RUN .                  1:   RUN NUMBER
 DD  .F               939:   DEPTH DRILLER
 DL  .F               887:   DEPTH LOGGER
 BLI .F               884:   BOTTOM LOG INTERVAL
 CS  .IN            9.625:   CASING SIZE
 CBD .F                40:   CASING BOTTOM DRILLER
 CBL .F                47:   CASING BOTTOM LOGGER
 BS  .IN             8.75:   BIT SIZE
 BSD .F               939:   BIT SIZE AT DEPTH
 DFT .               LSND:   DRILLING FLUID TYPE
 MSS .            MUDTANK:   MUD SAMPLE SOURCE
 RMS .OHMM           0.32:   RESISTIVITY MUD SAMPLE
 MST .F                90:   MUD SAMPLE TEMPERATURE
 RMB .OHMM           0.27:   RESISTIVITY MUD AT BHT
 BHT .F               103:   BOTTOM HOLE TEMPERATURE
 TCS .HRS               2:   TIME CURCULATED STOPPED
 MRT .F               103:   MAXIMUM RECORDED TEMPERATURE
 LUN .            HL 6307:   LOGGING UNIT NUMBER
 LUL .             CASPER:   LOGGING UNIT LOCATION
 ENGI.            WADDELL:   RECORDING ENGINEER
 WITN.             STRONG:   WITNESSED BY
 CLNT.            A2DTECH:   CLIENT CODE
 ORIG.           5" PRINT:   ORIGIN OF DATA
 UWI .       490252247800:   UNIQUE WELL ID
 DICO. A2D Technologies, Inc.:   DIGITIZING COMPANY
~OTHER INFORMATION
~A    DEPT      GRR      RILD       RILM        SPR       RFOC   
# ...
  610.0000   117.4490     5.7588     5.0640   -51.8968     6.6857
  610.5000   117.8960     5.8378     5.0723   -51.7524     6.6374
  611.0000   117.4270     5.9187     5.2272   -51.6470     6.7867
  611.5000   116.2779     5.9585     5.3370   -51.1264     6.9773
  612.0000   116.2184     5.9983     5.3357   -50.5253     7.1236
  612.5000   118.9873     6.0386     5.4096   -50.3794     7.1222
  613.0000   116.4698     6.0370     5.4085   -50.0597     7.0712
  613.5000   114.8655     6.0777     5.4075   -49.9358     7.0697
  614.0000   115.5373     6.0333     5.3647   -49.7899     7.0683
  614.5000   118.0301     6.0004     5.2561   -49.7973     7.1164
  615.0000   118.4771     5.9463     5.2185   -49.8031     7.1649
  615.5000   118.2357     5.9291     5.2174   -49.9607     7.1132
  616.0000   118.9256     5.8871     5.2897   -50.2701     7.0622
  616.5000   119.5794     5.8045     5.3258   -50.5809     6.9628
  617.0000   114.5581     5.7633     5.3620   -51.0420     6.8648
  617.5000   113.1813     5.7625     5.4363   -51.5031     6.9115
  618.0000   112.7151     5.7217     5.3971   -52.1159     6.8619
  618.5000   114.2974     5.7209     5.3212   -52.4252     6.8603
  619.0000   114.7420     5.7602     5.2098   -52.4311     6.9073
  619.5000   114.0478     5.7594     5.1725   -52.4370     6.9056
  620.0000   112.4127     5.7990     5.2442   -52.1408     6.8561
  620.5000   112.8849     5.8388     5.2799   -51.8159     6.8070
  621.0000   114.4673     5.8379     5.2788   -51.5440     6.8056
  621.5000   116.5048     5.7836     5.2775   -51.2464     6.7568
  622.0000   118.0899     5.7553     5.2032   -50.9502     6.7482
  622.5000   116.7104     5.6748     5.1660   -50.6526     6.7069
  623.0000   116.0166     5.5953     5.1649   -50.5067     6.7054
  623.5000   116.2332     5.5944     5.1279   -50.3608     6.7040
  624.0000   115.3090     5.5547     5.1990   -50.5199     6.7027
  624.5000   113.4770     5.5153     5.1977   -50.5257     6.6546
  625.0000   112.5583     5.5146     5.2333   -50.5316     6.6532
  625.5000   115.0483     5.5138     5.1956   -50.6892     6.6055
  626.0000   115.4953     5.5131     5.1946   -50.8468     6.5580
  626.5000   112.7501     5.5123     5.1574   -51.3080     6.5110
  627.0000   111.3733     5.4350     5.1204   -51.6187     6.4643
  627.5000   113.6358     5.3589     5.0484   -51.9280     6.3733
  628.0000   116.5839     5.2838     4.9425   -52.3891     6.3720
  628.5000   117.2585     5.1376     4.8730   -52.5467     6.3263
  629.0000   116.7895     5.0657     4.8044   -52.8561     6.3181
  629.5000   117.2337     4.9947     4.7368   -53.0137     6.2796
  630.0000   118.8160     4.8860     4.6054   -53.0197     6.1911
  630.5000   119.2603     4.7550     4.4777   -52.7011     6.0192
  631.0000   118.5023     4.6234     4.3175   -52.2740     5.8521
  631.5000   115.5936     4.5270     4.0872   -51.9749     5.6488
  632.0000   112.3960     4.4325     4.1439   -51.3752     5.2306
  632.5000   110.5640     4.4319     4.2172   -51.2291     5.0148
  633.0000   110.7806     4.3699     4.3100   -50.7800     5.4144
  633.5000   114.1839     4.3999     4.4100   -50.6341     5.9281
  634.0000   116.9044     4.4756     4.5024   -50.3379     6.0949
  634.5000   113.1633     4.6839     4.6209   -50.1905     6.0091
  635.0000   109.1433     4.8161     4.7590   -50.1979     5.9245
  635.5000   111.8609     4.9863     4.8587   -50.2037     6.0064
  636.0000   115.0366     5.0558     4.9606   -50.5131     6.2623
  636.5000   117.9846     5.0919     5.0646   -50.8225     6.3937
  637.0000   120.4774     5.1612     5.0991   -51.4367     6.3479
  637.5000   121.6237     5.1607     5.0273   -51.7460     6.1717
  638.0000   117.6751     5.1960     4.9170   -52.0554     6.1704
  638.5000   115.2064     5.1953     4.8188   -51.9090     6.1692
  639.0000   114.9678     5.1226     4.7180   -51.9154     6.1676
  639.5000   116.5501     5.0862     4.6192   -52.0730     6.1234
  640.0000   118.3601     5.0150     4.5862   -52.2408     6.0795
  640.5000   120.3976     4.9446     4.5853   -52.5414     5.9108
  641.0000   121.5247     4.8754     4.5843   -52.3955     5.8275
  641.5000   120.8239     4.8071     4.5513   -51.9461     5.8264
  642.0000   114.6347     4.5454     4.4560   -51.1932     5.8660
  642.5000   112.3842     4.2978     4.3022   -50.5921     5.8237
  643.0000   114.8770     4.0638     4.1249   -50.2944     5.6620
  643.5000   116.9146     3.7843     3.7662   -49.8451     5.5434
  644.0000   117.1339     3.6331     3.2976   -49.7007     5.2777
  644.5000   114.3888     3.5325     3.1396   -49.7065     4.8522
  645.0000   112.3292     3.5075     3.3424   -50.1676     4.3381
  645.5000   112.0906     3.5317     3.4847   -50.7804     3.7669
  646.0000   115.4911     3.6566     3.6585   -50.8225     3.6668
  646.5000   117.7563     3.8661     3.8410   -50.8240     4.9508
  647.0000   118.4309     4.0661     4.0326   -50.8255     5.6922
  647.5000   115.6857     4.3218     4.2043   -50.8270     5.8527
  648.0000   113.8537     4.5695     4.3250   -51.1323     5.9752
  648.5000   115.2084     4.7978     4.5064   -51.5890     5.9324
  649.0000   114.1991     4.9676     4.6331   -52.0457     5.8899
  649.5000   108.1529     5.1434     4.7636   -52.1989     5.9716
  650.0000   102.8832     5.2883     4.8632   -52.2004     6.1393
  650.5000   110.6011     5.3675     4.8963   -52.2019     6.3563
  651.0000   114.9221     5.4367     4.8612   -52.2034     6.4896
  651.5000   114.0007     5.4738     4.8943   -52.2049     6.5800
  652.0000   116.4934     5.5116     4.9621   -52.0364     6.5826
  652.5000   118.9890     5.5495     4.9959   -51.6012     6.5747
  653.0000   119.2028     5.6048     5.0651   -51.2992     6.5756
  653.5000   116.9157     5.6663     5.1353   -50.9968     6.6204
  654.0000   112.8017     5.7442     5.2428   -50.6952     6.6655
  654.5000   112.1116     5.7032     5.3901   -50.6966     6.7579
  655.0000   113.6939     5.7426     5.5082   -50.6981     6.8040
  655.5000   117.3247     5.7417     5.6185   -50.6995     6.7549
  656.0000   120.0451     5.7409     5.5392   -50.8528     6.7535
  656.5000   121.1768     5.7804     5.3855   -51.1578     6.7991
  657.0000   117.6494     5.8201     5.2781   -51.7666     6.7980
  657.5000   111.5874     5.8191     5.4647   -52.2233     6.8444
  658.0000   113.6249     5.8593     5.6187   -52.5283     6.9390
  658.5000   116.3453     5.8583     5.6971   -52.6815     6.9862
  659.0000   117.0199     5.8568     5.7363   -52.6830     7.0338
  659.5000   114.7299     5.8507     5.6164   -52.6844     7.0323
  660.0000   111.3046     5.8477     5.4610   -52.5341     6.9816
  660.5000   110.3831     5.8058     5.3801   -52.2322     6.9316
  661.0000   114.6880     5.8046     5.3089   -52.0819     6.7392
  661.5000   119.0078     5.7624     5.3082   -51.7799     6.5521
  662.0000   115.5825     5.7217     5.2339   -51.3261     6.4598
  662.5000   114.8914     5.6805     5.1606   -50.8727     6.4585
  663.0000   118.0642     5.6400     5.1240   -50.4190     6.4095
  663.5000   119.8741     5.5605     5.0171   -49.9648     6.3216
  664.0000   119.1803     5.5207     4.8443   -49.5114     6.2326
  664.5000   118.0311     5.3675     4.6742   -49.0577     6.1325
  665.0000   119.4460     5.2186     4.5059   -48.7456     5.8095
  665.5000   120.5129     5.0738     4.2702   -48.6054     5.6089
  666.0000   118.6781     4.7241     3.9817   -48.9107     5.3400
  666.5000   119.3500     4.0560     3.6357   -49.2157     5.0487
  667.0000   120.2494     3.4535     3.2966   -49.5207     4.8404
  667.5000   120.0107     2.9611     2.8268   -49.9774     4.6407
  668.0000   118.4064     2.5567     2.4239   -50.2823     4.3569
  668.5000   116.1191     2.1769     2.1825   -50.5873     3.9660
  669.0000   115.1639     1.9738     1.7947   -50.7405     3.4339
  669.5000   115.6391     1.8792     1.7820   -50.8938     2.7453
  670.0000   114.7176     1.8144     1.7693   -50.7435     2.2101
  670.5000   111.7476     1.8410     1.7431   -50.7453     2.1338
