~VERSION INFORMATION
 VERS.                2.0:   CWLS LOG ASCII STANDARD - VERSION 2.0
 WRAP.                 NO:   ONE LINE PER DEPTH STEP
~WELL INFORMATION
#MNEM.UNIT      DATA TYPE    INFORMATION
#----------   ------------   ------------------------------
 STRT.F            2.0000:   START DEPTH
 STOP.F          547.0000:   STOP DEPTH
 STEP.F            0.5000:   STEP LENGTH
 NULL.          -999.2500:   NO VALUE
 COMP. LAWRENCE/ALLISON INC:   COMPANY
 WELL. NPR # #3 68-61-SX-10:   WELL
 FLD .             TEAPOT:   FIELD
 LOC .      S10 T38N R78W:   LOCATION
 CNTY.            NATRONA:   COUNTY
 STAT.            WYOMING:   STATE
 CTRY. UNITED STATES OF AMERICA:   COUNTRY
 SRVC.           Gearhart:   SERVICE COMPANY
 DATE.        24-JUN-1987:   LOGDATE
 API .       490251114500:   API NUMBER
~CURVE INFORMATION
#MNEM.UNIT       API CODE    CURVE DESCRIPTION
#----------   ------------   ------------------------------
 DEPT.F                  :   
 GRR .GAPI   07 310 01 00:   GAMMA RAY FROM RES. LOG.
 RILD.OHMM   07 120 46 00:   INDUCTION LOG DEEP RESISTIVITY
 RILM.OHMM   07 120 44 00:   INDUCTION LOG MEDIUM RESISTIVITY
~PARAMETER INFORMATION
#MNEM.UNIT          VALUE    DESCRIPTION
#----------   ------------   ------------------------------
 PD  .                 GL:   PERMANENT DATUM
 EPD .F              5203:   ELEVATION PERMANENT DATUM
 LMF .                 KB:   LOG MEASURED FROM
 DAPD.F                 8:   FEET ABOVE PERMANENT DATUM
 DMF .                 KB:   DRILLING MEASURED FROM
 EKB .F              5211:   KELLING BUSHING
 EDF .F              5209:   DRILLING FLOOR
 EGL .F              5203:   GROUND LEVEL
 DATE.            6-24-87:   RUN DATE
 RUN .                  1:   RUN NUMBER
 DD  .F               565:   DEPTH DRILLER
 DL  .F               557:   DEPTH LOGGER
 BLI .F               549:   BOTTOM LOG INTERVAL
 TLI .F                48:   TOP LOG INTERVAL
 CS  .IN            8.625:   CASING SIZE
 CBD .F                50:   CASING BOTTOM DRILLER
 CBL .F                48:   CASING BOTTOM LOGGER
 BS  .IN             7.87:   BIT SIZE
 BSD .F               565:   BIT SIZE AT DEPTH
 DFT .                AIR:   DRILLING FLUID TYPE
 TCS .HRS            0715:   TIME CURCULATED STOPPED
 TLAB.HRS            0904:   TIME LOGGER AT BOTTOM
 LUN .               7597:   LOGGING UNIT NUMBER
 LUL .           GILLETTE:   LOGGING UNIT LOCATION
 ENGI.           JOHNSTON:   RECORDING ENGINEER
 CLNT.            A2DTECH:   CLIENT CODE
 ORIG.       2", 5" PRINT:   ORIGIN OF DATA
 UWI .       490251114500:   UNIQUE WELL ID
 DICO. A2D Technologies, Inc.:   DIGITIZING COMPANY
~OTHER INFORMATION
~A    DEPT      GRR      RILD       RILM   
# ...
  275.0000   109.4031     5.5708     5.1513
  275.5000   114.5089     5.7798     5.2707
  276.0000   118.0690     6.0522     5.4920
  276.5000   120.3224     6.3317     5.7961
  277.0000   119.0766     6.5997     6.1162
  277.5000   117.0049     6.8790     6.4538
  278.0000   114.7682     7.1701     6.8100
  278.5000   112.9816     7.4735     7.1038
  279.0000   112.0221     7.7897     7.3874
  279.5000   111.7904     8.0752     7.6823
  280.0000   111.6872     8.1687     7.9890
  280.5000   111.5890     8.2633     8.1087
  281.0000   111.4857     8.3590     8.1739
  281.5000   111.8459     8.4388     8.2396
  282.0000   112.5683     8.4546     8.3059
  282.5000   112.7149     8.4708     8.3613
  283.0000   111.7490     8.4871     8.2821
  283.5000   110.8035     8.5032     8.2151
  284.0000   109.8434     8.5173     8.1330
  284.5000   109.4016     8.5550     8.2192
  285.0000   111.3507     8.5959     8.3335
  285.5000   113.8273     8.5962     8.3613
  286.0000   115.7534     8.5618     8.3270
  286.5000   116.0571     8.5258     8.2820
  287.0000   115.4265     8.4900     8.2373
  287.5000   114.7799     8.4543     8.1330
  288.0000   115.3410     8.4384     8.1330
  288.5000   116.2144     8.6258     8.2859
  289.0000   115.5530     8.7672     8.4577
  289.5000   113.8537     8.9193     8.7437
  290.0000   110.2474     9.0053     9.0394
  290.5000   107.4087     8.3684     9.3451
  291.0000   106.7230     7.9112     9.4271
  291.5000   107.3208     7.4795     8.3349
  292.0000   109.5468     7.0717     7.3073
  292.5000   112.4831     6.6385     6.4064
  293.0000   117.4549     6.5127     5.6165
  293.5000   124.9895     6.5336     5.2207
  294.0000   131.2262     6.5674     4.9410
  294.5000   125.3444     6.6019     5.5489
  295.0000   117.2563     6.6385     6.2915
  295.5000   109.0057     7.3282     7.0099
  296.0000   106.2320     8.1595     7.7573
  296.5000   106.6046     9.0851     8.5844
  297.0000   108.1752     9.9939     9.4997
  297.5000   109.7631    10.2660     9.9758
  298.0000   109.8373    10.5455    10.3385
  298.5000   108.6280    10.6287    10.3131
  299.0000   107.4557    10.7773    10.2632
  299.5000   108.0381    10.9419    10.2136
  300.0000   108.6732    11.3521    10.1642
  300.5000   106.8923    12.0255    10.1494
  301.0000   104.1936    12.7394    11.1050
  301.5000    95.2328    13.4956    11.9860
  302.0000    86.6236    14.6883    13.5650
  302.5000    78.9144    16.4244    15.3520
  303.0000    73.0425    18.3657    17.3743
  303.5000    68.3896    20.5365    19.9079
  304.0000    66.8095    22.4715    22.6939
  304.5000    64.7594    24.3613    26.2490
  305.0000    61.2030    25.7781    29.7423
  305.5000    57.7302    27.0388    31.3322
  306.0000    55.9854    28.2368    32.4677
  306.5000    58.4302    29.5117    32.2586
  307.0000    61.1311    30.1443    32.1694
  307.5000    62.5981    30.5260    33.8302
  308.0000    57.8327    30.7187    34.6343
  308.5000    53.1462    30.8465    34.9555
  309.0000    51.8405    31.0035    34.8347
  309.5000    54.4108    31.2188    34.5944
  310.0000    58.4861    31.5291    34.3558
  310.5000    62.6524    31.8739    34.1188
  311.0000    62.1626    31.5602    33.8835
  311.5000    61.3209    31.2154    33.6496
  312.0000    60.4347    30.8743    33.4168
  312.5000    61.9833    30.5370    33.1897
  313.0000    62.9725    30.0458    33.0739
  313.5000    63.2503    29.4963    33.0386
  314.0000    63.1904    28.9569    33.1221
  314.5000    65.4159    28.4273    29.1714
  315.0000    67.8460    27.9074    28.6379
  315.5000    70.3520    27.3970    28.0106
  316.0000    70.5094    27.2457    28.4255
  316.5000    70.2193    27.7350    28.9488
  317.0000    69.5281    28.2889    29.4817
  317.5000    68.2974    28.8538    30.0245
  318.0000    65.6719    29.4302    30.5773
  318.5000    63.0500    30.0189    31.1402
  319.0000    62.0229    30.6233    31.7135
  319.5000    63.5951    31.3040    32.2974
  320.0000    65.7096    30.9820    32.8920
  320.5000    67.8389    30.5256    33.0725
  321.0000    69.9572    30.0801    32.6178
  321.5000    70.7153    29.6141    31.7271
  322.0000    71.0499    29.8897    30.8608
  322.5000    71.1353    28.9066    30.0181
  323.0000    70.5098    28.2857    29.1984
  323.5000    70.1388    27.6781    28.4011
  324.0000    70.4002    27.0835    27.7213
  324.5000    71.4773    26.5018    27.1516
  325.0000    72.8515    25.9325    26.5936
  325.5000    74.1070    25.3754    26.0471
  326.0000    73.5593    24.8303    25.5118
  326.5000    73.5751    24.2970    24.9875
  327.0000    74.1932    23.7750    24.4740
  327.5000    75.6660    23.2643    23.9711
  328.0000    77.0872    22.7646    23.4784
  328.5000    78.0194    22.2756    22.9959
  329.0000    77.5289    22.0351    22.5234
  329.5000    77.4809    21.7388    22.0605
  330.0000    78.1012    21.4729    21.8326
  330.5000    79.6791    21.2365    21.9428
  331.0000    81.2264    21.2365    22.0166
  331.5000    81.8426    21.3246    22.0906
  332.0000    81.5646    21.4051    22.1649
  332.5000    80.3980    21.4859    22.2393
  333.0000    79.7151    21.5670    22.3141
  333.5000    80.8018    21.6484    22.3891
  334.0000    82.0102    21.7301    22.4644
  334.5000    81.5358    21.8121    22.5403
  335.0000    79.5416    21.8944    22.6556
  335.5000    78.4968    21.9770    22.5501
  336.0000    80.2065    22.0351    22.3466
  336.5000    81.7897    21.8156    22.1442
  337.0000    82.9471    21.6180    21.9436
  337.5000    83.0715    21.4222    21.7448
  338.0000    80.3049    21.2282    21.5479
  338.5000    77.2467    21.0359    21.3527
  339.0000    76.4447    20.8454    21.1593
  339.5000    78.8616    20.6566    20.9677
  340.0000    81.5052    20.4695    20.7777
  340.5000    84.2527    20.2841    20.5896
  341.0000    84.1150    20.1003    20.4031
  341.5000    82.4911    19.9183    20.2183
  342.0000    80.8860    19.7379    20.0351
  342.5000    79.8603    19.5578    19.9057
  343.0000    80.5569    19.3610    19.9087
  343.5000    81.1974    19.3609    19.9079
  344.0000    81.8425    19.5258    19.9079
  344.5000    82.4714    19.7069    19.9110
  345.0000    82.7485    19.8896    19.8212
  345.5000    81.9470    20.0925    19.7010
  346.0000    81.1853    20.0163    19.5422
  346.5000    80.5832    19.9079    19.5463
  347.0000    82.1646    19.8001    19.2041
  347.5000    83.7352    19.6731    19.0277
  348.0000    85.0526    19.5011    18.8529
  348.5000    84.7486    19.3305    18.6797
  349.0000    83.8389    19.1614    18.5081
  349.5000    83.6919    18.9938    18.3212
  350.0000    84.4009    18.8277    18.2789
  350.5000    83.1231    18.6630    18.2319
  351.0000    81.1152    18.4998    18.1851
  351.5000    79.4085    18.3380    17.9861
  352.0000    78.1410    18.1776    17.5773
  352.5000    78.7702    18.0186    17.2412
  353.0000    79.4739    17.8610    16.9116
  353.5000    80.6612    17.7048    16.5883
  354.0000    81.7247    17.5500    16.2499
  354.5000    81.4165    17.3965    16.1050
  355.0000    80.5567    17.1750    16.0960
  355.5000    79.4927    17.1938    16.2437
  356.0000    78.4463    17.2285    16.3517
  356.5000    78.0787    17.2632    16.4603
  357.0000    79.3169    17.2980    16.5696
  357.5000    80.4944    17.3358    16.6796
  358.0000    80.5470    17.3343    16.7061
  358.5000    78.0247    17.0199    16.7061
  359.0000    75.4441    16.7542    16.5018
  359.5000    76.1146    16.4926    16.2085
  360.0000    79.4374    16.2351    15.9204
  360.5000    82.9716    15.9817    15.6375
  361.0000    85.7632    15.7322    15.3594
  361.5000    86.0834    15.4866    15.0861
  362.0000    84.4236    15.2449    14.8176
  362.5000    82.9382    15.0069    14.6396
  363.0000    83.3077    14.7726    14.4640
  363.5000    83.6413    14.6518    14.2902
  364.0000    84.5413    14.6034    14.1187
  364.5000    86.6122    14.5463    14.0191
  365.0000    88.8220    14.7443    14.1699
  365.5000    88.2754    14.8471    14.2775
