~VERSION INFORMATION
 VERS.                2.0:   CWLS LOG ASCII STANDARD - VERSION 2.0
 WRAP.                 NO:   ONE LINE PER DEPTH STEP
~WELL INFORMATION
#MNEM.UNIT      DATA TYPE    INFORMATION
#----------   ------------   ------------------------------
 STRT.F           40.0000:   START DEPTH
 STOP.F          876.5000:   STOP DEPTH
 STEP.F            0.5000:   STEP LENGTH
 NULL.          -999.2500:   NO VALUE
 COMP. FENIX & SCISSON INC:   COMPANY
 WELL.     NPR 3 #41-S-14:   WELL
 FLD .             TEAPOT:   FIELD
 LOC .      S14 T38N R78W:   LOCATION
 CNTY.            NATRONA:   COUNTY
 STAT.            WYOMING:   STATE
 CTRY. UNITED STATES OF AMERICA:   COUNTRY
 SRVC.            Unknown:   SERVICE COMPANY
 DATE.        12-MAR-1978:   LOGDATE
 API .       490251060200:   API NUMBER
~CURVE INFORMATION
#MNEM.UNIT       API CODE    CURVE DESCRIPTION
#----------   ------------   ------------------------------
 DEPT.F                  :   
 CALD.IN     45 280 60 00:   CALIPER FROM DENSITY LOG
 GRD .GAPI   45 310 01 00:   GAMMA RAY FROM DENSITY LOG
 RHOB.G/C3   45 350 01 00:   BULK DENSITY
 DPHI.DEC    45 890 12 00:   DENSITY POROSITY SANDSTONE
 CORR.G/C3   45 356 01 00:   DENSITY CORRECTION
 SPR .MV     05 010 01 00:   SPONTANEOUS POTENTIAL FROM RES.
 IL  .OHMM   05 120 00 00:   INDUCTION LOG
 SN  .OHMM   05 040 16 00:   SHORT NORMAL 16"
~PARAMETER INFORMATION
#MNEM.UNIT          VALUE    DESCRIPTION
#----------   ------------   ------------------------------
 PD  .                 GL:   PERMANENT DATUM
 EPD .F              5211:   ELEVATION PERMANENT DATUM
 LMF .                 KB:   LOG MEASURED FROM
 DMF .                 KB:   DRILLING MEASURED FROM
 EKB .F              5215:   KELLING BUSHING
 EGL .F              5211:   GROUND LEVEL
 DATE.            3-12-78:   RUN DATE
 RUN .                  1:   RUN NUMBER
 DD  .F               870:   DEPTH DRILLER
 DL  .F               872:   DEPTH LOGGER
 BLI .F               866:   BOTTOM LOG INTERVAL
 TLI .F                50:   TOP LOG INTERVAL
 CS  .IN            8.625:   CASING SIZE
 CBD .F                40:   CASING BOTTOM DRILLER
 CBL .F                40:   CASING BOTTOM LOGGER
 BS  .IN            7.875:   BIT SIZE
 BSD .F               870:   BIT SIZE AT DEPTH
 DFT .                KCL:   DRILLING FLUID TYPE
 DFD .                8.6:   DRILLING FLUID DENSITY
 DFV .                 33:   DRILLING FLUID VISCOSITY
 DFPH.                 10:   DRILLING FLUID PH
 DFL .               12.1:   DRILLING FLUID LOSS
 MSS .           FLOWLINE:   MUD SAMPLE SOURCE
 RMS .OHMM            .32:   RESISTIVITY MUD SAMPLE
 MST .F                54:   MUD SAMPLE TEMPERATURE
 RMF .OHMM            .36:   RESISTIVITY MUD FILTRATE SAMPLE
 MFST.F                55:   MUD FILTRATE SAMPLE TEMPERATURE
 RMC .OHMM             .5:   RESISTIVITY MUD CAKE
 MCST.F                56:   MUD CAKE SAMPLE TEMPERATURE
 MFSS.           MEASURED:   MUD FILTRATE SAMPLE SOURCE
 MCSS.           MEASURED:   MUD CAKE SAMPLE SOURCE
 RMB .OHMM            .24:   RESISTIVITY MUD AT BHT
 BHT .F                72:   BOTTOM HOLE TEMPERATURE
 TCS .HRS               4:   TIME CURCULATED STOPPED
 MRT .F                72:   MAXIMUM RECORDED TEMPERATURE
 LUN .               2958:   LOGGING UNIT NUMBER
 LUL .               CASP:   LOGGING UNIT LOCATION
 ENGI.             MILLER:   RECORDING ENGINEER
 WITN.         HARRINGTON:   WITNESSED BY
 CLNT.            A2DTECH:   CLIENT CODE
 ORIG.        2" 5" PRINT:   ORIGIN OF DATA
 UWI .       490251060200:   UNIQUE WELL ID
 DICO. A2D Technologies, Inc.:   DIGITIZING COMPANY
~OTHER INFORMATION
~A   DEPT     CALD         GRD      RHOB       DPHI       CORR        SPR         IL         SN   
# ...
  242.5000     8.1845    82.7362     2.4254     0.1216     0.0107   -55.7761     6.2416     7.0081
  243.0000     8.1845    82.9204     2.4232     0.1234     0.0094   -55.7761     6.2380     7.0013
  243.5000     8.1845    85.3266     2.4160     0.1279     0.0082   -55.7760     6.2344     6.9945
  244.0000     8.1845    90.4007     2.4090     0.1320     0.0069   -55.7757     6.2308     6.9877
  244.5000     8.1845    92.3596     2.4060     0.1314     0.0065   -55.7761     6.2272     6.9809
  245.0000     8.1845    89.1020     2.4084     0.1310     0.0065   -55.7775     6.2236     6.9741
  245.5000     8.1845    85.8361     2.4103     0.1304     0.0065   -55.9202     6.2200     6.9673
  246.0000     8.1845    85.7183     2.4155     0.1286     0.0065   -56.2953     6.2164     6.9605
  246.5000     8.1845    86.0151     2.4215     0.1235     0.0063   -56.6618     6.2128     6.9538
  247.0000     8.1845    87.4619     2.4249     0.1237     0.0053   -56.8958     6.2092     6.9470
  247.5000     8.1845    90.6255     2.4215     0.1253     0.0042   -56.3008     6.2056     6.9402
  248.0000     8.1845    92.8794     2.4179     0.1270     0.0032   -56.4256     6.2020     6.9335
  248.5000     8.1845    90.6950     2.4143     0.1286     0.0026   -56.7457     6.1984     6.9264
  249.0000     8.1845    88.9386     2.4107     0.1304     0.0035   -56.9137     6.1949     6.9159
  249.5000     8.1845    88.1228     2.4067     0.1303     0.0044   -56.6813     6.1913     6.9107
  250.0000     8.1845    85.1764     2.4074     0.1302     0.0030   -56.3908     6.1879     6.9937
  250.5000     8.1845    88.3147     2.4084     0.1300     0.0005   -56.0372     6.2120     7.0176
  251.0000     8.1845    92.4672     2.4049     0.1354     0.0037   -55.8242     6.2397     7.0417
  251.5000     8.1845    92.4852     2.4019     0.1364     0.0074   -56.0541     6.2675     7.0658
  252.0000     8.1845    88.7081     2.4067     0.1333     0.0085   -56.1369     6.2954     7.0900
  252.5000     8.1845    84.7872     2.4140     0.1288     0.0090   -56.0541     6.3235     7.1142
  253.0000     8.1845    84.5217     2.4209     0.1253     0.0095   -55.9781     6.3516     7.1386
  253.5000     8.1845    85.1547     2.4237     0.1236     0.0100   -55.9780     6.3799     7.1729
  254.0000     8.1845    86.1401     2.4239     0.1288     0.0108   -55.9646     6.4202     7.1513
  254.5000     8.1825    87.0990     2.4203     0.1268     0.0196   -55.5705     6.4013     7.1152
  255.0000     8.1791    87.2319     2.4115     0.1327     0.0288   -55.1633     6.3690     7.0793
  255.5000     8.1757    87.3097     2.4028     0.1365     0.0306   -54.7546     6.3369     7.0435
  256.0000     8.1724    86.4284     2.4043     0.1316     0.0319   -54.6225     6.3027     7.0080
  256.5000     8.1690    84.5940     2.3948     0.1372     0.0372   -54.7702     6.4202     6.9613
  257.0000     8.1652    83.7224     2.3819     0.1441     0.0491   -54.1710     6.4798     6.8328
  257.5000     8.1755    80.7799     2.3764     0.1477     0.0737   -54.2776     6.3977     6.7067
  258.0000     8.1900    77.4434     2.3932     0.1396     0.0935   -55.1872     6.2822     6.5829
  258.5000     8.2048    75.2327     2.4151     0.1280     0.0570   -56.0986     6.1688     6.4613
  259.0000     8.2200    75.2125     2.4157     0.1427     0.0175   -56.6135     6.0182     6.1454
  259.5000     8.2241    75.2185     2.3745     0.1629     0.0030   -56.7068     5.5001     5.7497
  260.0000     8.2242    75.5614     2.3326     0.1830     0.0043   -56.8369     4.7294     5.3867
  260.5000     8.2242    77.2876     2.2907     0.2032     0.0032   -57.0911     3.9934     4.7814
  261.0000     8.2242    80.9939     2.2488     0.2217     0.0067   -57.3273     3.3719     4.2542
  261.5000     8.2242    89.1172     2.2043     0.2533     0.0244   -56.9434     2.9948     3.7851
  262.0000     8.2241   100.3894     2.1593     0.2826     0.0522   -54.8671     2.8853     3.3677
  262.5000     8.2247   104.8165     2.1142     0.2982     0.1180   -52.8424     2.7946     3.0946
  263.0000     8.2438   100.0250     2.0801     0.2982     0.1590   -51.0812     2.7949     3.2449
  263.5000     8.2633    92.9869     2.0962     0.2435     0.0912   -51.8408     2.9578     3.5409
  264.0000     8.2641    88.8151     2.2155     0.1911     0.0147   -54.1094     3.0683     3.9208
  264.5000     8.2643    88.5487     2.3549     0.1515    -0.0055   -53.9755     3.4453     4.8891
  265.0000     8.2646    80.7876     2.4074     0.1300    -0.0051   -53.9808     4.1906     6.0965
  265.5000     8.2649    72.1730     2.4173     0.1254    -0.0020   -53.9809     5.3099     7.2066
  266.0000     8.2652    73.3724     2.4089     0.1265     0.0006   -53.9809     7.0424     8.0257
  266.5000     8.2655    75.9339     2.4128     0.1277    -0.0010   -53.9818     8.4929     8.7360
  267.0000     8.2657    75.8721     2.4132     0.1296    -0.0030   -54.1839     8.7086     8.8710
  267.5000     8.2660    75.6805     2.4104     0.1366    -0.0050   -54.5894     8.2896     8.7086
  268.0000     8.2663    75.5197     2.3953     0.1437    -0.0054   -54.9964     7.6545     8.4199
  268.5000     8.2666    75.7203     2.3788     0.1503    -0.0049   -55.3699     7.0090     8.0757
  269.0000     8.2669    79.1584     2.3678     0.1557    -0.0044   -55.3546     6.1839     7.6041
  269.5000     8.2672    85.3202     2.3603     0.1611    -0.0039   -56.0713     5.6413     6.9421
  270.0000     8.2675    91.4537     2.3444     0.1701    -0.0021   -56.8792     5.6670     6.3377
  270.5000     8.2678    97.5645     2.3254     0.1822     0.0110   -57.3590     5.7136     5.9628
  271.0000     8.2681    99.7387     2.3064     0.1942     0.0247   -57.2346     5.7475     6.1599
  271.5000     8.2684    89.2989     2.2936     0.1941     0.0254   -55.5855     5.8014     6.5577
  272.0000     8.2687    80.5381     2.3247     0.1803     0.0133   -53.2759     5.9847     7.4078
  272.5000     8.2690    72.8555     2.3548     0.1649     0.0044   -52.4624     6.4582     8.4260
  273.0000     8.2693    73.2917     2.3846     0.1495     0.0045   -51.7752     7.2039     9.1620
  273.5000     8.2696    73.8108     2.4020     0.1382     0.0045   -50.9062     8.0336     9.4395
  274.0000     8.2698    74.3746     2.4004     0.1404     0.0045   -50.6953     8.9587     9.7254
  274.5000     8.2701    74.9379     2.3969     0.1412     0.0045   -50.4870     9.6392    10.0199
  275.0000     8.2704    75.4067     2.3932     0.1412     0.0037   -49.6303     9.8694    10.3240
  275.5000     8.2707    75.7667     2.3890     0.1433     0.0025   -48.7619    10.1042    10.6373
  276.0000     8.2710    75.6877     2.3840     0.1459     0.0013   -47.9064    10.3423    10.8858
  276.5000     8.2713    74.9533     2.3790     0.1485     0.0008   -47.6587    10.5854    11.0854
  277.0000     8.2716    73.5443     2.3759     0.1511     0.0018   -47.4689    10.8345    11.2055
  277.5000     8.2719    75.3995     2.3732     0.1533     0.0027   -46.7522    11.0895    11.2600
  278.0000     8.2722    77.5387     2.3709     0.1535     0.0037   -46.4784    11.3503    11.3146
  278.5000     8.2725    77.4813     2.3719     0.1537     0.0046   -46.3351    11.6174    11.3696
  279.0000     8.2728    77.1601     2.3718     0.1537     0.0056   -46.2033    11.8907    11.4248
  279.5000     8.2731    76.8358     2.3721     0.1537     0.0065   -46.2999    11.9803    11.4803
  280.0000     8.2734    76.4896     2.3744     0.1526     0.0075   -46.4050    12.0659    11.5361
  280.5000     8.2737    73.5144     2.3800     0.1504     0.0084   -46.5091    12.1521    11.5921
  281.0000     8.2739    71.1280     2.3843     0.1484     0.0074   -46.6129    12.2388    11.6487
  281.5000     8.2742    73.5229     2.3883     0.1470     0.0062   -46.7165    12.3262    11.7044
  282.0000     8.2745    79.0808     2.3891     0.1456     0.0049   -46.8200    12.4143    11.8589
  282.5000     8.2748    85.5114     2.4017     0.1433     0.0037   -46.9262    12.5171    12.0125
