~VERSION INFORMATION
 VERS.                2.0:   CWLS LOG ASCII STANDARD - VERSION 2.0
 WRAP.                 NO:   ONE LINE PER DEPTH STEP
~WELL INFORMATION
#MNEM.UNIT      DATA TYPE    INFORMATION
#----------   ------------   ------------------------------
 STRT.F           38.0000:   START DEPTH
 STOP.F          637.0000:   STOP DEPTH
 STEP.F            0.5000:   STEP LENGTH
 NULL.          -999.2500:   NO VALUE
 COMP. FENIX & SCISSON INC:   COMPANY
 WELL.    NPR ##3 57-S-34:   WELL
 FLD .             TEAPOT:   FIELD
 LOC .      S34 T39N R78W:   LOCATION
 CNTY.            NATRONA:   COUNTY
 STAT.            WYOMING:   STATE
 CTRY. UNITED STATES OF AMERICA:   COUNTRY
 SRVC.              Welex:   SERVICE COMPANY
 DATE.        12-MAR-1977:   LOGDATE
 API .       490251030600:   API NUMBER
~CURVE INFORMATION
#MNEM.UNIT       API CODE    CURVE DESCRIPTION
#----------   ------------   ------------------------------
 DEPT.F                  :   
 SPR .MV     07 010 01 00:   SPONTANEOUS POTENTIAL
 ILM .OHMM   07 120 44 00:   INDUCTION LOG MEDIUM
 ILD .OHMM   07 120 46 00:   INDUCTION LOG DEEP
 SGRD.OHMM   07 221 05 00:   SHALLOW SHORT GUARD RESISTIVITY
 CALD.IN     45 280 60 00:   CALIPER FROM DENSITY LOG
 GRD .GAPI   45 310 01 00:   GAMMA RAY FROM DENSITY LOG
 CORR.G/C3   45 356 01 00:   DENSITY CORRECTION
 DPHI.DEC    45 890 12 00:   DENSITY POROSITY SANDSTONE
 RHOB.G/C3   45 350 01 00:   BULK DENSITY
~PARAMETER INFORMATION
#MNEM.UNIT          VALUE    DESCRIPTION
#----------   ------------   ------------------------------
 PD  .                 GL:   PERMANENT DATUM
 EPD .F              5107:   ELEVATION PERMANENT DATUM
 LMF .                 GL:   LOG MEASURED FROM
 DMF .                 GL:   DRILLING MEASURED FROM
 EGL .F              5107:   GROUND LEVEL
 DATE.          3-12-1977:   RUN DATE
 RUN .                  1:   RUN NUMBER
 DD  .F               650:   DEPTH DRILLER
 DL  .F               637:   DEPTH LOGGER
 BLI .F               636:   BOTTOM LOG INTERVAL
 TLI .F                46:   TOP LOG INTERVAL
 CS  .IN            8.625:   CASING SIZE
 CBD .F                45:   CASING BOTTOM DRILLER
 CBL .F                46:   CASING BOTTOM LOGGER
 BS  .IN            7.875:   BIT SIZE
 BSD .F               650:   BIT SIZE AT DEPTH
 DFT .            KCL MUD:   DRILLING FLUID TYPE
 DFD .                8.9:   DRILLING FLUID DENSITY
 DFV .                 35:   DRILLING FLUID VISCOSITY
 MSS .            MUD PIT:   MUD SAMPLE SOURCE
 RMS .OHMM            .53:   RESISTIVITY MUD SAMPLE
 MST .F                68:   MUD SAMPLE TEMPERATURE
 RMF .OHMM            .41:   RESISTIVITY MUD FILTRATE SAMPLE
 MFST.F                69:   MUD FILTRATE SAMPLE TEMPERATURE
 RMC .OHMM            .62:   RESISTIVITY MUD CAKE
 MCST.F                65:   MUD CAKE SAMPLE TEMPERATURE
 MFSS.           MEASURED:   MUD FILTRATE SAMPLE SOURCE
 MCSS.           MEASURED:   MUD CAKE SAMPLE SOURCE
 RMB .OHMM            .60:   RESISTIVITY MUD AT BHT
 BHT .F                60:   BOTTOM HOLE TEMPERATURE
 TCS .HRS               1:   TIME CURCULATED STOPPED
 MRT .F                60:   MAXIMUM RECORDED TEMPERATURE
 LUN .               0716:   LOGGING UNIT NUMBER
 LUL .             VERNAL:   LOGGING UNIT LOCATION
 ENGI.        E. CALLAHAN:   RECORDING ENGINEER
 WITN.         STUEBUNGER:   WITNESSED BY
 CLNT.            A2DTECH:   CLIENT CODE
 ORIG.           5" PRINT:   ORIGIN OF DATA
 UWI .       490251030600:   UNIQUE WELL ID
 DICO. A2D Technologies, Inc.:   DIGITIZING COMPANY
~OTHER INFORMATION
~A   DEPT      SPR        ILM        ILD       SGRD       CALD        GRD       CORR       DPHI       RHOB   
   38.0000  -999.2500  -999.2500  -999.2500  -999.2500  -999.2500  -999.2500  -999.2500  -999.2500  -999.2500
   38.5000  -999.2500  -999.2500  -999.2500  -999.2500     8.1279    98.6068    -0.6529  -999.2500     1.5408
   39.0000  -999.2500  -999.2500  -999.2500  -999.2500     8.1275    97.3684    -0.6343  -999.2500     1.4913
   39.5000  -999.2500  -999.2500  -999.2500  -999.2500     8.1272    96.4396    -0.6034  -999.2500     1.4727
   40.0000  -999.2500  -999.2500  -999.2500  -999.2500     8.1115    96.2848    -0.5121  -999.2500     1.4178
   40.5000  -999.2500  -999.2500  -999.2500  -999.2500     8.1266    96.6125    -0.4672  -999.2500     1.3869
   41.0000  -999.2500  -999.2500  -999.2500  -999.2500     8.1263    97.6780    -0.4254  -999.2500     1.3528
   41.5000  -999.2500  -999.2500  -999.2500  -999.2500     8.1260    98.4520    -0.3812  -999.2500     1.3280
   42.0000  -999.2500  -999.2500  -999.2500  -999.2500     8.1256    98.9164    -0.3173  -999.2500     1.3279
   42.5000  -999.2500  -999.2500  -999.2500  -999.2500     8.1253    99.5356    -0.2723  -999.2500     1.3764
   43.0000  -999.2500  -999.2500  -999.2500  -999.2500     8.1096   100.3096    -0.2211  -999.2500     1.3980
   43.5000  -999.2500  -999.2500  -999.2500  -999.2500     8.0628   102.1672    -0.1887  -999.2500     1.4976
   44.0000  -999.2500  -999.2500  -999.2500  -999.2500     7.9696   106.9659    -0.1035  -999.2500     1.6725
   44.5000  -999.2500  -999.2500  -999.2500  -999.2500     7.8765   110.0851     0.0048  -999.2500     1.9442
   45.0000  -999.2500  -999.2500  -999.2500  -999.2500     7.8142   111.9711     0.0992  -999.2500     2.0004
   45.5000  -999.2500  -999.2500  -999.2500  -999.2500     7.7985   113.6223     0.1131  -999.2500     2.1261
   46.0000  -999.2500     4.0554  -999.2500  -999.2500     7.9219   113.0031     0.1069  -999.2500     2.3707
   46.5000  -999.2500     8.5952     0.3564  -999.2500     8.0300   113.7771     0.0899     0.1698     2.3613
   47.0000  -999.2500     8.9573     0.3011  -999.2500     8.1071   114.2415     0.0804     0.1698     2.3544
   47.5000  -999.2500     9.3333     0.2933  -999.2500     8.1532   115.7895     0.0852     0.1695     2.3606
   48.0000  -999.2500    10.1374     0.3099  -999.2500     8.1840   114.2415     0.0961     0.1602     2.3785
   48.5000  -999.2500    11.0109     0.3973  -999.2500     8.1836   114.0841     0.1024     0.1596     2.3761
   49.0000  -999.2500    11.8794     0.5771  -999.2500     8.1214   115.9443     0.1087     0.1577     2.3800
   49.5000  -999.2500    12.6350     1.1765  -999.2500     8.0591   115.6347     0.1269     0.1497     2.3940
   50.0000  -999.2500    13.2576     3.0769  -999.2500     8.0433   114.8607     0.1440     0.1463     2.4079
   50.5000  -999.2500    13.6255     6.4850  -999.2500     8.0275   113.1579     0.1532     0.1466     2.3963
   51.0000  -999.2500    13.6219    12.5233  -999.2500     8.0117   112.5387     0.1563     0.1454     2.4033
   51.5000  -999.2500    13.6183    12.1771  -999.2500     8.0270   112.8483     0.1609     0.1405     2.4056
   52.0000  -999.2500    13.7091    18.8201  -999.2500     8.0576   112.5387     0.1563     0.1334     2.4118
   52.5000  -999.2500    14.1969    44.0655  -999.2500     8.0573   113.6223     0.1439     0.1327     2.4009
   53.0000  -999.2500    14.5799    39.6978  -999.2500     8.0800   113.6274     0.1284     0.1325     2.4025
   53.5000  -999.2500    14.4756    35.5205  -999.2500     8.0876   115.7508     0.1253     0.1343     2.4049
   54.0000  -999.2500    14.1749    27.8671  -999.2500     8.0718   120.4334     0.1067     0.1545     2.3933
   54.5000  -999.2500    13.8804    22.4651  -999.2500     8.0689   120.5882     0.0927     0.1529     2.3801
   55.0000  -999.2500    13.8767    26.5993  -999.2500     8.0402   120.4334     0.0896     0.1715     2.3600
   55.5000  -999.2500    14.0661    31.0824  -999.2500     7.9625   121.8266     0.0945     0.1725     2.3468
   56.0000  -999.2500    13.8684    34.2283  -999.2500     7.9003   121.0526     0.1004     0.1812     2.3577
   56.5000  -999.2500    13.3939    21.6688  -999.2500     7.9000   119.6594     0.0756     0.1889     2.3275
   57.0000  -999.2500    13.2066    14.9055  -999.2500     7.9461   120.1238     0.0849     0.1827     2.3438
   57.5000  -999.2500    13.0219    14.7958  -999.2500     8.0542   123.2456     0.0957     0.1735     2.3516
   58.0000  -999.2500    13.1095    13.4234  -999.2500     8.1313   124.3034     0.0942     0.1739     2.3500
   58.5000  -999.2500    13.0149    12.9608  -999.2500     8.0845   126.7802     0.1004     0.1688     2.3661
   59.0000  -999.2500    12.9135    13.1353  -999.2500     8.0532   128.6378     0.1081     0.1577     2.3887
   59.5000  -999.2500    12.4789    12.5937  -999.2500     8.0529   129.7214     0.1003     0.1531     2.3810
   60.0000  -999.2500    11.9690    12.1598  -999.2500     8.1145   129.4118     0.0724     0.1596     2.3779
   60.5000  -999.2500    11.3223    11.7407  -999.2500     8.2690   130.6502     0.0771     0.1450     2.3964
   61.0000  -999.2500    10.4909    10.8751  -999.2500     8.2842   133.7461     0.0833     0.1472     2.4019
   61.5000  -999.2500     9.7205     9.6637  -999.2500     8.2839   136.0759     0.0815     0.1416     2.3872
   62.0000  -999.2500     9.0683     8.7005  -999.2500     8.2991   140.0000     0.0734     0.1491     2.3895
   62.5000  -999.2500     8.6187     7.9908  -999.2500     8.2832   143.4985     0.0708     0.1383     2.4027
   63.0000  -999.2500     7.8939     7.4694  -999.2500     8.2674   145.6656     0.0615     0.1305     2.4274
   63.5000  -999.2500     7.3649     7.1623  -999.2500     8.2362   149.2783     0.0538     0.1355     2.4205
   64.0000  -999.2500     7.0639     6.8678  -999.2500     8.1430   151.7028     0.0522     0.1318     2.4216
   64.5000  -999.2500     6.8222     6.7235  -999.2500     8.0963   153.7152     0.0599     0.1222     2.4444
   65.0000  -999.2500     6.6805     6.5369  -999.2500     8.0495   153.2508     0.0646     0.1204     2.4430
   65.5000  -999.2500     6.6327     6.3996  -999.2500     8.0337   151.7028     0.0645     0.1210     2.4406
   66.0000  -999.2500     6.5849     6.2651  -999.2500     8.0334   150.3457     0.0692     0.1136     2.4608
   66.5000  -999.2500     6.5831     6.2615  -999.2500     8.0331   148.6068     0.0753     0.1111     2.4670
   67.0000  -999.2500     6.5814     6.2586  -999.2500     8.0483   147.8328     0.0753     0.1049     2.4770
   67.5000  -999.2500     6.5796     6.2125  -999.2500     8.0480   147.6780     0.0738     0.1074     2.4701
   68.0000  -999.2500     6.5779     6.2096  -999.2500     8.0477   149.6904     0.0690     0.1195     2.4492
   68.5000  -999.2500     6.5761     6.2067  -999.2500     8.0474   148.2972     0.0644     0.1198     2.4461
   69.0000  -999.2500     6.5743     6.2469  -999.2500     8.0625   147.0588     0.0598     0.1208     2.4438
   69.5000  -999.2500     6.5797     6.2439  -999.2500     8.0622   146.2848     0.0567     0.1233     2.4368
   70.0000  -999.2500     6.5907     6.2844  -999.2500     8.0774   148.1424     0.0598     0.1242     2.4353
   70.5000  -999.2500     6.6018     6.3251  -999.2500     8.0770   146.5944     0.0644     0.1219     2.4477
   71.0000  -999.2500     6.6126     6.3660  -999.2500     8.0767   145.0464     0.0690     0.1196     2.4461
   71.5000  -999.2500     6.6567     6.4072  -999.2500     8.0764   144.1176     0.0674     0.1218     2.4376
   72.0000  -999.2500     6.7011     6.4035  -999.2500     8.0761   144.1176     0.0612     0.1326     2.4245
   72.5000  -999.2500     6.7453     6.4897  -999.2500     8.0758   144.1176     0.0566     0.1339     2.4253
   73.0000  -999.2500     6.7435     6.4866  -999.2500     8.0601   144.1176     0.0550     0.1320     2.4168
   73.5000  -999.2500     6.7885     6.4828  -999.2500     8.0752   143.6532     0.0565     0.1302     2.4214
   74.0000  -999.2500     6.7866     6.4351  -999.2500     8.0749   143.4985     0.0659     0.1240     2.4369
