~VERSION INFORMATION
 VERS.                2.0:   CWLS LOG ASCII STANDARD - VERSION 2.0
 WRAP.                 NO:   ONE LINE PER DEPTH STEP
~WELL INFORMATION
#MNEM.UNIT      DATA TYPE    INFORMATION
#----------   ------------   ------------------------------
 STRT.F            4.0000:   START DEPTH
 STOP.F          544.0000:   STOP DEPTH
 STEP.F            0.5000:   STEP LENGTH
 NULL.          -999.2500:   NO VALUE
 COMP. LAWRENCE/ALLISON INC:   COMPANY
 WELL.    72-15 SX #10-10:   WELL
 FLD .             NPR #3:   FIELD
 LOC .      S10 T38N R78W:   LOCATION
 CNTY.            NATRONA:   COUNTY
 STAT.            WYOMING:   STATE
 CTRY. UNITED STATES OF AMERICA:   COUNTRY
 SRVC.           Gearhart:   SERVICE COMPANY
 DATE.        09-JUN-1986:   LOGDATE
 API .       490251107600:   API NUMBER
~CURVE INFORMATION
#MNEM.UNIT       API CODE    CURVE DESCRIPTION
#----------   ------------   ------------------------------
 DEPT.F                  :   
 ILD .OHMM   07 120 46 00:   INDUCTION LOG DEEP
 ILM .OHMM   07 120 44 00:   INDUCTION LOG MEDIUM
 GRR .GAPI   07 310 01 00:   GAMMA RAY FROM RES. LOG.
~PARAMETER INFORMATION
#MNEM.UNIT          VALUE    DESCRIPTION
#----------   ------------   ------------------------------
 PD  .                 GL:   PERMANENT DATUM
 EPD .F              5172:   ELEVATION PERMANENT DATUM
 LMF .                 KB:   LOG MEASURED FROM
 DMF .                 KB:   DRILLING MEASURED FROM
 EGL .F              5172:   GROUND LEVEL
 DATE.             6-9-86:   RUN DATE
 RUN .                  1:   RUN NUMBER
 DD  .F               530:   DEPTH DRILLER
 DL  .F               552:   DEPTH LOGGER
 BLI .F               543:   BOTTOM LOG INTERVAL
 TLI .F                42:   TOP LOG INTERVAL
 CS  .IN            8.625:   CASING SIZE
 CBD .F                42:   CASING BOTTOM DRILLER
 CBL .F                42:   CASING BOTTOM LOGGER
 BS  .IN            7.875:   BIT SIZE
 BSD .F               530:   BIT SIZE AT DEPTH
 DFT .               FOAM:   DRILLING FLUID TYPE
 MSS .               TANK:   MUD SAMPLE SOURCE
 RMB .OHMM            .26:   RESISTIVITY MUD AT BHT
 BHT .F                70:   BOTTOM HOLE TEMPERATURE
 TCS .HRS            0200:   TIME CURCULATED STOPPED
 TLAB.HRS            0327:   TIME LOGGER AT BOTTOM
 MRT .F                70:   MAXIMUM RECORDED TEMPERATURE
 LUN .               7609:   LOGGING UNIT NUMBER
 LUL .           GILLETTE:   LOGGING UNIT LOCATION
 ENGI.         WEATHERMON:   RECORDING ENGINEER
 WITN.              FIVAS:   WITNESSED BY
 CLNT.            A2DTECH:   CLIENT CODE
 ORIG.       2", 5" PRINT:   ORIGIN OF DATA
 UWI .       490251107600:   UNIQUE WELL ID
 DICO. A2D Technologies, Inc.:   DIGITIZING COMPANY
~OTHER INFORMATION
~A    DEPT     ILD        ILM         GRR  
# ...
  368.0000    28.5225    26.4315    88.9213
  368.5000    27.7461    25.5385    90.2872
  369.0000    27.0478    24.6757    90.0911
  369.5000    26.3671    23.8421    88.8789
  370.0000    25.7037    23.1159    87.4396
  370.5000    25.2599    23.0051    84.8347
  371.0000    25.0251    22.8826    82.4088
  371.5000    24.8955    22.7608    81.8203
  372.0000    24.8511    22.6396    81.1852
  372.5000    24.8068    22.5193    80.5392
  373.0000    24.7627    22.3994    79.8803
  373.5000    24.7178    22.2806    79.3464
  374.0000    24.6350    22.0267    79.7947
  374.5000    24.2106    21.6865    79.7514
  375.0000    23.7935    21.3515    78.4610
  375.5000    23.3836    21.0216    77.1091
  376.0000    22.9807    20.7972    79.0504
  376.5000    22.5848    20.5937    82.5368
  377.0000    22.1957    20.3922    83.7449
  377.5000    21.8132    20.1927    82.9760
  378.0000    21.4374    19.8836    82.8444
  378.5000    20.9851    19.4704    83.4469
  379.0000    20.4609    19.0652    83.5299
  379.5000    19.9493    18.6686    83.0306
  380.0000    19.4507    18.2803    83.4175
  380.5000    18.9645    17.9001    85.5193
  381.0000    18.7603    17.5278    86.6446
  381.5000    18.5599    17.1633    87.3209
  382.0000    18.3609    16.9715    88.1684
  382.5000    18.2835    16.9467    87.3356
  383.0000    18.2577    16.9220    84.9511
  383.5000    18.2318    16.8973    84.3777
  384.0000    18.2061    16.8727    85.0873
  384.5000    18.1803    16.8479    87.2554
  385.0000    18.1545    16.8258    89.3925
  385.5000    18.1139    16.7477    91.0659
  386.0000    17.9385    16.6695    90.7857
  386.5000    17.7648    16.7535    89.5135
  387.0000    17.5927    16.8744    87.6468
  387.5000    17.4224    16.9706    85.7638
  388.0000    17.3122    16.8390    83.8248
  388.5000    17.4095    16.7085    84.5705
  389.0000    17.4911    16.4120    86.1737
  389.5000    17.5742    16.0510    88.1977
  390.0000    17.6229    15.6980    90.8231
  390.5000    17.2206    15.3527    93.8236
  391.0000    17.0003    15.1829    96.1462
  391.5000    16.7826    15.2425    95.4641
  392.0000    16.5678    15.2885    93.9416
  392.5000    16.3557    15.3347    92.5757
  393.0000    16.1676    15.3811    92.0976
  393.5000    16.0309    15.4275    91.8910
  394.0000    15.8953    15.4646    92.8006
  394.5000    15.7609    15.3561    95.6113
  395.0000    15.6277    15.2540    98.5982
  395.5000    15.4954    15.1525    99.3090
  396.0000    15.3643    15.0517    97.2933
  396.5000    15.2783    14.9518    95.4655
  397.0000    15.2117    14.8657    96.7732
  397.5000    15.1453    14.7453    98.0366
  398.0000    15.0791    14.6261    98.1735
  398.5000    15.0132    14.5077    98.3399
  399.0000    14.9476    14.3904    99.0372
  399.5000    14.8612    14.2996   100.2988
  400.0000    14.7264    14.0897   100.8293
  400.5000    14.5928    14.0312    99.3745
  401.0000    14.4604    13.9166    97.8992
  401.5000    14.3292    13.8023    98.5590
  402.0000    14.1992    13.6890   100.7155
  402.5000    14.0704    13.5766   100.6010
  403.0000    13.9428    13.4652    99.5385
  403.5000    13.8104    13.3552    99.1494
  404.0000    13.6274    13.0895    99.8060
  404.5000    13.4467    12.7640   100.4872
  405.0000    13.2685    12.4698    99.9641
  405.5000    13.0926    12.3827    98.3402
  406.0000    12.7696    12.2962    97.1706
  406.5000    12.5114    12.2104    96.3583
  407.0000    12.2582    12.0771    95.5714
  407.5000    12.0105    11.9091    95.9674
  408.0000    11.7674    11.4723    98.9864
  408.5000    11.5294    11.0258   102.2368
  409.0000    11.1751    10.4701   104.1221
  409.5000    10.3612     9.7292   102.9091
  410.0000     9.6066     9.0407   101.7472
  410.5000     8.9070     8.4009   101.3196
  411.0000     8.2580     7.8064   101.4860
  411.5000     7.6538     7.2540   102.0425
  412.0000     7.2322     6.7407   107.5587
  412.5000     6.9845     6.2651   117.9247
  413.0000     6.8632     6.0203   128.3025
  413.5000     6.9880     5.9639   134.3564
  414.0000     7.2702     6.2574   131.5022
  414.5000     7.7155     6.6585   121.6219
  415.0000     8.2549     7.2799   112.3364
  415.5000     9.0007     7.9594   106.8529
  416.0000     9.8130     8.7017   102.9311
  416.5000    10.6986     9.4730   101.2957
  417.0000    11.5260    10.3038   102.4502
  417.5000    12.0771    10.9409   105.4462
  418.0000    12.5304    11.2600   108.5806
  418.5000    12.7050    11.5883   111.6510
  419.0000    12.8820    11.7789   111.2031
  419.5000    13.0616    11.9091   107.9082
  420.0000    13.2436    12.0407   104.5882
  420.5000    13.4281    12.1785   105.1650
  421.0000    13.7131    12.6359   108.3334
  421.5000    14.1028    13.1105   110.7508
  422.0000    14.5036    13.6030   108.4694
  422.5000    14.9158    14.0371   105.1189
  423.0000    15.2448    14.3018   102.2238
  423.5000    15.4529    14.5715   101.6474
  424.0000    15.6639    14.8324   101.9478
  424.5000    15.8777    15.0193   103.0024
  425.0000    16.0945    15.1886   104.2419
  425.5000    16.3142    15.3598   104.4657
  426.0000    16.5145    15.5329   104.5030
  426.5000    16.5427    15.7078   103.0817
  427.0000    16.5734    15.9674   103.0782
  427.5000    16.6043    16.0865   104.0648
  428.0000    16.6353    16.2049   104.5574
  428.5000    16.6695    16.3610   102.7634
  429.0000    16.5992    16.1827   101.0187
  429.5000    16.4988    16.0957    99.6804
  430.0000    16.3992    16.0092    98.9548
  430.5000    16.3002    15.9231    98.6541
  431.0000    16.2018    15.8376   100.1858
  431.5000    16.1040    15.7609    99.6854
  432.0000    16.0068    15.6394    98.8127
  432.5000    15.9102    15.5054    98.0784
  433.0000    15.8143    15.3726    99.4393
  433.5000    15.7191    15.2409   101.1695
  434.0000    15.6242    15.1103   103.0038
  434.5000    15.3857    14.9808   104.3997
  435.0000    15.1352    14.8525   103.5033
  435.5000    14.8887    14.6967   102.5645
  436.0000    14.6464    14.4771   102.4104
  436.5000    14.4080    14.2606   103.2325
  437.0000    14.1735    14.0472   102.9779
  437.5000    13.9428    13.8372   102.6302
  438.0000    13.8936    13.6303   103.6419
  438.5000    13.6440    13.4467   107.3383
  439.0000    13.3841    13.1841   109.3408
  439.5000    13.1291    12.9133   109.3325
  440.0000    12.8956    12.6480   109.3218
  440.5000    12.7042    12.3882   110.4236
  441.0000    12.5158    12.1904   111.0969
  441.5000    12.3301    12.0593   109.8173
  442.0000    12.1473    11.9120   108.9101
  442.5000    12.0076    11.7665   109.4215
  443.0000    11.8764    11.6228   111.6170
  443.5000    11.7466    11.4808   113.7849
  444.0000    11.5823    11.3405   115.9663
  444.5000    11.5964    11.2020   116.6066
  445.0000    11.6200    11.0648   116.2352
  445.5000    11.6436    11.0514   115.8443
  446.0000    11.6673    11.0514   116.7186
  446.5000    11.6861    11.0516   117.6947
  447.0000    11.6484    11.0515   115.9764
  447.5000    11.6122    11.0530   112.1243
  448.0000    11.5649    11.0001   109.2292
  448.5000    11.4156    10.8978   109.0486
  449.0000    11.2682    10.8280   111.6963
  449.5000    11.1227    10.6397   114.2810
  450.0000    10.9791    10.4535   114.6774
  450.5000    10.8373    10.2471   114.2229
  451.0000    10.6974    10.2651   114.6463
  451.5000    10.5473    10.0440   118.3022
  452.0000    10.4046     9.9736   121.3162
  452.5000    10.2506     9.9037   123.4601
  453.0000    10.0986     9.8343   121.9039
  453.5000     9.9500     9.7277   115.2967
  454.0000     9.7825     9.5436   110.7194
  454.5000     9.5762     9.3635   107.8301
  455.0000     9.3791     9.1868   108.4162
  455.5000     9.2336     9.0134   109.7919
  456.0000     9.1683     8.8433   111.1540
  456.5000     9.1683     8.6686   112.4996
  457.0000     9.2768     8.7026   113.4592
  457.5000     9.4288     8.7499   113.6125
  458.0000     9.7161     8.9597   113.7848
  458.5000    10.0247     9.1836   114.0836
