~VERSION INFORMATION
 VERS.                2.0:   CWLS LOG ASCII STANDARD - VERSION 2.0
 WRAP.                 NO:   ONE LINE PER DEPTH STEP
~WELL INFORMATION
#MNEM.UNIT      DATA TYPE    INFORMATION
#----------   ------------   ------------------------------
 STRT.F            2.5000:   START DEPTH
 STOP.F         1003.0000:   STOP DEPTH
 STEP.F            0.5000:   STEP LENGTH
 NULL.          -999.2500:   NO VALUE
 COMP. U S NAVY-INTEX OIL:   COMPANY
 WELL.   NPR #3 #87-SX-27:   WELL
 FLD .             TEAPOT:   FIELD
 LOC .      S27 T39N R78W:   LOCATION
 CNTY.            NATRONA:   COUNTY
 STAT.            WYOMING:   STATE
 CTRY. UNITED STATES OF AMERICA:   COUNTRY
 SRVC. Schlumberger Well Surveying Corp:   SERVICE COMPANY
 DATE.        13-AUG-1961:   LOGDATE
 API .       490250659000:   API NUMBER
~CURVE INFORMATION
#MNEM.UNIT       API CODE    CURVE DESCRIPTION
#----------   ------------   ------------------------------
 DEPT.F                  :   
 ASN .OHMM   05 041 16 00:   AMPLIFIER SHORT NORMAL
 SPR .MV     05 010 01 00:   SPONTANEOUS POTENSIAL
 CILD.MMHO   05 110 46 00:   CONDUCTIVITY INDUCTION LOG DEEP
 ILD .OHMM   05 120 46 00:   INDUCTION LOG DEEP
 GRN .MG/TON 35 310 30 00:   GAMMA RAY
 NEUT.NAPI   35 330 01 00:   NEUTRON
~PARAMETER INFORMATION
#MNEM.UNIT          VALUE    DESCRIPTION
#----------   ------------   ------------------------------
 PD  .                 GL:   PERMANENT DATUM
 EPD .F              5082:   ELEVATION PERMANENT DATUM
 LMF .                 KB:   LOG MEASURED FROM
 DAPD.F                 5:   FEET ABOVE PERMANENT DATUM
 DMF .                 KB:   DRILLING MEASURED FROM
 EKB .F              5087:   KELLING BUSHING
 EGL .F              5082:   GROUND LEVEL
 DATE.        13-AUG-1961:   RUN DATE
 RUN .                  1:   RUN NUMBER
 DD  .F              1000:   DEPTH DRILLER
 DL  .F              1003:   DEPTH LOGGER
 BLI .F              1002:   BOTTOM LOG INTERVAL
 TLI .F                90:   TOP LOG INTERVAL
 BS  .IN             6.75:   BIT SIZE
 BSD .F              1000:   BIT SIZE AT DEPTH
 DFT . OIL EMUL (12% OIL):   DRILLING FLUID TYPE
 DFD .                9.3:   DRILLING FLUID DENSITY
 DFV .                 60:   DRILLING FLUID VISCOSITY
 DFL .                  4:   DRILLING FLUID LOSS
 MSS .           FLOWLINE:   MUD SAMPLE SOURCE
 RMS .OHMM           1.29:   RESISTIVITY MUD SAMPLE
 MST .F                80:   MUD SAMPLE TEMPERATURE
 TCS .HRS               1:   TIME CURCULATED STOPPED
 LUN .               2523:   LOGGING UNIT NUMBER
 LUL .               CSPR:   LOGGING UNIT LOCATION
 ENGI.              SCOTT:   RECORDING ENGINEER
 WITN.          JORGENSEN:   WITNESSED BY
 CLNT.            A2DTECH:   CLIENT CODE
 ORIG.       2", 5" PRINT:   ORIGIN OF DATA
 UWI .       490250659000:   UNIQUE WELL ID
 DICO. A2D Technologies, Inc.:   DIGITIZING COMPANY
~OTHER INFORMATION
~A    DEPT     ASN        SPR       CILD        ILD          GRN     NEUT   
# ...
  158.5000     7.2854   -14.5663   149.1316     6.4308     6.0897   278.0872
  159.0000     7.4237   -14.6592   146.6017     6.5512     6.0279   273.1148
  159.5000     7.5826   -14.9256   142.3239     6.6483     5.9497   270.1106
  160.0000     7.7077   -14.9950   140.3404     6.7219     5.8894   272.4822
  160.5000     7.7190   -15.0744   137.8608     6.8524     5.8291   275.4107
  161.0000     7.6789   -14.9233   135.4805     6.9661     5.8291   272.3649
  161.5000     7.6545   -14.7220   134.5521     7.0129     5.7860   267.6578
  162.0000     7.6426   -14.4715   133.4234     7.1536     5.6935   259.9816
  162.5000     7.6783   -14.1704   131.9445     7.2572     5.6457   257.1587
  163.0000     7.7840   -14.1697   130.2653     7.3042     5.5662   264.2910
  163.5000     7.9580   -14.4691   128.9865     7.5014     5.5201   271.5686
  164.0000     8.0531   -14.6867   129.0090     7.6235     5.6169   270.1136
  164.5000     8.1381   -14.9297   127.5296     7.7560     5.7161   255.6216
  165.0000     8.1532   -15.3677   128.5536     7.8677     5.7085   244.9753
  165.5000     8.1500   -15.4157   129.0766     7.9066     5.7388   240.7790
  166.0000     8.1081   -15.5165   130.6015     7.8313     5.8481   238.8882
  166.5000     8.0643   -15.5158   135.3279     7.5233     6.0553   250.2661
  167.0000     7.9992   -15.5150   140.2552     6.5512     6.1156   251.4564
  167.5000     7.8679   -15.5142   145.6855     6.0856     5.9497   249.4042
  168.0000     7.7578   -15.4474   148.6086     5.9488     5.8655   244.9288
  168.5000     7.5375   -15.3531   151.8844     5.9488     5.8367   244.9113
  169.0000     7.2948   -15.0614   154.7634     5.8735     5.9497   250.9881
  169.5000     7.1109   -14.6674   156.8343     5.7982     5.9762   265.8522
  170.0000     7.0871   -14.1591   159.3093     5.7982     5.8899   268.4345
  170.5000     7.1628   -13.8581   159.3318     5.7982     5.6633   254.0014
  171.0000     7.4224   -13.7072   157.8492     5.8735     5.5561   255.5178
  171.5000     7.5375   -13.7064   154.8738     5.9488     5.5270   262.2083
  172.0000     7.5726   -13.7057   151.7917     6.0382     5.7462   271.4386
  172.5000     7.5826   -13.8551   148.4109     6.2500     5.8462   285.6720
  173.0000     7.5913   -13.9555   142.9307     6.3901     5.8744   321.9032
  173.5000     7.6251   -14.1540   138.6461     6.7135     5.6416   358.8246
  174.0000     7.7778   -14.1531   135.2653     7.1305     5.4153   367.0613
  174.5000     7.9692   -14.3841   129.4861     7.6190     5.3543   366.5869
  175.0000     8.1394   -14.4520   124.4995     8.1325     5.3241   363.4403
  175.5000     8.5285   -14.6013   120.5185     8.4800     5.3166   358.6875
  176.0000     8.8238   -14.7508   118.1381     8.8343     5.3241   359.6219
  176.5000     9.3844   -14.7555   114.2067     9.0361     5.3697   379.9933
  177.0000     9.4620   -14.8994   111.5784     9.2171     5.4386   387.5118
  177.5000     9.3569   -14.8986   109.3468     9.2639     5.4975   379.0026
  178.0000     9.3994   -14.7477   106.9169     9.3860     5.5765   344.3026
  178.5000     9.5921   -14.6674   102.6384     9.4127     5.7010   321.4430
  179.0000     9.6747   -14.5961   101.7568     9.2620     5.7834   306.7853
  179.5000     9.7085   -14.7454   105.8835     8.9959     5.9027   294.0999
  180.0000     9.6196   -14.8048   113.7137     8.5542     6.3643   283.9200
  180.5000     9.5045   -14.8942   118.6412     8.0572     6.3492   269.4810
  181.0000     9.2943   -14.8934   123.7697     7.7462     6.2807   264.4701
  181.5000     9.0653   -14.7425   126.1437     7.5301     5.9497   268.2740
  182.0000     8.8438   -14.5915   128.6186     7.3328     5.9240   270.5293
  182.5000     8.7125   -14.1354   131.3461     7.2860     5.9192   269.0017
  183.0000     8.5661   -13.8183   132.8679     7.2289     5.8442   267.9248
  183.5000     8.4384   -13.6883   133.0405     7.2289     5.6917   266.7101
  184.0000     8.4034   -13.6877   134.4181     7.2289     5.5955   266.7010
  184.5000     8.3784   -13.6869   135.9384     7.2289     5.5714   266.6949
  185.0000     8.3721   -13.7813   135.9610     7.2026     5.5799   268.9645
  185.5000     8.4115   -14.1744   136.9344     7.1536     5.6482   282.3787
  186.0000     8.4384   -14.4354   137.5075     7.2289     5.6823   286.4109
  186.5000     8.4015   -14.5848   137.5314     7.3042     5.7527   285.6425
  187.0000     8.3759   -14.7343   136.0510     7.3042     5.8065   298.3583
  187.5000     8.3333   -14.7334   135.8233     7.3042     5.8354   319.0309
  188.0000     8.3784   -14.7327   133.0959     7.3042     5.8680   313.7077
  188.5000     8.4234   -14.7320   132.4649     7.3042     5.9196   293.7018
  189.0000     8.4384   -14.7312   130.1342     7.2799     5.9571   283.9276
  189.5000     8.4259   -14.7305   131.6633     7.1536     6.0101   274.7268
  190.0000     8.3333   -14.7297   134.1842     7.0356     6.0583   264.0305
  190.5000     8.2320   -14.7290   140.7137     6.9135     6.0357   258.2529
  191.0000     8.1194   -14.5611   144.0391     6.8524     5.8970   264.1972
  191.5000     8.0180   -14.4271   145.2628     6.8524     5.8705   267.3488
  192.0000     7.9129   -14.2222   143.7856     6.8524     5.8582   258.2298
  192.5000     7.8529   -14.1254   141.5541     6.8524     5.6633   251.5046
  193.0000     7.8053   -14.1567   139.3225     6.8524     5.6862   247.4203
  193.5000     7.7565   -14.6089   137.8486     6.8524     5.8078   244.5419
  194.0000     7.7452   -14.7237   135.7657     6.9684     5.8367   246.5550
  194.5000     7.8134   -14.9447   133.3358     7.0274     5.8442   254.3969
  195.0000     7.8841   -15.1727   130.9060     7.2289     5.7688   251.9220
  195.5000     7.8979   -15.1718   126.9744     7.3042     5.6858   244.1901
  196.0000     7.8979   -15.0210   124.4454     7.2982     5.6407   237.6725
  196.5000     7.8979   -15.0203   124.4670     7.0295     5.6709   235.3878
  197.0000     7.8979   -15.0195   128.0932     6.9074     5.6861   235.9572
  197.5000     7.8948   -14.9862   133.5233     6.7771     5.7161   242.9633
  198.0000     7.8679   -14.7176   135.7458     6.7385     5.2563   245.2340
  198.5000     7.8430   -14.7170   138.2207     6.7018     5.2015   245.2263
  199.0000     7.8613   -14.5661   139.5983     6.7771     5.1809   245.2175
  199.5000     7.8829   -14.4150   139.6171     6.8056     5.2789   246.8016
  200.0000     7.9429   -14.3644   139.6396     6.8524     5.4322   250.5176
  200.5000     8.0180   -14.2635   139.6622     6.8524     5.5729   256.4390
  201.0000     8.0956   -14.1757   139.6847     6.9277     5.4316   264.8428
  201.5000     8.1657   -14.1119   138.2071     6.9277     5.3431   274.0278
  202.0000     8.2733   -13.9609   138.2282     6.9277     5.4523   284.5864
  202.5000     8.3046   -13.9602   136.7469     6.9277     5.6186   290.7521
  203.0000     8.2257   -13.9595   136.7745     6.9277     5.6407   287.7490
  203.5000     8.1682   -13.9586   136.7943     6.9277     5.6332   274.6480
  204.0000     8.1331   -14.0060   132.1922     6.9277     5.6288   275.2961
  204.5000     8.1231   -13.9572   130.6982     6.9311     5.6417   276.8838
  205.0000     8.2683   -14.1066   130.6431     7.0069     5.6859   275.3377
  205.5000     8.4391   -14.2850   127.7117     7.1304     5.8057   267.3593
  206.0000     8.5414   -14.5896   125.7407     7.3087     6.0685   263.1497
  206.5000     8.6186   -15.0052   123.2209     7.5040     6.1448   261.4088
  207.0000     8.6821   -15.1507   121.7267     7.7196     6.0241   260.8268
  207.5000     8.7624   -15.3041   119.8886     7.9876     5.9607   262.3210
  208.0000     8.8288   -15.3032   117.2379     8.1376     5.8807   270.4477
  208.5000     8.8947   -15.3026   115.7432     8.3089     5.7937   276.5032
  209.0000     8.9683   -15.0005   112.7471     8.4406     5.7612   280.4709
  209.5000     9.0841   -14.7550   111.2548     8.5462     5.7448   276.8295
  210.0000     9.1907   -14.3594   109.7598     8.5919     5.9746   269.5721
