~VERSION INFORMATION
 VERS.                2.0:   CWLS LOG ASCII STANDARD - VERSION 2.0
 WRAP.                 NO:   ONE LINE PER DEPTH STEP
~WELL INFORMATION
#MNEM.UNIT      DATA TYPE    INFORMATION
#----------   ------------   ------------------------------
 STRT.F            7.5000:   START DEPTH
 STOP.F         2886.0000:   STOP DEPTH
 STEP.F            0.5000:   STEP LENGTH
 NULL.          -999.2500:   NO VALUE
 COMP. LAWRENCE/ALLISON INC:   COMPANY
 WELL.     16-1 AX #21-21:   WELL
 FLD .             TEAPOT:   FIELD
 LOC .      S21 T39N R78W:   LOCATION
 CNTY.            NATRONA:   COUNTY
 STAT.            WYOMING:   STATE
 CTRY. UNITED STATES OF AMERICA:   COUNTRY
 SRVC.      Dresser Atlas:   SERVICE COMPANY
 DATE.        05-DEC-1986:   LOGDATE
 API .       490251111900:   API NUMBER
~CURVE INFORMATION
#MNEM.UNIT       API CODE    CURVE DESCRIPTION
#----------   ------------   ------------------------------
 DEPT.F                  :   
 GRR .GAPI   07 310 01 00:   GAMMA RAY FROM RES. LOG.
 SPR .MV     07 010 01 00:   SPONTANEOUS POTENTIAL
 RFOC.OHMM   07 220 04 00:   RESISTIVITY FOCUSED LOG
 RILM.OHMM   07 120 44 00:   INDUCTION LOG MEDIUM RESISTIVITY
 RILD.OHMM   07 120 46 00:   INDUCTION LOG DEEP RESISTIVITY
 CALD.IN     45 280 60 00:   CALIPER
 DEN .G/C3   45 350 01 00:   BULK DENSITY
 CORR.G/C3   45 356 01 00:   DENSITY CORRECTION
 CNC .DEC    42 890 03 00:   NEUTRON POROSITY SANDSTONE
 PORD.DEC    45 890 12 00:   DENSITY POROSITY SANDSTONE
~PARAMETER INFORMATION
#MNEM.UNIT          VALUE    DESCRIPTION
#----------   ------------   ------------------------------
 PD  .                 GL:   PERMANENT DATUM
 EPD .F              4992:   ELEVATION PERMANENT DATUM
 LMF .                 KB:   LOG MEASURED FROM
 DAPD.F                12:   FEET ABOVE PERMANENT DATUM
 DMF .                 KB:   DRILLING MEASURED FROM
 EKB .F              5004:   KELLING BUSHING
 EGL .F              4992:   GROUND LEVEL
 DATE.            12-5-86:   RUN DATE
 RUN .                  1:   RUN NUMBER
 DD  .F              2905:   DEPTH DRILLER
 DL  .F              2890:   DEPTH LOGGER
 BLI .F              2884:   BOTTOM LOG INTERVAL
 TLI .F              2200:   TOP LOG INTERVAL
 CS  .IN            8.625:   CASING SIZE
 CBD .F               300:   CASING BOTTOM DRILLER
 CBL .F               300:   CASING BOTTOM LOGGER
 BS  .IN            7.875:   BIT SIZE
 BSD .F              2905:   BIT SIZE AT DEPTH
 DFT .        KCL POLYMER:   DRILLING FLUID TYPE
 DFD .                  9:   DRILLING FLUID DENSITY
 DFV .                 36:   DRILLING FLUID VISCOSITY
 DFPH.                9.5:   DRILLING FLUID PH
 DFL .               11.8:   DRILLING FLUID LOSS
 MSS .            MUDTANK:   MUD SAMPLE SOURCE
 RMS .OHMM            .43:   RESISTIVITY MUD SAMPLE
 MST .F                63:   MUD SAMPLE TEMPERATURE
 RMF .OHMM           .348:   RESISTIVITY MUD FILTRATE SAMPLE
 MFST.F                63:   MUD FILTRATE SAMPLE TEMPERATURE
 RMC .OHMM           .538:   RESISTIVITY MUD CAKE
 MCST.F                63:   MUD CAKE SAMPLE TEMPERATURE
 MFSS.               MEAS:   MUD FILTRATE SAMPLE SOURCE
 MCSS.               CALC:   MUD CAKE SAMPLE SOURCE
 RMB .OHMM           .233:   RESISTIVITY MUD AT BHT
 BHT .F               116:   BOTTOM HOLE TEMPERATURE
 TCS .HRS             3.5:   TIME CURCULATED STOPPED
 MRT .F               116:   MAXIMUM RECORDED TEMPERATURE
 LUN .            HL-6274:   LOGGING UNIT NUMBER
 LUL .           GILLETTE:   LOGGING UNIT LOCATION
 ENGI.             RAUTIO:   RECORDING ENGINEER
 WITN.             STRONG:   WITNESSED BY
 CLNT.            A2DTECH:   CLIENT CODE
 ORIG.       2", 5" PRINT:   ORIGIN OF DATA
 UWI .       490251111900:   UNIQUE WELL ID
 DICO. A2D Technologies, Inc.:   DIGITIZING COMPANY
~OTHER INFORMATION
~A    DEPT     GRR        SPR       RFOC       RILM       RILD       CALD        DEN       CORR        CNC       PORD   
# ...
  878.5000    84.4401   -49.5705     8.6243     8.0989     8.3405  -999.2500  -999.2500  -999.2500  -999.2500  -999.2500
  879.0000    83.2827   -49.1848     8.6500     8.1827     8.4408  -999.2500  -999.2500  -999.2500  -999.2500  -999.2500
  879.5000    82.1522   -48.8053     8.6885     8.2673     8.5423  -999.2500  -999.2500  -999.2500  -999.2500  -999.2500
  880.0000    83.3329   -48.4270     8.8107     8.3527     8.6451  -999.2500  -999.2500  -999.2500  -999.2500  -999.2500
  880.5000    85.6085   -48.1076     8.9332     8.4391     8.7458  -999.2500  -999.2500  -999.2500  -999.2500  -999.2500
  881.0000    87.8513   -48.2708     9.0577     8.5204     8.8181  -999.2500  -999.2500  -999.2500  -999.2500  -999.2500
  881.5000    90.0964   -48.4577     9.1204     8.5835     8.8888  -999.2500  -999.2500  -999.2500  -999.2500  -999.2500
  882.0000    91.2584   -48.6427     9.1720     8.6470     8.9601  -999.2500  -999.2500  -999.2500  -999.2500  -999.2500
  882.5000    90.3248   -48.8278     9.2240     8.7111     9.0319  -999.2500  -999.2500  -999.2500  -999.2500  -999.2500
  883.0000    88.3931   -48.8527     9.2761     8.7756     9.1043  -999.2500  -999.2500  -999.2500  -999.2500  -999.2500
  883.5000    85.1306   -48.6377     9.3336     8.8405     9.1773  -999.2500  -999.2500  -999.2500  -999.2500  -999.2500
  884.0000    82.9169   -48.4258     9.5007     8.9060     9.2509  -999.2500  -999.2500  -999.2500  -999.2500  -999.2500
  884.5000    84.1996   -48.2161     9.6887     8.9719     9.3251  -999.2500  -999.2500  -999.2500  -999.2500  -999.2500
  885.0000    87.1397   -48.0077     9.7864     9.0384     9.3998  -999.2500  -999.2500  -999.2500  -999.2500  -999.2500
  885.5000    90.0432   -48.1348     9.8028     9.1053     9.5088  -999.2500  -999.2500  -999.2500  -999.2500  -999.2500
  886.0000    90.1083   -48.2737     9.8193     9.1617     9.4880  -999.2500  -999.2500  -999.2500  -999.2500  -999.2500
  886.5000    86.0484   -48.2519     9.8358     9.1425     9.4510  -999.2500  -999.2500  -999.2500  -999.2500  -999.2500
  887.0000    81.7875   -48.2276     9.8524     9.1260     9.4139  -999.2500  -999.2500  -999.2500  -999.2500  -999.2500
  887.5000    79.1110   -48.2026     9.8689     9.1095     9.3771  -999.2500  -999.2500  -999.2500  -999.2500  -999.2500
  888.0000    79.0725   -48.1779     9.5493     9.0930     9.3336  -999.2500  -999.2500  -999.2500  -999.2500  -999.2500
  888.5000    79.2773   -48.1530     9.2473     9.0776     9.3662  -999.2500  -999.2500  -999.2500  -999.2500  -999.2500
  889.0000    77.4883   -48.1286     9.4158     9.1168     9.4063  -999.2500  -999.2500  -999.2500  -999.2500  -999.2500
  889.5000    76.4679   -48.1030     9.5830     9.1559     9.4466  -999.2500  -999.2500  -999.2500  -999.2500  -999.2500
  890.0000    79.4236   -48.2345     9.7547     9.1951     9.4871  -999.2500  -999.2500  -999.2500  -999.2500  -999.2500
  890.5000    82.6535   -48.4976     9.7944     9.2345     9.5204  -999.2500  -999.2500  -999.2500  -999.2500  -999.2500
  891.0000    82.4277   -48.7622     9.8204     9.2473     9.5453  -999.2500  -999.2500  -999.2500  -999.2500  -999.2500
  891.5000    80.8186   -49.0296     9.8459     9.2473     9.5702  -999.2500  -999.2500  -999.2500  -999.2500  -999.2500
  892.0000    80.6853   -49.2813     9.8717     9.2472     9.5953  -999.2500  -999.2500  -999.2500  -999.2500  -999.2500
  892.5000    84.2325   -49.0093     9.8975     9.2783     9.6203  -999.2500  -999.2500  -999.2500  -999.2500  -999.2500
  893.0000    85.4430   -48.7066     9.9234     9.3220     9.6453  -999.2500  -999.2500  -999.2500  -999.2500  -999.2500
  893.5000    85.6964   -48.4056     9.9493     9.3660     9.6699  -999.2500  -999.2500  -999.2500  -999.2500  -999.2500
  894.0000    86.2911   -48.1060    10.0866     9.4101     9.7733  -999.2500  -999.2500  -999.2500  -999.2500  -999.2500
  894.5000    86.1422   -47.8049    10.3193     9.5836    10.0227  -999.2500  -999.2500  -999.2500  -999.2500  -999.2500
  895.0000    83.0994   -47.7666    10.5573     9.8024    10.2785  -999.2500  -999.2500  -999.2500  -999.2500  -999.2500
  895.5000    78.6328   -47.9466    10.8007    10.0261    10.5407  -999.2500  -999.2500  -999.2500  -999.2500  -999.2500
  896.0000    75.4178   -48.1272    11.0498    10.2550    10.8096  -999.2500  -999.2500  -999.2500  -999.2500  -999.2500
  896.5000    75.3647   -48.3083    11.3047    10.5323    11.1363  -999.2500  -999.2500  -999.2500  -999.2500  -999.2500
  897.0000    77.4003   -48.4896    11.5581    10.3316    11.0201  -999.2500  -999.2500  -999.2500  -999.2500  -999.2500
  897.5000    79.4549   -48.6707    11.5581    10.0920    10.8790  -999.2500  -999.2500  -999.2500  -999.2500  -999.2500
  898.0000    81.7034   -48.6953    11.1716     9.8568    10.6436  -999.2500  -999.2500  -999.2500  -999.2500  -999.2500
  898.5000    84.1981   -48.6955    10.8121     9.6278    10.3557  -999.2500  -999.2500  -999.2500  -999.2500  -999.2500
  899.0000    84.4633   -48.6946    10.4641     9.5326    10.0778  -999.2500  -999.2500  -999.2500  -999.2500  -999.2500
  899.5000    83.7144   -48.6669    10.1273     9.4582     9.8071  -999.2500  -999.2500  -999.2500  -999.2500  -999.2500
  900.0000    83.9507   -48.5493     9.9586     9.4096     9.7590  -999.2500  -999.2500  -999.2500  -999.2500  -999.2500
  900.5000    83.5127   -48.4360     9.9530     9.3871     9.7381  -999.2500  -999.2500  -999.2500  -999.2500  -999.2500
  901.0000    81.8187   -48.3189     9.9483     9.3646     9.7173  -999.2500  -999.2500  -999.2500  -999.2500  -999.2500
  901.5000    80.0787   -48.3077     9.9434     9.3423     9.6965  -999.2500  -999.2500  -999.2500  -999.2500  -999.2500
  902.0000    79.3651   -48.4147     9.9384     9.3199     9.6758  -999.2500  -999.2500  -999.2500  -999.2500  -999.2500
  902.5000    81.6783   -48.5225     9.9334     9.2976     9.6551  -999.2500  -999.2500  -999.2500  -999.2500  -999.2500
  903.0000    84.9253   -48.6290     9.9283     9.2754     9.6344  -999.2500  -999.2500  -999.2500  -999.2500  -999.2500
  903.5000    88.1473   -48.6957     9.9233     9.2532     9.6138  -999.2500  -999.2500  -999.2500  -999.2500  -999.2500
  904.0000    88.2284   -48.6953     9.9183     9.2310     9.5937  -999.2500  -999.2500  -999.2500  -999.2500  -999.2500
  904.5000    83.1404   -48.6917     9.9133     9.2090     9.5754  -999.2500  -999.2500  -999.2500  -999.2500  -999.2500
  905.0000    77.6632   -48.6033     9.9082     9.1869     9.5571  -999.2500  -999.2500  -999.2500  -999.2500  -999.2500
  905.5000    76.1400   -48.5129     9.9032     9.1618     9.5389  -999.2500  -999.2500  -999.2500  -999.2500  -999.2500
  906.0000    80.3600   -48.4230     9.8982     9.1786     9.5207  -999.2500  -999.2500  -999.2500  -999.2500  -999.2500
  906.5000    84.6358   -48.3330     9.8932     9.1982     9.5025  -999.2500  -999.2500  -999.2500  -999.2500  -999.2500
  907.0000    83.6947   -48.2430     9.8882     9.2179     9.4844  -999.2500  -999.2500  -999.2500  -999.2500  -999.2500
  907.5000    82.1012   -48.1547     9.8830     9.2469     9.4663  -999.2500  -999.2500  -999.2500  -999.2500  -999.2500
  908.0000    80.5794   -48.1135     9.8773     9.2199     9.4482  -999.2500  -999.2500  -999.2500  -999.2500  -999.2500
  908.5000    79.0939   -48.1884     9.8735     9.1667     9.4302  -999.2500  -999.2500  -999.2500  -999.2500  -999.2500
  909.0000    77.6178   -48.2605     9.8678     9.1140     9.4122  -999.2500  -999.2500  -999.2500  -999.2500  -999.2500
  909.5000    76.1367   -48.3920    10.3415     9.0616     9.3942  -999.2500  -999.2500  -999.2500  -999.2500  -999.2500
  910.0000    75.2171   -48.5690    10.1895     9.0094     9.3763  -999.2500  -999.2500  -999.2500  -999.2500  -999.2500
  910.5000    74.4520   -48.7463     9.9993     8.9576     9.3584  -999.2500  -999.2500  -999.2500  -999.2500  -999.2500
  911.0000    75.7578   -48.9242     9.8126     8.9060     9.3401  -999.2500  -999.2500  -999.2500  -999.2500  -999.2500
  911.5000    79.4657   -49.0923     9.6293     8.8548     9.3048  -999.2500  -999.2500  -999.2500  -999.2500  -999.2500
