~VERSION INFORMATION
 VERS.                2.0:   CWLS LOG ASCII STANDARD - VERSION 2.0
 WRAP.                 NO:   ONE LINE PER DEPTH STEP
~WELL INFORMATION
#MNEM.UNIT      DATA TYPE    INFORMATION
#----------   ------------   ------------------------------
 STRT.F           12.0000:   START DEPTH
 STOP.F          448.0000:   STOP DEPTH
 STEP.F            0.5000:   STEP LENGTH
 NULL.          -999.2500:   NO VALUE
 COMP. LAWRENCE/ALLISON INC:   COMPANY
 WELL. LI2 -52-61 SX10 #10-10:   WELL
 FLD .             TEAPOT:   FIELD
 LOC .      S10 T38N R78W:   LOCATION
 CNTY.            NATRONA:   COUNTY
 STAT.            WYOMING:   STATE
 CTRY. UNITED STATES OF AMERICA:   COUNTRY
 SRVC.      Dresser Atlas:   SERVICE COMPANY
 DATE.        13-JAN-1985:   LOGDATE
 API .       490251100400:   API NUMBER
~CURVE INFORMATION
#MNEM.UNIT       API CODE    CURVE DESCRIPTION
#----------   ------------   ------------------------------
 DEPT.F                  :   
 AC  .US/F   60 520 00 00:   ACCOUSTIC
 SPR .MV     11 010 01 00:   SPONTANEOUS POTENTIAL FROM RES.
 RD  .OHMM   11 220 10 00:   RESISTIVITY DEEP
 RS  .OHMM   11 220 09 00:   RESISTIVITY SHALLOW
 RMLL.OHMM   11 270 04 00:   MICRO LATEROLOG
 GRD .GAPI   45 310 01 00:   GAMMA RAY FROM DENSITY LOG
 CALD.IN     45 280 60 00:   CALIPER FROM DENSITY LOG
 CORR.G/C3   45 356 01 00:   DENSITY CORRECTION
 DEN .G/C3   45 350 01 00:   COMPENSATED BULK DENSTIY
 PORD.DEC    45 890 12 00:   POROSITY DENSITY SANDSTONE
 CNC .DEC    42 890 03 00:   NEUTRON POROSITY SANDSTONE
~PARAMETER INFORMATION
#MNEM.UNIT          VALUE    DESCRIPTION
#----------   ------------   ------------------------------
 PD  .                 GL:   PERMANENT DATUM
 EPD .F              5156:   ELEVATION PERMANENT DATUM
 LMF .                 GL:   LOG MEASURED FROM
 DMF .                 GL:   DRILLING MEASURED FROM
 EGL .F              5156:   GROUND LEVEL
 DATE.        13-JAN-1985:   RUN DATE
 RUN .                  1:   RUN NUMBER
 DD  .F               450:   DEPTH DRILLER
 DL  .F               450:   DEPTH LOGGER
 BLI .F               448:   BOTTOM LOG INTERVAL
 TLI .F                20:   TOP LOG INTERVAL
 CS  .IN            8.625:   CASING SIZE
 CBD .F                20:   CASING BOTTOM DRILLER
 CBL .F                20:   CASING BOTTOM LOGGER
 BS  .IN            7.875:   BIT SIZE
 BSD .F               450:   BIT SIZE AT DEPTH
 DFT .            KCL-H2O:   DRILLING FLUID TYPE
 MSS .               TANK:   MUD SAMPLE SOURCE
 RMS .OHMM           0.16:   RESISTIVITY MUD SAMPLE
 MST .F                20:   MUD SAMPLE TEMPERATURE
 RMF .OHMM           0.12:   RESISTIVITY MUD FILTRATE SAMPLE
 MFST.F                20:   MUD FILTRATE SAMPLE TEMPERATURE
 RMC .OHMM            0.2:   RESISTIVITY MUD CAKE
 MCST.F                20:   MUD CAKE SAMPLE TEMPERATURE
 MFSS.               CALC:   MUD FILTRATE SAMPLE SOURCE
 MCSS.               CALC:   MUD CAKE SAMPLE SOURCE
 BHT .F               100:   BOTTOM HOLE TEMPERATURE
 TCS .HRS               2:   TIME CURCULATED STOPPED
 MRT .F               100:   MAXIMUM RECORDED TEMPERATURE
 LUN .               6270:   LOGGING UNIT NUMBER
 LUL .                 FM:   LOGGING UNIT LOCATION
 ENGI.          E. GOVETT:   RECORDING ENGINEER
 WITN.             GROOMS:   WITNESSED BY
 CLNT.            A2DTECH:   CLIENT CODE
 ORIG.        2" 5" PRINT:   ORIGIN OF DATA
 UWI .       490251100400:   UNIQUE WELL ID
 DICO. A2D Technologies, Inc.:   DIGITIZING COMPANY
 R1  . POROSITY WITH SANDSTONE:   REMARKS 1
~OTHER INFORMATION
~A   DEPT       AC        SPR         RD         RS       RMLL         GRD      CALD       CORR        DEN       PORD        CNC   
# ...
  256.0000   103.8416   -22.5311    38.8048    38.3312     8.3068    75.0797     8.0193     0.0527     2.3986     0.1600     0.2566
  256.5000   106.0248   -22.5383    36.6465    36.4996     7.6229    75.9715     8.0182     0.0749     2.3551     0.1800     0.2610
  257.0000   105.8039   -22.3931    36.6748    36.2369     8.5770    78.2185     8.0173     0.0704     2.3506     0.1938     0.2589
  257.5000   104.3057   -22.4021    37.4295    36.4802    10.8620    78.5128     8.0165     0.0477     2.3573     0.1921     0.2586
  258.0000   102.8827   -22.4096    38.4702    37.0222    12.8314    76.5472     8.0156     0.0401     2.3769     0.1843     0.2629
  258.5000   102.4364   -22.4184    37.3995    36.7128    11.9646    77.9289     7.9997     0.0338     2.3799     0.1801     0.2668
  259.0000   102.5159   -22.4256    35.1157    34.9586    11.3917    79.0843     8.0139     0.0249     2.3610     0.1801     0.2656
  259.5000   102.2199   -22.4328    34.3364    33.7545    11.5475    79.6772     8.0128     0.0309     2.3556     0.1888     0.2554
  260.0000    99.0688   -22.4400    35.3290    34.2183    15.7868    79.8211     8.0120     0.0429     2.3586     0.1913     0.2394
  260.5000    92.0860   -22.6044    45.3647    38.0779    23.7901    76.8029     8.0262     0.0534     2.3971     0.1883     0.2249
  261.0000    85.5541   -23.0586    52.4793    49.7898    48.6890    70.9558     8.0253     0.0626     2.4303     0.1654     0.1986
  261.5000    76.4676   -23.3671    55.4605    51.9016    50.3955    66.5580     8.0395     0.0669     2.5073     0.1258     0.1871
  262.0000    74.7440   -23.8261    54.6723    46.7432    35.8241    67.3013     8.0537     0.0321     2.5223     0.0965     0.1811
  262.5000    75.7252   -24.2851    45.4350    37.9287    19.5520    74.6611     8.0678     0.0230     2.5230     0.0932     0.1887
  263.0000    82.5666   -24.5935    31.7487    29.5183    17.4867    78.2616     8.0818     0.0215     2.4807     0.1162     0.2174
  263.5000    89.9340   -25.0527    29.1943    27.2972    16.3061    79.9303     8.0960     0.0169     2.4250     0.1422     0.2477
  264.0000    93.5447   -25.5133    27.9896    26.2103    16.1877    78.6934     8.0949     0.0169     2.4066     0.1565     0.2556
  264.5000    95.0594   -25.8218    27.7845    25.6621    15.9585    77.4818     8.0940     0.0244     2.3982     0.1625     0.2656
  265.0000    96.5740   -25.9796    27.7733    25.6553    15.9521    77.3228     8.1084     0.0304     2.3929     0.1698     0.2638
  265.5000    97.3489   -26.1374    27.7617    25.4706    15.9468    81.6751     8.1074     0.0348     2.3921     0.1717     0.2542
  266.0000    97.7701   -26.2952    27.7483    25.6416    16.0541    90.8373     8.1215     0.0346     2.3973     0.1705     0.2427
  266.5000    97.3247   -26.4779    27.7372    25.6345    16.6154    91.1316     8.1205     0.0257     2.3928     0.1684     0.2431
  267.0000    97.0286   -26.7632    27.9224    25.8068    17.5612    87.5119     8.1196     0.0226     2.3859     0.1698     0.2527
  267.5000    96.8066   -26.9211    28.4970    25.7982    18.5577    84.1950     8.1188     0.0165     2.3927     0.1739     0.2518
  268.0000    96.6608   -26.9283    29.0863    25.6126    19.0765    82.9834     8.1329     0.0180     2.4100     0.1697     0.2476
  268.5000    96.8166   -26.9355    29.0742    25.4282    17.7872    82.6720     8.1319     0.0225     2.4273     0.1573     0.2431
  269.0000    97.3470   -27.0934    28.4599    25.0701    16.2438    82.6634     8.1310     0.0270     2.4311     0.1494     0.2407
  269.5000    98.3281   -27.2529    27.8610    25.0619    15.0422    82.8052     8.1301     0.0284     2.4068     0.1477     0.2401
  270.0000    99.1590   -27.4107    27.6567    25.0552    14.6244    85.8041     8.1445     0.0284     2.3917     0.1565     0.2477
  270.5000    99.3889   -27.4179    28.0330    25.2234    15.3479    87.2998     8.1435     0.0284     2.3818     0.1689     0.2580
  271.0000    99.0928   -27.5757    28.4143    25.3927    16.3340    82.4765     8.1273     0.0283     2.3772     0.1761     0.2726
  271.5000    98.1206   -27.5830    29.0351    25.5632    17.0246    78.7085     8.1417     0.0283     2.3795     0.1783     0.2729
  272.0000    97.6742   -27.5904    29.3935    25.5561    17.0189    76.2939     8.1407     0.0282     2.3870     0.1792     0.2602
  272.5000    97.3030   -27.5992    28.9758    25.3707    15.4344    77.0372     8.1398     0.0327     2.3930     0.1738     0.2548
  273.0000    97.3826   -27.6064    27.9741    25.0135    14.6830    78.9956     8.1389     0.0402     2.3952     0.1702     0.2515
  273.5000    98.6643   -27.6136    27.7690    24.4904    14.8956    81.5292     8.1379     0.0401     2.3914     0.1693     0.2494
  274.0000    99.0444   -27.6208    27.3744    24.1456    15.2047    83.3251     8.1370     0.0326     2.3815     0.1727     0.2475
  274.5000    99.4997   -27.7786    27.1733    23.9718    14.5783    84.3691     8.1362     0.0280     2.3762     0.1782     0.2461
  275.0000    99.8798   -27.7876    26.9718    23.6327    14.0752    85.4132     8.1353     0.0295     2.3731     0.1818     0.2501
  275.5000   100.1132   -27.9455    26.9610    23.6264    13.8752    86.1620     8.1344     0.0385     2.3731     0.1824     0.2501
  276.0000   100.2645   -28.1033    26.9502    23.4564    14.0647    86.5990     8.1183     0.0336     2.3791     0.1809     0.2507
  276.5000   100.1082   -28.2611    26.7527    23.2876    14.5577    85.2349     8.1175     0.0233     2.3843     0.1785     0.2530
  277.0000    99.8976   -28.2683    26.3725    23.2814    15.2790    83.4218     8.1016     0.0323     2.3865     0.1760     0.2541
  277.5000    99.6778   -28.4262    26.1787    23.1057    15.8145    82.9398     8.1007     0.0443     2.3895     0.1737     0.2535
  278.0000    99.3817   -28.4351    25.9847    22.7869    15.9197    85.7238     8.0998     0.0475     2.3902     0.1726     0.2526
  278.5000    99.0105   -28.5929    25.7942    22.6229    15.8039    91.0631     8.0988     0.0380     2.3886     0.1720     0.2524
  279.0000    98.6393   -28.7508    25.6051    22.4600    15.6892    90.9041     8.0979     0.0261     2.3780     0.1750     0.2542
  279.5000    98.4173   -28.9086    25.7739    22.2984    16.5802    86.3842     8.0820     0.0275     2.3659     0.1812     0.2606
  280.0000    98.0472   -29.0664    25.9430    22.2925    17.7687    85.0223     8.0962     0.0411     2.3598     0.1881     0.2636
  280.5000    97.9014   -29.0738    25.9623    22.2863    18.5214    85.0137     8.0954     0.0456     2.3624     0.1890     0.2643
  281.0000    97.7544   -29.2332    26.2854    22.4361    17.8808    84.1007     8.1095     0.0379     2.3741     0.1848     0.2594
  281.5000    98.4362   -29.2404    26.6430    22.5867    16.8767    82.2876     8.1237     0.0334     2.3725     0.1824     0.2611
  282.0000    99.3422   -29.2476    26.8183    22.5792    15.9854    82.8805     8.1379     0.0318     2.3702     0.1837     0.2616
  282.5000    99.6472   -29.4055    26.9919    22.7323    16.7775    84.9772     8.1669     0.0303     2.3693     0.1864     0.2507
  283.0000    99.7268   -29.4127    26.9811    22.8833    17.3655    85.1190     8.1510     0.0242     2.3725     0.1843     0.2423
  283.5000    99.8064   -29.5723    26.7829    22.8757    17.3598    85.5594     8.1499     0.0211     2.3776     0.1810     0.2459
  284.0000    99.6606   -29.5795    26.2171    22.7111    17.3540    86.4530     8.1491     0.0165     2.3806     0.1789     0.2544
  284.5000    99.4395   -29.8879    25.8445    22.2361    17.3468    85.6926     8.1482     0.0120     2.3836     0.1780     0.2460
  285.0000    98.9933   -30.0457    25.6550    21.9230    17.3410    85.5188     8.1473     0.0180     2.3873     0.1753     0.2363
  285.5000    98.3216   -30.0535    25.2904    21.4645    17.2150    85.6754     8.1465     0.0421     2.3975     0.1708     0.2345
  286.0000    97.5707   -30.2108    25.1051    21.0077    16.7370    85.8172     8.1304     0.0604     2.4121     0.1624     0.2412
