~VERSION INFORMATION
 VERS.                2.0:   CWLS LOG ASCII STANDARD - VERSION 2.0
 WRAP.                 NO:   ONE LINE PER DEPTH STEP
~WELL INFORMATION
#MNEM.UNIT      DATA TYPE    INFORMATION
#----------   ------------   ------------------------------
 STRT.F            2.5000:   START DEPTH
 STOP.F         1003.0000:   STOP DEPTH
 STEP.F            0.5000:   STEP LENGTH
 NULL.          -999.2500:   NO VALUE
 COMP. U S NAVY-INTEX OIL:   COMPANY
 WELL.   NPR #3 #87-SX-27:   WELL
 FLD .             TEAPOT:   FIELD
 LOC .      S27 T39N R78W:   LOCATION
 CNTY.            NATRONA:   COUNTY
 STAT.            WYOMING:   STATE
 CTRY. UNITED STATES OF AMERICA:   COUNTRY
 SRVC. Schlumberger Well Surveying Corp:   SERVICE COMPANY
 DATE.        13-AUG-1961:   LOGDATE
 API .       490250659000:   API NUMBER
~CURVE INFORMATION
#MNEM.UNIT       API CODE    CURVE DESCRIPTION
#----------   ------------   ------------------------------
 DEPT.F                  :   
 ASN .OHMM   05 041 16 00:   AMPLIFIER SHORT NORMAL
 SPR .MV     05 010 01 00:   SPONTANEOUS POTENSIAL
 CILD.MMHO   05 110 46 00:   CONDUCTIVITY INDUCTION LOG DEEP
 ILD .OHMM   05 120 46 00:   INDUCTION LOG DEEP
 GRN .MG/TON 35 310 30 00:   GAMMA RAY
 NEUT.NAPI   35 330 01 00:   NEUTRON
~PARAMETER INFORMATION
#MNEM.UNIT          VALUE    DESCRIPTION
#----------   ------------   ------------------------------
 PD  .                 GL:   PERMANENT DATUM
 EPD .F              5082:   ELEVATION PERMANENT DATUM
 LMF .                 KB:   LOG MEASURED FROM
 DAPD.F                 5:   FEET ABOVE PERMANENT DATUM
 DMF .                 KB:   DRILLING MEASURED FROM
 EKB .F              5087:   KELLING BUSHING
 EGL .F              5082:   GROUND LEVEL
 DATE.        13-AUG-1961:   RUN DATE
 RUN .                  1:   RUN NUMBER
 DD  .F              1000:   DEPTH DRILLER
 DL  .F              1003:   DEPTH LOGGER
 BLI .F              1002:   BOTTOM LOG INTERVAL
 TLI .F                90:   TOP LOG INTERVAL
 BS  .IN             6.75:   BIT SIZE
 BSD .F              1000:   BIT SIZE AT DEPTH
 DFT . OIL EMUL (12% OIL):   DRILLING FLUID TYPE
 DFD .                9.3:   DRILLING FLUID DENSITY
 DFV .                 60:   DRILLING FLUID VISCOSITY
 DFL .                  4:   DRILLING FLUID LOSS
 MSS .           FLOWLINE:   MUD SAMPLE SOURCE
 RMS .OHMM           1.29:   RESISTIVITY MUD SAMPLE
 MST .F                80:   MUD SAMPLE TEMPERATURE
 TCS .HRS               1:   TIME CURCULATED STOPPED
 LUN .               2523:   LOGGING UNIT NUMBER
 LUL .               CSPR:   LOGGING UNIT LOCATION
 ENGI.              SCOTT:   RECORDING ENGINEER
 WITN.          JORGENSEN:   WITNESSED BY
 CLNT.            A2DTECH:   CLIENT CODE
 ORIG.       2", 5" PRINT:   ORIGIN OF DATA
 UWI .       490250659000:   UNIQUE WELL ID
 DICO. A2D Technologies, Inc.:   DIGITIZING COMPANY
~OTHER INFORMATION
~A    DEPT     ASN        SPR       CILD        ILD          GRN     NEUT   
# ...
  886.5000    26.4160   -21.2523    44.5034    24.5053     4.4494   523.7134
  887.0000    24.5313   -21.0741    47.5541    23.6662     4.3435   567.3075
  887.5000    22.9478   -20.6269    50.0167    22.7125     4.3890   585.3377
  888.0000    21.9666   -20.1917    53.6581    21.0407     4.5329   591.3379
  888.5000    20.9102   -19.7383    55.3221    19.9095     4.4875   604.8568
  889.0000    20.3056   -19.4351    59.8212    19.1554     4.3666   634.1652
  889.5000    19.7763   -19.2820    61.2991    18.6275     4.3742   640.1654
  890.0000    19.4729   -19.1289    61.3293    18.2504     4.3591   635.6391
  890.5000    19.6242   -19.1259    61.3595    17.9487     3.9885   603.9948
  891.0000    19.8449   -19.2733    61.3934    17.6471     4.0515   601.0226
  891.5000    19.0892   -19.8708    61.4199    17.3454     4.1889   602.5117
  892.0000    18.6351   -20.6186    61.4502    17.0437     4.3585   597.1316
  892.5000    18.2564   -20.9160    61.4847    16.8175     4.6168   581.4292
  893.0000    17.9530   -20.9379    61.5106    16.5913     4.7455   591.9406
  893.5000    17.8755   -21.0602    61.5408    16.4369     4.5867   577.6362
  894.0000    17.8733   -20.7563    61.5710    16.3650     4.5035   577.6213
  894.5000    17.8711   -20.6032    61.6012    16.4404     4.4355   576.1026
  895.0000    17.9443   -20.4501    61.6351    16.7421     4.4053   568.5689
  895.5000    18.0173   -20.5976    61.3973    17.0437     4.3600   563.2946
  896.0000    18.1656   -20.7452    60.1813    17.3454     4.2844   579.8173
  896.5000    18.2432   -20.9482    60.2115    17.6471     4.4055   573.7874
  897.0000    18.3981   -21.1016    60.2417    17.8733     4.5191   568.5093
  897.5000    18.5355   -21.1862    60.2719    18.0241     4.5494   528.6448
  898.0000    18.5328   -21.1832    60.3046    18.0995     4.4209   518.1036
  898.5000    18.4552   -21.1802    58.8218    18.0995     4.4449   525.6074
  899.0000    18.4530   -21.1772    57.0267    18.0241     4.3227   530.8594
  899.5000    18.3758   -21.0235    54.4762    17.9487     4.2622   530.0889
  900.0000    18.2980   -20.8704    52.1148    17.8733     4.2623   559.3985
  900.5000    18.2205   -20.8674    49.8792    17.7923     4.3401   566.2279
  901.0000    18.1431   -20.7143    49.9094    17.6471     4.5018   560.6771
  901.5000    18.0655   -20.7114    51.4501    17.4962     4.6584   534.6105
  902.0000    17.9880   -20.7085    52.9909    17.3454     4.2323   504.5426
  902.5000    17.9104   -20.7055    54.5360    17.3454     4.3837   493.2719
  903.0000    17.8324   -20.7026    56.0725    17.1946     4.2098   488.7680
  903.5000    17.7549   -20.7207    60.6395    17.1192     4.1796   492.5347
  904.0000    17.6774   -20.8709    65.2007    16.8807     4.1948   516.6023
  904.5000    17.5245   -20.8709    66.7408    16.7284     4.2100   537.6623
  905.0000    17.4088   -20.8709    68.2809    16.5007     4.2858   545.1885
  905.5000    17.2189   -21.0210    68.3082    16.3484     4.4080   537.6771
  906.0000    16.9155   -21.0731    68.3384    16.1146     4.5666   567.0078
  906.5000    16.6874   -21.1712    68.3695    15.8801     4.5886   581.3008
  907.0000    16.4593   -21.1712    68.3988    15.6649     4.4828   563.2037
  907.5000    16.3065   -21.0210    68.4290    15.5126     4.3542   561.0148
  908.0000    16.3042   -21.0210    68.4592    15.4357     4.5510   563.2779
  908.5000    16.3020   -20.8709    68.4949    15.3590     4.6268   552.7608
  909.0000    16.2993   -20.5706    68.5245    15.3573     4.4528   559.5351
  909.5000    16.3729   -20.4204    68.5499    15.3559     4.4150   563.3000
  910.0000    16.4460   -20.2703    68.5835    15.5056     4.5286   543.0085
  910.5000    16.4435   -20.2703    68.6103    15.7300     4.5665   536.9990
  911.0000    16.4410   -20.2703    68.6405    15.8793     4.5212   534.7526
  911.5000    16.4388   -20.2703    68.6707    15.8778     4.2867   525.7374
  912.0000    16.4367   -20.2703    68.7016    15.8009     4.4003   512.9610
  912.5000    16.4345   -20.2703    68.7311    15.6483     4.8317   534.7747
  913.0000    16.4322   -20.1201    68.7613    15.4960     4.8620   537.9301
  913.5000    16.3545   -20.1201    68.7926    15.4191     4.8999   512.2331
  914.0000    16.2771   -19.9700    68.8271    15.3796     4.8016   497.2029
  914.5000    16.1699   -19.9700    68.8520    15.3409     4.8622   500.9697
  915.0000    16.0467   -19.9700    68.8822    15.2638     4.6731   488.1970
  915.5000    15.9688   -19.9700    68.9181    15.2624     4.5673   484.4449
  916.0000    15.8160   -19.9700    68.9426    15.1855     4.4901   505.5050
  916.5000    15.7189   -19.8198    68.9728    15.1086     4.5557   545.3601
  917.0000    15.5704   -19.8198    69.0030    15.1048     4.6432   580.7077
  917.5000    15.3575   -19.6697    69.0332    15.0226     4.5752   583.7208
  918.0000    15.2353   -19.5195    69.0682    14.8021     4.5147   564.9330
  918.5000    15.0944   -19.3694    69.0937    14.6586     4.5602   544.6378
  919.0000    14.8991   -19.2192    69.1248    14.4661     4.7646   549.9083
  919.5000    14.7462   -19.0405    69.1541    14.1944     4.7646   531.1206
  920.0000    14.5934   -18.8839    69.1843    14.0421     4.9312   534.1355
  920.5000    14.5907   -18.7688    69.2145    13.8898     5.1885   504.0482
  921.0000    14.5889   -18.7688    69.2478    13.8883     5.1810   495.8044
  921.5000    14.5866   -18.7688    70.7855    13.8869     4.9919   510.4442
  922.0000    14.5841   -18.7688    70.8157    13.8854     4.7347   515.3680
  922.5000    14.5821   -18.7688    71.2824    13.8084     4.7499   489.8115
  923.0000    14.5796   -18.7688    72.3870    13.8069     4.8181   511.6234
  923.5000    14.5021   -18.7688    73.4776    13.6543     4.7350   476.2943
  924.0000    14.4246   -18.9429    75.6895    13.5774     4.5904   480.0611
  924.5000    14.1965   -19.0691    81.5464    13.4251     4.5384   463.5271
  925.0000    13.9684   -19.0691    83.0865    13.2728     4.5763   459.7751
  925.5000    13.8843   -19.0691    84.6224    13.1205     4.7731   469.5569
  926.0000    13.8067   -19.0691    84.6561    13.1192     4.5992   507.9101
  926.5000    13.7292   -19.0691    84.6828    13.0422     4.6371   528.2182
  927.0000    13.6578   -19.0691    84.7152    13.0407     4.7052   532.7369
  927.5000    13.6559   -19.0691    84.7447    13.0392     4.7204   532.6191
  928.0000    13.5780   -18.9189    84.7742    12.9623     4.4784   506.2754
  928.5000    13.5761   -18.7688    84.8037    12.9608     4.5768   510.5040
  929.0000    13.5736   -18.4644    84.8338    12.9510     4.7660   540.2870
  929.5000    13.5715   -18.0180    84.8641    12.8824     4.7132   541.0464
  930.0000    13.5690   -17.8679    84.8943    12.8806     4.6300   546.3169
  930.5000    13.5670   -17.5676    84.9267    12.8791     4.4636   516.2491
  931.0000    13.5646   -17.4174    84.9547    12.8778     4.5167   489.9407
  931.5000    13.5625   -17.5676    84.9849    12.8008     4.6151   509.4969
  932.0000    13.5598   -17.7177    84.6668    12.7993     4.5913   521.5344
  932.5000    13.5580   -18.0180    83.5367    12.7979     4.5084   538.8350
  933.0000    13.5460   -18.2222    83.5650    12.7609     4.5018   528.3161
  933.5000    13.4779   -18.4685    83.5952    12.7195     4.5927   526.0678
  934.0000    13.4759   -18.6186    83.6277    12.7179     4.6684   538.1053
  934.5000    13.4734   -18.7688    83.6556    12.6407     4.5172   545.7220
  935.0000    13.4712   -18.9189    83.6892    12.6395     4.5021   566.5403
  935.5000    13.4382   -18.9189    83.7160    12.6380     4.6990   591.5109
  936.0000    13.3657   -18.7508    83.7507    12.6363     4.8428   584.7514
  936.5000    13.3140   -18.4439    83.7764    12.5594     4.8580   566.7155
  937.0000    13.2363   -18.1682    83.8098    12.5581     4.8581   532.1364
  937.5000    13.2049   -18.0180    83.8369    12.5565     4.8960   523.1212
  938.0000    13.1566   -17.8679    83.8688    12.5549     4.9263   498.3166
