~VERSION INFORMATION
 VERS.                2.0:   CWLS LOG ASCII STANDARD - VERSION 2.0
 WRAP.                 NO:   ONE LINE PER DEPTH STEP
~WELL INFORMATION
#MNEM.UNIT      DATA TYPE    INFORMATION
#----------   ------------   ------------------------------
 STRT.F           25.0000:   START DEPTH
 STOP.F          867.0000:   STOP DEPTH
 STEP.F            0.5000:   STEP LENGTH
 NULL.          -999.2500:   NO VALUE
 COMP. LAWRENCE/ALLISON INC:   COMPANY
 WELL.    38-11 SX #35-35:   WELL
 FLD .             TEAPOT:   FIELD
 LOC .      S35 T39N R78W:   LOCATION
 CNTY.            NATRONA:   COUNTY
 STAT.            WYOMING:   STATE
 CTRY. UNITED STATES OF AMERICA:   COUNTRY
 SRVC.      Dresser Atlas:   SERVICE COMPANY
 DATE.        07-AUG-1985:   LOGDATE
 API .       490251104100:   API NUMBER
~CURVE INFORMATION
#MNEM.UNIT       API CODE    CURVE DESCRIPTION
#----------   ------------   ------------------------------
 DEPT.F                  :   
 SPR .MV     07 010 01 00:   SPONTANEOUS POTENTIAL
 RILD.OHMM   07 120 46 00:   INDUCTION LOG DEEP RESISTIVITY
 RILM.OHMM   07 120 44 00:   INDUCTION LOG MEDIUM RESISTIVITY
 RFOC.OHMM   07 220 04 00:   RESISTIVITY FOCUSED LOG
 PORD.DEC    45 890 12 00:   POROSITY DENSITY SANDSTONE
 CNC .DEC    42 890 03 00:   NEUTRON POROSITY SANDSTONE
 GRD .GAPI   45 310 01 00:   GAMMA RAY FROM DENSITY LOG
 CALD.IN     45 280 60 00:   CALIPER FROM DENSITY LOG
 CORR.G/C3   45 356 01 00:   DENSITY CORRECTION
 DEN .G/C3   45 350 01 00:   COMPENSATED BULK DENSTIY
~PARAMETER INFORMATION
#MNEM.UNIT          VALUE    DESCRIPTION
#----------   ------------   ------------------------------
 PD  .                 GL:   PERMANENT DATUM
 EPD .F              5110:   ELEVATION PERMANENT DATUM
 LMF .                 GL:   LOG MEASURED FROM
 DMF .                 GL:   DRILLING MEASURED FROM
 EGL .F              5110:   GROUND LEVEL
 DATE.             8-7-85:   RUN DATE
 RUN .                  1:   RUN NUMBER
 DD  .F               900:   DEPTH DRILLER
 DL  .F               869:   DEPTH LOGGER
 BLI .F               867:   BOTTOM LOG INTERVAL
 TLI .F                40:   TOP LOG INTERVAL
 CS  .IN            8.625:   CASING SIZE
 CBD .F                40:   CASING BOTTOM DRILLER
 CBL .F                40:   CASING BOTTOM LOGGER
 BS  .IN            7.875:   BIT SIZE
 BSD .F               900:   BIT SIZE AT DEPTH
 DFT .             4% KCL:   DRILLING FLUID TYPE
 MSS .           FLOWLINE:   MUD SAMPLE SOURCE
 RMS .OHMM           .222:   RESISTIVITY MUD SAMPLE
 MST .F                71:   MUD SAMPLE TEMPERATURE
 TCS .HRS               2:   TIME CURCULATED STOPPED
 MRT .F               100:   MAXIMUM RECORDED TEMPERATURE
 LUN .               6264:   LOGGING UNIT NUMBER
 LUL .               GLTE:   LOGGING UNIT LOCATION
 ENGI.           FAHLSING:   RECORDING ENGINEER
 WITN.              FIVAS:   WITNESSED BY
 CLNT.            A2DTECH:   CLIENT CODE
 ORIG.       2", 5" PRINT:   ORIGIN OF DATA
 UWI .       490251104100:   UNIQUE WELL ID
 DICO. A2D Technologies, Inc.:   DIGITIZING COMPANY
~OTHER INFORMATION
~A   DEPT      SPR       RILD       RILM       RFOC       PORD          CNC      GRD       CALD       CORR        DEN   
# ...
  226.0000   -85.0345     4.9806     5.0151     4.9570     0.1596     0.3423    97.1848     8.3735     0.0253     2.4145
  226.5000   -84.8826     4.9442     4.9806     5.0251     0.1610     0.3420    92.3864     8.3744     0.0329     2.4115
  227.0000   -85.1819     4.8451     4.9124     5.0244     0.1619     0.3292    86.3833     8.3753     0.0405     2.4101
  227.5000   -85.6315     4.6486     4.7132     5.0237     0.1637     0.3309    85.1994     8.3762     0.0531     2.4064
  228.0000   -86.0812     4.3387     4.3387     4.9541     0.1667     0.3582    90.0396     8.3771     0.0719     2.4004
  228.5000   -86.6867     4.0216     3.9392     4.8855     0.1748     0.3914    97.2894     8.3780     0.0823     2.3937
  229.0000   -87.2812     3.5520     3.5766     4.7191     0.1867     0.4237    98.8111     8.3789     0.1003     2.3848
  229.5000   -87.5805     3.1807     3.2249     4.1959     0.2020     0.4381    92.8132     8.3798     0.0958     2.3608
  230.0000   -87.7294     2.9687     2.9687     3.6796     0.2143     0.3938    89.8168     8.3807     0.0943     2.3348
  230.5000   -87.5772     2.8093     2.8287     3.1173     0.2160     0.3734    91.9514     8.3816     0.1003     2.3159
  231.0000   -87.2750     2.7140     2.7328     2.9291     0.2058     0.3518    93.1772     8.3825     0.0898     2.3235
  231.5000   -86.8224     2.7708     2.8093     3.0983     0.1855     0.3467    92.8969     8.3834     0.0763     2.3574
  232.0000   -86.3698     2.8680     3.2473     3.2837     0.1675     0.3638    90.5082     8.3692     0.0823     2.3858
  232.5000   -86.0675     3.1156     3.5766     4.3396     0.1579     0.3747    86.9147     8.3701     0.0943     2.4113
  233.0000   -85.9157     3.3669     3.7277     4.4916     0.1564     0.3674    84.8272     8.3559     0.1003     2.4166
  233.5000   -85.9142     3.7127     3.8621     4.2789     0.1591     0.3572    85.4505     8.3570     0.0674     2.4151
  234.0000   -85.7624     3.9940     4.0495     4.2198     0.1582     0.3605    87.8811     8.3730     0.0599     2.4114
  234.5000   -85.6105     4.2498     4.1916     4.2779     0.1540     0.3638    90.9140     8.3739     0.0765     2.4182
  235.0000   -85.4587     4.4294     4.3990     4.2660     0.1483     0.3563    95.1518     8.3748     0.0944     2.4272
  235.5000   -85.2902     4.7132     4.6166     4.2526     0.1435     0.3479    98.7872     8.3908     0.1003     2.4340
  236.0000   -85.0042     4.9124     4.8118     4.2466     0.1423     0.3455   100.0130     8.3917     0.0988     2.4423
  236.5000   -84.7020     4.8451     4.8786     4.3050     0.1470     0.3526    96.7206     8.3925     0.1018     2.4431
  237.0000   -84.7005     4.7132     4.7787     4.3643     0.1518     0.3628    93.4283     8.3934     0.0913     2.4356
  237.5000   -84.8498     4.5534     4.5534     4.4859     0.1566     0.3658    92.5201     8.4245     0.0719     2.4275
  238.0000   -85.4494     4.3990     4.3990     4.3933     0.1623     0.3460    93.4702     8.4254     0.0629     2.4155
  238.5000   -85.8995     4.2792     4.2498     4.1855     0.1646     0.3328    94.3947     8.4414     0.0763     2.4065
  239.0000   -86.1987     4.1341     4.1057     4.0151     0.1634     0.3407    94.7168     8.4423     0.0883     2.3984
  239.5000   -86.4980     3.9634     3.9665     3.9595     0.1544     0.3699    93.8125     8.4432     0.1018     2.4161
  240.0000   -86.6469     3.7760     3.8057     4.0698     0.1538     0.3999    91.0438     8.4592     0.0868     2.4254
  240.5000   -86.9458     3.5766     3.6496     4.1258     0.1645     0.3954    88.1531     8.4601     0.0629     2.4030
  241.0000   -86.9443     3.4315     3.5275     3.8424     0.1849     0.3897    90.6225     8.4610     0.0958     2.3791
  241.5000   -86.9429     3.4079     3.4553     3.3930     0.2116     0.4076    93.3633     8.4619     0.1183     2.3208
  242.0000   -86.9414     3.4792     3.5033     3.2387     0.2161     0.4289    94.2400     8.4801     0.1244     2.3149
  242.5000   -86.9398     3.5275     3.5033     3.3752     0.2056     0.4184    88.5433     8.4941     0.0999     2.3371
  243.0000   -86.9381     3.4315     3.4315     3.6917     0.1942     0.3950    83.7449     8.4950     0.0716     2.3532
  243.5000   -86.9366     3.3381     3.2924     4.0101     0.1918     0.3804    83.1582     8.4959     0.0644     2.3577
  244.0000   -86.9351     3.2028     3.1807     3.9545     0.1995     0.3851    85.5940     8.4968     0.0973     2.3316
  244.5000   -86.9336     3.0729     3.0518     3.6902     0.2103     0.3857    89.8318     8.4977     0.1332     2.3226
  245.0000   -87.2329     2.9280     2.9079     3.4436     0.2148     0.3872    93.1660     8.4986     0.1482     2.3174
  245.5000   -87.5326     2.7900     2.7900     3.1913     0.2151     0.4133    93.4881     8.4844     0.1347     2.3175
  246.0000   -87.8318     2.5655     2.5861     3.0614     0.2163     0.4686    92.0030     8.4098     0.0823     2.3145
  246.5000   -87.8300     2.4094     2.4137     3.0576     0.2243     0.4716    92.3251     8.4560     0.0314     2.3026
  247.0000   -87.8285     2.2999     2.3158     3.0836     0.2390     0.4342    93.8521     8.4720     0.0404     2.2750
  247.5000   -87.9774     2.3158     2.2684     2.9359     0.2555     0.4294    95.3790     8.4427     0.0464     2.2399
  248.0000   -87.9760     2.3642     2.3020     2.6066     0.2700     0.4635    96.0024     8.3980     0.0704     2.2160
  248.5000   -87.9745     2.4641     2.3828     2.4004     0.2668     0.5000    93.9149     8.3991     0.0734     2.2280
  249.0000   -87.8225     2.6898     2.5683     2.4694     0.2494     0.4791    88.8153     8.4000     0.0644     2.2557
  249.5000   -87.6704     3.0942     2.7900     3.0795     0.2216     0.4530    86.1202     8.4009     0.0240     2.2969
  250.0000   -87.1610     3.3381     2.9483     3.9156     0.1883     0.4138    87.3459     8.4018     0.0299     2.3538
  250.5000   -86.4619     3.4814     3.0515     4.2888     0.1814     0.3617    86.1670     8.3843     0.0420     2.3718
  251.0000   -85.7236     3.6534     3.5028     4.2297     0.1853     0.3599    87.1042     8.3730     0.0406     2.3741
  251.5000   -85.4271     3.8088     3.8048     3.9472     0.1907     0.3683    89.5407     8.3891     0.0372     2.3681
  252.0000   -85.2812     3.9382     3.9381     3.9198     0.1853     0.3818    91.9772     8.4049     0.0347     2.3548
  252.5000   -84.9849     3.9926     3.9652     3.9467     0.1829     0.3762    90.7982     8.4208     0.0528     2.3661
  253.0000   -84.8391     3.9376     3.9376     4.0013     0.1811     0.3636    89.6214     8.3913     0.0469     2.3728
  253.5000   -84.8436     3.8038     3.8301     4.0010     0.1852     0.3493    90.8531     8.3921     0.0335     2.3662
  254.0000   -84.8481     3.6493     3.6493     3.9448     0.1870     0.3498    93.8920     8.3626     0.0215     2.3655
  254.5000   -85.1754     3.4770     3.4294     3.8358     0.1885     0.3670    97.2322     8.3481     0.0441     2.3640
  255.0000   -85.6099     3.2450     3.2901     3.7042     0.1930     0.3846    99.9699     8.3641     0.0517     2.3499
  255.5000   -85.7647     3.0494     3.0494     3.5772     0.2007     0.3886    97.2761     8.3496     0.0622     2.3365
  256.0000   -85.9196     2.8656     2.8070     3.4837     0.2100     0.3970    95.5056     8.3656     0.0743     2.3208
  256.5000   -86.0744     2.6016     2.5294     3.4121     0.2112     0.4108    98.3343     8.3815     0.0833     2.3231
  257.0000   -86.0788     2.3619     2.2952     3.3189     0.2112     0.4291   100.8011     8.3822     0.0744     2.3240
  257.5000   -86.0833     2.2196     2.2003     3.1621     0.2172     0.4525   102.8665     8.3981     0.0580     2.3203
  258.0000   -85.7859     2.1442     2.1590     2.8905     0.2330     0.4878   103.4512     8.3988     0.0446     2.2942
  258.5000   -85.4896     2.2193     2.2814     2.4659     0.2625     0.4519   104.3817     8.3996     0.0686     2.2546
  259.0000   -85.3437     2.3613     2.4441     2.2540     0.2713     0.4055   104.7030     8.3852     0.1211     2.2232
