~VERSION INFORMATION
 VERS.                2.0:   CWLS LOG ASCII STANDARD - VERSION 2.0
 WRAP.                 NO:   ONE LINE PER DEPTH STEP
~WELL INFORMATION
#MNEM.UNIT      DATA TYPE    INFORMATION
#----------   ------------   ------------------------------
 STRT.F           90.5000:   START DEPTH
 STOP.F          836.0000:   STOP DEPTH
 STEP.F            0.5000:   STEP LENGTH
 NULL.          -999.2500:   NO VALUE
 COMP.          U.S. NAVY:   COMPANY
 WELL.    NPR #3 #38-S-35:   WELL
 FLD .           TEAPOT E:   FIELD
 LOC .      S35 T39N R78W:   LOCATION
 CNTY.            NATRONA:   COUNTY
 STAT.            WYOMING:   STATE
 CTRY. UNITED STATES OF AMERICA:   COUNTRY
 SRVC. Schlumberger Well Surveying Corp:   SERVICE COMPANY
 DATE.        21-JUL-1963:   LOGDATE
 API .       490250649100:   API NUMBER
~CURVE INFORMATION
#MNEM.UNIT       API CODE    CURVE DESCRIPTION
#----------   ------------   ------------------------------
 DEPT.F                  :   
 SPR .MV     05 010 01 00:   SPONTANEOUS POTENTIAL FROM RES.
 ASN .OHMM   05 041 16 00:   AMPLIFIED SHORT NORMAL 16"
 ILD .OHMM   05 120 46 00:   INDUCTION LOG DEEP
 CILD.MMHO   05 110 46 00:   CONDUCTIVITY INDUCTION LOG DEEP
 DT  .US/F   60 520 33 00:   INTERVAL TRANSIT TIME
 GR  .GAPI   30 310 01 00:   GAMMA RAY
~PARAMETER INFORMATION
#MNEM.UNIT          VALUE    DESCRIPTION
#----------   ------------   ------------------------------
 LMF .                 KB:   LOG MEASURED FROM
 DMF .                 KB:   DRILLING MEASURED FROM
 EKB .F              5119:   KELLING BUSHING
 EGL .F              5114:   GROUND LEVEL
 DATE.          7-21-1963:   RUN DATE
 RUN .                  1:   RUN NUMBER
 DD  .F               836:   DEPTH DRILLER
 DL  .F               837:   DEPTH LOGGER
 BLI .F               836:   BOTTOM LOG INTERVAL
 TLI .F                90:   TOP LOG INTERVAL
 CBD .F                12:   CASING BOTTOM DRILLER
 BS  .IN             6.75:   BIT SIZE
 BSD .F               836:   BIT SIZE AT DEPTH
 DFT .            GEL-OIL:   DRILLING FLUID TYPE
 DFD .                9.2:   DRILLING FLUID DENSITY
 DFV .                 85:   DRILLING FLUID VISCOSITY
 DFPH.                  8:   DRILLING FLUID PH
 DFL .                3.6:   DRILLING FLUID LOSS
 MSS .           FLOWLINE:   MUD SAMPLE SOURCE
 RMS .OHMM           2.95:   RESISTIVITY MUD SAMPLE
 MST .F                88:   MUD SAMPLE TEMPERATURE
 RMF .OHMM           2.31:   RESISTIVITY MUD FILTRATE SAMPLE
 MFST.F                88:   MUD FILTRATE SAMPLE TEMPERATURE
 RMC .OHMM           2.65:   RESISTIVITY MUD CAKE
 MCST.F                88:   MUD CAKE SAMPLE TEMPERATURE
 MFSS.                  M:   MUD FILTRATE SAMPLE SOURCE
 MCSS.                  M:   MUD CAKE SAMPLE SOURCE
 TCS .HRS               1:   TIME CURCULATED STOPPED
 LUN .               2523:   LOGGING UNIT NUMBER
 LUL .              CSPR.:   LOGGING UNIT LOCATION
 ENGI.             KNOBEL:   RECORDING ENGINEER
 WITN.          JORGENSON:   WITNESSED BY
 CLNT.            A2DTECH:   CLIENT CODE
 ORIG.      2" , 5" PRINT:   ORIGIN OF DATA
 UWI .       490250649100:   UNIQUE WELL ID
 DICO. A2D Technologies, Inc.:   DIGITIZING COMPANY
~OTHER INFORMATION
~A   DEPT      SPR        ASN        ILD       CILD         DT         GR   
# ...
  402.5000   -22.0223     6.8230     5.6847   158.6587   104.5292  -999.2500
  403.0000   -22.0862     6.7942     5.7389   157.5415   104.6176  -999.2500
  403.5000   -22.0732     6.7919     5.7929   156.5045   104.7325  -999.2500
  404.0000   -22.0364     6.8393     5.8469   155.3877   105.0418  -999.2500
  404.5000   -21.9992     6.8858     5.9009   153.9060   105.2425  -999.2500
  405.0000   -21.9623     6.9334     5.9549   152.4241   104.9561  -999.2500
  405.5000   -21.9252     7.0001     6.0089   150.9495   104.9645  -999.2500
  406.0000   -21.8641     7.0900     6.0682   149.3964   105.3512  -999.2500
  406.5000   -21.7481     7.1800     6.1533   147.4087   105.3235  -999.2500
  407.0000   -21.6331     7.2274     6.2399   145.4211   102.4975  -999.2500
  407.5000   -21.5217     7.2461     6.3263   143.4334   105.5545  -999.2500
  408.0000   -21.3253     7.2646     6.4127   141.4458   105.6943  -999.2500
  408.5000   -21.1176     7.3075     6.4992   139.4581   104.1186  -999.2500
  409.0000   -20.9080     7.4152     6.5856   137.4705   102.9471  -999.2500
  409.5000   -20.7101     7.5334     6.6720   135.4828   101.9628  -999.2500
  410.0000   -20.8569     7.6553     6.7584   133.4952   102.4168  -999.2500
  410.5000   -21.0209     7.7783     6.8450   131.5075   101.8220  -999.2500
  411.0000   -21.1831     7.8432     6.9313   129.5199   101.2280  -999.2500
  411.5000   -21.3451     7.8814     7.0176   127.5322   100.8383  -999.2500
  412.0000   -21.5072     7.9193     7.0330   126.9403   100.5978  -999.2500
  412.5000   -21.6729     7.9573     6.9647   127.5164   100.5078  -999.2500
  413.0000   -21.6597     7.9957     6.8962   128.0925   100.6653  -999.2500
  413.5000   -21.6092     8.0364     6.8275   128.6286   101.1808  -999.2500
  414.0000   -21.5582     7.9420     6.7591   131.5334   101.6963  -999.2500
  414.5000   -21.5076     7.8313     6.6906   134.2495   102.2118  -999.2500
  415.0000   -21.4571     7.7205     6.6221   136.9655   102.7273  -999.2500
  415.5000   -21.4065     7.6100     6.5537   139.6396   103.2428  -999.2500
  416.0000   -21.3558     7.4989     6.4858   139.3625   103.7637  -999.2500
  416.5000   -21.3055     7.3902     6.4141   139.0907   104.2947  -999.2500
  417.0000   -21.2998     7.3437     6.2783   138.8076   104.7952  -999.2500
  417.5000   -21.2999     7.5566     6.2430   139.2433    99.0210  -999.2500
  418.0000   -21.3000     7.8818     6.2338   140.9676    98.3850  -999.2500
  418.5000   -21.3000     8.0275     6.2225   142.6426    98.8490  -999.2500
  419.0000   -21.3000     7.6363     6.2110   140.6381    98.7867  -999.2500
  419.5000   -21.3000     7.8696     6.1995   138.6937    98.9186  -999.2500
  420.0000   -21.2999     8.0672     6.1880   136.6366   101.1644  -999.2500
  420.5000   -21.3067     7.6176     6.1763   137.6376   105.2947  -999.2500
  421.0000   -21.3157     7.4049     6.1649   138.6507   104.3391  -999.2500
  421.5000   -21.3248     7.3688     6.1643   139.6877   103.1707  -999.2500
  422.0000   -21.3338     7.4355     6.2056   140.7247   101.8981  -999.2500
  422.5000   -21.3428     7.4993     6.2455   141.5654   101.7183  -999.2500
  423.0000   -21.3518     7.5646     6.2854   140.9069   102.6020  -999.2500
  423.5000   -21.3608     7.5792     6.3253   140.2485   102.3510  -999.2500
  424.0000   -21.3698     7.5186     6.3651   139.5901   101.7982  -999.2500
  424.5000   -21.3788     7.4441     6.4050   138.9316   102.0649  -999.2500
  425.0000   -21.3878     7.3776     6.4449   138.2732   102.3227  -999.2500
  425.5000   -21.3968     7.3755     6.4848   137.6148   102.2672  -999.2500
  426.0000   -21.4058     7.4477     6.5247   136.9563   101.5512  -999.2500
  426.5000   -21.4149     7.5414     6.5646   136.2979   100.8353  -999.2500
  427.0000   -21.4239     7.6669     6.6046   135.6395   100.1193  -999.2500
  427.5000   -21.4329     7.8087     6.6447   134.9810    99.8926  -999.2500
  428.0000   -21.4419     7.9514     6.6349   134.3226    99.8990  -999.2500
  428.5000   -21.4509     7.9886     6.5601   133.6336   100.2969  -999.2500
  429.0000   -21.4599     7.8856     6.4860   136.2606   101.1661  -999.2500
  429.5000   -21.4689     7.6989     6.4118   139.0153   102.1012  -999.2500
  430.0000   -21.4779     7.5135     6.3378   141.7699   103.0377  -999.2500
  430.5000   -21.4869     7.3277     6.2637   144.5245   103.9733  -999.2500
  431.0000   -21.4960     7.1989     6.1896   147.2791   104.9083  -999.2500
  431.5000   -21.4999     7.1192     6.1155   150.0338   105.3438  -999.2500
  432.0000   -21.5000     7.0419     6.0415   151.0742   105.5586  -999.2500
  432.5000   -21.5000     6.9898     5.9674   151.6200   105.6815  -999.2500
  433.0000   -21.5000     6.9739     5.8930   152.1658   105.6078  -999.2500
  433.5000   -21.5000     6.9577     5.8381   152.8278   104.9357  -999.2500
  434.0000   -21.4838     6.9415     5.8023   154.4482   104.1302  -999.2500
  434.5000   -21.4534     6.9255     5.7666   156.0686   103.3248  -999.2500
  435.0000   -21.4230     6.9092     5.7309   157.6577   102.9326  -999.2500
  435.5000   -21.3925     6.8803     5.6948   157.9686   102.6973  -999.2500
  436.0000   -21.3620     6.8026     5.6572   158.2736   103.7003  -999.2500
  436.5000   -21.3314     6.7285     5.7259   158.5786   104.6953  -999.2500
  437.0000   -21.3007     6.6781     5.8053   157.2020   101.7502  -999.2500
  437.5000   -21.2823     6.6572     5.8847   155.2267   105.3074  -999.2500
  438.0000   -21.2643     6.6834     5.9638   153.2513   105.7083  -999.2500
  438.5000   -21.2461     6.7774     6.0429   151.2760   106.0299  -999.2500
  439.0000   -21.2279     6.9110     6.1220   148.8789   105.7620  -999.2500
  439.5000   -21.2097     7.0442     6.2011   146.2863   105.3335  -999.2500
  440.0000   -21.1916     7.1771     6.2802   143.6926   104.9034  -999.2500
  440.5000   -21.1734     7.2810     6.3594   141.0984   104.5954  -999.2500
  441.0000   -21.1552     7.3386     6.4383   138.5042   104.5954  -999.2500
  441.5000   -21.1370     7.3968     6.5174   136.6366   104.0998  -999.2500
  442.0000   -21.1185     7.4548     6.5133   136.6366   103.4229  -999.2500
  442.5000   -21.1014     7.5131     6.4301   136.8550   102.7466  -999.2500
  443.0000   -21.1387     7.5451     6.3460   138.2692   102.4057  -999.2500
  443.5000   -21.1796     7.5557     6.2618   139.6833   102.2681  -999.2500
  444.0000   -21.2203     7.5041     6.1776   141.0975   102.3589  -999.2500
  444.5000   -21.2609     7.4464     6.0933   142.5116   102.6811  -999.2500
  445.0000   -21.3016     7.3826     6.0101   143.9257   103.0033  -999.2500
  445.5000   -21.3422     7.3173     5.9594   145.3399   103.2409  -999.2500
  446.0000   -21.3829     7.2228     5.9863   146.7540   103.3514  -999.2500
  446.5000   -21.4240     7.1259     6.0121   148.1699   103.4615  -999.2500
  447.0000   -21.4653     7.0342     6.0377   149.5896   103.4194  -999.2500
  447.5000   -21.4732     6.9762     6.0623   150.9911   103.3043  -999.2500
  448.0000   -21.2310     7.0404     6.1137   150.9777   103.1888  -999.2500
  448.5000   -20.9881     7.0970     6.1655   149.6497   102.9950  -999.2500
  449.0000   -20.7457     7.0867     6.2175   146.8031   102.2295  -999.2500
  449.5000   -20.5030     7.0749     6.2835   143.9345   101.3084  -999.2500
  450.0000   -20.2646     7.1834     6.4062   141.0659   100.3873  -999.2500
  450.5000   -20.1363     7.3077     6.5256   138.1972    99.4662  -999.2500
  451.0000   -20.2610     7.4740     6.6450   135.3286    98.6078  -999.2500
  451.5000   -20.3811     7.6545     6.7646   132.4599    98.0956  -999.2500
  452.0000   -20.5023     7.8328     6.8839   129.5912    97.6992  -999.2500
  452.5000   -20.6219     7.9879     7.0043   127.7712    97.7011  -999.2500
  453.0000   -20.7003     8.0794     7.0537   128.2265    97.7003  -999.2500
  453.5000   -20.6708     8.1734     6.9483   128.6817    97.9009  -999.2500
  454.0000   -20.6411     8.2524     6.8355   129.1370    98.5860  -999.2500
