~VERSION INFORMATION
 VERS.                2.0:   CWLS LOG ASCII STANDARD - VERSION 2.0
 WRAP.                 NO:   ONE LINE PER DEPTH STEP
~WELL INFORMATION
#MNEM.UNIT      DATA TYPE    INFORMATION
#----------   ------------   ------------------------------
 STRT.F           14.0000:   START DEPTH
 STOP.F          692.5000:   STOP DEPTH
 STEP.F            0.5000:   STEP LENGTH
 NULL.          -999.2500:   NO VALUE
 COMP. FENIX & SCISSON INC:   COMPANY
 WELL. NPR #3 #27-51 SX 11 WP:   WELL
 FLD .        TEAPOT DOME:   FIELD
 LOC .      S11 T38N R78W:   LOCATION
 CNTY.            NATRONA:   COUNTY
 STAT.            WYOMING:   STATE
 CTRY. UNITED STATES OF AMERICA:   COUNTRY
 SRVC.      Dresser Atlas:   SERVICE COMPANY
 DATE.        16-AUG-1980:   LOGDATE
 API .       490251083900:   API NUMBER
~CURVE INFORMATION
#MNEM.UNIT       API CODE    CURVE DESCRIPTION
#----------   ------------   ------------------------------
 DEPT.F                  :   
 RHOB.G/C3   45 350 01 00:   BULK DENSITY
 CORR.G/C3   45 356 01 00:   DENSITY CORRECTION
 GRD .GAPI   45 310 01 00:   GAMMA RAY FROM DENSITY LOG
 CALD.IN     45 280 60 00:   CALIPER
 NPOR.DEC    42 890 03 00:   NEUTRON POROSITY SANDSTONE
 DPOR.DEC    45 890 12 00:   DENSITY POROSITY SANDSTONE
 SPR .MV     07 010 01 00:   SPONTANEOUS POTENTIAL
 SFL .OHMM   07 220 01 00:   SHALLOW FOCUSED LOG RESISTIVITY
 ILM .OHMM   07 120 44 00:   INDUCTION LOG MEDIUM
 ILD .OHMM   07 120 46 00:   INDUCTION LOG DEEP
~PARAMETER INFORMATION
#MNEM.UNIT          VALUE    DESCRIPTION
#----------   ------------   ------------------------------
 PD  .                 GL:   PERMANENT DATUM
 EPD .F              5194:   ELEVATION PERMANENT DATUM
 LMF .                 KB:   LOG MEASURED FROM
 DAPD.F                 5:   FEET ABOVE PERMANENT DATUM
 DMF .                 KB:   DRILLING MEASURED FROM
 EKB .F              5199:   KELLING BUSHING
 EGL .F              5194:   GROUND LEVEL
 DATE.            8-16-80:   RUN DATE
 RUN .                  1:   RUN NUMBER
 DD  .F               685:   DEPTH DRILLER
 DL  .F               693:   DEPTH LOGGER
 BLI .F               692:   BOTTOM LOG INTERVAL
 TLI .F                25:   TOP LOG INTERVAL
 BS  .IN            7.875:   BIT SIZE
 BSD .F               685:   BIT SIZE AT DEPTH
 DFT .                KCL:   DRILLING FLUID TYPE
 DFD .                9.4:   DRILLING FLUID DENSITY
 DFV .                 45:   DRILLING FLUID VISCOSITY
 DFPH.                 11:   DRILLING FLUID PH
 DFL .                7.2:   DRILLING FLUID LOSS
 MSS .           FLOWLINE:   MUD SAMPLE SOURCE
 RMS .OHMM            .74:   RESISTIVITY MUD SAMPLE
 MST .F                60:   MUD SAMPLE TEMPERATURE
 RMF .OHMM            .44:   RESISTIVITY MUD FILTRATE SAMPLE
 MFST.F                60:   MUD FILTRATE SAMPLE TEMPERATURE
 RMC .OHMM           1.35:   RESISTIVITY MUD CAKE
 MCST.F                60:   MUD CAKE SAMPLE TEMPERATURE
 MFSS.               MEAS:   MUD FILTRATE SAMPLE SOURCE
 MCSS.               MEAS:   MUD CAKE SAMPLE SOURCE
 TCS .HRS               1:   TIME CURCULATED STOPPED
 LUN .               6180:   LOGGING UNIT NUMBER
 LUL .               CODY:   LOGGING UNIT LOCATION
 ENGI.              HOYER:   RECORDING ENGINEER
 WITN.           MCINTYRE:   WITNESSED BY
 CLNT.            A2DTECH:   CLIENT CODE
 ORIG.      2" 2.5" PRINT:   ORIGIN OF DATA
 UWI .       490251083900:   UNIQUE WELL ID
 DICO. A2D Technologies, Inc.:   DIGITIZING COMPANY
~OTHER INFORMATION
~A   DEPT     RHOB       CORR        GRD       CALD       NPOR       DPOR        SPR        SFL         ILM       ILD   
# ...
  449.5000     2.4980     0.0056   125.2381     8.1434     0.2739     0.1006   -77.3569     7.2850     6.5490     7.0075
  450.0000     2.5119     0.0128   122.8646     8.1278     0.2747     0.0912   -77.5530     7.2839     6.8208     7.1125
  450.5000     2.5263     0.0197   120.3849     8.1125     0.2699     0.0912   -77.7479     7.4100     6.9249     7.2191
  451.0000     2.5298     0.0200   120.0698     8.0973     0.2692     0.0896   -77.9409     7.5533     7.0314     7.3274
  451.5000     2.5310     0.0202   121.5664     8.0815     0.2733     0.0885   -78.1353     7.6992     7.1400     7.4373
  452.0000     2.5352     0.0201   123.1796     8.0784     0.2774     0.0880   -78.3326     7.8478     7.2502     7.5485
  452.5000     2.5407     0.0202   121.6510     8.0874     0.2812     0.0880   -78.2626     7.9841     7.3508     7.6633
  453.0000     2.5338     0.0189   119.8478     8.0958     0.2733     0.0934   -78.1702     7.9841     7.3519     7.6962
  453.5000     2.5205     0.0148   118.1222     8.1043     0.2659     0.0986   -78.0792     7.9693     7.3509     7.6962
  454.0000     2.5082     0.0106   118.8407     8.1129     0.2593     0.1038   -77.9878     7.9594     7.3508     7.6962
  454.5000     2.4963     0.0068   119.9274     8.1215     0.2533     0.1089   -78.0479     7.9495     7.3508     7.6959
  455.0000     2.4929     0.0005   120.5298     8.1300     0.2515     0.1096   -78.2482     7.9397     7.3501     7.6951
  455.5000     2.4969     0.0001   120.6100     8.1386     0.2554     0.1107   -78.2465     7.9297     7.3520     7.6979
  456.0000     2.4927     0.0030   120.5777     8.1471     0.2597     0.1112   -78.0668     7.9200     7.1963     7.5774
  456.5000     2.4990     0.0073   123.8754     8.1557     0.2639     0.1040   -77.8852     7.9111     7.0845     7.4992
  457.0000     2.5066     0.0113   123.5204     8.1643     0.2683     0.1048   -77.7032     7.6962     7.0864     7.4219
  457.5000     2.5070     0.0164   123.2118     8.1727     0.2683     0.1021   -77.5209     7.4870     7.0857     7.3453
  458.0000     2.5199     0.0206   123.7695     8.1815     0.2659     0.0992   -77.3365     7.4870     7.0857     7.2686
  458.5000     2.5142     0.0185   121.1008     8.1897     0.2575     0.1052   -77.1584     7.7651     7.1570     7.2149
  459.0000     2.5019     0.0157   122.1149     8.1967     0.2490     0.1113   -77.4310     7.9552     7.4006     7.2170
  459.5000     2.4894     0.0136   122.8029     8.1873     0.2514     0.1129   -77.7379     8.2093     7.6515     7.4040
  460.0000     2.4915     0.0085   122.1999     8.1784     0.2550     0.1099   -77.9484     8.2062     7.9139     7.5511
  460.5000     2.4967     0.0089   121.4032     8.1688     0.2555     0.1064   -77.8756     8.2071     8.2071     7.6258
  461.0000     2.5013     0.0132   120.6448     8.1596     0.2525     0.1019   -77.3740     8.2071     8.2071     7.2436
  461.5000     2.5123     0.0240   120.0985     8.1502     0.2517     0.0955   -76.8527     8.0948     7.5043     6.6911
  462.0000     2.5204     0.0337   118.4171     8.1409     0.2525     0.0892   -76.9346     7.9841     6.6905     6.1644
  462.5000     2.5458     0.0444   114.9801     8.1316     0.2555     0.0840   -77.1790     7.8440     5.9649     5.6799
  463.0000     2.5387     0.0487   116.3811     8.1217     0.2636     0.0891   -77.3475     6.8796     5.3181     5.2365
  463.5000     2.5304     0.0447   121.4328     8.1165     0.2717     0.0996   -77.3451     5.5297     4.9075     4.8626
  464.0000     2.5103     0.0357   118.8036     8.1170     0.2799     0.1100   -77.3448     4.7790     5.2333     4.8626
  464.5000     2.4755     0.0267   111.8598     8.1169     0.2820     0.1208   -77.4568     4.3553     5.7366     5.0330
  465.0000     2.4808     0.0279   111.0105     8.1170     0.2771     0.1120   -77.6584     5.3795     6.2856     5.2213
  465.5000     2.5098     0.0412   115.7601     8.1152     0.2683     0.0952   -77.6165     9.7715     6.9042     5.4918
  466.0000     2.5393     0.0558   116.3902     8.1110     0.2611     0.0840   -77.3862     9.3717     7.4187     6.0685
  466.5000     2.5417     0.0512   114.3562     8.1071     0.2455     0.0869   -77.5650     8.8287     7.9376     7.0347
  467.0000     2.5261     0.0409   112.6929     8.1032     0.2299     0.0944   -77.8505     8.6720     8.3627     8.0745
  467.5000     2.5109     0.0304   112.7615     8.0993     0.2299     0.1020   -78.1318     8.9690     8.6829     8.3632
  468.0000     2.5063     0.0202   118.1659     8.0953     0.2376     0.1048   -78.0679     9.1632     8.9142     8.5963
  468.5000     2.5121     0.0160   116.5239     8.0914     0.2452     0.1021   -77.8505     9.1085     8.9142     8.5927
  469.0000     2.5219     0.0266   113.8420     8.0874     0.2528     0.0961   -77.6342     8.9285     8.9142     8.5927
  469.5000     2.5334     0.0355   111.7199     8.0835     0.2605     0.0904   -77.5449     8.7520     8.9142     8.5908
  470.0000     2.5268     0.0296   113.3829     8.0796     0.2660     0.0945   -77.5510     8.5794     8.9165     8.5895
  470.5000     2.5157     0.0206   115.3856     8.0756     0.2600     0.1000   -77.7884     8.3565     8.9072     8.7586
  471.0000     2.5246     0.0222   117.1903     8.0717     0.2525     0.0955   -78.0406     8.3599     9.5644     9.2469
  471.5000     2.5382     0.0269   115.3094     8.0677     0.2525     0.0898   -78.2952     8.3592    10.2376    10.0372
  472.0000     2.5276     0.0320   113.1808     8.0638     0.2541     0.0959   -78.5188     8.5779    11.6862    11.1902
  472.5000     2.4960     0.0365   105.7752     8.0599     0.2503     0.1081   -77.9545     9.3491    13.8377    12.4757
  473.0000     2.4884     0.0412    99.1117     8.0560     0.2430     0.1152   -77.3472    11.1004    16.2956    13.9089
  473.5000     2.4634     0.0468    91.9458     8.0520     0.2357     0.1263   -76.7657    13.8971    18.8463    15.6180
  474.0000     2.3889     0.0422    84.5421     8.0480     0.2285     0.1460   -76.7395    19.5708    21.0607    17.5909
  474.5000     2.2771     0.0295    79.5873     8.0443     0.2227     0.1792   -77.0245    28.3160    23.3790    19.8130
  475.0000     2.2420     0.0203    78.2068     8.0401     0.2355     0.2124   -77.4860    35.9968    24.2816    22.3159
  475.5000     2.2461     0.0241    76.4148     8.0356     0.2483     0.2410   -77.9303    28.5802    24.7033    24.7601
  476.0000     2.2913     0.0287    75.7355     8.0188     0.2468     0.2475   -77.9470    22.1173    23.6607    25.6934
  476.5000     2.3368     0.0337    78.9549     8.0021     0.2432     0.2086   -77.9447    19.1244    22.5539    23.9551
  477.0000     2.3550     0.0385    82.7548     7.9848     0.2396     0.1867   -77.9441    18.9279    21.4988    22.7442
  477.5000     2.3545     0.0434    86.6709     7.9678     0.2355     0.1893   -77.9442    17.8564    20.4931    21.5962
  478.0000     2.3608     0.0482    87.8780     7.9507     0.2372     0.1820   -77.9439    16.9350    19.8172    20.1703
  478.5000     2.3764     0.0531    87.4338     7.9335     0.2387     0.1734   -77.9457    16.3416    19.8172    20.1942
  479.0000     2.3909     0.0583    88.3557     7.9165     0.2320     0.1649   -77.8197    16.6097    19.7038    19.9084
  479.5000     2.3969     0.0601    89.4602     7.8990     0.2245     0.1676   -77.6214    16.7980    19.4789    19.6360
  480.0000     2.3629     0.0565    88.3276     7.8827     0.2178     0.1763   -77.4208    17.3466    19.2787    19.6360
  480.5000     2.3335     0.0541    87.0296     7.8655     0.2186     0.1948   -77.2235    17.9132    20.1917    20.4645
  481.0000     2.3200     0.0700    86.8648     7.8457     0.2198     0.2063   -76.8320    17.5469    20.1089    21.4260
  481.5000     2.3135     0.0869    87.7948     7.8388     0.2209     0.2087   -76.3291    17.1094    19.9719    22.4326
  482.0000     2.3152     0.0866    87.1368     7.8376     0.2218     0.2098   -76.2300    17.1094    19.8172    22.7438
  482.5000     2.3062     0.0647    86.2155     7.9893     0.2217     0.2176   -76.3505    18.8989    19.8172    22.2276
