~VERSION INFORMATION
 VERS.                2.0:   CWLS LOG ASCII STANDARD - VERSION 2.0
 WRAP.                 NO:   ONE LINE PER DEPTH STEP
~WELL INFORMATION
#MNEM.UNIT      DATA TYPE    INFORMATION
#----------   ------------   ------------------------------
 STRT.F           24.5000:   START DEPTH
 STOP.F          576.0000:   STOP DEPTH
 STEP.F            0.5000:   STEP LENGTH
 NULL.          -999.2500:   NO VALUE
 COMP. FENIX & SCISSON INC:   COMPANY
 WELL.    NPR-3 SX #61-15:   WELL
 FLD .             TEAPOT:   FIELD
 LOC .      S15 T38N R78W:   LOCATION
 CNTY.            NATRONA:   COUNTY
 STAT.            WYOMING:   STATE
 CTRY. UNITED STATES OF AMERICA:   COUNTRY
 SRVC.            Unknown:   SERVICE COMPANY
 DATE.        29-MAY-1978:   LOGDATE
 API .       490251062300:   API NUMBER
~CURVE INFORMATION
#MNEM.UNIT       API CODE    CURVE DESCRIPTION
#----------   ------------   ------------------------------
 DEPT.F                  :   
 GRD .GAPI   45 310 01 00:   GAMMA RAY FROM DENSITY LOG
 CALD.IN     45 280 60 00:   CALIPER FROM DENSITY LOG
 SN  .OHMM   05 040 16 00:   SHORT NORMAL 16'
 SPR .MV     05 010 01 00:   SPONTANEOUS POTENTIAL
 ILD .OHMM   05 120 46 00:   INDUCTION LOG DEEP
 RHOB.G/C3   45 350 01 00:   BULK DENSITY
 DPHI.DEC    45 890 12 00:   DENSITY POROSITY SANDSTONE
 CORR.G/C3   45 356 01 00:   DENSITY CORRECTION
~PARAMETER INFORMATION
#MNEM.UNIT          VALUE    DESCRIPTION
#----------   ------------   ------------------------------
 PD  .                 GL:   PERMANENT DATUM
 EPD .F              5221:   ELEVATION PERMANENT DATUM
 LMF .                 KB:   LOG MEASURED FROM
 DAPD.F                 4:   FEET ABOVE PERMANENT DATUM
 DMF .                 KB:   DRILLING MEASURED FROM
 EKB .F              5225:   KELLING BUSHING
 EGL .F              5221:   GROUND LEVEL
 DATE.          5-29-1978:   RUN DATE
 RUN .                  1:   RUN NUMBER
 DD  .F               565:   DEPTH DRILLER
 DL  .F               578:   DEPTH LOGGER
 BLI .F               570:   BOTTOM LOG INTERVAL
 TLI .F                40:   TOP LOG INTERVAL
 CS  .IN            8.625:   CASING SIZE
 CBD .F                40:   CASING BOTTOM DRILLER
 CBL .F                40:   CASING BOTTOM LOGGER
 BS  .IN            7.875:   BIT SIZE
 BSD .F               565:   BIT SIZE AT DEPTH
 DFT .                KCL:   DRILLING FLUID TYPE
 DFD .                8.7:   DRILLING FLUID DENSITY
 DFV .                 34:   DRILLING FLUID VISCOSITY
 DFPH.                9.5:   DRILLING FLUID PH
 DFL .               10.4:   DRILLING FLUID LOSS
 BHT .F                76:   BOTTOM HOLE TEMPERATURE
 TCS .HRS               3:   TIME CURCULATED STOPPED
 MRT .F                76:   MAXIMUM RECORDED TEMPERATURE
 LUN .               2958:   LOGGING UNIT NUMBER
 LUL .              CASP.:   LOGGING UNIT LOCATION
 ENGI.             MILLER:   RECORDING ENGINEER
 WITN.           MCGINLEY:   WITNESSED BY
 CLNT.            A2DTECH:   CLIENT CODE
 ORIG.      2" , 5" PRINT:   ORIGIN OF DATA
 UWI .       490251062300:   UNIQUE WELL ID
 DICO. A2D Technologies, Inc.:   DIGITIZING COMPANY
~OTHER INFORMATION
~A   DEPT       GRD      CALD         SN        SPR        ILD       RHOB       DPHI       CORR   
   24.5000    46.4237  -999.2500  -999.2500  -999.2500  -999.2500  -999.2500  -999.2500  -999.2500
   25.0000    46.3931  -999.2500  -999.2500  -999.2500  -999.2500  -999.2500  -999.2500  -999.2500
   25.5000    46.3668  -999.2500  -999.2500  -999.2500  -999.2500  -999.2500  -999.2500  -999.2500
   26.0000    46.1670  -999.2500  -999.2500  -999.2500  -999.2500  -999.2500  -999.2500  -999.2500
   26.5000    46.0654  -999.2500  -999.2500  -999.2500  -999.2500  -999.2500  -999.2500  -999.2500
   27.0000    46.3633  -999.2500  -999.2500  -999.2500  -999.2500  -999.2500  -999.2500  -999.2500
   27.5000    46.6966  -999.2500  -999.2500  -999.2500  -999.2500  -999.2500  -999.2500  -999.2500
   28.0000    46.8767  -999.2500  -999.2500  -999.2500  -999.2500  -999.2500  -999.2500  -999.2500
   28.5000    46.9277  -999.2500  -999.2500  -999.2500  -999.2500  -999.2500  -999.2500  -999.2500
   29.0000    46.9217  -999.2500  -999.2500  -999.2500  -999.2500  -999.2500  -999.2500  -999.2500
   29.5000    45.7783  -999.2500  -999.2500  -999.2500  -999.2500  -999.2500  -999.2500  -999.2500
   30.0000    42.8780  -999.2500  -999.2500  -999.2500  -999.2500  -999.2500  -999.2500  -999.2500
   30.5000    41.4807  -999.2500  -999.2500  -999.2500  -999.2500  -999.2500  -999.2500  -999.2500
   31.0000    41.3816  -999.2500  -999.2500  -999.2500  -999.2500  -999.2500  -999.2500  -999.2500
   31.5000    41.2871  -999.2500  -999.2500  -999.2500  -999.2500  -999.2500  -999.2500  -999.2500
   32.0000    40.2469  -999.2500  -999.2500  -999.2500  -999.2500  -999.2500  -999.2500  -999.2500
   32.5000    39.1013  -999.2500  -999.2500  -999.2500  -999.2500  -999.2500  -999.2500  -999.2500
   33.0000    38.0622  -999.2500  -999.2500  -999.2500  -999.2500  -999.2500  -999.2500  -999.2500
   33.5000    39.3533  -999.2500  -999.2500  -999.2500  -999.2500  -999.2500  -999.2500  -999.2500
   34.0000    41.9113  -999.2500  -999.2500  -999.2500  -999.2500  -999.2500  -999.2500  -999.2500
   34.5000    44.2952  -999.2500  -999.2500  -999.2500  -999.2500  -999.2500  -999.2500  -999.2500
   35.0000    44.2925  -999.2500  -999.2500  -999.2500  -999.2500  -999.2500  -999.2500  -999.2500
   35.5000    44.2688  -999.2500  -999.2500  -999.2500  -999.2500  -999.2500  -999.2500  -999.2500
   36.0000    44.7593  -999.2500  -999.2500  -999.2500  -999.2500  -999.2500  -999.2500  -999.2500
   36.5000    45.2578  -999.2500  -999.2500  -999.2500  -999.2500  -999.2500  -999.2500  -999.2500
   37.0000    45.3712  -999.2500  -999.2500  -999.2500  -999.2500  -999.2500  -999.2500  -999.2500
   37.5000    45.4436  -999.2500  -999.2500  -999.2500  -999.2500  -999.2500  -999.2500  -999.2500
   38.0000    44.5148  -999.2500  -999.2500  -999.2500  -999.2500  -999.2500  -999.2500  -999.2500
   38.5000    46.6054  -999.2500  -999.2500  -999.2500  -999.2500  -999.2500  -999.2500  -999.2500
   39.0000    49.9449     8.3964  -999.2500  -999.2500  -999.2500     2.4319     0.2365  -999.2500
   39.5000    54.8540     8.4163  -999.2500  -999.2500  -999.2500     2.4458     0.1854     0.1106
   40.0000    66.7133     8.4363  -999.2500  -999.2500  -999.2500     2.4574     0.1236     0.1266
   40.5000    78.5208     8.4373  -999.2500  -999.2500  -999.2500     2.4657     0.1245     0.1378
   41.0000    85.3951     8.4369  -999.2500  -999.2500  -999.2500     2.4700     0.1027     0.1616
   41.5000    85.5070     8.3591  -999.2500  -999.2500  -999.2500     2.4751     0.0980     0.1855
   42.0000    83.1747     8.2153  -999.2500  -999.2500  -999.2500     2.4800     0.1089     0.1916
   42.5000    78.3591     8.0831     7.0109  -999.2500  -999.2500     2.4825     0.1260     0.1791
   43.0000    73.7939     7.9940     7.0062   -10.6932  -999.2500     2.4699     0.1343     0.1667
   43.5000    72.8506     7.8950     7.3135   -15.0392  -999.2500     2.4526     0.1429     0.1543
   44.0000    78.7785     7.7951     7.4853   -18.5349     6.1030     2.4350     0.1472     0.1372
   44.5000    85.9476     7.7387     7.6815   -21.6873     6.1030     2.4293     0.1352     0.1202
   45.0000    85.5995     7.7383     7.6815   -22.7810     6.0810     2.4364     0.1294     0.1033
   45.5000    83.9240     7.7877     7.6815   -23.1170     6.0470     2.4436     0.1252     0.0863
   46.0000    83.7137     7.8608     7.6813   -23.4539     6.0473     2.4491     0.1316     0.0823
   46.5000    85.3257     7.9349     7.6947   -23.7901     6.0480     2.4471     0.1348     0.0806
   47.0000    85.4818     8.0092     7.8316   -24.1320     6.1628     2.4451     0.1299     0.0836
   47.5000    84.8121     8.0008     7.9706   -24.4570     6.3318     2.4466     0.1253     0.1253
   48.0000    85.0701     7.9809     8.1120   -26.0099     6.5055     2.4535     0.1216     0.1699
   48.5000    86.5972     7.9623     8.2560   -28.1730     6.6299     2.4602     0.1236     0.2115
   49.0000    88.0671     7.8888     8.4025   -29.0464     6.6197     2.4603     0.1279     0.2159
   49.5000    89.4526     7.8215     8.5516   -29.8639     6.5994     2.4574     0.1128     0.1749
   50.0000    87.7301     7.8649     8.6575   -30.6874     6.5794     2.4601     0.1179     0.1320
   50.5000    86.0458     7.9085     8.7375   -31.5402     6.5689     2.4723     0.1204     0.0896
   51.0000    85.9270     7.9784     8.7512   -32.5068     6.5692     2.4651     0.1200     0.0606
   51.5000    86.8483     8.1116     8.7699   -32.9960     6.5692     2.4596     0.1208     0.0656
   52.0000    88.1472     8.2436     8.7886   -33.0730     6.5692     2.4580     0.1264     0.0723
   52.5000    89.5577     8.3604     8.8074   -33.1382     6.5696     2.4548     0.1372     0.0824
   53.0000    90.7160     8.3555     8.8189   -33.4189     6.5685     2.4511     0.1328     0.0926
   53.5000    91.0788     8.2662     8.8020   -33.8430     6.5717     2.4473     0.1296     0.1121
   54.0000    92.9181     8.1699     8.7671   -34.2692     6.3002     2.4465     0.1299     0.1488
   54.5000    94.6989     8.0741     8.7319   -34.6887     6.0558     2.4476     0.1304     0.1595
   55.0000    89.8416     7.9775     8.6968   -35.1418     5.9341     2.4488     0.1275     0.1396
   55.5000    85.9811     7.9377     8.6618   -35.5921     5.9352     2.4500     0.1200     0.1085
   56.0000    84.9860     7.9817     8.6273   -36.0360     5.9856     2.4512     0.1281     0.0782
   56.5000    86.2686     8.0369     8.5919   -36.3643     6.0381     2.4530     0.1297     0.0480
   57.0000    86.2092     8.0924     8.4600   -36.3716     6.0910     2.4535     0.1204     0.0427
   57.5000    85.9498     8.1482     8.2625   -36.3864     6.1444     2.4542     0.1231     0.0386
   58.0000    86.1434     8.1654     8.0706   -36.3998     6.1980     2.4549     0.1268     0.0342
   58.5000    86.2859     8.1752     7.8831   -36.4134     6.2164     2.4544     0.1262     0.0328
   59.0000    85.7144     8.1848     7.6999   -36.4271     6.1690     2.4537     0.1255     0.0391
   59.5000    85.1826     8.1945     7.5210   -36.4408     6.1367     2.4531     0.1248     0.0457
   60.0000    86.3966     8.2043     7.3462   -36.4545     6.1031     2.4525     0.1255     0.0507
   60.5000    87.3070     8.2136     7.1755   -36.4681     6.1023     2.4520     0.1270     0.0505
   61.0000    86.2268     8.2431     7.0710   -36.4818     6.1030     2.4507     0.1284     0.0505
   61.5000    84.1029     8.2810     7.1134   -36.4955     6.2635     2.4489     0.1348     0.0506
   62.0000    83.5266     8.3192     7.1854   -36.5092     6.5101     2.4470     0.1332     0.0541
   62.5000    83.7180     8.3570     7.2582   -36.5228     6.5087     2.4463     0.1024     0.0655
   63.0000    84.1343     8.4125     7.3361   -36.5365     6.5091     2.4513     0.1203     0.0814
   63.5000    85.3247     8.4098     7.3146   -36.5502     6.5089     2.4897     0.1444     0.0994
   64.0000    88.7198     8.3513     7.2902   -36.5639     6.5738     2.4513     0.1300     0.0517
   64.5000    89.5161     8.2903     7.2656   -36.5775     6.7038     2.4316     0.1275     0.0180
