~VERSION INFORMATION
 VERS.                2.0:   CWLS LOG ASCII STANDARD - VERSION 2.0
 WRAP.                 NO:   ONE LINE PER DEPTH STEP
~WELL INFORMATION
#MNEM.UNIT      DATA TYPE    INFORMATION
#----------   ------------   ------------------------------
 STRT.F           90.0000:   START DEPTH
 STOP.F          712.0000:   STOP DEPTH
 STEP.F            0.5000:   STEP LENGTH
 NULL.          -999.2500:   NO VALUE
 COMP. U S NAVY-INTEX OIL:   COMPANY
 WELL. RES 3 TEAPOT DOM #76S-34:   WELL
 FLD .             TEAPOT:   FIELD
 LOC .      S34 T39N R78W:   LOCATION
 CNTY.            NATRONA:   COUNTY
 STAT.            WYOMING:   STATE
 CTRY. UNITED STATES OF AMERICA:   COUNTRY
 SRVC.       Schlumberger:   SERVICE COMPANY
 DATE.        08-AUG-1961:   LOGDATE
 API .       490250651700:   API NUMBER
~CURVE INFORMATION
#MNEM.UNIT       API CODE    CURVE DESCRIPTION
#----------   ------------   ------------------------------
 DEPT.F                  :   
 SPR .MV     05 010 01 00:   SPONTANEOUS POTENTIAL FROM RES.
 ASN .OHMM   05 041 16 00:   AMPLIFIED SHORT NORMAL 16"
 CILD.MMHO   05 110 46 00:   CONDUCTIVITY INDUCTION LOG DEEP
 ILD .OHMM   05 120 46 00:   INDUCTION LOG DEEP
~PARAMETER INFORMATION
#MNEM.UNIT          VALUE    DESCRIPTION
#----------   ------------   ------------------------------
 LMF .                 KB:   LOG MEASURED FROM
 DMF .                 KB:   DRILLING MEASURED FROM
 EKB .F              5092:   KELLING BUSHING
 EGL .F              5087:   GROUND LEVEL
 DATE.        08-AUG-1961:   RUN DATE
 RUN .                  1:   RUN NUMBER
 DD  .F               710:   DEPTH DRILLER
 DL  .F               713:   DEPTH LOGGER
 BLI .F               712:   BOTTOM LOG INTERVAL
 TLI .F               100:   TOP LOG INTERVAL
 BS  .IN             6.75:   BIT SIZE
 BSD .F               710:   BIT SIZE AT DEPTH
 DFT .       OIL EMULSION:   DRILLING FLUID TYPE
 DFD .               10.4:   DRILLING FLUID DENSITY
 DFV .                 45:   DRILLING FLUID VISCOSITY
 RMS .OHMM           1.21:   RESISTIVITY MUD SAMPLE
 MST .F                78:   MUD SAMPLE TEMPERATURE
 TCS .HRS               1:   TIME CURCULATED STOPPED
 LUN .               2544:   LOGGING UNIT NUMBER
 LUL .                 NC:   LOGGING UNIT LOCATION
 ENGI.             QUINBY:   RECORDING ENGINEER
 WITN.          JORGENSON:   WITNESSED BY
 CLNT.            A2DTECH:   CLIENT CODE
 ORIG.      2" , 5" PRINT:   ORIGIN OF DATA
 UWI .       490250651700:   UNIQUE WELL ID
 DICO. A2D Technologies, Inc.:   DIGITIZING COMPANY
~OTHER INFORMATION
~A   DEPT      SPR        ASN       CILD        ILD   
# ...
  382.0000   -43.3166     9.5618   116.0744     8.0508
  382.5000   -43.0487     9.5931   116.7661     7.9415
  383.0000   -42.7409     9.6088   118.3237     7.9411
  383.5000   -42.3965     9.5149   118.3137     7.9407
  384.0000   -41.7997     9.3968   118.3017     7.9424
  384.5000   -41.3945     9.3271   118.2901     8.0679
  385.0000   -41.0189     9.2958   117.9900     8.2117
  385.5000   -40.7847     9.3362   113.5480     8.4101
  386.0000   -40.5516     9.4836   111.3470     8.6358
  386.5000   -40.5536     9.5868   108.8090     8.8837
  387.0000   -40.5549     9.7498   106.2762     9.0092
  387.5000   -40.5565     9.8908   102.1686     9.2327
  388.0000   -40.6395     9.9701    99.3382     9.3501
  388.5000   -40.7356     9.9808    95.5255     9.5784
  389.0000   -41.0316    10.3189    92.9531     9.8250
  389.5000   -41.2414    10.8161    88.8823     9.9504
  390.0000   -41.4943    11.4438   100.9406    10.1753
  390.5000   -40.7293    11.5199    99.4015    10.5000
  391.0000   -41.3896    11.6730    96.3078    10.6557
  391.5000   -41.6891    11.8268    93.2218    10.7332
  392.0000   -41.7000    11.9815    90.1202    10.8889
  392.5000   -41.7109    12.2915    88.5967    11.0446
  393.0000   -41.5354    12.5238    87.0655    11.2003
  393.5000   -41.2635    12.7562    85.5342    11.2778
  394.0000   -41.2771    12.8323    84.0029    11.3552
  394.5000   -41.1291    12.9077    84.0341    11.5109
  395.0000   -41.2990    12.9037    82.4951    11.5884
  395.5000   -41.3099    12.9006    80.9638    11.6659
  396.0000   -41.3208    12.8975    79.4325    11.6651
  396.5000   -41.3317    12.8158    79.4715    11.6643
  397.0000   -41.4989    12.7342    79.5028    11.5853
  397.5000   -41.6660    12.6525    81.0965    11.4280
  398.0000   -41.9894    12.5709    84.2527    11.1925
  398.5000   -42.4691    12.4108    88.9714    11.0352
  399.0000   -42.6362    12.2507    90.5652    10.8779
  399.5000   -42.4882    12.2475    93.7214    10.6424
  400.0000   -42.3456    12.0874    95.3151    10.5634
  400.5000   -42.0440    12.0058    96.9088    10.5626
  401.0000   -41.8959    11.9241    96.9400    10.5618
  401.5000   -41.7506    11.8425    96.9688    10.5610
  402.0000   -41.4517    11.8393    97.0025    10.5603
  402.5000   -41.4626    11.9155    97.0337    10.5621
  403.0000   -41.4735    11.9115    97.0649    10.7966
  403.5000   -41.4844    11.9084    95.5259    10.9491
  404.0000   -41.3364    11.9845    93.9946    11.0308
  404.5000   -41.1910    12.0599    90.9008    11.1823
  405.0000   -41.0457    12.2137    87.8148    11.1815
  405.5000   -40.7468    12.3676    84.7133    11.1025
  406.0000   -40.6015    12.5214    84.7523    10.8670
  406.5000   -40.4534    12.5175    84.7835    10.6247
  407.0000   -40.3081    12.3574    86.3772    10.3104
  407.5000   -40.3217    12.0403    87.9710     9.9961
  408.0000   -40.3326    11.7231    91.1272     9.7600
  408.5000   -40.1846    11.3275    92.7209     9.6022
  409.0000   -40.0392    11.0889    95.8771     9.4538
  409.5000   -40.0529    10.7718    97.4709     9.4531
  410.0000   -39.7485    10.6117   100.6271     9.4523
  410.5000   -39.7622    10.6085   102.2208     9.5298
  411.0000   -39.6141    10.5269   103.8145     9.6072
  411.5000   -39.6278    10.4453   105.4083     9.6847
  412.0000   -39.6387    10.4421   106.0209     9.5931
  412.5000   -39.6496    10.4390   107.0332     9.2919
  413.0000   -39.6605    10.4358   107.0644     9.0563
  413.5000   -39.8276    10.3542   108.6562     8.9773
  414.0000   -39.8375    10.2726   108.6894     8.9765
  414.5000   -39.8971    10.1124   108.7188     8.8975
  415.0000   -40.0166    10.1093   108.7500     8.8183
  415.5000   -40.0275     9.9492   108.7830     8.8175
  416.0000   -40.1937     9.9460   107.2500     8.8169
  416.5000   -40.2047     9.9429   107.2812     8.8160
  417.0000   -40.2165     9.9397   108.8767     8.8152
  417.5000   -40.2274     9.9366   107.3376     8.8928
  418.0000   -40.1833     9.9334   107.3750     8.9703
  418.5000   -40.0903     9.9303   105.8376     8.9693
  419.0000   -40.2602     9.9272   104.3141     9.0470
  419.5000   -40.2703     9.9240   104.3453     8.9678
  420.0000   -40.2820     9.9215   105.9391     8.6540
  420.5000   -40.4491     9.8339   107.5328     8.3402
  421.0000   -40.3011     9.6771   116.9390     8.1721
  421.5000   -40.1585     9.5203   124.7827     8.0146
  422.0000   -39.8569     9.3130   131.0639     7.7902
  422.5000   -39.3990     8.9984   134.2202     7.6329
  423.0000   -39.0974     8.9506   135.8139     7.4756
  423.5000   -38.4833     8.9186   137.4076     7.4748
  424.0000   -37.7130     8.7139   139.0014     7.3958
  424.5000   -37.6958     8.5092   140.5938     7.3168
  425.0000   -37.7348     8.4302   140.6263     7.1595
  425.5000   -37.9020     8.6649   140.6562     7.1587
  426.0000   -37.9129     8.8213   140.0314     7.0797
  426.5000   -38.0801     8.6951   139.1562     7.1572
  427.0000   -38.0910     8.5531   137.6250     7.2348
  427.5000   -38.2581     8.5213   136.0938     7.3905
  428.0000   -38.4253     8.5677   135.7917     7.3895
  428.5000   -38.2797     8.6140   134.5938     7.2323
  429.0000   -38.1344     8.6293   133.0625     7.1532
  429.5000   -37.9893     8.5971   129.9698     7.3090
  430.0000   -38.0002     8.5809   130.0010     7.4647
  430.5000   -38.1672     8.6274   128.4688     7.6986
  431.0000   -38.3345     8.7051   126.9375     7.7763
  431.5000   -38.5768     8.8144   125.4062     7.9320
  432.0000   -38.8250     8.9707   123.8750     8.0095
  432.5000   -38.9922     9.0016   122.3438     8.0869
  433.0000   -39.3156     9.1578   120.8134     8.2427
  433.5000   -39.4828     9.2985   119.2821     8.3201
  434.0000   -39.6500     9.3765   119.3133     8.2409
  434.5000   -39.6609     9.4230   119.3438     8.1619
  435.0000   -39.6719     9.3751   119.3758     8.0828
  435.5000   -39.6828     9.2646   119.4070     8.0039
  436.0000   -39.6115     9.1541   121.0000     8.0030
  436.5000   -39.5484     9.1220   121.0320     8.0022
  437.0000   -39.5594     9.0900   122.6257     8.0015
  437.5000   -39.5703     8.9795   123.7956     8.0007
  438.0000   -39.4247     8.8847   124.2506     7.9999
  438.5000   -39.2636     8.8528   124.2818     7.9991
  439.0000   -39.1341     8.9148   124.3131     7.9984
  439.5000   -39.1450     8.9614   125.9068     7.9976
  440.0000   -38.9996     8.9922   125.9380     7.9968
  440.5000   -39.0109     9.0230   125.9692     7.9960
  441.0000   -39.1781     9.0381   126.0005     7.9952
  441.5000   -39.3453     9.0059   127.5942     7.9162
  442.0000   -39.5396     8.8954   127.6254     7.8372
  442.5000   -39.7083     8.8319   129.2191     7.7581
  443.0000   -39.8469     8.7685   129.2504     7.7573
  443.5000   -39.8600     8.7051   129.2812     7.7566
  444.0000   -39.8687     8.6417   129.3128     7.6775
  444.5000   -39.8818     8.5468   130.9065     7.5203
  445.0000   -39.8906     8.5305   130.9378     7.4412
  445.5000   -39.9016     8.5299   130.9690     7.4405
  446.0000   -39.7583     8.4979   131.0002     7.3614
  446.5000   -39.6129     8.4187   131.0314     7.2824
  447.0000   -39.4676     8.2768   131.0627     7.1251
  447.5000   -39.4758     8.1349   132.6564     6.8896
  448.0000   -39.3304     7.9459   135.8126     6.4976
  448.5000   -39.1851     7.7883   142.0938     6.2621
  449.0000   -38.8862     7.6464   151.5000     6.0265
  449.5000   -38.7382     7.3789   162.4688     5.7910
  450.0000   -38.4393     7.0957   170.3125     5.7274
  450.5000   -38.2654     6.8752   170.3438     5.7637
  451.0000   -37.9897     6.7961   168.8125     5.7903
  451.5000   -37.8443     6.7484   168.8438     5.7981
  452.0000   -38.0142     6.6851   172.0000     5.9572
  452.5000   -38.2559     7.1396   168.9061     6.1946
  453.0000   -38.4877     7.4844   164.2187     6.4945
  453.5000   -38.7195     7.7035   154.8696     6.8075
  454.0000   -38.9439     7.8442   148.6455     7.0423
  454.5000   -38.7922     7.9377   144.0310     7.1205
