~VERSION INFORMATION
 VERS.                2.0:   CWLS LOG ASCII STANDARD - VERSION 2.0
 WRAP.                 NO:   ONE LINE PER DEPTH STEP
~WELL INFORMATION
#MNEM.UNIT      DATA TYPE    INFORMATION
#----------   ------------   ------------------------------
 STRT.F            0.0000:   START DEPTH
 STOP.F         1340.0000:   STOP DEPTH
 STEP.F            0.5000:   STEP LENGTH
 NULL.          -999.2500:   NO VALUE
 COMP. U S NAVY-INTEX OIL:   COMPANY
 WELL. NAVAL PETROLEUM RESERVE 3 S #81-14:   WELL
 FLD .             TEAPOT:   FIELD
 LOC .      S14 T38N R78W:   LOCATION
 CNTY.            NATRONA:   COUNTY
 STAT.            WYOMING:   STATE
 CTRY. UNITED STATES OF AMERICA:   COUNTRY
 SRVC.       Schlumberger:   SERVICE COMPANY
 DATE.        20-AUG-1966:   LOGDATE
 API .       490250971600:   API NUMBER
~CURVE INFORMATION
#MNEM.UNIT       API CODE    CURVE DESCRIPTION
#----------   ------------   ------------------------------
 DEPT.F                  :   
 SPR .MV     07 010 01 00:   SPONTANEOUS POTENTIAL
 CILD.MMHO   07 110 46 00:   CONDUCTIVITY INDUCTION LOG DEEP
 ILD .OHMM   07 120 46 00:   INDUCTION LOG DEEP
 ASN .OHMM   01 041 16 00:   AMPLIFIED SHORT NORMAL 16"
 CALD.IN     45 280 60 00:   CALIPER
 RHOB.G/C3   45 350 01 00:   BULK DENSITY
 DPHI.DEC    45 890 12 00:   DENSITY POROSITY SANDSTONE
 GRD .GAPI   45 310 01 00:   GAMMA RAY FROM DENSITY LOG
 CORR.G/C3   45 356 01 00:   DENSITY CORRECTION
~PARAMETER INFORMATION
#MNEM.UNIT          VALUE    DESCRIPTION
#----------   ------------   ------------------------------
 PD  .                 GL:   PERMANENT DATUM
 EPD .F              5283:   ELEVATION PERMANENT DATUM
 LMF .                 KB:   LOG MEASURED FROM
 DAPD.F                 5:   FEET ABOVE PERMANENT DATUM
 DMF .                 KB:   DRILLING MEASURED FROM
 EKB .F              5288:   KELLING BUSHING
 EGL .F              5283:   GROUND LEVEL
 DATE.            8-20-66:   RUN DATE
 RUN .                  1:   RUN NUMBER
 DD  .F              1340:   DEPTH DRILLER
 DL  .F              1337:   DEPTH LOGGER
 BLI .F              1336:   BOTTOM LOG INTERVAL
 TLI .F                17:   TOP LOG INTERVAL
 CS  .IN            8.625:   CASING SIZE
 CBD .F                15:   CASING BOTTOM DRILLER
 CBL .F                17:   CASING BOTTOM LOGGER
 BS  .IN            7.875:   BIT SIZE
 BSD .F              1340:   BIT SIZE AT DEPTH
 DFT .           GEL-CHEM:   DRILLING FLUID TYPE
 DFD .                9.8:   DRILLING FLUID DENSITY
 DFV .                 70:   DRILLING FLUID VISCOSITY
 DFL .                  8:   DRILLING FLUID LOSS
 MSS .          FLOW LINE:   MUD SAMPLE SOURCE
 RMS .OHMM           1.26:   RESISTIVITY MUD SAMPLE
 MST .F                71:   MUD SAMPLE TEMPERATURE
 RMF .OHMM            .71:   RESISTIVITY MUD FILTRATE SAMPLE
 MFST.F                71:   MUD FILTRATE SAMPLE TEMPERATURE
 MFSS.                  M:   MUD FILTRATE SAMPLE SOURCE
 RMB .OHMM           1.04:   RESISTIVITY MUD AT BHT
 BHT .F                86:   BOTTOM HOLE TEMPERATURE
 TCS .HRS               2:   TIME CURCULATED STOPPED
 MRT .F                86:   MAXIMUM RECORDED TEMPERATURE
 LUN .               3527:   LOGGING UNIT NUMBER
 LUL .               CSPR:   LOGGING UNIT LOCATION
 ENGI.          TOLLEFSON:   RECORDING ENGINEER
 WITN.                MAY:   WITNESSED BY
 CLNT.            A2DTECH:   CLIENT CODE
 ORIG.        2" 5" PRINT:   ORIGIN OF DATA
 UWI .       490250971600:   UNIQUE WELL ID
 DICO. A2D Technologies, Inc.:   DIGITIZING COMPANY
~OTHER INFORMATION
~A    DEPT     SPR       CILD        ILD        ASN         CALD     RHOB       DPHI          GRD     CORR   
# ...
 1131.5000   -44.8171   181.8091     5.0812     8.7454     8.0020     2.5689     0.0459   110.4801     0.0721
 1132.0000   -44.6759   215.0880     4.2897     8.0894     8.0020     2.5523     0.0555   113.1853     0.0914
 1132.5000   -44.5318   239.2216     4.0659     7.2727     8.0020     2.5248     0.0723   116.0903     0.0865
 1133.0000   -44.3983   246.2630     3.9679     6.4494     8.0020     2.4850     0.0901   120.0077     0.0774
 1133.5000   -44.1753   243.3577     4.0544     5.7794     8.0020     2.4342     0.1099   123.2672     0.0869
 1134.0000   -43.9127   242.0160     4.1660     5.5200     8.0020     2.3826     0.1297   123.3330     0.0771
 1134.5000   -43.6432   242.0160     4.2746     5.5821     8.0020     2.3296     0.1545   120.8161     0.0568
 1135.0000   -43.6853   235.0798     4.3928     5.7958     8.0020     2.3181     0.1447   113.8825     0.0593
 1135.5000   -43.9505   214.9808     4.8886     6.7511     8.0020     2.4083     0.1180   107.6411     0.0775
 1136.0000   -44.2105   182.6376     5.8111     8.0071     8.0020     2.4717     0.0909   104.7517     0.0747
 1136.5000   -44.3917   151.7052     6.7432     9.0731     8.0020     2.5208     0.0773   104.7023     0.0123
 1137.0000   -44.4168   129.4126     7.7924     9.6763     8.0020     2.5399     0.0651   104.1799     0.0150
 1137.5000   -44.4477   111.2775     8.3803     9.9738     8.0020     2.5731     0.0459   103.4607     0.0251
 1138.0000   -44.4775   109.7122     8.6241     9.9311     8.0037     2.6084     0.0259   101.5544     0.0538
 1138.5000   -44.5076   112.7676     8.5043     9.8453     8.0064     2.5962     0.0321    99.5790     0.0784
 1139.0000   -44.5377   115.7799     8.4095     9.8302     8.0092     2.5772     0.0434    98.6447     0.1043
 1139.5000   -44.5676   117.3028     8.3672     9.8299     8.0120     2.5608     0.0550   100.0147     0.1305
 1140.0000   -44.5879   117.2655     8.4316     9.8288     8.0148     2.5688     0.0510   101.9813     0.1382
 1140.5000   -44.6728   116.7277     8.4998     9.8362     8.0175     2.5613     0.0467   103.7909     0.1125
 1141.0000   -44.7893   115.2750     8.5674    10.0652     8.0203     2.5542     0.0619   104.7899     0.0906
 1141.5000   -44.9065   113.8224     8.6357    10.3055     8.0221     2.5734     0.0500   107.1050     0.0647
 1142.0000   -45.0232   112.2755     8.6957    10.5448     8.0210     2.5895     0.0375   109.4391     0.0477
 1142.5000   -45.1408   109.3988     8.8637    10.7836     8.0142     2.5863     0.0406   109.2926     0.0549
 1143.0000   -45.1884   106.3421     9.0502    11.0219     8.0076     2.5658     0.0454   108.2157     0.0691
 1143.5000   -45.2663   103.2032     9.5390    11.2609     8.0009     2.5332     0.0677   103.3076     0.0852
 1144.0000   -45.3756    97.9329    10.2055    11.6678     7.9942     2.5299     0.0730    96.6062     0.0867
 1144.5000   -45.7663    91.4881    10.8735    12.4694     7.9875     2.5506     0.0604    89.8437     0.0822
 1145.0000   -46.2201    85.0965    11.5454    13.2642     7.9808     2.5246     0.0594    82.9189     0.0650
 1145.5000   -47.1572    78.7048    12.2124    14.0645     7.9742     2.4847     0.0904    75.8036     0.0455
 1146.0000   -48.9567    72.3131    13.0041    14.9032     7.9680     2.4414     0.1156    68.3149     0.0622
 1146.5000   -50.5760    67.2505    13.8329    15.2133     7.9600     2.3977     0.1306    62.7757     0.1060
 1147.0000   -52.2197    63.3283    14.6799    15.4718     7.8730     2.3879     0.1397    63.0384     0.0932
 1147.5000   -53.8740    59.4062    15.0711    15.7334     7.7792     2.4306     0.1322    68.2974     0.0890
 1148.0000   -54.7152    57.3852    15.2260    15.9964     7.7414     2.4692     0.1274    72.2361     0.0803
 1148.5000   -55.1783    58.2526    15.1931    16.2553     7.7416     2.4232     0.1404    72.9115     0.0745
 1149.0000   -55.6382    59.1698    14.9908    16.3837     7.6804     2.4057     0.1462    72.6447     0.0826
 1149.5000   -55.9925    60.4015    14.7511    16.1098     7.5889     2.4253     0.1375    73.3192     0.0980
 1150.0000   -56.2856    61.6527    14.3507    15.8880     7.5240     2.4487     0.1305    74.3351     0.1108
 1150.5000   -56.5780    64.3036    13.9534    15.6655     7.5317     2.4344     0.1218    74.5059     0.1113
 1151.0000   -56.8716    66.9706    13.5565    15.4435     7.5553     2.4067     0.1289    73.9071     0.1051
 1151.5000   -57.1650    68.9086    13.2204    15.2174     7.5784     2.3792     0.1385    73.8543     0.1001
 1152.0000   -57.3987    70.0527    13.0183    15.0086     7.5984     2.3482     0.1477    73.8567     0.0924
 1152.5000   -57.2147    71.1969    12.8114    14.9769     7.6317     2.3686     0.1409    73.5232     0.0815
 1153.0000   -57.0495    71.5901    12.6048    14.9429     7.6497     2.4119     0.1266    71.6610     0.0702
 1153.5000   -56.5482    73.6666    12.3985    14.9072     7.6665     2.4553     0.1110    69.5948     0.0603
 1154.0000   -56.0148    75.7430    12.1861    14.8716     7.6647     2.4748     0.1031    67.6489     0.0710
 1154.5000   -55.4809    77.8194    12.0390    14.8360     7.7032     2.4709     0.1018    68.1830     0.0834
 1155.0000   -54.9593    77.4562    12.1232    14.8003     7.7562     2.4665     0.1106    69.5750     0.0977
 1155.5000   -54.5547    76.2697    12.2588    14.7646     7.8082     2.4746     0.1106    69.9929     0.1067
 1156.0000   -54.6475    75.0832    12.3936    14.7251     7.8606     2.4732     0.0991    69.2995     0.1129
 1156.5000   -55.0240    73.8967    12.5223    14.8482     7.9138     2.4688     0.1083    69.5387     0.0821
 1157.0000   -55.3792    72.7101    12.5015    15.0173     7.9566     2.4793     0.1081    70.9879     0.0570
 1157.5000   -54.5896    73.0157    12.4711    15.1858     7.8529     2.4958     0.0940    72.4004     0.0682
 1158.0000   -53.8113    73.9580    12.4414    15.2876     7.7498     2.4831     0.0918    73.6570     0.0821
 1158.5000   -53.7363    74.9002    12.4268    15.0769     7.7813     2.4619     0.1129    72.4993     0.0956
 1159.0000   -53.6754    75.6033    12.3782    14.9456     7.8527     2.4571     0.1149    70.5137     0.0869
 1159.5000   -53.6059    76.0887    12.2605    14.9987     7.9250     2.4344     0.1195    68.9901     0.0716
 1160.0000   -53.8720    77.5292    11.9197    14.5042     7.9585     2.4278     0.1273    71.6942     0.0542
 1160.5000   -54.1788    80.0583    11.5883    13.9979     7.8876     2.4569     0.1218    74.5306     0.0428
 1161.0000   -54.6448    82.5875    11.2971    13.4872     7.8188     2.4556     0.1214    76.6136     0.0451
 1161.5000   -55.7345    85.3293    11.2293    13.2995     7.7503     2.4334     0.1380    77.3133     0.0616
 1162.0000   -56.5720    85.0050    11.2266    13.2434     7.6818     2.4135     0.1462    77.4210     0.0829
 1162.5000   -56.6254    84.5601    11.2275    13.1909     7.6207     2.4092     0.1441    79.1743     0.1008
 1163.0000   -56.0263    84.1128    11.2274    13.1376     7.6204     2.4003     0.1508    81.1405     0.1034
 1163.5000   -55.1716    83.6733    11.2110    13.0847     7.6441     2.3863     0.1585    82.8315     0.0943
 1164.0000   -54.2950    83.6431    11.1642    13.0373     7.7306     2.4032     0.1544    81.0209     0.0783
 1164.5000   -53.9397    84.9925    11.1178    12.9042     7.8229     2.4167     0.1442    78.8604     0.0639
 1165.0000   -53.7827    86.3273    11.0713    12.8615     7.9185     2.4301     0.1339    77.7002     0.0489
 1165.5000   -53.6323    87.6622    11.0249    12.8188     7.9559     2.4386     0.1326    75.6866     0.0420
 1166.0000   -53.4808    88.9970    10.9785    12.7768     7.9756     2.4477     0.1300    74.5450     0.0481
 1166.5000   -53.3276    88.9393    10.9320    12.7346     7.9657     2.4592     0.1217    76.3701     0.0582
 1167.0000   -53.2080    88.4444    10.8856    12.6924     7.9553     2.4530     0.1240    78.9704     0.0667
 1167.5000   -52.7984    87.9420    10.8377    12.6503     7.9448     2.4430     0.1261    81.6825     0.0781
