~VERSION INFORMATION
 VERS.                2.0:   CWLS LOG ASCII STANDARD - VERSION 2.0
 WRAP.                 NO:   ONE LINE PER DEPTH STEP
~WELL INFORMATION
#MNEM.UNIT      DATA TYPE    INFORMATION
#----------   ------------   ------------------------------
 STRT.F            0.0000:   START DEPTH
 STOP.F         2694.5000:   STOP DEPTH
 STEP.F            0.5000:   STEP LENGTH
 NULL.          -999.2500:   NO VALUE
 COMP. FENIX & SCISSON INC:   COMPANY
 WELL.       102 A #20-20:   WELL
 FLD .        TEAPOT DOME:   FIELD
 LOC .      S20 T39N R78W:   LOCATION
 CNTY.            NATRONA:   COUNTY
 STAT.            WYOMING:   STATE
 CTRY. UNITED STATES OF AMERICA:   COUNTRY
 SRVC.            Unknown:   SERVICE COMPANY
 DATE.        17-AUG-1965:   LOGDATE
 API .       490251022200:   API NUMBER
~CURVE INFORMATION
#MNEM.UNIT       API CODE    CURVE DESCRIPTION
#----------   ------------   ------------------------------
 DEPT.F                  :   
 CALI.IN     30 280 01 00:   CALIPER FROM GAMMA RAY LOG
 GR  .GAPI   30 310 01 00:   GAMMA RAY
~PARAMETER INFORMATION
#MNEM.UNIT          VALUE    DESCRIPTION
#----------   ------------   ------------------------------
 PD  .                 GL:   PERMANENT DATUM
 LMF .                 GL:   LOG MEASURED FROM
 DMF .                 GL:   DRILLING MEASURED FROM
 DATE.            8-17-65:   RUN DATE
 RUN .                  1:   RUN NUMBER
 DD  .F            2696.5:   DEPTH DRILLER
 DL  .F              2697:   DEPTH LOGGER
 BLI .F              2695:   BOTTOM LOG INTERVAL
 TLI .F              2000:   TOP LOG INTERVAL
 CS  .IN                7:   CASING SIZE
 CBD .F              2678:   CASING BOTTOM DRILLER
 DFT .                OIL:   DRILLING FLUID TYPE
 TCS .HRS               1:   TIME CURCULATED STOPPED
 ENGI.            JACKSON:   RECORDING ENGINEER
 WITN.          JORGENSEN:   WITNESSED BY
 CLNT.            A2DTECH:   CLIENT CODE
 ORIG.           5" PRINT:   ORIGIN OF DATA
 UWI .       490251022200:   UNIQUE WELL ID
 DICO. A2D Technologies, Inc.:   DIGITIZING COMPANY
~OTHER INFORMATION
~A    DEPT      CALI       GR   
# ...
 1822.5000     6.4589  -999.2500
 1823.0000     6.4505  -999.2500
 1823.5000     6.4626  -999.2500
 1824.0000     6.4724  -999.2500
 1824.5000     6.4644  -999.2500
 1825.0000     6.4559  -999.2500
 1825.5000     6.4581  -999.2500
 1826.0000     6.4641  -999.2500
 1826.5000     6.4702  -999.2500
 1827.0000     6.4717  -999.2500
 1827.5000     6.4682  -999.2500
 1828.0000     6.4645  -999.2500
 1828.5000     6.4730  -999.2500
 1829.0000     6.4801  -999.2500
 1829.5000     6.4655  -999.2500
 1830.0000     6.4517  -999.2500
 1830.5000     6.4475  -999.2500
 1831.0000     6.4518  -999.2500
 1831.5000     6.4444  -999.2500
 1832.0000     6.4437  -999.2500
 1832.5000     6.4377  -999.2500
 1833.0000     6.4405  -999.2500
 1833.5000     6.4551  -999.2500
 1834.0000     6.4647  -999.2500
 1834.5000     6.4676  -999.2500
 1835.0000     6.4706  -999.2500
 1835.5000     6.4726  -999.2500
 1836.0000     6.4853  -999.2500
 1836.5000     6.5521  -999.2500
 1837.0000     6.4478  -999.2500
 1837.5000     6.4243  -999.2500
 1838.0000     6.4047  -999.2500
 1838.5000     6.3962  -999.2500
 1839.0000     6.4072  -999.2500
 1839.5000     6.4177  -999.2500
 1840.0000     6.4243  -999.2500
 1840.5000     6.4242  -999.2500
 1841.0000     6.4242  -999.2500
 1841.5000     6.4242  -999.2500
 1842.0000     6.4242  -999.2500
 1842.5000     6.4248  -999.2500
 1843.0000     6.4286  -999.2500
 1843.5000     6.4324  -999.2500
 1844.0000     6.4340  -999.2500
 1844.5000     6.4340  -999.2500
 1845.0000     6.4340  -999.2500
 1845.5000     6.4341  -999.2500
 1846.0000     6.4367  -999.2500
 1846.5000     6.4624  -999.2500
 1847.0000     6.4643  -999.2500
 1847.5000     6.4353  -999.2500
 1848.0000     6.4240  -999.2500
 1848.5000     6.4241  -999.2500
 1849.0000     6.4242  -999.2500
 1849.5000     6.4242  -999.2500
 1850.0000     6.4242  -999.2500
 1850.5000     6.4242  -999.2500
 1851.0000     6.4181  -999.2500
 1851.5000     6.4061  -999.2500
 1852.0000     6.4145  -999.2500
 1852.5000     6.4242  -999.2500
 1853.0000     6.4336  -999.2500
 1853.5000     6.4429  -999.2500
 1854.0000     6.4523  -999.2500
 1854.5000     6.4538  -999.2500
 1855.0000     6.4540  -999.2500
 1855.5000     6.4457  -999.2500
 1856.0000     6.4360  -999.2500
 1856.5000     6.4262  -999.2500
 1857.0000     6.4247  -999.2500
 1857.5000     6.4392  -999.2500
 1858.0000     6.4647  -999.2500
 1858.5000     6.4067  -999.2500
 1859.0000     6.4090  -999.2500
 1859.5000     6.4145  -999.2500
 1860.0000     6.4198  -999.2500
 1860.5000     6.4242  -999.2500
 1861.0000     6.4269  -999.2500
 1861.5000     6.4298  -999.2500
 1862.0000     6.4328  -999.2500
 1862.5000     6.4475  -999.2500
 1863.0000     6.4523  -999.2500
 1863.5000     6.4219  -999.2500
 1864.0000     6.3954  -999.2500
 1864.5000     6.4043  -999.2500
 1865.0000     6.4137  -999.2500
 1865.5000     6.4229  -999.2500
 1866.0000     6.4218  -999.2500
 1866.5000     6.4189  -999.2500
 1867.0000     6.4161  -999.2500
 1867.5000     6.4171  -999.2500
 1868.0000     6.4236  -999.2500
 1868.5000     6.4300  -999.2500
 1869.0000     6.4277  -999.2500
 1869.5000     6.4111  -999.2500
 1870.0000     6.3998  -999.2500
 1870.5000     6.3972  -999.2500
 1871.0000     6.4042  -999.2500
 1871.5000     6.4111  -999.2500
 1872.0000     6.4053  -999.2500
 1872.5000     6.3966  -999.2500
 1873.0000     6.4044  -999.2500
 1873.5000     6.4117  -999.2500
 1874.0000     6.4189  -999.2500
 1874.5000     6.4262  -999.2500
 1875.0000     6.4328  -999.2500
 1875.5000     6.3952  -999.2500
 1876.0000     6.3946  -999.2500
 1876.5000     6.3947  -999.2500
 1877.0000     6.3947  -999.2500
 1877.5000     6.3946  -999.2500
 1878.0000     6.3945  -999.2500
 1878.5000     6.4363  -999.2500
 1879.0000     6.4869  -999.2500
 1879.5000     6.4446  -999.2500
 1880.0000     6.4232  -999.2500
 1880.5000     6.4205  -999.2500
 1881.0000     6.4181  -999.2500
 1881.5000     6.4159  -999.2500
 1882.0000     6.4237  -999.2500
 1882.5000     6.4487  -999.2500
 1883.0000     6.4722  -999.2500
 1883.5000     6.4565  -999.2500
 1884.0000     6.4927  -999.2500
 1884.5000     6.4858  -999.2500
 1885.0000     6.4641  -999.2500
 1885.5000     6.4468  -999.2500
 1886.0000     6.4493  -999.2500
 1886.5000     6.4565  -999.2500
 1887.0000     6.4639  -999.2500
 1887.5000     6.4715  -999.2500
 1888.0000     6.4700  -999.2500
 1888.5000     6.4648  -999.2500
 1889.0000     6.4732  -999.2500
 1889.5000     6.4695  -999.2500
 1890.0000     6.4656  -999.2500
 1890.5000     6.4619  -999.2500
 1891.0000     6.4581  -999.2500
 1891.5000     6.4543  -999.2500
 1892.0000     6.4537  -999.2500
 1892.5000     6.4537  -999.2500
 1893.0000     6.4537  -999.2500
 1893.5000     6.4597  -999.2500
 1894.0000     6.4694  -999.2500
 1894.5000     6.4792  -999.2500
 1895.0000     6.4736  -999.2500
 1895.5000     6.4656  -999.2500
 1896.0000     6.4726  -999.2500
 1896.5000     6.4575  -999.2500
 1897.0000     6.4437  -999.2500
 1897.5000     6.4440  -999.2500
 1898.0000     6.4440  -999.2500
 1898.5000     6.4527  -999.2500
 1899.0000     6.4684  -999.2500
 1899.5000     6.4962  -999.2500
 1900.0000     6.4756  -999.2500
 1900.5000     6.4181  -999.2500
 1901.0000     6.4014  -999.2500
 1901.5000     6.3847  -999.2500
 1902.0000     6.4175  -999.2500
 1902.5000     6.4162  -999.2500
 1903.0000     6.4069  -999.2500
 1903.5000     6.3974  -999.2500
 1904.0000     6.3881  -999.2500
 1904.5000     6.3786  -999.2500
 1905.0000     6.3750  -999.2500
 1905.5000     6.3751  -999.2500
 1906.0000     6.3792  -999.2500
 1906.5000     6.3906  -999.2500
 1907.0000     6.4023  -999.2500
 1907.5000     6.3952  -999.2500
 1908.0000     6.3849  -999.2500
 1908.5000     6.3847  -999.2500
 1909.0000     6.3774  -999.2500
 1909.5000     6.3693  -999.2500
 1910.0000     6.3726  -999.2500
 1910.5000     6.3871  -999.2500
 1911.0000     6.3946  -999.2500
 1911.5000     6.3945  -999.2500
 1912.0000     6.4002  -999.2500
 1912.5000     6.4082  -999.2500
 1913.0000     6.4129  -999.2500
 1913.5000     6.4052  -999.2500
 1914.0000     6.4217  -999.2500
 1914.5000     6.3997  -999.2500
 1915.0000     6.3949  -999.2500
 1915.5000     6.3990  -999.2500
 1916.0000     6.4237  -999.2500
 1916.5000     6.4260  -999.2500
 1917.0000     6.4127  -999.2500
 1917.5000     6.3990  -999.2500
 1918.0000     6.3857  -999.2500
 1918.5000     6.4106  -999.2500
 1919.0000     6.4271  -999.2500
 1919.5000     6.4346  -999.2500
 1920.0000     6.4594  -999.2500
 1920.5000     6.5375  -999.2500
 1921.0000     6.4466  -999.2500
 1921.5000     6.4222  -999.2500
 1922.0000     6.4294  -999.2500
 1922.5000     6.4306  -999.2500
 1923.0000     6.4263  -999.2500
 1923.5000     6.4221  -999.2500
 1924.0000     6.4179  -999.2500
 1924.5000     6.4138  -999.2500
 1925.0000     6.4096  -999.2500
 1925.5000     6.4051  -999.2500
 1926.0000     6.4123  -999.2500
 1926.5000     6.4196  -999.2500
 1927.0000     6.4191  -999.2500
 1927.5000     6.4044  -999.2500
 1928.0000     6.3975  -999.2500
 1928.5000     6.4078  -999.2500
 1929.0000     6.4145  -999.2500
 1929.5000     6.4144  -999.2500
 1930.0000     6.4144  -999.2500
 1930.5000     6.4144  -999.2500
 1931.0000     6.4151  -999.2500
 1931.5000     6.4166  -999.2500
 1932.0000     6.4180  -999.2500
 1932.5000     6.4195  -999.2500
 1933.0000     6.4210  -999.2500
 1933.5000     6.4225  -999.2500
 1934.0000     6.4237  -999.2500
 1934.5000     6.4315  -999.2500
 1935.0000     6.4402  -999.2500
 1935.5000     6.4369  -999.2500
 1936.0000     6.4193  -999.2500
 1936.5000     6.4043  -999.2500
 1937.0000     6.4062  -999.2500
 1937.5000     6.4077  -999.2500
 1938.0000     6.4091  -999.2500
 1938.5000     6.4105  -999.2500
 1939.0000     6.4119  -999.2500
 1939.5000     6.4134  -999.2500
 1940.0000     6.4198  -999.2500
 1940.5000     6.4429  -999.2500
 1941.0000     6.4741  -999.2500
 1941.5000     6.5103  -999.2500
 1942.0000     6.4954  -999.2500
 1942.5000     6.4667  -999.2500
 1943.0000     6.4826  -999.2500
 1943.5000     6.4556  -999.2500
