~VERSION INFORMATION
 VERS.                2.0:   CWLS LOG ASCII STANDARD - VERSION 2.0
 WRAP.                 NO:   ONE LINE PER DEPTH STEP
~WELL INFORMATION
#MNEM.UNIT      DATA TYPE    INFORMATION
#----------   ------------   ------------------------------
 STRT.F            4.0000:   START DEPTH
 STOP.F          564.0000:   STOP DEPTH
 STEP.F            0.1000:   STEP LENGTH
 NULL.          -999.2500:   NO VALUE
 COMP.       F D SERV INC:   COMPANY
 WELL. NAVAL PETROLEUM RESERVE 3 SX-3 #88-4-3:   WELL
 FLD .             TEAPOT:   FIELD
 LOC .       S3 T38N R78W:   LOCATION
 CNTY.            NATRONA:   COUNTY
 STAT.            WYOMING:   STATE
 CTRY. UNITED STATES OF AMERICA:   COUNTRY
 SRVC.      Western Atlas:   SERVICE COMPANY
 DATE.        15-OCT-1992:   LOGDATE
 API .       490252255000:   API NUMBER
~CURVE INFORMATION
#MNEM.UNIT       API CODE    CURVE DESCRIPTION
#----------   ------------   ------------------------------
 DEPT.F                  :   
 GRR .GAPI   07 310 01 00:   GAMMA RAY
 RILD.OHMM   07 120 46 00:   INDUCTION LOG DEEP RESISTIVITY
 RILM.OHMM   07 120 44 00:   INDUCTION LOG MEDIUM RESISTIVITY
~PARAMETER INFORMATION
#MNEM.UNIT          VALUE    DESCRIPTION
#----------   ------------   ------------------------------
 PD  .                 GL:   PERMANENT DATUM
 EPD .F              5129:   ELEVATION PERMANENT DATUM
 LMF .                 KB:   LOG MEASURED FROM
 DAPD.F                10:   FEET ABOVE PERMANENT DATUM
 DMF .                 KB:   DRILLING MEASURED FROM
 EKB .F              5139:   KELLING BUSHING
 EGL .F              5129:   GROUND LEVEL
 DATE.        15-OCT-1992:   RUN DATE
 RUN .                  1:   RUN NUMBER
 DD  .F               570:   DEPTH DRILLER
 DL  .F               570:   DEPTH LOGGER
 BLI .F               564:   BOTTOM LOG INTERVAL
 TLI .F               564:   TOP LOG INTERVAL
 CS  .IN            8.625:   CASING SIZE
 CBL .F                94:   CASING BOTTOM LOGGER
 BS  .IN            7.875:   BIT SIZE
 BSD .F               570:   BIT SIZE AT DEPTH
 DFT .           AIR FOAM:   DRILLING FLUID TYPE
 TCS .HRS               4:   TIME CURCULATED STOPPED
 MRT .F                72:   MAXIMUM RECORDED TEMPERATURE
 LUN .            HL-6345:   LOGGING UNIT NUMBER
 LUL .          FT.MORGAN:   LOGGING UNIT LOCATION
 ENGI.             BURLEY:   RECORDING ENGINEER
 WITN.        DARY STRONG:   WITNESSED BY
 CLNT.            A2DTECH:   CLIENT CODE
 ORIG.           5" PRINT:   ORIGIN OF DATA
 UWI .       490252255000:   UNIQUE WELL ID
 DICO. A2D Technologies, Inc.:   DIGITIZING COMPANY
~OTHER INFORMATION
~A    DEPT      GRR      RILD       RILM   
# ...
  513.6000   121.0942     8.4346     8.6671
  513.7000   121.1830     8.4907     8.8170
  513.8000   121.1806     8.5342     8.8826
  513.9000   121.2899     8.6182     9.0492
  514.0000   121.7898     8.6959     9.0489
  514.1000   122.3850     8.7471     9.1257
  514.2000   122.5863     8.8016     9.2042
  514.3000   123.1376     8.9202     9.2576
  514.4000   123.7890     8.9652     9.3054
  514.5000   124.2413     9.0180     9.3051
  514.6000   124.4945     9.0951     9.3049
  514.7000   124.4921     9.1887     9.3425
  514.8000   124.4897     9.2428     9.3968
  514.9000   124.2015     9.3058     9.4513
  515.0000   123.7879     9.3982     9.5017
  515.1000   123.5343     9.4733     9.5014
  515.2000   123.2678     9.5048     9.5497
  515.3000   122.5508     9.5311     9.5678
  515.4000   122.1677     9.6415     9.5675
  515.5000   121.6457     9.7081     9.5816
  515.6000   121.0546     9.7554     9.6343
  515.7000   120.8315     9.7770     9.6340
  515.8000   120.8289     9.8015     9.6813
  515.9000   120.5970     9.8465     9.7376
  516.0000   120.5212     9.8477     9.7693
  516.1000   120.5188     9.9166     9.7821
  516.2000   120.5904     9.9641     9.8376
  516.3000   120.8172    10.0227     9.8372
  516.4000   120.8143    10.0577     9.8370
  516.5000   120.8121    10.0580     9.8718
  516.6000   120.8097    10.0582     9.9057
  516.7000   120.8073    10.0585     9.9169
  516.8000   120.8048    10.0588     9.9749
  516.9000   120.8024    10.0942    10.0324
  517.0000   120.7996    10.1303    10.0445
  517.1000   120.7976    10.1306    10.0442
  517.2000   120.7952    10.1309    10.0439
  517.3000   120.7927    10.1898    10.0437
  517.4000   120.7903    10.2498    10.0434
  517.5000   120.7879    10.2751    10.0431
  517.6000   120.7850    10.2754    10.0428
  517.7000   120.7830    10.2757    10.0425
  517.8000   120.9330    10.2760    10.0423
  517.9000   121.0812    10.2762    10.0420
  518.0000   121.1759    10.2765    10.0417
  518.1000   121.6824    10.2768    10.0414
  518.2000   122.1753    10.2553     9.9987
  518.3000   122.4794    10.2054     9.9404
  518.4000   122.8720    10.2057     9.8824
  518.5000   123.2798    10.2060     9.8312
  518.6000   123.6082    10.1614     9.8309
  518.7000   124.3950    10.1351     9.8306
  518.8000   124.6319    10.1148     9.7904
  518.9000   124.6933    10.0647     9.7614
  519.0000   124.6909    10.0650     9.7447
  519.1000   124.6885    10.0653     9.6879
  519.2000   124.6545    10.0656     9.6245
  519.3000   124.3804    10.0344     9.5753
  519.4000   123.9166     9.9957     9.5568
  519.5000   123.0096     9.9883     9.5565
  519.6000   121.9400     9.9263     9.5562
  519.7000   120.8704     9.9265     9.5560
  519.8000   119.8008     9.9268     9.5557
  519.9000   118.6082     9.9271     9.5554
  520.0000   117.9393     9.9274     9.5911
  520.1000   116.8432     9.9345     9.6222
  520.2000   115.7038     9.9980     9.6219
  520.3000   114.7632     9.9982     9.6216
  520.4000   114.0364     9.9985     9.6213
  520.5000   113.7451     9.9988     9.6211
  520.6000   113.7430     9.9991     9.6208
  520.7000   113.7406     9.9993     9.6435
  520.8000   113.8481     9.9996     9.6880
  520.9000   114.1549     9.9475     9.6877
  521.0000   114.6547     9.9302     9.6874
  521.1000   115.2456     9.9019     9.7319
  521.2000   115.6542     9.8612     9.7551
  521.3000   116.0006     9.8666     9.7548
  521.4000   116.2493     9.9313     9.7545
  521.5000   116.4980     9.9316     9.7543
  521.6000   116.7491     9.9716     9.7540
  521.7000   116.4981    10.0021     9.7537
  521.8000   116.4412    10.0024     9.7534
  521.9000   116.2940    10.0027     9.7532
  522.0000   116.0405    10.0030     9.7529
  522.1000   115.7459    10.0544     9.7526
  522.2000   115.2193    10.0741     9.7523
  522.3000   114.7365    10.0744     9.7521
  522.4000   114.2318    10.0746     9.7518
  522.5000   113.7272    10.0749     9.7515
  522.6000   113.1380    10.0753     9.7513
  522.7000   112.2518    10.0755     9.7510
  522.8000   110.3562    10.0758     9.8025
  522.9000   109.6589    10.0761     9.8191
  523.0000   109.0828    10.0763     9.8188
  523.1000   108.7060    10.0766     9.8185
  523.2000   108.4525    10.0770     9.8182
  523.3000   108.1991    10.0772     9.8179
  523.4000   107.9173    10.0775     9.8177
  523.5000   107.9152    10.0778     9.8174
  523.6000   107.9127    10.0780     9.8171
  523.7000   108.1492    10.0783     9.8169
  523.8000   108.5815    10.0787     9.8133
  523.9000   108.8457    10.0789     9.7477
  524.0000   109.4178    10.0792     9.7474
  524.1000   110.2750    10.0795     9.7471
  524.2000   111.2771    10.0797     9.7469
  524.3000   112.0570    10.0790     9.7333
  524.4000   112.6156    10.0098     9.6766
  524.5000   113.3525    10.0100     9.6102
  524.6000   113.6456     9.9393     9.6100
  524.7000   114.2625     9.8475     9.5753
  524.8000   114.7046     9.7904     9.5423
  524.9000   114.9532     9.7337     9.5306
  525.0000   115.1515     9.7340     9.4751
  525.1000   115.1491     9.6440     9.3654
  525.2000   115.3963     9.5654     9.2995
  525.3000   115.4473     9.5100     9.2770
  525.4000   115.4448     9.4444     9.2561
  525.5000   115.5364     9.3335     9.1928
  525.6000   115.7851     9.2801     9.0830
  525.7000   116.0435     9.2264     9.0316
  525.8000   116.5238     9.1419     8.9790
  525.9000   117.0234     9.0559     8.8979
  526.0000   117.7978     9.0034     8.8126
  526.1000   118.7145     8.9498     8.7612
  526.2000   119.3984     8.8489     8.7072
  526.3000   119.6653     8.7858     8.5653
  526.4000   119.6630     8.7062     8.4890
  526.5000   119.6606     8.6052     8.4395
  526.6000   119.5294     8.5135     8.3746
  526.7000   119.1989     8.4621     8.2831
  526.8000   118.6942     8.3216     8.2306
  526.9000   118.1355     8.2861     8.1868
  527.0000   117.4605     8.2331     8.1058
  527.1000   116.8771     8.1377     8.0351
  527.2000   116.2520     8.0434     7.9612
  527.3000   115.4962     7.9449     7.8230
  527.4000   114.7903     7.8581     7.6718
  527.5000   114.7875     7.7338     7.5159
  527.6000   115.4326     7.6234     7.3144
  527.7000   116.1836     7.5059     7.1430
  527.8000   116.9346     7.3325     7.0191
  527.9000   117.6854     7.1515     6.8950
  528.0000   118.4360     6.9607     6.7133
  528.1000   119.3184     6.8180     6.5814
  528.2000   119.7308     6.6997     6.4783
  528.3000   120.3859     6.5630     6.3706
  528.4000   121.1370     6.3849     6.2322
  528.5000   121.7850     6.2067     6.1228
  528.6000   122.0339     6.0286     5.9577
  528.7000   122.0315     5.8346     5.8168
  528.8000   121.8303     5.6524     5.6701
  528.9000   121.4298     5.4804     5.5134
  529.0000   120.9252     5.3383     5.3300
  529.1000   120.3777     5.1972     5.1766
  529.2000   119.5951     5.0207     5.0285
  529.3000   118.6239     4.8614     4.8400
  529.4000   117.8073     4.7119     4.6626
  529.5000   117.1900     4.5681     4.5023
  529.6000   116.5991     4.4493     4.3430
  529.7000   115.8778     4.3367     4.1646
  529.8000   115.3380     4.2015     4.0258
  529.9000   115.1020     4.0504     3.9050
  530.0000   114.8484     3.9279     3.7688
  530.1000   114.8548     3.7782     3.6401
  530.2000   115.1814     3.6667     3.5531
  530.3000   115.7334     3.5918     3.4454
  530.4000   116.8385     3.4897     3.3706
  530.5000   117.7376     3.3986     3.2931
  530.6000   118.9127     3.3475     3.2271
  530.7000   120.0443     3.2895     3.1653
  530.8000   121.0463     3.2239     3.0901
  530.9000   122.0660     3.1541     2.9939
  531.0000   123.4906     3.1003     2.9465
  531.1000   124.7886     3.0592     2.9194
  531.2000   125.9632     3.0290     2.8855
  531.3000   126.8525     3.0052     2.8452
  531.4000   127.5426     2.9724     2.8271
  531.5000   128.0243     2.9291     2.7906
  531.6000   128.0214     2.9121     2.7762
  531.7000   127.6027     2.8925     2.7710
