~VERSION INFORMATION
 VERS.                2.0:   CWLS LOG ASCII STANDARD - VERSION 2.0
 WRAP.                 NO:   ONE LINE PER DEPTH STEP
~WELL INFORMATION
#MNEM.UNIT      DATA TYPE    INFORMATION
#----------   ------------   ------------------------------
 STRT.F           40.0000:   START DEPTH
 STOP.F          876.5000:   STOP DEPTH
 STEP.F            0.5000:   STEP LENGTH
 NULL.          -999.2500:   NO VALUE
 COMP. FENIX & SCISSON INC:   COMPANY
 WELL.     NPR 3 #41-S-14:   WELL
 FLD .             TEAPOT:   FIELD
 LOC .      S14 T38N R78W:   LOCATION
 CNTY.            NATRONA:   COUNTY
 STAT.            WYOMING:   STATE
 CTRY. UNITED STATES OF AMERICA:   COUNTRY
 SRVC.            Unknown:   SERVICE COMPANY
 DATE.        12-MAR-1978:   LOGDATE
 API .       490251060200:   API NUMBER
~CURVE INFORMATION
#MNEM.UNIT       API CODE    CURVE DESCRIPTION
#----------   ------------   ------------------------------
 DEPT.F                  :   
 CALD.IN     45 280 60 00:   CALIPER FROM DENSITY LOG
 GRD .GAPI   45 310 01 00:   GAMMA RAY FROM DENSITY LOG
 RHOB.G/C3   45 350 01 00:   BULK DENSITY
 DPHI.DEC    45 890 12 00:   DENSITY POROSITY SANDSTONE
 CORR.G/C3   45 356 01 00:   DENSITY CORRECTION
 SPR .MV     05 010 01 00:   SPONTANEOUS POTENTIAL FROM RES.
 IL  .OHMM   05 120 00 00:   INDUCTION LOG
 SN  .OHMM   05 040 16 00:   SHORT NORMAL 16"
~PARAMETER INFORMATION
#MNEM.UNIT          VALUE    DESCRIPTION
#----------   ------------   ------------------------------
 PD  .                 GL:   PERMANENT DATUM
 EPD .F              5211:   ELEVATION PERMANENT DATUM
 LMF .                 KB:   LOG MEASURED FROM
 DMF .                 KB:   DRILLING MEASURED FROM
 EKB .F              5215:   KELLING BUSHING
 EGL .F              5211:   GROUND LEVEL
 DATE.            3-12-78:   RUN DATE
 RUN .                  1:   RUN NUMBER
 DD  .F               870:   DEPTH DRILLER
 DL  .F               872:   DEPTH LOGGER
 BLI .F               866:   BOTTOM LOG INTERVAL
 TLI .F                50:   TOP LOG INTERVAL
 CS  .IN            8.625:   CASING SIZE
 CBD .F                40:   CASING BOTTOM DRILLER
 CBL .F                40:   CASING BOTTOM LOGGER
 BS  .IN            7.875:   BIT SIZE
 BSD .F               870:   BIT SIZE AT DEPTH
 DFT .                KCL:   DRILLING FLUID TYPE
 DFD .                8.6:   DRILLING FLUID DENSITY
 DFV .                 33:   DRILLING FLUID VISCOSITY
 DFPH.                 10:   DRILLING FLUID PH
 DFL .               12.1:   DRILLING FLUID LOSS
 MSS .           FLOWLINE:   MUD SAMPLE SOURCE
 RMS .OHMM            .32:   RESISTIVITY MUD SAMPLE
 MST .F                54:   MUD SAMPLE TEMPERATURE
 RMF .OHMM            .36:   RESISTIVITY MUD FILTRATE SAMPLE
 MFST.F                55:   MUD FILTRATE SAMPLE TEMPERATURE
 RMC .OHMM             .5:   RESISTIVITY MUD CAKE
 MCST.F                56:   MUD CAKE SAMPLE TEMPERATURE
 MFSS.           MEASURED:   MUD FILTRATE SAMPLE SOURCE
 MCSS.           MEASURED:   MUD CAKE SAMPLE SOURCE
 RMB .OHMM            .24:   RESISTIVITY MUD AT BHT
 BHT .F                72:   BOTTOM HOLE TEMPERATURE
 TCS .HRS               4:   TIME CURCULATED STOPPED
 MRT .F                72:   MAXIMUM RECORDED TEMPERATURE
 LUN .               2958:   LOGGING UNIT NUMBER
 LUL .               CASP:   LOGGING UNIT LOCATION
 ENGI.             MILLER:   RECORDING ENGINEER
 WITN.         HARRINGTON:   WITNESSED BY
 CLNT.            A2DTECH:   CLIENT CODE
 ORIG.        2" 5" PRINT:   ORIGIN OF DATA
 UWI .       490251060200:   UNIQUE WELL ID
 DICO. A2D Technologies, Inc.:   DIGITIZING COMPANY
~OTHER INFORMATION
~A   DEPT     CALD         GRD      RHOB       DPHI       CORR        SPR         IL         SN   
# ...
  688.0000     7.9861   102.0360     2.4895     0.0804     0.0045   -54.8714     9.0486    10.5477
  688.5000     7.9861   102.6850     2.4904     0.0833     0.0045   -54.7201     9.0901    10.5869
  689.0000     7.9861   106.0014     2.4922     0.0860     0.0045   -54.0359     9.1482    10.6263
  689.5000     7.9861   110.2460     2.4845     0.0880     0.0056   -53.3962     9.2541    10.6659
  690.0000     7.9861   111.7533     2.4856     0.0909     0.0081   -53.0991     9.3605    10.9235
  690.5000     7.9861   105.7055     2.4741     0.0936     0.0105   -52.4897     9.7234    11.2219
  691.0000     7.9861   100.0312     2.4720     0.0965     0.0126   -51.4925    10.1435    11.5285
  691.5000     7.9861    93.7251     2.4673     0.1007     0.0123   -50.4313    10.6485    11.9420
  692.0000     7.9861    85.6271     2.4543     0.1040     0.0200   -49.7922    11.4061    12.5020
  692.5000     7.9861    77.2185     2.4324     0.1207     0.0292   -49.1511    12.2177    13.0881
  693.0000     7.9861    68.8879     2.4141     0.1320     0.0388   -48.0954    13.0869    13.7018
  693.5000     7.9861    60.4250     2.4017     0.1381     0.0401   -47.0640    14.0180    14.2097
  694.0000     7.9861    54.1851     2.3923     0.1442     0.0213   -46.1890    15.0154    14.2386
  694.5000     7.9861    54.0494     2.3832     0.1543     0.0084   -45.7619    16.3217    14.2674
  695.0000     7.9861    58.8996     2.3554     0.1681     0.0103   -45.4577    16.2683    14.2963
  695.5000     7.9861    64.7034     2.3428     0.1700     0.0134   -45.2433    16.2007    14.3252
  696.0000     7.9861    66.9713     2.3246     0.1779     0.0166   -45.5833    15.9623    14.3542
  696.5000     7.9861    67.5516     2.3056     0.1889     0.0198   -45.4739    15.6008    14.3832
  697.0000     7.9861    68.1311     2.3121     0.1849     0.0205   -45.3354    15.2996    14.4123
  697.5000     7.9861    68.6824     2.3188     0.1790     0.0193   -45.2013    15.4468    14.4415
  698.0000     7.9861    70.4919     2.3319     0.1716     0.0151   -45.0668    15.5849    14.4707
  698.5000     7.9861    71.4063     2.3464     0.1677     0.0110   -45.2425    15.4782    14.5000
  699.0000     7.9861    71.9352     2.3477     0.1677     0.0063   -45.7017    15.3656    14.5294
  699.5000     7.9861    74.0020     2.3458     0.1649     0.0046   -46.1776    15.2534    14.5588
  700.0000     7.9861    71.8820     2.3490     0.1689     0.0069   -46.4542    15.1419    14.5882
  700.5000     7.9861    68.8928     2.3572     0.1605     0.0115   -46.4062    15.0313    14.6170
  701.0000     7.9861    67.0832     2.3586     0.1589     0.0160   -46.0399    15.1001    14.6438
  701.5000     7.9861    70.0597     2.3535     0.1657     0.0169   -46.1986    15.1908    14.6708
  702.0000     7.9861    72.5250     2.3574     0.1566     0.0134   -46.4245    15.2821    14.6982
  702.5000     7.9861    72.4405     2.3813     0.1429     0.0100   -46.6497    15.3739    14.7258
  703.0000     7.9861    71.9412     2.4043     0.1293     0.0066   -46.8740    15.5849    14.7439
  703.5000     7.9861    71.1941     2.4275     0.1157     0.0030   -46.9008    15.2993    14.5420
  704.0000     7.9861    70.4850     2.4507     0.1020     0.0046   -46.7040    14.9750    14.3839
  704.5000     7.9861    72.7660     2.4705     0.0936     0.0079   -46.6750    14.6576    14.2275
  705.0000     7.9861    77.8177     2.4709     0.0949     0.0112   -46.8402    14.3469    14.0790
  705.5000     7.9861    81.2608     2.4579     0.1014     0.0145   -47.0057    14.0427    13.7574
  706.0000     7.9861    80.1930     2.4470     0.1089     0.0154   -47.1710    13.7451    13.4551
  706.5000     7.9861    78.2249     2.4357     0.1194     0.0125   -47.0063    13.4537    13.1595
  707.0000     7.9861    77.8981     2.4245     0.1216     0.0095   -46.8005    13.1685    12.8700
  707.5000     7.9861    78.4194     2.4130     0.1324     0.0066   -46.7943    12.8893    12.5867
  708.0000     7.9861    77.7783     2.4013     0.1360     0.0065   -46.7292    12.7970    12.2577
  708.5000     7.9861    77.7963     2.4039     0.1340     0.0065   -46.5760    12.7481    12.2826
  709.0000     7.9861    80.2764     2.3936     0.1384     0.0065   -46.4230    12.7186    12.3170
  709.5000     7.9861    80.9448     2.3821     0.1431     0.0065   -46.2692    12.7946    12.3504
  710.0000     7.9861    78.0469     2.3762     0.1479     0.0065   -46.1189    12.8586    12.3838
  710.5000     7.9861    78.0853     2.3721     0.1494     0.0065   -46.0577    12.9229    12.4172
  711.0000     7.9861    81.2414     2.3743     0.1496     0.0066   -46.3821    12.9876    12.4508
  711.5000     7.9861    81.4734     2.3767     0.1459     0.0087   -46.6993    13.0526    12.4845
  712.0000     7.9861    78.3601     2.3747     0.1466     0.0108   -47.0172    13.1179    12.5183
  712.5000     7.9861    77.7730     2.3726     0.1497     0.0130   -47.3336    13.1835    12.5521
  713.0000     7.9861    77.5867     2.3708     0.1527     0.0160   -47.3802    13.2494    12.6009
  713.5000     7.9861    77.8497     2.3708     0.1544     0.0225   -46.6973    13.3199    12.5865
  714.0000     7.9861    78.4757     2.3773     0.1517     0.0289   -45.1036    13.2825    12.5601
  714.5000     7.9861    80.6589     2.3902     0.1450     0.0354   -44.9734    13.2428    12.5335
  715.0000     7.9861    80.4649     2.4030     0.1382     0.0366   -44.9159    13.2032    12.5067
  715.5000     7.9861    79.2287     2.4155     0.1314     0.0378   -44.8517    13.1638    12.4801
  716.0000     7.9861    78.1590     2.4153     0.1276     0.0405   -44.8179    13.1244    12.4534
  716.5000     7.9863    78.2013     2.4141     0.1284     0.0356   -44.9372    13.0852    12.4269
  717.0000     7.9867    78.5112     2.4179     0.1287     0.0344   -45.0545    13.0460    12.4006
  717.5000     7.9871    78.7954     2.4074     0.1308     0.0334   -45.1714    13.0070    12.3742
  718.0000     7.9875    78.5987     2.3963     0.1363     0.0325   -45.2884    12.9560    12.4000
  718.5000     7.9878    78.4090     2.3861     0.1416     0.0284   -45.4054    12.9923    12.4325
  719.0000     7.9882    79.0748     2.3910     0.1412     0.0209   -45.5213    13.0469    12.4651
  719.5000     7.9886    79.8158     2.3933     0.1458     0.0133   -45.5879    13.1016    12.4979
  720.0000     7.9890    80.9433     2.3823     0.1522     0.0067   -45.5451    13.1565    12.5307
  720.5000     7.9893    82.4494     2.3676     0.1586     0.0075   -45.5048    13.2115    12.5636
  721.0000     7.9897    83.9604     2.3591     0.1592     0.0085   -45.4642    13.2667    12.5968
  721.5000     7.9901    85.7789     2.3688     0.1519     0.0094   -45.4296    13.3206    12.6018
  722.0000     7.9905    85.7114     2.3791     0.1467     0.0104   -45.5425    13.5039    12.6017
  722.5000     7.9908    80.2560     2.3888     0.1432     0.0098   -46.0578    13.6820    12.6017
  723.0000     7.9912    80.2033     2.3948     0.1385     0.0089   -46.5555    13.8631    12.6018
  723.5000     7.9916    80.5620     2.4076     0.1325     0.0080   -47.0697    14.0790    12.6020
  724.0000     7.9920    80.9295     2.4200     0.1264     0.0072   -47.0867    14.0038    12.6011
  724.5000     7.9924    81.2664     2.4295     0.1208     0.0067   -46.8152    13.9122    12.6042
  725.0000     7.9927    82.6035     2.4246     0.1196     0.0078   -46.1336    13.8213    12.4287
  725.5000     7.9931    83.3565     2.4071     0.1312     0.0088   -45.7741    13.7312    12.2866
  726.0000     7.9935    81.2857     2.3898     0.1408     0.0099   -45.7212    13.5419    12.1462
  726.5000     7.9939    81.9400     2.3790     0.1469     0.0100   -45.6670    13.1578    12.0076
  727.0000     7.9942    82.9412     2.3798     0.1469     0.0086   -45.6151    12.7842    11.8705
  727.5000     7.9946    85.1782     2.3777     0.1477     0.0072   -45.5629    12.4568    11.7351
  728.0000     7.9950    87.1458     2.3749     0.1486     0.0077   -45.5106    12.3058    11.6011
