~VERSION INFORMATION
 VERS.                2.0:   CWLS LOG ASCII STANDARD - VERSION 2.0
 WRAP.                 NO:   ONE LINE PER DEPTH STEP
~WELL INFORMATION
#MNEM.UNIT      DATA TYPE    INFORMATION
#----------   ------------   ------------------------------
 STRT.F            3.0000:   START DEPTH
 STOP.F          604.0000:   STOP DEPTH
 STEP.F            0.5000:   STEP LENGTH
 NULL.          -999.2500:   NO VALUE
 COMP. BROWN JOHN E&C INC:   COMPANY
 WELL.    73-2 SX-3 #73-3:   WELL
 FLD .             TEAPOT:   FIELD
 LOC .       S3 T38N R78W:   LOCATION
 CNTY.            NATRONA:   COUNTY
 STAT.            WYOMING:   STATE
 CTRY. UNITED STATES OF AMERICA:   COUNTRY
 SRVC.     Atlas Wireline:   SERVICE COMPANY
 DATE.        13-APR-1992:   LOGDATE
 API .       490252251100:   API NUMBER
~CURVE INFORMATION
#MNEM.UNIT       API CODE    CURVE DESCRIPTION
#----------   ------------   ------------------------------
 DEPT.F                  :   
 GRR .GAPI   07 310 01 00:   GAMMA RAY
 RILD.OHMM   07 120 46 00:   INDUCTION LOG DEEP RESISTIVITY
 RILM.OHMM   07 120 44 00:   INDUCTION LOG MEDIUM RESISTIVITY
~PARAMETER INFORMATION
#MNEM.UNIT          VALUE    DESCRIPTION
#----------   ------------   ------------------------------
 PD  .                 GL:   PERMANENT DATUM
 EPD .F              5131:   ELEVATION PERMANENT DATUM
 LMF .                 KB:   LOG MEASURED FROM
 DAPD.F                 5:   FEET ABOVE PERMANENT DATUM
 DMF .                 KB:   DRILLING MEASURED FROM
 EKB .F              5136:   KELLING BUSHING
 EDF .F              5135:   DRILLING FLOOR
 EGL .F              5131:   GROUND LEVEL
 DATE.        13-APR-1992:   RUN DATE
 RUN .                  1:   RUN NUMBER
 DD  .F               610:   DEPTH DRILLER
 DL  .F               608:   DEPTH LOGGER
 BLI .F               605:   BOTTOM LOG INTERVAL
 TLI .F                 3:   TOP LOG INTERVAL
 CS  .IN            8.625:   CASING SIZE
 CBD .F                45:   CASING BOTTOM DRILLER
 CBL .F                50:   CASING BOTTOM LOGGER
 BS  .IN            7.875:   BIT SIZE
 BSD .F               610:   BIT SIZE AT DEPTH
 DFT .                AIR:   DRILLING FLUID TYPE
 LUN .           HL- 6272:   LOGGING UNIT NUMBER
 LUL .             CASPER:   LOGGING UNIT LOCATION
 ENGI.       P. RASHUSSEN:   RECORDING ENGINEER
 WITN.          G. STRONG:   WITNESSED BY
 CLNT.            A2DTECH:   CLIENT CODE
 ORIG.           5" PRINT:   ORIGIN OF DATA
 UWI .       490252251100:   UNIQUE WELL ID
 DICO. A2D Technologies, Inc.:   DIGITIZING COMPANY
~OTHER INFORMATION
~A    DEPT      GRR      RILD       RILM   
# ...
  367.0000   136.4587     7.9043     7.8616
  367.5000   130.0577     7.3686     7.3798
  368.0000   121.8330     6.7268     6.3020
  368.5000   122.4230     6.0486     5.7922
  369.0000   126.3564     5.3385     5.5515
  369.5000   131.5055     4.6413     5.5098
  370.0000   140.3022     4.4808     5.5068
  370.5000   153.0501     5.0074     5.5038
  371.0000   153.9485     5.3297     5.6172
  371.5000   144.5035     5.8742     5.8136
  372.0000   126.2485     6.3846     6.1442
  372.5000   120.7594     6.8432     6.7715
  373.0000   121.9572     7.5951     7.7821
  373.5000   124.6748     8.5481     9.0062
  374.0000   125.5686     9.0984     9.1918
  374.5000   125.5502     9.2910     9.2505
  375.0000   125.8865     9.0909     9.2133
  375.5000   129.4616     9.2793     9.1761
  376.0000   134.6107     9.4796     9.2994
  376.5000   131.8572     9.8162     9.5575
  377.0000   129.7115    10.2894     9.9610
  377.5000   129.9975    10.7249    10.7503
  378.0000   130.8959    11.3359    11.4413
  378.5000   127.5300    11.9817    12.1767
  379.0000   119.9132    13.0228    12.8692
  379.5000   105.0016    13.8611    13.6011
  380.0000    88.8742    14.9607    14.7818
  380.5000    69.7073    16.1475    16.0649
  381.0000    71.5130    17.4285    16.9786
  381.5000    81.8294    18.9428    18.0699
  382.0000    88.4985    19.8828    19.2314
  382.5000    83.5859    20.7243    20.2529
  383.0000    77.2532    21.3021    20.9611
  383.5000    72.3349    21.7437    21.3183
  384.0000    75.1651    21.2724    21.0096
  384.5000    75.6424    20.6898    20.8520
  385.0000    66.1975    20.8243    20.6955
  385.5000    67.3953    21.7056    20.9750
  386.0000    76.4958    22.4670    21.5573
  386.5000    82.8608    23.0934    22.6247
  387.0000    84.0632    23.7372    23.2528
  387.5000    81.6091    23.8960    23.8983
  388.0000    72.4725    24.3889    24.0525
  388.5000    66.6795    24.5521    24.2077
  389.0000    68.1813    24.3688    24.1944
  389.5000    72.7225    24.3587    24.1811
  390.0000    78.1757    24.3487    24.1678
  390.5000    80.2857    24.5094    23.9848
  391.0000    79.9634    24.8434    24.1395
  391.5000    78.4034    25.1820    24.7234
  392.0000    77.1915    25.5323    25.6753
  392.5000    77.2188    26.2735    26.7592
  393.0000    78.0633    27.1872    28.0842
  393.5000    79.5651    28.9024    29.4748
  394.0000    77.7234    29.7113    30.0822
  394.5000    74.0580    29.9070    29.8565
  395.0000    72.2163    29.0688    29.2215
  395.5000    73.1102    26.9101    28.4010
  396.0000    77.0436    25.6167    27.9917
  396.5000    81.5848    25.6062    27.5883
  397.0000    86.7340    26.3200    27.3813
  397.5000    88.5398    27.0538    27.5580
  398.0000    88.8302    27.6176    27.8311
  398.5000    87.5919    27.9917    27.8158
  399.0000    82.7107    27.7851    27.5107
  399.5000    78.1335    27.0092    26.9237
  400.0000    76.5957    26.2550    26.0004
  400.5000    80.3283    23.8045    24.2291
  401.0000    85.8833    22.5060    21.6634
  401.5000    89.7145    21.1304    20.3397
  402.0000    91.4129    19.6899    19.6378
  402.5000    90.4831    18.8703    18.7622
  403.0000    87.7296    18.1074    18.2416
  403.5000    88.0155    17.4818    17.6732
  404.0000    90.4292    16.9960    17.1828
  404.5000    95.4952    16.8732    16.8232
  405.0000    97.2988    16.6348    16.5865
  405.5000    90.5785    16.5147    16.3531
  406.0000    88.1202    16.5101    16.3497
  406.5000    89.9171    16.5056    16.3464
  407.0000    90.8023    16.5011    16.3430
  407.5000    92.5992    16.4965    16.4542
  408.0000    91.6595    16.4919    16.6237
  408.5000    92.5458    16.7182    16.7368
  409.0000    93.7282    16.8318    16.7913
  409.5000    94.0121    17.0637    17.0240
  410.0000    92.4589    17.4187    17.3808
  410.5000    89.6966    17.7823    17.9947
  411.0000    87.8461    18.2806    19.1579
  411.5000    90.2577    18.7929    21.2691
  412.0000    89.0085    19.4548    22.9625
  412.5000    85.6383    19.8609    23.6080
  413.0000    77.2338    19.9945    23.2759
  413.5000    73.1161    19.7107    22.3162
  414.0000    73.6973    19.2972    21.0994
  414.5000    76.7101    18.6305    19.3985
  415.0000    83.9782    17.8617    18.4694
  415.5000    90.3344    17.3654    17.5847
  416.0000    93.6579    16.7654    16.7424
  416.5000    94.5430    16.0736    16.0521
  417.0000    92.3819    15.5183    15.3903
  417.5000    89.3157    14.9821    14.9633
  418.0000    87.4652    14.6678    14.7528
  418.5000    89.9790    14.5617    14.7498
  419.0000    97.1315    14.5568    14.7980
  419.5000   100.4483    14.5529    14.8467
  420.0000   101.6440    14.5489    14.8433
  420.5000    97.3553    14.5449    14.9442
  421.0000    95.8088    14.6428    15.0458
  421.5000    94.5663    14.6388    15.1482
  422.0000    93.6277    14.8415    15.2512
  422.5000    91.1693    14.9403    15.3549
  423.0000    92.0544    15.0408    15.3518
  423.5000    93.8672    15.0367    15.4562
  424.0000    94.4326    15.1379    15.4530
  424.5000    92.8794    15.1327    15.2886
  425.0000    91.9408    15.1286    15.1261
  425.5000    91.9141    15.0193    14.9132
  426.0000    93.7111    14.9108    14.8060
  426.5000    93.3804    14.8031    14.8030
  427.0000    94.2655    14.6961    14.6970
  427.5000    95.4546    14.6921    14.5917
  428.0000    97.5555    14.4846    14.3864
  428.5000    97.8328    14.2799    14.2834
  429.0000   100.2614    13.9802    14.0824
  429.5000    99.4963    13.8791    14.0795
  430.0000    97.7459    13.8746    14.0766
  430.5000    98.9349    13.8708    13.9754
  431.0000   103.4675    13.7706    13.9726
  431.5000   104.6632    13.6711    13.8722
  432.0000    99.1587    13.5724    13.7728
  432.5000    96.3964    13.2876    13.5790
  433.0000    95.7618    12.9183    13.2023
  433.5000    95.4311    12.7358    13.0165
  434.0000    93.5805    12.7312    12.9233
  434.5000    94.1935    12.6403    12.8308
  435.0000    96.2561    12.6361    12.8281
  435.5000    96.8439    12.5448    12.8255
  436.0000    93.7710    12.4542    12.8225
  436.5000    92.5284    12.3642    12.6864
  437.0000    93.4136    12.3608    12.4639
  437.5000    94.9133    12.3575    12.4614
  438.0000    97.9194    12.3541    12.4588
  438.5000    96.0689    12.3507    12.4563
  439.0000    93.6106    12.3474    12.4537
  439.5000    93.2799    12.3405    12.3645
  440.0000    96.6768    12.1695    12.3620
  440.5000    99.2988    12.0809    12.2735
  441.0000   100.4879    11.9102    12.1855
  441.5000   100.7718    11.7419    12.0138
  442.0000    98.6107    11.4956    11.8035
  442.5000    98.8879    11.4125    11.5965
  443.0000    99.4691    11.3301    11.5135
  443.5000   101.8740    11.3270    11.4310
  444.0000   100.6314    11.3239    11.3491
  444.5000    99.0849    11.2421    11.3468
  445.0000    99.1181    11.1608    11.3445
  445.5000   100.5512    11.0679    11.2632
  446.0000   101.1257    10.9230    11.1826
  446.5000   102.3148    10.8441    11.1025
  447.0000   103.8078    10.8411    11.0227
  447.5000   107.4285    10.8382    11.0205
  448.0000   111.3531    10.9118    11.0179
  448.5000   108.8948    10.9852    11.0928
  449.0000   107.3483    11.0591    11.0906
  449.5000   105.4979    11.0554    11.1660
  450.0000   103.9514    11.2077    11.2419
  450.5000   100.5714    11.3610    11.3960
  451.0000   102.4641    11.4368    11.5523
  451.5000   105.6590    11.5128    11.6288
  452.0000   103.4957    11.5088    11.6248
  452.5000   100.7244    11.5854    11.6208
  453.0000    97.3453    11.5813    11.5360
  453.5000    97.3096    11.5765    11.3722
  454.0000    97.5778    11.4122    11.2106
  454.5000    99.0619    11.2502    10.9745
  455.0000   100.5459    11.0134    10.8186
  455.5000   102.3339    10.7816    10.5907
  456.0000   102.9061    10.6285    10.4035
  456.5000   100.3991    10.4048    10.2556
  457.0000    97.0507    10.1149    10.0743
  457.5000    96.7111     9.9714    10.0008
