~VERSION INFORMATION
 VERS.                2.0:   CWLS LOG ASCII STANDARD - VERSION 2.0
 WRAP.                 NO:   ONE LINE PER DEPTH STEP
~WELL INFORMATION
#MNEM.UNIT      DATA TYPE    INFORMATION
#----------   ------------   ------------------------------
 STRT.F            0.0000:   START DEPTH
 STOP.F          520.0000:   STOP DEPTH
 STEP.F            0.5000:   STEP LENGTH
 NULL.          -999.2500:   NO VALUE
 COMP. LAWRENCE/ALLISON INC:   COMPANY
 WELL.   NPR #3 #67-13 SX:   WELL
 FLD .             TEAPOT:   FIELD
 LOC .       S3 T38N R78W:   LOCATION
 CNTY.            NATRONA:   COUNTY
 STAT.            WYOMING:   STATE
 CTRY. UNITED STATES OF AMERICA:   COUNTRY
 SRVC.           Gearhart:   SERVICE COMPANY
 DATE.        06-JUL-1988:   LOGDATE
 API .       490251123000:   API NUMBER
~CURVE INFORMATION
#MNEM.UNIT       API CODE    CURVE DESCRIPTION
#----------   ------------   ------------------------------
 DEPT.F                  :   
 GRR .GAPI   07 310 01 00:   GAMMA RAY FROM RES. LOG.
 RILD.OHMM   07 120 46 00:   INDUCTION LOG DEEP RESISTIVITY
 RILM.OHMM   07 120 44 00:   INDUCTION LOG MEDIUM RESISTIVITY
~PARAMETER INFORMATION
#MNEM.UNIT          VALUE    DESCRIPTION
#----------   ------------   ------------------------------
 PD  .                 GL:   PERMANENT DATUM
 EPD .F              5168:   ELEVATION PERMANENT DATUM
 LMF .                 KB:   LOG MEASURED FROM
 DAPD.F                10:   FEET ABOVE PERMANENT DATUM
 DMF .                 KB:   DRILLING MEASURED FROM
 EKB .F              5178:   KELLING BUSHING
 EGL .F              5168:   GROUND LEVEL
 DATE.             7-6-88:   RUN DATE
 RUN .                  1:   RUN NUMBER
 DD  .F               520:   DEPTH DRILLER
 DL  .F               524:   DEPTH LOGGER
 BLI .F             515.5:   BOTTOM LOG INTERVAL
 TLI .F                50:   TOP LOG INTERVAL
 CS  .IN            9.625:   CASING SIZE
 CBD .F                50:   CASING BOTTOM DRILLER
 CBL .F                50:   CASING BOTTOM LOGGER
 BS  .IN             8.75:   BIT SIZE
 BSD .F               520:   BIT SIZE AT DEPTH
 DFT .                AIR:   DRILLING FLUID TYPE
 TLAB.HRS            0015:   TIME LOGGER AT BOTTOM
 MRT .F                70:   MAXIMUM RECORDED TEMPERATURE
 LUN .               7597:   LOGGING UNIT NUMBER
 LUL .           GILLETTE:   LOGGING UNIT LOCATION
 ENGI.          HUCKFELDT:   RECORDING ENGINEER
 WITN.              FIVAS:   WITNESSED BY
 CLNT.            A2DTECH:   CLIENT CODE
 ORIG.       2", 5" PRINT:   ORIGIN OF DATA
 UWI .       490251123000:   UNIQUE WELL ID
 DICO. A2D Technologies, Inc.:   DIGITIZING COMPANY
~OTHER INFORMATION
~A    DEPT      GRR      RILD       RILM   
# ...
  455.0000   122.1236    10.6081    10.2748
  455.5000   122.1262    10.5730    10.2288
  456.0000   123.5843    10.4931    10.1831
  456.5000   124.9227    10.4118    10.1375
  457.0000   123.1182    10.3312    10.0958
  457.5000   120.6158    10.2511    10.0613
  458.0000   118.5891    10.1717     9.9782
  458.5000   116.4826    10.0929     9.8958
  459.0000   116.6376    10.0029     9.8198
  459.5000   118.8362     9.9153     9.5724
  460.0000   120.2703     9.8130     9.4067
  460.5000   120.4576     9.7295     9.2438
  461.0000   120.5340     9.6276     9.0838
  461.5000   121.4394     9.4300     8.9533
  462.0000   122.1998     9.2049     8.8995
  462.5000   123.1433     9.1202     8.8260
  463.0000   125.5290     9.0364     8.7894
  463.5000   126.8143     8.9533     8.6067
  464.0000   126.8948     8.7894     8.4417
  464.5000   127.0811     8.6322     8.2799
  465.0000   126.6761     8.4957     8.1211
  465.5000   126.4054     8.3126     7.9654
  466.0000   125.3382     8.1278     7.8127
  466.5000   123.8836     8.0197     7.6521
  467.0000   123.9727     8.2002     7.5817
  467.5000   124.2872     8.4762     7.8844
  468.0000   123.8000     8.7493     8.1335
  468.5000   122.2747     9.0450     8.3905
  469.0000   120.4799     9.3355     8.6556
  469.5000   119.7757     9.6516     8.9291
  470.0000   119.8386     9.9610     9.2113
  470.5000   120.4721    10.2986     9.5023
  471.0000   121.1817    10.6655     9.8026
  471.5000   121.4069    10.7731    10.1123
  472.0000   121.4223    10.9731    10.4577
  472.5000   121.4178    11.1258    10.8597
  473.0000   121.7533    11.2807    11.1685
  473.5000   122.0939    11.3706    11.0910
  474.0000   121.3625    11.3314    10.9997
  474.5000   119.9386    11.2923    10.8701
  475.0000   118.7028    11.2533    10.8305
  475.5000   118.4292    11.1951    10.8119
  476.0000   121.1397    11.1610    10.7750
  476.5000   125.2552    11.1390    10.7573
  477.0000   127.6623    11.1170    10.7194
  477.5000   127.7070    11.0950    10.7035
  478.0000   124.9300    11.0729    10.6562
  478.5000   122.5838    11.0637    10.6451
  479.0000   122.4656    11.0351    10.5982
  479.5000   122.4024    11.0065    10.5954
  480.0000   122.1298    10.9437    10.5730
  480.5000   121.4111    10.6030    10.4237
  481.0000   120.4481    10.0785    10.3795
  481.5000   119.7955     9.6700    10.1721
  482.0000   118.9516     9.2578    10.0029
  482.5000   118.1582     8.7283     9.3583
  483.0000   118.2329     8.1984     8.8495
  483.5000   119.0216     7.6831     8.3683
  484.0000   121.0721     7.0139     7.9133
  484.5000   122.6624     6.0843     7.5120
  485.0000   122.0189     4.9403     7.1729
  485.5000   124.8509     3.4146     4.4650
  486.0000   129.2719     3.2633     2.9277
  486.5000   128.0932     3.2896     2.7777
  487.0000   125.0742     3.3531     2.6941
  487.5000   122.8871     3.4295     2.9311
  488.0000   121.0748     3.4894     3.1458
  488.5000   120.6735     3.9757     3.4977
  489.0000   120.8470     4.4780     4.0067
  489.5000   121.2155     5.0104     4.5690
  490.0000   121.6060     5.6483     5.2340
  490.5000   121.9253     6.3673     5.9692
  491.0000   122.2377     7.2395     6.6166
  491.5000   121.9038     7.5031     7.1486
  492.0000   120.7426     7.7977     7.6574
  492.5000   119.1262     8.1632     7.8952
  493.0000   117.7716     8.3555     8.1219
  493.5000   117.8136     8.5989     8.3833
  494.0000   119.2690     8.8710     8.4174
  494.5000   121.0397     8.8710     8.4504
  495.0000   122.6998     8.8710     8.4918
  495.5000   124.4660     8.8710     8.5270
  496.0000   126.2446     8.8710     8.5682
  496.5000   127.0751     8.8710     8.6048
  497.0000   126.8572     8.8662     8.6204
  497.5000   126.6643     8.8603     8.6074
  498.0000   126.6486     8.8543     8.5982
  498.5000   127.4874     8.8483     8.5858
  499.0000   130.4309     8.8424     8.5757
  499.5000   132.7679     8.8364     8.5633
  500.0000   130.9741     8.8305     8.5489
  500.5000   128.3552     8.8246     8.5314
  501.0000  -999.2500     8.8186     8.4992
  501.5000  -999.2500     8.8127     8.4649
  502.0000  -999.2500     8.8068     8.4326
  502.5000  -999.2500     8.8008     8.3977
  503.0000  -999.2500     8.7949     8.3660
  503.5000  -999.2500     8.7894     8.3331
  504.0000  -999.2500     8.8042     8.3534
  504.5000  -999.2500     8.8182     8.4361
  505.0000  -999.2500     8.8322     8.5196
  505.5000  -999.2500     8.8462     8.6039
  506.0000  -999.2500     8.8602     8.6890
  506.5000  -999.2500     8.8710     8.7894
  507.0000  -999.2500     8.8710     8.7170
  507.5000  -999.2500     8.8710     8.5516
  508.0000  -999.2500     8.8710     8.3926
  508.5000  -999.2500     8.8710     8.4230
  509.0000  -999.2500     8.7247     8.4528
  509.5000  -999.2500     8.5491     8.3135
  510.0000  -999.2500     8.2390     7.9401
  510.5000  -999.2500  -999.2500     7.5834
  511.0000  -999.2500  -999.2500     7.2923
  511.5000  -999.2500  -999.2500     7.0634
  512.0000  -999.2500  -999.2500     6.9213
  512.5000  -999.2500  -999.2500     6.8069
  513.0000  -999.2500  -999.2500     6.7305
  513.5000  -999.2500  -999.2500     6.9565
  514.0000  -999.2500  -999.2500     7.1734
  514.5000  -999.2500  -999.2500     7.3778
  515.0000  -999.2500  -999.2500     7.6068
  515.5000  -999.2500  -999.2500     7.7910
  516.0000  -999.2500  -999.2500     7.7990
  516.5000  -999.2500  -999.2500     7.7919
  517.0000  -999.2500  -999.2500     7.7982
  517.5000  -999.2500  -999.2500     7.7926
  518.0000  -999.2500  -999.2500     7.7967
  518.5000  -999.2500  -999.2500     7.7929
  519.0000  -999.2500  -999.2500     7.7954
  519.5000  -999.2500  -999.2500     7.7931
  520.0000  -999.2500  -999.2500     7.7946
