~VERSION INFORMATION
 VERS.                2.0:   CWLS LOG ASCII STANDARD - VERSION 2.0
 WRAP.                 NO:   ONE LINE PER DEPTH STEP
~WELL INFORMATION
#MNEM.UNIT      DATA TYPE    INFORMATION
#----------   ------------   ------------------------------
 STRT.F           38.0000:   START DEPTH
 STOP.F          818.0000:   STOP DEPTH
 STEP.F            0.5000:   STEP LENGTH
 NULL.          -999.2500:   NO VALUE
 COMP. FENIX & SCISSON INC:   COMPANY
 WELL. NAVAL PETROLEUM RESERVE 3 SX-1 #32-14:   WELL
 FLD .             TEAPOT:   FIELD
 LOC .      S14 T38N R78W:   LOCATION
 CNTY.            NATRONA:   COUNTY
 STAT.            WYOMING:   STATE
 CTRY. UNITED STATES OF AMERICA:   COUNTRY
 SRVC.            Unknown:   SERVICE COMPANY
 DATE.        03-MAY-1978:   LOGDATE
 API .       490251061900:   API NUMBER
~CURVE INFORMATION
#MNEM.UNIT       API CODE    CURVE DESCRIPTION
#----------   ------------   ------------------------------
 DEPT.F                  :   
 SPR .MV     05 010 01 00:   SPONTANEOUS POTENTIAL FROM RES.
 ILD .OHMM   05 120 46 00:   INDUCTION LOG DEEP
 SN  .OHMM   05 040 16 00:   SHORT NORMAL 16"
 CALD.IN     45 280 60 00:   CALIPER
 GRD .GAPI   45 310 01 00:   GAMMA RAY FROM DENSITY LOG
 RHOB.G/C3   45 350 01 00:   BULK DENSITY
 DPHI.DEC    45 890 12 00:   DENSITY POROSITY SANDSTONE
 CORR.G/C3   45 356 01 00:   DENSITY CORRECTION
~PARAMETER INFORMATION
#MNEM.UNIT          VALUE    DESCRIPTION
#----------   ------------   ------------------------------
 PD  .                 GL:   PERMANENT DATUM
 EPD .F              5209:   ELEVATION PERMANENT DATUM
 LMF .                 KB:   LOG MEASURED FROM
 DAPD.F                 4:   FEET ABOVE PERMANENT DATUM
 DMF .                 KB:   DRILLING MEASURED FROM
 EKB .F              5213:   KELLING BUSHING
 EGL .F              5209:   GROUND LEVEL
 DATE.           5-3-1978:   RUN DATE
 RUN .                  1:   RUN NUMBER
 DD  .F               806:   DEPTH DRILLER
 DL  .F               824:   DEPTH LOGGER
 BLI .F               818:   BOTTOM LOG INTERVAL
 TLI .F                50:   TOP LOG INTERVAL
 CS  .IN            8.625:   CASING SIZE
 CBD .F                40:   CASING BOTTOM DRILLER
 BS  .IN            7.875:   BIT SIZE
 BSD .F               806:   BIT SIZE AT DEPTH
 DFT .                KCL:   DRILLING FLUID TYPE
 DFD .                8.6:   DRILLING FLUID DENSITY
 DFV .                 34:   DRILLING FLUID VISCOSITY
 DFPH.                  9:   DRILLING FLUID PH
 DFL .               16.4:   DRILLING FLUID LOSS
 MSS .           FLOWLINE:   MUD SAMPLE SOURCE
 RMS .OHMM            .75:   RESISTIVITY MUD SAMPLE
 MST .F                52:   MUD SAMPLE TEMPERATURE
 RMF .OHMM            .65:   RESISTIVITY MUD FILTRATE SAMPLE
 MFST.F                60:   MUD FILTRATE SAMPLE TEMPERATURE
 RMC .OHMM            1.2:   RESISTIVITY MUD CAKE
 MCST.F                62:   MUD CAKE SAMPLE TEMPERATURE
 MFSS.               MEAS:   MUD FILTRATE SAMPLE SOURCE
 RMB .OHMM            .54:   RESISTIVITY MUD AT BHT
 BHT .F                72:   BOTTOM HOLE TEMPERATURE
 TCS .HRS               1:   TIME CURCULATED STOPPED
 MRT .F                72:   MAXIMUM RECORDED TEMPERATURE
 LUN .               2958:   LOGGING UNIT NUMBER
 LUL .               CASP:   LOGGING UNIT LOCATION
 ENGI.             MILLER:   RECORDING ENGINEER
 WITN.           MCGINLEY:   WITNESSED BY
 CLNT.            A2DTECH:   CLIENT CODE
 ORIG.           5" PRINT:   ORIGIN OF DATA
 UWI .       490251061900:   UNIQUE WELL ID
 DICO. A2D Technologies, Inc.:   DIGITIZING COMPANY
~OTHER INFORMATION
~A   DEPT      SPR        ILD         SN         CALD      GRD       RHOB       DPHI       CORR   
# ...
  321.5000   -36.4242     7.9649     7.7095     8.3722    81.4065     2.4811     0.1348     0.0051
  322.0000   -36.4118     7.9787     7.7092     8.3217    84.2482     2.4767     0.1379     0.0045
  322.5000   -36.3994     7.9925     7.7384     8.2798    84.4904     2.4730     0.1343     0.0078
  323.0000   -36.3876     8.0063     7.7787     8.2808    81.9946     2.4730     0.1293     0.0121
  323.5000   -36.3759     8.0202     7.8191     8.2812    79.8166     2.4814     0.1230     0.0164
  324.0000   -36.3579     8.0340     7.8598     8.2831    77.5287     2.4935     0.1207     0.0204
  324.5000   -36.0624     8.0479     7.9007     8.2028    74.7931     2.5011     0.1204     0.0200
  325.0000   -35.2639     8.0620     7.9418     8.1133    75.1891     2.5015     0.1199     0.0193
  325.5000   -34.9518     8.0906     7.9831     8.1276    77.0413     2.5022     0.1113     0.0187
  326.0000   -34.9131     8.1785     8.0420     8.1670    78.7928     2.5165     0.1067     0.0178
  326.5000   -34.8811     8.2706     8.1451     7.8963    80.1706     2.5221     0.1103     0.0127
  327.0000   -34.8490     8.3795     8.2230     7.7188    80.1399     2.5247     0.1207     0.0074
  327.5000   -34.8160     8.3740     8.2230     7.7097    80.1330     2.5019     0.1244     0.0067
  328.0000   -34.7842     8.3761     8.2185     7.7266    80.1213     2.4932     0.1271     0.0082
  328.5000   -34.7943     8.3759     8.2012     7.9137    80.7209     2.4882     0.1287     0.0097
  329.0000   -34.9354     8.3759     8.1842     7.8184    84.6093     2.4834     0.1319     0.0102
  329.5000   -35.0686     8.3759     8.1672     7.7158    90.9349     2.4786     0.1319     0.0095
  330.0000   -35.1608     8.3759     8.1503     7.6142    92.6168     2.4795     0.1311     0.0088
  330.5000   -35.1592     8.3757     8.1334     7.5858    92.6672     2.4812     0.1311     0.0081
  331.0000   -35.1595     8.3755     8.1165     7.5767    91.4579     2.4830     0.1287     0.0074
  331.5000   -35.1594     8.3743     8.0997     7.5530    86.4437     2.4852     0.1281     0.0067
  332.0000   -35.1594     8.4783     8.0829     7.5955    83.1647     2.4884     0.1291     0.0060
  332.5000   -35.1594     8.7464     8.0729     7.6807    82.9129     2.4884     0.1314     0.0053
  333.0000   -35.1594     8.8875     8.4673     7.6838    82.3953     2.4846     0.1292     0.0046
  333.5000   -35.1594     8.9457     8.6902     7.6834    80.7087     2.4809     0.1293     0.0039
  334.0000   -35.1594     9.0044     8.7430     7.6833    82.9321     2.4772     0.1355     0.0033
  334.5000   -35.1594     9.0635     8.7706     7.6833    82.5653     2.4735     0.1375     0.0025
  335.0000   -35.1594     9.1229     8.7808     7.6832    81.7456     2.4731     0.1370     0.0044
  335.5000   -35.1594     9.1828     8.7960     7.6828    81.3432     2.4731     0.1361     0.0066
  336.0000   -35.1594     9.2430     8.8112     7.6846    81.3292     2.4731     0.1302     0.0088
  336.5000   -35.1594     9.3036     8.8264     7.7721    82.4002     2.4815     0.1231     0.0110
  337.0000   -35.1594     9.3646     8.8413     7.8676    84.2697     2.4940     0.1231     0.0132
  337.5000   -35.1595     9.4261     8.8969     7.9603    84.2862     2.4968     0.1205     0.0167
  338.0000   -35.1599     9.5667     9.0291     7.9827    82.6432     2.5009     0.1113     0.0170
  338.5000   -35.1641     9.7157     9.1632     7.9821    80.9211     2.5174     0.1020     0.0174
  339.0000   -34.9620     9.7726     9.2994     7.9814    80.3456     2.5359     0.0928     0.0178
  339.5000   -34.7117     9.8298     9.4375     7.9799    80.3971     2.5449     0.0856     0.0182
  340.0000   -34.5746     9.8874     9.5777     8.0130    80.5463     2.5312     0.1160     0.0187
  340.5000   -34.6112     9.9452     9.7200     8.3452    81.9714     2.5066     0.1199     0.0199
  341.0000   -34.6456     9.9861     9.8644     8.4616    83.5230     2.5002     0.1192     0.0210
  341.5000   -34.6806    10.0051     9.8862     8.4988    83.5525     2.5009     0.1187     0.0222
  342.0000   -34.7176    10.0242     9.8742     8.5709    80.8769     2.4971     0.1253     0.0239
  342.5000   -34.7395    10.0434     9.8660     8.6188    78.3689     2.4920     0.1280     0.0258
  343.0000   -35.0243    10.0625     9.8578     8.6197    78.4263     2.4869     0.1261     0.0277
  343.5000   -35.1147    10.0817     9.8496     8.6184    78.5261     2.4861     0.1251     0.0266
  344.0000   -35.2209    10.1010     9.8413     8.5590    78.5197     2.4870     0.1272     0.0238
  344.5000   -35.3256    10.1202     9.8331     8.4553    78.4001     2.4880     0.1295     0.0210
  345.0000   -35.4303    10.1393     9.8249     8.4465    78.3945     2.4890     0.1273     0.0183
  345.5000   -35.5369    10.1631     9.8167     8.4358    78.8605     2.4897     0.1251     0.0205
  346.0000   -35.5288    10.1263     9.8087     8.4252    79.4979     2.4881     0.1310     0.0204
  346.5000   -35.4542    10.0793     9.8004     8.4006    80.1107     2.4843     0.1303     0.0205
  347.0000   -35.3811    10.0322     9.7371     8.3647    79.7771     2.4827     0.1299     0.0183
  347.5000   -34.9213     9.9855     9.5961     8.3290    78.2040     2.4823     0.1340     0.0146
  348.0000   -34.3743     9.8812     9.4570     8.2998    76.3941     2.4766     0.1380     0.0108
  348.5000   -34.3118     9.7665     9.3547     8.2904    76.5558     2.4698     0.1399     0.0070
  349.0000   -34.2584     9.6965     9.3356     8.2803    78.2630     2.4653     0.1394     0.0064
  349.5000   -34.2026     9.6765     9.3175     8.2701    79.5394     2.4680     0.1390     0.0063
  350.0000   -34.1464     9.6566     9.2995     8.2599    80.3246     2.4711     0.1387     0.0062
  350.5000   -34.0900     9.6367     9.2815     8.2500    82.0594     2.4700     0.1395     0.0061
  351.0000   -34.0333     9.6169     9.2635     8.2412    83.5934     2.4684     0.1407     0.0060
  351.5000   -33.9699     9.5971     9.2456     8.2181    81.6137     2.4645     0.1387     0.0059
  352.0000   -34.2206     9.5774     9.2277     8.0389    80.5295     2.4640     0.1342     0.0058
  352.5000   -34.5582     9.5577     9.2099     8.0613    81.8922     2.4753     0.1296     0.0057
  353.0000   -34.9018     9.5380     9.1921     8.2645    83.0947     2.4843     0.1303     0.0056
  353.5000   -34.9815     9.5184     9.1743     8.2642    83.6040     2.4837     0.1319     0.0055
  354.0000   -35.0075     9.4988     9.1566     8.2671    85.8438     2.4818     0.1309     0.0054
  354.5000   -35.0324     9.4793     9.1388     8.2700    87.9290     2.4846     0.1247     0.0052
  355.0000   -35.0580     9.4598     9.1212     8.2730    88.3144     2.4926     0.1240     0.0052
  355.5000   -35.0837     9.4403     9.1035     8.2760    87.1951     2.4928     0.1282     0.0050
  356.0000   -35.1093     9.4209     9.0859     8.2789    85.9449     2.4881     0.1285     0.0049
  356.5000   -35.1350     9.4015     9.0683     8.2837    89.6920     2.4881     0.1268     0.0048
  357.0000   -35.1607     9.3821     9.0508     8.2920    97.7769     2.4889     0.1289     0.0047
  357.5000   -35.1863     9.3629     9.0333     8.3003   101.3140     2.4849     0.1315     0.0046
  358.0000   -35.2120     9.3430     9.0158     8.3085   100.0254     2.4841     0.1307     0.0045
  358.5000   -35.2377     9.3228     8.9984     8.3167    99.0687     2.4904     0.1283     0.0058
  359.0000   -35.2634     9.3027     8.9810     8.3250   102.1581     2.4942     0.1296     0.0080
  359.5000   -35.2890     9.2826     8.9636     8.3333   103.4292     2.4865     0.1339     0.0101
  360.0000   -35.3151     9.2625     8.9462     8.3410   103.5899     2.4771     0.1339     0.0123
  360.5000   -35.3422     9.2425     8.9335     8.3234   105.1710     2.4776     0.1271     0.0145
  361.0000   -35.3480     9.2225     8.9337     8.2991   105.3570     2.4895     0.1242     0.0164
  361.5000   -35.1268     9.2026     8.9337     8.2747   103.3348     2.5010     0.1215     0.0165
