~VERSION INFORMATION
 VERS.                2.0:   CWLS LOG ASCII STANDARD - VERSION 2.0
 WRAP.                 NO:   ONE LINE PER DEPTH STEP
~WELL INFORMATION
#MNEM.UNIT      DATA TYPE    INFORMATION
#----------   ------------   ------------------------------
 STRT.F           26.0000:   START DEPTH
 STOP.F          533.5000:   STOP DEPTH
 STEP.F            0.5000:   STEP LENGTH
 NULL.          -999.2500:   NO VALUE
 COMP. BROWN JOHN E&C INC:   COMPANY
 WELL.  NPR 3 #76-531-X-3:   WELL
 FLD .             TEAPOT:   FIELD
 LOC .       S3 T38N R78W:   LOCATION
 CNTY.            NATRONA:   COUNTY
 STAT.            WYOMING:   STATE
 CTRY. UNITED STATES OF AMERICA:   COUNTRY
 SRVC.       Schlumberger:   SERVICE COMPANY
 DATE.        20-SEP-1990:   LOGDATE
 API .       490251130500:   API NUMBER
~CURVE INFORMATION
#MNEM.UNIT       API CODE    CURVE DESCRIPTION
#----------   ------------   ------------------------------
 DEPT.F                  :   
 ILM .OHMM   07 120 44 00:   INDUCTION LOG MEDIUM
 ILD .OHMM   07 120 46 00:   INDUCTION LOG DEEP
 CALD.IN     45 280 60 00:   CALIPER FROM DENSITY LOG
 GRD .GAPI   45 310 01 00:   GAMMA RAY FROM DENSITY LOG
 DPHI.DEC    45 890 12 00:   DENSITY POROSITY SANDSTONE
 RHOB.G/C3   45 350 01 00:   BULK DENSITY
 DRHO.G/C3   45 356 01 00:   DENSITY CORRECTION
~PARAMETER INFORMATION
#MNEM.UNIT          VALUE    DESCRIPTION
#----------   ------------   ------------------------------
 PD  .                 GL:   PERMANENT DATUM
 EPD .F              5148:   ELEVATION PERMANENT DATUM
 LMF .                 KB:   LOG MEASURED FROM
 DAPD.F                10:   FEET ABOVE PERMANENT DATUM
 DMF .                 KB:   DRILLING MEASURED FROM
 EKB .F              5158:   KELLING BUSHING
 EDF .F              5157:   DRILLING FLOOR
 EGL .F              5148:   GROUND LEVEL
 DATE.            9-20-90:   RUN DATE
 RUN .                  1:   RUN NUMBER
 DD  .F               535:   DEPTH DRILLER
 DL  .F               536:   DEPTH LOGGER
 BLI .F               530:   BOTTOM LOG INTERVAL
 TLI .F                49:   TOP LOG INTERVAL
 CBD .F                40:   CASING BOTTOM DRILLER
 CBL .F                49:   CASING BOTTOM LOGGER
 BS  .IN            7.875:   BIT SIZE
 BSD .F               535:   BIT SIZE AT DEPTH
 DFT .                AIR:   DRILLING FLUID TYPE
 TCS .HRS            0315:   TIME CURCULATED STOPPED
 TLAB.HRS            0409:   TIME LOGGER AT BOTTOM
 LUN .               6882:   LOGGING UNIT NUMBER
 LUL .               CODY:   LOGGING UNIT LOCATION
 ENGI.          M. FISHER:   RECORDING ENGINEER
 WITN.          G. STRONG:   WITNESSED BY
 CLNT.            A2DTECH:   CLIENT CODE
 ORIG.   2" 2.5" 5" PRINT:   ORIGIN OF DATA
 UWI .       490251130500:   UNIQUE WELL ID
 DICO. A2D Technologies, Inc.:   DIGITIZING COMPANY
~OTHER INFORMATION
~A   DEPT      ILM        ILD       CALD         GRD      DPHI       RHOB       DRHO   
# ...
  344.5000    44.8763    44.3793     8.1634    68.6972     0.2105     2.1020     0.0231
  345.0000    46.3554    45.7924     8.1337    69.5245     0.2057     2.1221     0.0355
  345.5000    47.8833    47.2504     8.1411    69.7550     0.2114     2.1025     0.0395
  346.0000    49.4615    48.6868     8.1883    69.4439     0.2194     2.0745     0.0388
  346.5000    51.0918    50.1075     8.2385    69.1640     0.2261     2.0464     0.0342
  347.0000    52.7758    50.7815     8.2423    69.6613     0.2307     2.0274     0.0287
  347.5000    54.0255    50.9847     8.2246    70.1867     0.2347     2.0095     0.0233
  348.0000    53.1376    51.1237     8.2058    71.1366     0.2358     2.0058     0.0182
  348.5000    52.3332    51.1237     8.1801    72.9409     0.2260     2.0326     0.0165
  349.0000    51.5411    50.3469     8.1418    75.6456     0.2156     2.0859     0.0161
  349.5000    50.7609    48.7099     8.1255    77.1591     0.2070     2.1116     0.0157
  350.0000    47.5718    47.4198     8.1739    77.1548     0.2102     2.1148     0.0140
  350.5000    44.2353    44.9919     8.2100    77.1433     0.2134     2.0919     0.0109
  351.0000    41.1301    42.2136     8.1670    79.3139     0.2072     2.1082     0.0101
  351.5000    38.2582    40.3650     8.1250    83.1039     0.1973     2.1558     0.0111
  352.0000    35.6759    39.7288     8.0934    86.1102     0.1810     2.2137     0.0122
  352.5000    35.0579    39.1506     8.0903    86.1183     0.1694     2.2599     0.0133
  353.0000    35.1469    38.1095     8.0867    85.1837     0.1697     2.2520     0.0143
  353.5000    35.2760    36.6520     8.0831    84.9532     0.1754     2.2377     0.0157
  354.0000    35.3820    35.4895     8.0795    85.2445     0.1761     2.2343     0.0220
  354.5000    34.1376    34.5552     8.0759    85.5353     0.1690     2.2577     0.0288
  355.0000    32.6350    33.6489     8.0747    84.9449     0.1618     2.2846     0.0322
  355.5000    31.1907    32.6610     8.0763    84.3496     0.1602     2.2927     0.0301
  356.0000    29.8093    31.6131     8.0779    84.3115     0.1612     2.2895     0.0232
  356.5000    28.4100    30.5988     8.0796    86.3413     0.1605     2.2908     0.0164
  357.0000    27.0956    29.6170     8.0812    88.7226     0.1569     2.3057     0.0123
  357.5000    25.9674    28.6862     8.0829    91.2035     0.1534     2.3205     0.0087
  358.0000    25.1727    27.5145     8.0845    91.0908     0.1535     2.3211     0.0067
  358.5000    24.8987    26.3906     8.0861    90.4600     0.1551     2.3146     0.0072
  359.0000    24.5910    25.7687     8.0878    90.2764     0.1566     2.3082     0.0077
  359.5000    24.2872    25.5649     8.0894    91.2486     0.1579     2.3027     0.0082
  360.0000    23.9871    25.3626     8.0910    92.9288     0.1591     2.2982     0.0083
  360.5000    23.6340    25.1727     8.0927    92.8878     0.1598     2.2956     0.0078
  361.0000    23.1721    25.1727     8.0942    91.7664     0.1580     2.3004     0.0066
  361.5000    23.2162    25.1725     8.0942    91.0123     0.1550     2.3119     0.0047
  362.0000    23.2654    25.1499     8.0942    90.6606     0.1550     2.3152     0.0027
  362.5000    23.3147    25.0006     8.0942    90.3061     0.1575     2.3038     0.0017
  363.0000    23.3641    24.9410     8.0942    89.9875     0.1600     2.2944     0.0024
  363.5000    23.4137    24.9430     8.0942    90.2658     0.1620     2.2895     0.0030
  364.0000    23.4633    24.9400     8.0941    92.6642     0.1629     2.2847     0.0037
  364.5000    23.5131    25.2054     8.0841    95.6062     0.1638     2.2800     0.0044
  365.0000    23.5623    25.3846     8.0733    96.7731     0.1647     2.2758     0.0040
  365.5000    23.6032    25.5649     8.0624    96.7922     0.1658     2.2715     0.0026
  366.0000    23.7341    25.7455     8.0516    96.8059     0.1676     2.2657     0.0012
  366.5000    23.8656    25.8773     8.0409    98.1822     0.1694     2.2548    -0.0002
  367.0000    23.9972    25.7276     8.0354    99.7330     0.1702     2.2567    -0.0016
  367.5000    24.1295    25.6110     8.0394    99.6130     0.1650     2.2792     0.0019
  368.0000    24.2631    25.4951     8.0433    97.6550     0.1585     2.2999     0.0061
  368.5000    24.0704    25.3512     8.0472    95.9120     0.1539     2.3161     0.0105
  369.0000    23.8326    25.1107     8.0510    97.3841     0.1522     2.3246     0.0110
  369.5000    23.5971    24.8725     8.0549    99.2912     0.1514     2.3275     0.0102
  370.0000    23.3639    24.6365     8.0588    99.6062     0.1518     2.3216     0.0086
  370.5000    23.1721    24.4028     8.0627    99.6029     0.1586     2.3060     0.0046
  371.0000    23.2530    24.1713     8.0666    99.6127     0.1616     2.2911     0.0007
  371.5000    23.3224    23.9420     8.0705    97.6634     0.1630     2.2832     0.0002
  372.0000    23.3863    23.7149     8.0737    94.2903     0.1630     2.2834    -0.0001
  372.5000    23.0276    23.4898     8.0630    91.2156     0.1639     2.2800    -0.0004
  373.0000    22.7007    23.2670     8.0520    92.2170     0.1654     2.2744     0.0001
  373.5000    22.3784    22.9961     8.0411    94.3483     0.1648     2.2772     0.0019
  374.0000    22.0607    22.6912     8.0302    95.1022     0.1615     2.2912     0.0038
  374.5000    21.7475    22.3904     8.0193    92.6820     0.1571     2.3076     0.0057
  375.0000    21.3797    22.0936     8.0084    90.0792     0.1522     2.3241     0.0076
  375.5000    20.8712    21.7267     7.9975    89.2767     0.1482     2.3410     0.0094
  376.0000    20.3777    21.7653     7.9865    93.5231     0.1474     2.3429     0.0075
  376.5000    19.9853    21.8173     7.9749    97.7531     0.1519     2.3298     0.0039
  377.0000    20.8072    21.8693     7.9972    99.9750     0.1580     2.3035     0.0003
  377.5000    21.4030    21.9215     8.0249    97.8953     0.1641     2.2774    -0.0026
  378.0000    21.6731    22.2377     8.0584    95.4809     0.1702     2.2542    -0.0033
  378.5000    21.9467    22.5916     8.0545    93.6857     0.1702     2.2549    -0.0031
  379.0000    22.3348    22.7865     8.0299    92.9368     0.1648     2.2768    -0.0010
  379.5000    22.2637    22.8767     8.0045    91.6140     0.1602     2.2928     0.0011
  380.0000    22.1461    22.9578     7.9792    89.9900     0.1590     2.3009     0.0023
  380.5000    22.1302    22.5169     7.9547    90.9901     0.1590     2.2975     0.0018
  381.0000    21.7267    22.1015     7.9537    92.6234     0.1573     2.3019     0.0012
  381.5000    21.3148    21.6947     7.9539    94.2851     0.1530     2.3145     0.0007
  382.0000    20.0479    21.1326     7.9539    95.2304     0.1462     2.3392     0.0018
  382.5000    19.5272    20.4717     7.9539    95.8742     0.1437     2.3559     0.0038
  383.0000    19.1007    19.9577     7.9539    96.7787     0.1423     2.3637     0.0048
  383.5000    18.8722    19.7998     7.9539    98.8798     0.1414     2.3665     0.0050
  384.0000    18.6617    19.6353     7.9539   100.5285     0.1438     2.3602     0.0023
  384.5000    18.4536    19.4144     7.9539   100.2918     0.1473     2.3454    -0.0003
  385.0000    18.3218    19.1844     7.9539    99.3292     0.1509     2.3286    -0.0025
  385.5000    18.1048    18.9572     7.9539    98.3415     0.1546     2.3153    -0.0035
  386.0000    17.8903    18.7326     7.9539    97.8915     0.1534     2.3193    -0.0030
  386.5000    17.7068    18.5107     7.9539    97.7199     0.1471     2.3410    -0.0005
  387.0000    17.3986    18.2915     7.9539    97.5538     0.1409     2.3670     0.0021
  387.5000    17.0957    18.0748     7.9539    97.3893     0.1352     2.3884     0.0018
  388.0000    16.7968    17.8607     7.9539    97.2470     0.1334     2.3967     0.0022
  388.5000    16.6199    17.6484     7.9539    96.1190     0.1342     2.3937     0.0025
  389.0000    16.5469    17.5351     7.9539    94.8702     0.1356     2.3879     0.0024
  389.5000    16.4860    17.4653     7.9539    94.8658     0.1371     2.3824     0.0022
