~VERSION INFORMATION
 VERS.                2.0:   CWLS LOG ASCII STANDARD - VERSION 2.0
 WRAP.                 NO:   ONE LINE PER DEPTH STEP
~WELL INFORMATION
#MNEM.UNIT      DATA TYPE    INFORMATION
#----------   ------------   ------------------------------
 STRT.F           90.0000:   START DEPTH
 STOP.F          784.0000:   STOP DEPTH
 STEP.F            0.5000:   STEP LENGTH
 NULL.          -999.2500:   NO VALUE
 COMP.               NAVY:   COMPANY
 WELL. RES 3 TEAPOT DOM #41S-11:   WELL
 FLD .             TEAPOT:   FIELD
 LOC .      S11 T38N R78W:   LOCATION
 CNTY.            NATRONA:   COUNTY
 STAT.            WYOMING:   STATE
 CTRY. UNITED STATES OF AMERICA:   COUNTRY
 SRVC.       Schlumberger:   SERVICE COMPANY
 DATE.        14-JUL-1962:   LOGDATE
 API .       490250638000:   API NUMBER
~CURVE INFORMATION
#MNEM.UNIT       API CODE    CURVE DESCRIPTION
#----------   ------------   ------------------------------
 DEPT.F                  :   
 GR  .GAPI   30 310 01 00:   GAMMA RAY
 SPR .MV     05 010 01 00:   SPONTANEOUS POTENTIAL FROM RES.
 ASN .OHMM   05 041 16 00:   AMPLIFIED SHORT NORMAL 16"
 ILD .OHMM   05 120 46 00:   INDUCTION LOG DEEP
 CILD.MMHO   05 110 46 00:   CONDUCTIVITY INDUCTION LOG DEEP
~PARAMETER INFORMATION
#MNEM.UNIT          VALUE    DESCRIPTION
#----------   ------------   ------------------------------
 LMF .                 KB:   LOG MEASURED FROM
 DMF .                 KB:   DRILLING MEASURED FROM
 EKB .F              5162:   KELLING BUSHING
 EGL .F              5157:   GROUND LEVEL
 DATE.        14-JUL-1962:   RUN DATE
 RUN .                  1:   RUN NUMBER
 DD  .F               785:   DEPTH DRILLER
 DL  .F               785:   DEPTH LOGGER
 BLI .F               784:   BOTTOM LOG INTERVAL
 TLI .F               100:   TOP LOG INTERVAL
 CBD .F                10:   CASING BOTTOM DRILLER
 BS  .IN             6.75:   BIT SIZE
 BSD .F               785:   BIT SIZE AT DEPTH
 DFT .           OIL EMUL:   DRILLING FLUID TYPE
 DFD .               10.2:   DRILLING FLUID DENSITY
 DFV .                 43:   DRILLING FLUID VISCOSITY
 DFL .                4.6:   DRILLING FLUID LOSS
 RMS .OHMM            5.2:   RESISTIVITY MUD SAMPLE
 MST .F                78:   MUD SAMPLE TEMPERATURE
 RMF .OHMM            5.2:   RESISTIVITY MUD FILTRATE SAMPLE
 MFST.F                78:   MUD FILTRATE SAMPLE TEMPERATURE
 RMC .OHMM              6:   RESISTIVITY MUD CAKE
 MCST.F                78:   MUD CAKE SAMPLE TEMPERATURE
 TCS .HRS              .5:   TIME CURCULATED STOPPED
 LUN .               2503:   LOGGING UNIT NUMBER
 LUL .               CSPR:   LOGGING UNIT LOCATION
 ENGI.           ELLERMAN:   RECORDING ENGINEER
 WITN.          JORGENSON:   WITNESSED BY
 CLNT.            A2DTECH:   CLIENT CODE
 ORIG.           5" PRINT:   ORIGIN OF DATA
 UWI .       490250638000:   UNIQUE WELL ID
 DICO. A2D Technologies, Inc.:   DIGITIZING COMPANY
~OTHER INFORMATION
~A   DEPT       GR        SPR          ASN        ILD       CILD 
# ...
  334.0000  -999.2500   -38.9182     6.8278     7.0242   149.7585
  334.5000  -999.2500   -39.0665     6.8278     6.8731   150.5233
  335.0000  -999.2500   -39.2146     6.8127     6.8731   150.5305
  335.5000  -999.2500   -39.0599     6.8278     6.8731   148.2650
  336.0000  -999.2500   -38.9059     6.8882     6.9486   145.2438
  336.5000  -999.2500   -38.7520     7.0242     7.0242   142.9783
  337.0000  -999.2500   -38.4470     7.2205     7.1752   140.7128
  337.5000  -999.2500   -38.1420     7.3565     7.2508   137.6897
  338.0000  -999.2500   -38.4405     7.4471     7.4018   135.4039
  338.5000  -999.2500   -38.8908     7.3832     7.4773   132.4029
  339.0000  -999.2500   -39.3418     7.3263     7.5529   130.1374
  339.5000  -999.2500   -39.9424     7.4320     7.5529   129.3853
  340.0000  -999.2500   -40.3927     7.5076     7.5529   129.3943
  340.5000  -999.2500   -40.5409     7.4773     7.5529   129.4015
  341.0000  -999.2500   -40.2351     7.4778     7.6284   129.4106
  341.5000  -999.2500   -39.4770     7.6435     7.7039   128.6584
  342.0000  -999.2500   -38.8699     7.7492     7.7795   127.1523
  342.5000  -999.2500   -38.5649     7.7644     7.8550   126.4001
  343.0000  -999.2500   -38.5699     7.7644     7.9305   124.8940
  343.5000  -999.2500   -39.1626     7.7795     8.0060   124.9015
  344.0000  -999.2500   -39.6129     7.8268     8.0060   125.6678
  344.5000  -999.2500   -40.2142     7.8701     7.9305   126.4326
  345.0000  -999.2500   -40.3631     7.8701     7.9305   127.1974
  345.5000  -999.2500   -40.2085     7.8248     7.8550   128.7198
  346.0000  -999.2500   -38.9964     7.7190     7.7039   129.5758
  346.5000  -999.2500   -38.2382     7.5506     7.5529   131.0088
  347.0000  -999.2500   -38.2353     7.3716     7.4773   133.2888
  347.5000  -999.2500   -38.2324     7.2961     7.4018   134.8112
  348.0000  -999.2500   -38.2295     7.2810     7.3263   137.0911
  348.5000  -999.2500   -38.2266     7.3112     7.3263   139.3712
  349.0000  -999.2500   -38.2231     7.3112     7.3263   140.8952
  349.5000  -999.2500   -38.2202     7.2463     7.3263   140.1449
  350.0000  -999.2500   -38.2177     7.1601     7.3263   140.1521
  350.5000  -999.2500   -38.2162     7.1605     7.2766   139.4015
  351.0000  -999.2500   -38.2146     7.1912     7.2522   138.6514
  351.5000  -999.2500   -38.2130     7.2519     7.3287   138.5090
  352.0000  -999.2500   -38.8520     7.3127     7.3294   137.9387
  352.5000  -999.2500   -40.0224     7.3282     7.3301   139.4722
  353.0000  -999.2500   -40.9273     7.3286     7.3309   139.4869
  353.5000  -999.2500   -41.0772     7.3137     7.3316   138.7440
  354.0000  -999.2500   -40.3201     7.2991     7.3323   138.7587
  354.5000  -999.2500   -39.7144     7.2995     7.3331   137.2582
  355.0000  -999.2500   -39.4108     7.3174     7.4094   137.2729
  355.5000  -999.2500   -39.4093     7.3607     7.4103   135.7724
  356.0000  -999.2500   -39.7140     7.3913     7.4865   134.2756
  356.5000  -999.2500   -40.0317     7.4521     7.5628   133.5290
  357.0000  -999.2500   -40.1602     7.5129     7.5635   132.7861
  357.5000  -999.2500   -39.8563     7.5737     7.6398   132.0432
  358.0000  -999.2500   -39.4016     7.6042     7.6405   130.5464
  358.5000  -999.2500   -38.7959     7.6348     7.7168   129.8030
  359.0000  -999.2500   -38.3413     7.6986     7.7175   129.0556
  359.5000  -999.2500   -38.0377     7.8320     7.7938   127.4572
  360.0000  -999.2500   -37.8852     7.8777     7.8702   125.3057
  360.5000  -999.2500   -37.8837     7.9083     8.0220   123.8052
  361.0000  -999.2500   -38.2084     7.9540     8.1738   122.3011
  361.5000  -999.2500   -38.7867     8.1054     8.3256   120.0467
  362.0000  -999.2500   -39.5406     8.2870     8.4774   118.5462
  362.5000  -999.2500   -40.4454     8.4385     8.5537   117.8030
  363.0000  -999.2500   -41.1993     8.5295     8.6299   117.0604
  363.5000  -999.2500   -41.6513     8.5298     8.7062   117.0788
  364.0000  -999.2500   -41.8006     8.5303     8.6938   117.0935
  364.5000  -999.2500   -41.9501     8.5155     8.5566   117.1081
  365.0000  -999.2500   -41.9487     8.5007     8.4818   116.3652
  365.5000  -999.2500   -41.7958     8.4407     8.4827   115.6223
  366.0000  -999.2500   -41.4922     8.4259     8.4835   115.6370
  366.5000  -999.2500   -41.1886     8.5623     8.5597   114.8939
  367.0000  -999.2500   -40.7340     8.7137     8.6360   114.0858
  367.5000  -999.2500   -40.1283     8.8690     8.7878   112.6507
  368.0000  -999.2500   -39.5226     9.0620     8.9456   111.1539
  368.5000  -999.2500   -39.2190     9.2285     9.1671   109.6498
  369.0000  -999.2500   -38.7643     9.3800     9.3189   107.3954
  369.5000  -999.2500   -38.7498     9.4408     9.4707   106.6488
  370.0000  -999.2500   -38.7614     9.4260     9.4714   104.3944
  370.5000  -999.2500   -39.2127     9.4112     9.4721   102.8940
  371.0000  -999.2500   -39.5138     9.5174     9.6239   100.5406
  371.5000  -999.2500   -39.8144     9.7604     9.7757    97.6239
  372.0000  -999.2500   -40.1150     9.9967     9.9275    95.3659
  372.5000  -999.2500   -40.4157    10.4045    10.0868    93.1078
  373.0000  -999.2500   -40.4139    10.5519    10.3068    90.8461
  373.5000  -999.2500   -40.4124    10.6986    10.3831    90.1032
  374.0000  -999.2500   -40.4270    10.6949    10.4593    89.3637
  374.5000  -999.2500   -40.8623    10.7669    10.5356    89.3787
  375.0000  -999.2500   -41.1629    10.7624    10.6117    90.1515
  375.5000  -999.2500   -41.1614    10.7588    10.5369    91.6844
  376.0000  -999.2500   -41.1600    10.6797    10.5378    92.4566
  376.5000  -999.2500   -40.7053    10.6005    10.4630    93.9865
  377.0000  -999.2500   -40.0996    10.4451    10.3792    94.7587
  377.5000  -999.2500   -39.6450    10.2904    10.1625    96.2886
  378.0000  -999.2500   -39.0373    10.2113    10.0120    97.0608
  378.5000  -999.2500   -38.7165     9.9980     9.8617    97.8334
  379.0000  -999.2500   -38.8849     9.9698     9.7114    98.6090
  379.5000  -999.2500   -39.3370     9.9094     9.7123    98.6236
  380.0000  -999.2500   -39.7883     9.8187     9.6373    99.3959
  380.5000  -999.2500   -40.0893     9.7885     9.6382   100.1681
  381.0000  -999.2500   -40.2389     9.7734     9.6390   101.6980
  381.5000  -999.2500   -39.9350     9.7583     9.5642   103.2278
  382.0000  -999.2500   -39.4803     9.7281     9.5651   104.0001
  382.5000  -999.2500   -39.1768     9.6677     9.4901   105.5303
  383.0000  -999.2500   -39.6506     9.6224     9.4153   106.3058
  383.5000  -999.2500   -40.2308     9.5921     9.2650   107.8356
  384.0000  -999.2500   -40.8336     9.5619     9.1149   108.6079
  384.5000  -999.2500   -40.5300     9.5015     9.1156   107.8650
  385.0000  -999.2500   -39.6222     9.4864     9.1919   104.0918
  385.5000  -999.2500   -38.5633     9.5498     9.4228    99.5610
  386.0000  -999.2500   -38.1087     9.7835     9.6465    96.5255
  386.5000  -999.2500   -38.1072    10.2885     9.8740    95.8025
  387.0000  -999.2500   -38.2568    10.8761    10.0258    95.8208
  387.5000  -999.2500   -38.4064    10.8006    10.2531    95.0779
  388.0000  -999.2500   -38.7071    10.5740    10.4804    95.0926
  388.5000  -999.2500   -39.3094    10.7251    10.7833    95.1072
  389.0000  -999.2500   -39.7611    11.1027    11.0861    95.1219
  389.5000  -999.2500   -40.3639    10.5740    10.9358    95.8942
  390.0000  -999.2500   -41.1177     9.9547    10.3927    98.2830
  390.5000  -999.2500   -41.1163     9.4312     9.5779   105.0181
  391.0000  -999.2500   -40.0574     9.1708     8.9745   109.5782
  391.5000  -999.2500   -38.9763     9.1112     8.6729   113.3808
  392.0000  -999.2500   -37.9393     9.0666     8.5227   115.6682
  392.5000  -999.2500   -37.3336     9.0220     8.5235   117.9556
  393.0000  -999.2500   -37.4835     8.8868     8.3732   120.2430
  393.5000  -999.2500   -37.7838     8.6458     8.2984   123.2880
  394.0000  -999.2500   -38.0848     8.3444     8.1480   125.6566
  394.5000  -999.2500   -38.8383     8.0582     7.9156   128.6240
