~VERSION INFORMATION
 VERS.                2.0:   CWLS LOG ASCII STANDARD - VERSION 2.0
 WRAP.                 NO:   ONE LINE PER DEPTH STEP
~WELL INFORMATION
#MNEM.UNIT      DATA TYPE    INFORMATION
#----------   ------------   ------------------------------
 STRT.F            1.0000:   START DEPTH
 STOP.F          600.0000:   STOP DEPTH
 STEP.F            0.5000:   STEP LENGTH
 NULL.          -999.2500:   NO VALUE
 COMP.       F D SERV INC:   COMPANY
 WELL.    62-1 SX-3 #62-3:   WELL
 FLD .             TEAPOT:   FIELD
 LOC .       S3 T38N R78W:   LOCATION
 CNTY.            NATRONA:   COUNTY
 STAT.            WYOMING:   STATE
 CTRY. UNITED STATES OF AMERICA:   COUNTRY
 SRVC.     Atlas Wireline:   SERVICE COMPANY
 DATE.        05-MAY-1992:   LOGDATE
 API .       490252250800:   API NUMBER
~CURVE INFORMATION
#MNEM.UNIT       API CODE    CURVE DESCRIPTION
#----------   ------------   ------------------------------
 DEPT.F                  :   
 GRR .GAPI   07 310 01 00:   GAMMA RAY
 RILD.OHMM   07 120 46 00:   INDUCTION LOG DEEP RESISTIVITY
 RILM.OHMM   07 120 44 00:   INDUCTION LOG MEDIUM RESISTIVITY
~PARAMETER INFORMATION
#MNEM.UNIT          VALUE    DESCRIPTION
#----------   ------------   ------------------------------
 PD  .                 GL:   PERMANENT DATUM
 EPD .F              5159:   ELEVATION PERMANENT DATUM
 LMF .                 KB:   LOG MEASURED FROM
 DAPD.F                 5:   FEET ABOVE PERMANENT DATUM
 DMF .                 KB:   DRILLING MEASURED FROM
 EKB .F              5164:   KELLING BUSHING
 EGL .F              5159:   GROUND LEVEL
 DATE.        06-MAY-1992:   RUN DATE
 RUN .                  1:   RUN NUMBER
 DD  .F               605:   DEPTH DRILLER
 DL  .F               609:   DEPTH LOGGER
 BLI .F               607:   BOTTOM LOG INTERVAL
 CS  .IN            8.625:   CASING SIZE
 CBD .F                51:   CASING BOTTOM DRILLER
 CBL .F                51:   CASING BOTTOM LOGGER
 BS  .IN            7.875:   BIT SIZE
 BSD .F               605:   BIT SIZE AT DEPTH
 DFT .                AIR:   DRILLING FLUID TYPE
 TCS .HRS               3:   TIME CURCULATED STOPPED
 LUN .            HL-6272:   LOGGING UNIT NUMBER
 LUL .             CASPER:   LOGGING UNIT LOCATION
 ENGI.             ZIEGER:   RECORDING ENGINEER
 WITN.             STRONG:   WITNESSED BY
 CLNT.            A2DTECH:   CLIENT CODE
 ORIG.           5" PRINT:   ORIGIN OF DATA
 UWI .       490252250800:   UNIQUE WELL ID
 DICO. A2D Technologies, Inc.:   DIGITIZING COMPANY
~OTHER INFORMATION
~A    DEPT      GRR      RILD       RILM   
# ...
   92.0000   114.8051     7.3204     7.3231
   92.5000   112.0618     7.4195     7.4752
   93.0000   118.3821     7.4677     7.5255
   93.5000   123.1963     7.5163     7.5222
   94.0000   126.4977     7.5117     7.5815
   94.5000   127.6811     7.6134     7.6194
   95.0000   126.7465     7.6097     7.6575
   95.5000   125.5093     7.5533     7.7101
   96.0000   128.5080     7.6025     7.8170
   96.5000   132.7171     7.7053     7.9256
   97.0000   134.8401     7.7572     7.9799
   97.5000   135.0839     7.8603     8.0430
   98.0000   133.1962     7.9114     8.1462
   98.5000   134.7207     7.9074     8.1448
   99.0000   137.4170     7.9029     8.1437
   99.5000   139.8106     7.9552     8.0299
  100.0000   142.3704     8.0069     8.0288
  100.5000   144.6049     8.0039     8.0277
  101.0000   145.7942     8.0010     8.0266
  101.5000   146.0811     8.1105     8.1381
  102.0000   141.2137     8.1810     8.2511
  102.5000   134.2336     8.3337     8.3658
  103.0000   130.8843     8.5654     8.4823
  103.5000   132.6788     8.8042     8.6599
  104.0000   133.5707     9.0505     8.8416
  104.5000   132.3342     9.3670     9.0902
  105.0000   131.1030     9.5622     9.3458
  105.5000   129.8717     9.8280     9.6086
  106.0000   128.9430     9.8933     9.8102
  106.5000   128.3169     9.9598    10.0161
  107.0000   127.3882    10.0259    10.0847
  107.5000   125.8544    10.0216    10.0832
  108.0000   124.9257    10.0182    10.0119
  108.5000   126.4300    10.0147     9.9410
  109.0000   128.5305    10.0112     9.8706
  109.5000   129.7318    10.0078     9.8692
  110.0000   130.6303    10.0043     9.8679
  110.5000   130.8723    10.0009     9.8665
  111.0000   127.5178     9.9281     9.8651
  111.5000   125.9840     9.9247     9.7952
  112.0000   130.1990     9.8524     9.7256
  112.5000   134.4141     9.7807     9.6568
  113.0000   135.3060     9.7773     9.5884
  113.5000   136.4901     9.7739     9.4544
  114.0000   137.0743     9.7706     9.3223
  114.5000   134.3302     9.7671     9.3210
  115.0000   127.0475     9.7637     9.3197
  115.5000   123.3956     9.7604     9.3184
  116.0000   122.1644     9.7570     9.3171
  116.5000   126.9846     9.7529     9.3159
  117.0000   130.8970     9.6819     9.2499
  117.5000   134.2043     9.4785     9.1844
  118.0000   132.6705     9.2150     9.1831
  118.5000   131.4393     9.2118     9.1819
  119.0000   131.7209     9.2087     9.1806
  119.5000   132.0025     9.2055     9.1793
  120.0000   133.7969     9.2023     9.1144
  120.5000   134.9863     9.1991     9.1131
  121.0000   135.2678     9.1960     9.0486
  121.5000   135.2466     9.1928     9.0473
  122.0000   134.6203     9.1896     8.9209
  122.5000   135.8497     9.1227     8.9197
  123.0000   136.3943     9.0563     8.8565
  123.5000   137.2758     8.9904     8.8553
  124.0000   137.5626     8.9249     8.8541
  124.5000   136.3261     8.9219     8.8528
  125.0000   135.1001     8.9188     8.7902
  125.5000   138.7047     8.8539     8.7887
  126.0000   142.3146     8.7284     8.7874
  126.5000   143.5092     8.6649     8.7862
  127.0000   142.8778     8.6018     8.6635
  127.5000   141.6466     8.4211     8.5424
  128.0000   140.7179     8.2987     8.3646
  128.5000   140.3943     8.1223     8.1904
  129.0000   140.3734     7.7853     7.9642
  129.5000   140.9575     7.5230     7.7443
  130.0000   143.3571     7.3133     7.5304
  130.5000   146.6645     7.1100     7.4252
  131.0000   145.7358     7.1076     7.3214
  131.5000   142.3865     7.2047     7.3204
  132.0000   140.8527     7.4056     7.3706
  132.5000   139.6214     7.6653     7.5252
  133.0000   140.2056     7.8790     7.7368
  133.5000   141.3987     7.9868     7.9452
  134.0000   141.9791     8.1532     8.1717
  134.5000   139.5845     8.2640     8.4079
  135.0000   132.6174     8.3777     8.5843
  135.5000   126.1289     8.5508     8.7036
  136.0000   127.3665     8.6083     8.7632
  136.5000   129.7661     8.6046     8.7620
  137.0000   128.8374     8.5419     8.7579
  137.5000   127.0011     8.4797     8.6334
  138.0000   124.8621     8.3596     8.4585
  138.5000   124.2360     8.2988     8.3986
  139.0000   124.5228     8.1244     8.3389
  139.5000   126.0094     8.1216     8.2799
  140.0000   127.1988     8.1188     8.2787
  140.5000   127.4856     8.1160     8.2776
  141.0000   128.3671     8.1703     8.3346
  141.5000   129.2538     8.2816     8.3917
  142.0000   131.0483     8.2786     8.3902
  142.5000   133.1506     8.2758     8.4480
  143.0000   133.1244     8.2729     8.5059
  143.5000   130.3803     8.2701     8.5044
  144.0000   129.4081     8.2666     8.5033
  144.5000   132.7589     8.2638     8.5021
  145.0000   135.4611     8.2609     8.5009
  145.5000   137.5581     8.2581     8.4998
  146.0000   137.2228     8.2552     8.4396
  146.5000   132.0050     8.2524     8.3798
  147.0000   127.1505     8.2495     8.3787
  147.5000   129.1628     8.2467     8.3775
  148.0000   134.3343     8.2438     8.3182
  148.5000   139.8476     8.2410     8.3752
  149.0000   141.3395     8.2381     8.3740
  149.5000   141.9237     8.2353     8.3729
  150.0000   142.5131     8.2382     8.3717
  150.5000   139.4380     8.2683     8.4291
  151.0000   135.5088     8.2984     8.4869
  151.5000   136.3956     8.3285     8.4857
  152.0000   141.2159     8.2830     8.5525
  152.5000   143.9182     8.2813     8.6024
  153.0000   138.5989     8.2796     8.5412
  153.5000   129.3228     8.2778     8.5400
  154.0000   122.6756     8.2187     8.4677
  154.5000   126.2804     8.2170     8.3790
  155.0000   129.8904     8.2153     8.2903
  155.5000   130.1774     8.2137     8.2303
  156.0000   129.8487     8.2120     8.1141
  156.5000   131.3408     8.0406     7.9997
  157.0000   134.6482     8.0389     7.9975
  157.5000   137.0479     8.0373     7.9398
  158.0000   140.0528     7.9799     7.8825
  158.5000   142.1552     7.9229     7.8256
  159.0000   142.4369     7.8652     7.8235
  159.5000   136.0568     7.8101     7.8213
  160.0000   134.2205     7.8084     7.8192
  160.5000   137.2254     7.8065     7.8717
  161.0000   140.2664     7.8049     7.9799
  161.5000   141.1171     7.8033     7.9846
  162.0000   140.7927     7.8566     8.0875
  162.5000   139.5574     7.9098     8.0847
  163.0000   138.0237     7.9634     8.1965
  163.5000   135.8848     8.0174     8.3086
  164.0000   132.8382     8.0714     8.3650
  164.5000   129.7917     8.1828     8.4212
  165.0000   128.2632     8.2387     8.5370
  165.5000   133.0782     8.3521     8.5943
  166.0000   138.2011     8.4087     8.5914
  166.5000   140.6008     8.4658     8.6496
  167.0000   140.5800     8.4640     8.6467
  167.5000   135.7180     8.4622     8.6443
  168.0000   133.8817     8.4605     8.6419
  168.5000   132.9471     8.4530     8.5796
  169.0000   132.0242     8.3982     8.5177
  169.5000   134.4649     8.3962     8.4481
  170.0000   136.8188     8.2784     8.3363
  170.5000   137.1058     8.2192     8.2187
  171.0000   136.7771     8.1039     8.0465
  171.5000   137.9666     7.9348     7.9330
  172.0000   138.8586     7.7692     7.8211
  172.5000   135.5043     7.6071     7.7108
  173.0000   134.2784     7.5527     7.6020
  173.5000   137.8832     7.4988     7.5999
  174.0000   142.0983     7.4972     7.5978
  174.5000   142.6878     7.4441     7.5957
  175.0000   139.9386     7.4943     7.6468
  175.5000   134.1689     7.4926     7.6446
  176.0000   134.1481     7.5434     7.6960
  176.5000   134.1271     7.5418     7.6939
  177.0000   130.6988     7.5403     7.7455
  177.5000   128.0341     7.6444     7.7975
  178.0000   136.4800     7.6963     7.9048
  178.5000   140.9977     7.7484     8.0135
  179.0000   141.8898     7.9103     8.1231
  179.5000   140.9560     7.9639     8.2349
  180.0000   139.1198     8.0735     8.2902
  180.5000   136.6783     8.1287     8.3464
  181.0000   137.2626     8.1838     8.4025
  181.5000   140.2675     8.1817     8.3413
  182.0000   143.2724     8.2951     8.3390
  182.5000   141.1335     8.2930     8.3367
