~VERSION INFORMATION
 VERS.                2.0:   CWLS LOG ASCII STANDARD - VERSION 2.0
 WRAP.                 NO:   ONE LINE PER DEPTH STEP
~WELL INFORMATION
#MNEM.UNIT      DATA TYPE    INFORMATION
#----------   ------------   ------------------------------
 STRT.F           16.0000:   START DEPTH
 STOP.F         2438.0000:   STOP DEPTH
 STEP.F            0.5000:   STEP LENGTH
 NULL.          -999.2500:   NO VALUE
 COMP. FENIX & SCISSON INC:   COMPANY
 WELL.      15 SHX #27-27:   WELL
 FLD .             TEAPOT:   FIELD
 LOC .      S27 T39N R78W:   LOCATION
 CNTY.            NATRONA:   COUNTY
 STAT.            WYOMING:   STATE
 CTRY. UNITED STATES OF AMERICA:   COUNTRY
 SRVC.            Unknown:   SERVICE COMPANY
 DATE.        09-JUN-1978:   LOGDATE
 API .       490251064100:   API NUMBER
~CURVE INFORMATION
#MNEM.UNIT       API CODE    CURVE DESCRIPTION
#----------   ------------   ------------------------------
 DEPT.F                  :   
 CALD.IN     45 280 60 00:   CALIPER FROM DENSITY LOG
 GRD .GAPI   45 310 01 00:   GAMMA RAY FROM DENSITY LOG
 CORR.G/C3   45 356 01 00:   DENSITY CORRECTION
 RHOB.G/C3   45 350 01 00:   BULK DENSITY
 DPHI.DEC    45 890 10 00:   DENSITY POROSITY LIMESTONE
~PARAMETER INFORMATION
#MNEM.UNIT          VALUE    DESCRIPTION
#----------   ------------   ------------------------------
 PD  .                 GL:   PERMANENT DATUM
 EPD .F              5062:   ELEVATION PERMANENT DATUM
 LMF .                 KB:   LOG MEASURED FROM
 DAPD.F                10:   FEET ABOVE PERMANENT DATUM
 DMF .                 KB:   DRILLING MEASURED FROM
 EKB .F              5072:   KELLING BUSHING
 EGL .F              5062:   GROUND LEVEL
 DATE.        09-JUN-1978:   RUN DATE
 RUN .                  1:   RUN NUMBER
 DD  .F              2450:   DEPTH DRILLER
 DL  .F              2445:   DEPTH LOGGER
 BLI .F              2438:   BOTTOM LOG INTERVAL
 TLI .F                10:   TOP LOG INTERVAL
 CS  .IN            9.625:   CASING SIZE
 CBD .F               688:   CASING BOTTOM DRILLER
 CBL .F               694:   CASING BOTTOM LOGGER
 BS  .IN             8.75:   BIT SIZE
 BSD .F              2450:   BIT SIZE AT DEPTH
 DFT .           AIR MIST:   DRILLING FLUID TYPE
 TCS .HRS               1:   TIME CURCULATED STOPPED
 LUN .               2958:   LOGGING UNIT NUMBER
 LUL .                CPR:   LOGGING UNIT LOCATION
 ENGI.             MILLER:   RECORDING ENGINEER
 WITN.           MCGINLEY:   WITNESSED BY
 CLNT.            A2DTECH:   CLIENT CODE
 ORIG.           5" PRINT:   ORIGIN OF DATA
 UWI .       490251064100:   UNIQUE WELL ID
 DICO. A2D Technologies, Inc.:   DIGITIZING COMPANY
~OTHER INFORMATION
~A   DEPT     CALD         GRD      CORR       RHOB       DPHI   
# ...
  931.0000     9.5065    68.5508  -999.2500     2.5171     0.0267
  931.5000     9.5081    71.9497  -999.2500     2.5156     0.0273
  932.0000     9.5098    73.5237  -999.2500     2.5189     0.0223
  932.5000     9.5118    74.7773  -999.2500     2.5212     0.0198
  933.0000     9.5134    75.0850  -999.2500     2.5228     0.0176
  933.5000     9.4993    74.4900  -999.2500     2.5244     0.0204
  934.0000     9.4707    72.2053  -999.2500     2.5268     0.0222
  934.5000     9.4724    74.5289  -999.2500     2.5292     0.0197
  935.0000     9.4740    74.5483  -999.2500     2.5308     0.0171
  935.5000     9.4757    73.9533  -999.2500     2.5324     0.0131
  936.0000     9.4773    73.9727  -999.2500     2.5301     0.0137
  936.5000     9.4790    77.8553  -999.2500     2.5264     0.0155
  937.0000     9.4810    79.8495  -999.2500     2.5250     0.0186
  937.5000     9.4980    79.2586  -999.2500     2.5266     0.0213
  938.0000     9.5303    78.9660  -999.2500     2.5313     0.0136
  938.5000     9.5626    78.9903  -999.2500     2.5321     0.0133
  939.0000     9.5796    80.6994  -999.2500     2.5314     0.0148
  939.5000     9.5659    83.1766  -999.2500     2.5300     0.0160
  940.0000     9.5215    84.1177  -999.2500     2.5277     0.0175
  940.5000     9.5078    83.8299  -999.2500     2.5278     0.0134
  941.0000     9.4941    82.9155  -999.2500     2.5348     0.0106
  941.5000     9.5115    77.5113  -999.2500     2.5372     0.0100
  942.0000     9.5132    71.2971  -999.2500     2.5381     0.0112
  942.5000     9.5148    73.0062  -999.2500     2.5389     0.0124
  943.0000     9.5165    76.4051  -999.2500     2.5398     0.0114
  943.5000     9.5181    77.8070  -999.2500     2.5429     0.0083
  944.0000     9.5197    77.6728  -999.2500     2.5461     0.0036
  944.5000     9.5214    75.6953  -999.2500     2.5461     0.0092
  945.0000     9.5077    73.8715  -999.2500     2.5398     0.0110
  945.5000     9.4781    74.6636  -999.2500     2.5309     0.0140
  946.0000     9.4321    75.4470  -999.2500     2.5264     0.0208
  946.5000     9.3903    75.0099  -999.2500     2.5280     0.0152
  947.0000     9.3920    73.4932  -999.2500     2.5373     0.0105
  947.5000     9.4090    73.2006  -999.2500     2.5381     0.0117
  948.0000     9.4106    75.6826  -999.2500     2.5336     0.0132
  948.5000     9.4276    77.2382  -999.2500     2.5306     0.0157
  949.0000     9.4446    76.4895  -999.2500     2.5299     0.0169
  949.5000     9.4615    73.4368  -999.2500     2.5292     0.0187
  950.0000     9.4785    71.3057  -999.2500     2.5293     0.0193
  950.5000     9.4650    69.9368  -999.2500     2.5301     0.0175
  951.0000     9.5132    72.1076  -999.2500     2.5317     0.0130
  951.5000     9.5456    74.2184  -999.2500     2.5358     0.0133
  952.0000     9.5474    79.5175  -999.2500     2.5396     0.0062
  952.5000     9.5338    83.6813  -999.2500     2.5412     0.0046
  953.0000     9.4896    84.9264  -999.2500     2.5421     0.0055
  953.5000     9.4125    85.0963  -999.2500     2.5368     0.0075
  954.0000     9.3551    85.1126  -999.2500     2.5345     0.0116
  954.5000     9.3113    83.9893  -999.2500     2.5377     0.0079
  955.0000     9.2973    75.4718  -999.2500     2.5393     0.0067
  955.5000     9.2995    74.1015  -999.2500     2.5301     0.0103
  956.0000     9.3166    77.5012  -999.2500     2.5279     0.0187
  956.5000     9.3835    76.7495  -999.2500     2.5326     0.0124
  957.0000     9.5506    73.6935  -999.2500     2.5327     0.0115
  957.5000     9.6291    70.1768  -999.2500     2.5281     0.0154
  958.0000     9.5848    71.6439  -999.2500     2.5243     0.0210
  958.5000     9.4639    78.0475  -999.2500     2.5252     0.0176
  959.0000     9.4043    76.3741  -999.2500     2.5307     0.0135
  959.5000     9.3447    77.0048  -999.2500     2.5361     0.0101
  960.0000     9.3312    79.1716  -999.2500     2.5431     0.0046
  960.5000     9.3334    76.1157  -999.2500     2.5517     0.0011
  961.0000     9.3351    75.2043  -999.2500     2.5549    -0.0023
  961.5000     9.3369    74.4626  -999.2500     2.5534    -0.0036
  962.0000     9.3540    73.7108  -999.2500     2.5473     0.0032
  962.5000     9.3558    71.7301  -999.2500     2.5420     0.0053
  963.0000     9.3580    71.1279  -999.2500     2.5374     0.0074
  963.5000     9.3440    74.6813  -999.2500     2.5344     0.0140
  964.0000     9.3304    75.4656  -999.2500     2.5353     0.0148
  964.5000     9.3326    76.1142  -999.2500     2.5385     0.0083
  965.0000     9.3957    76.5775  -999.2500     2.5432     0.0073
  965.5000     9.4129    77.2082  -999.2500     2.5440     0.0101
  966.0000     9.3844    75.0739  -999.2500     2.5464     0.0054
  966.5000     9.3397    73.7077  -999.2500     2.5503    -0.0001
  967.0000     9.3419    73.8776  -999.2500     2.5512     0.0011
  967.5000     9.3437    76.5208  -999.2500     2.5488     0.0035
  968.0000     9.3455    77.9081  -999.2500     2.5475     0.0032
  968.5000     9.3472    77.4635  -999.2500     2.5452     0.0028
  969.0000     9.3337    74.0963  -999.2500     2.5422     0.0093
  969.5000     9.3359    73.8094  -999.2500     2.5400     0.0092
  970.0000     9.3683    71.6752  -999.2500     2.5408     0.0066
  970.5000     9.3854    70.3088  -999.2500     2.5424     0.0055
  971.0000     9.3872    70.3257  -999.2500     2.5433     0.0070
  971.5000     9.3893    73.7250  -999.2500     2.5318     0.0153
  972.0000     9.4218    79.5784  -999.2500     2.5296     0.0162
  972.5000     9.4236    80.3587  -999.2500     2.5374     0.0091
  973.0000     9.4254    76.3852  -999.2500     2.5444     0.0060
  973.5000     9.4271    74.0973  -999.2500     2.5452     0.0062
  974.0000     9.4442    72.5614  -999.2500     2.5476     0.0068
  974.5000     9.4460    70.6009  -999.2500     2.5500     0.0053
  975.0000     9.4632    70.3059  -999.2500     2.5547    -0.0052
  975.5000     9.4500    70.6334  -999.2500     2.5663    -0.0105
  976.0000     9.3751    70.9569  -999.2500     2.5649    -0.0090
  976.5000     9.3304    71.1268  -999.2500     2.5580    -0.0037
  977.0000     9.3326    71.7575  -999.2500     2.5492     0.0067
  977.5000     9.3344    74.6616  -999.2500     2.5366     0.0113
  978.0000     9.3714    81.0107  -999.2500     2.5328     0.0131
  978.5000     9.4457    76.1115  -999.2500     2.5360     0.0078
  979.0000     9.4628    72.2875  -999.2500     2.5384     0.0087
  979.5000     9.4492    71.6853  -999.2500     2.5400     0.0112
  980.0000     9.4050    71.8592  -999.2500     2.5408     0.0053
  980.5000     9.3761    74.6588  -999.2500     2.5332     0.0148
  981.0000     9.3625    78.0402  -999.2500     2.5271     0.0185
  981.5000     9.4261    78.3597  -999.2500     2.5195     0.0224
  982.0000     9.5045    71.9284  -999.2500     2.5288     0.0172
  982.5000     9.5370    77.0138  -999.2500     2.5312     0.0138
  983.0000     9.5081    81.3271  -999.2500     2.5351     0.0121
  983.5000     9.4638    78.1216  -999.2500     2.5407     0.0072
  984.0000     9.4333    75.1767  -999.2500     2.5438     0.0060
  984.5000     9.4214    74.7747  -999.2500     2.5408     0.0127
  985.0000     9.3622    75.1023  -999.2500     2.5270     0.0173
  985.5000     9.3329    72.3536  -999.2500     2.5224     0.0207
  986.0000     9.3504    71.9050  -999.2500     2.5217     0.0210
  986.5000     9.3675    72.5397  -999.2500     2.5250     0.0197
  987.0000     9.3860    81.4654  -999.2500     2.5281     0.0144
  987.5000     9.4175    78.2057  -999.2500     2.5289     0.0113
  988.0000     9.4344    76.5824  -999.2500     2.5282     0.0159
  988.5000     9.4517    78.5997  -999.2500     2.5144     0.0295
  989.0000     9.4228    79.8448  -999.2500     2.5076     0.0334
  989.5000     9.3019    81.0900  -999.2500     2.5147     0.0221
  990.0000     9.2730    82.0279  -999.2500     2.5254     0.0158
  990.5000     9.3672    82.6590  -999.2500     2.5286     0.0164
  991.0000     9.4150    82.3718  -999.2500     2.5325     0.0102
  991.5000     9.4014    82.2303  -999.2500     2.5341     0.0077
