~VERSION INFORMATION
 VERS.                2.0:   CWLS LOG ASCII STANDARD - VERSION 2.0
 WRAP.                 NO:   ONE LINE PER DEPTH STEP
~WELL INFORMATION
#MNEM.UNIT      DATA TYPE    INFORMATION
#----------   ------------   ------------------------------
 STRT.F           90.0000:   START DEPTH
 STOP.F          799.0000:   STOP DEPTH
 STEP.F            0.5000:   STEP LENGTH
 NULL.          -999.2500:   NO VALUE
 COMP. U S NAVY-INTEX OIL:   COMPANY
 WELL. RES 3 TEAPOT DOM #83S-34:   WELL
 FLD .             TEAPOT:   FIELD
 LOC .      S34 T39N R78W:   LOCATION
 CNTY.            NATRONA:   COUNTY
 STAT.            WYOMING:   STATE
 CTRY. UNITED STATES OF AMERICA:   COUNTRY
 SRVC.       Schlumberger:   SERVICE COMPANY
 DATE.        15-FEB-1961:   LOGDATE
 API .       490250655100:   API NUMBER
~CURVE INFORMATION
#MNEM.UNIT       API CODE    CURVE DESCRIPTION
#----------   ------------   ------------------------------
 DEPT.F                  :   
 ASN .OHMM   05 041 16 00:   AMPLIFIED SHORT NORMAL 16"
 ILD .OHMM   05 120 46 00:   INDUCTION LOG DEEP RESISTIVITY.
 CILD.MMHO   05 110 46 00:   CONDUCTIVITY INDUCTION LOG DEEP
 SPR .MV     05 010 01 00:   SPONTANEOUS POTENTIAL FROM RES.
 GR  .GAPI   30 310 01 00:   GAMMA RAY
~PARAMETER INFORMATION
#MNEM.UNIT          VALUE    DESCRIPTION
#----------   ------------   ------------------------------
 PD  .                 GL:   PERMANENT DATUM
 EPD .F              5090:   ELEVATION PERMANENT DATUM
 LMF .                 KB:   LOG MEASURED FROM
 DAPD.F                 4:   FEET ABOVE PERMANENT DATUM
 DMF .                 KB:   DRILLING MEASURED FROM
 EKB .F              5094:   KELLING BUSHING
 EGL .F              5090:   GROUND LEVEL
 DATE.        15-FEB-1961:   RUN DATE
 RUN .                  1:   RUN NUMBER
 DD  .F               800:   DEPTH DRILLER
 DL  .F               800:   DEPTH LOGGER
 BLI .F               799:   BOTTOM LOG INTERVAL
 TLI .F               100:   TOP LOG INTERVAL
 CBD .F                12:   CASING BOTTOM DRILLER
 BS  .IN            7.875:   BIT SIZE
 BSD .F               800:   BIT SIZE AT DEPTH
 DFT .       OIL EMULSION:   DRILLING FLUID TYPE
 DFD .                9.5:   DRILLING FLUID DENSITY
 DFV .                 50:   DRILLING FLUID VISCOSITY
 RMS .OHMM           1.25:   RESISTIVITY MUD SAMPLE
 MST .F                57:   MUD SAMPLE TEMPERATURE
 RMB .OHMM           0.98:   RESISTIVITY MUD AT BHT
 BHT .F                73:   BOTTOM HOLE TEMPERATURE
 TCS .HRS               1:   TIME CURCULATED STOPPED
 LUN .               2572:   LOGGING UNIT NUMBER
 LUL .                 NC:   LOGGING UNIT LOCATION
 ENGI.            EARNEST:   RECORDING ENGINEER
 WITN.          JORGENSEN:   WITNESSED BY
 CLNT.            A2DTECH:   CLIENT CODE
 ORIG.       2" ,5" PRINT:   ORIGIN OF DATA
 UWI .       490250655100:   UNIQUE WELL ID
 DICO. A2D Technologies, Inc.:   DIGITIZING COMPANY
~OTHER INFORMATION
~A   DEPT        ASN        ILD      CILD       SPR         GR   
# ...
  517.0000     9.3075     7.5955   137.0808   -50.6258  -999.2500
  517.5000     9.3712     7.5981   135.5627   -50.7744  -999.2500
  518.0000     9.4591     7.5251   134.0445   -50.9233  -999.2500
  518.5000     9.5198     7.5272   132.5263   -51.0723  -999.2500
  519.0000     9.5353     7.5294   131.0047   -51.2212  -999.2500
  519.5000     9.5508     7.6820   130.2385   -51.3701  -999.2500
  520.0000     9.5813     7.8350   129.4723   -51.5191  -999.2500
  520.5000     9.6421     7.9123   130.9652   -51.3669  -999.2500
  521.0000     9.7329     7.9891   131.6992   -51.3651  -999.2500
  521.5000     9.8387     7.9161   131.6812   -51.2133  -999.2500
  522.0000     9.9597     7.8436   130.1631   -51.0615  -999.2500
  522.5000     9.9576     7.7706   129.3969   -51.0601  -999.2500
  523.0000     9.9478     7.6975   130.1380   -51.0586  -999.2500
  523.5000     9.9381     7.8506   129.3682   -51.0571  -999.2500
  524.0000     9.9284     7.8527   129.3534   -51.0554  -999.2500
  524.5000     9.9186     7.9301   129.3359   -50.9036  -999.2500
  525.0000     9.9089     7.8571   128.5696   -50.7518  -999.2500
  525.5000     9.8992     7.7088   127.8034   -50.7503  -999.2500
  526.0000     9.8880     7.7115   127.7890   -50.5985  -999.2500
  526.5000     9.9185     7.5633   127.7744   -50.4463  -999.2500
  527.0000     9.8588     7.4150   127.7567   -50.4449  -999.2500
  527.5000     9.8441     7.5012   127.7424   -50.4435  -999.2500
  528.0000     9.8597     7.5703   128.4835   -50.4420  -999.2500
  528.5000     9.9053     7.5725   130.7212   -50.4406  -999.2500
  529.0000     9.9510     7.4994   132.2255   -50.2887  -999.2500
  529.5000     9.9514     7.5016   132.9481   -50.2870  -999.2500
  530.0000     9.8615     7.5038   132.9302   -50.1352  -999.2500
  530.5000     9.8317     7.5816   134.4196   -50.1337  -999.2500
  531.0000     9.7720     7.5080   135.1607   -50.1323  -999.2500
  531.5000     9.7423     7.4350   135.8947   -50.1308  -999.2500
  532.0000     9.7428     7.3620   137.3840   -50.1291  -999.2500
  532.5000     9.7433     7.2895   138.1216   -50.1276  -999.2500
  533.0000     9.7285     7.2922   137.3517   -49.9758  -999.2500
  533.5000     9.7140     7.1434   136.5855   -49.8240  -999.2500
  534.0000     9.6542     6.9952   135.8193   -49.8226  -999.2500
  534.5000     9.6245     7.0731   135.8045   -49.8208  -999.2500
  535.0000     9.6099     7.0000   136.5424   -49.8193  -999.2500
  535.5000     9.6104     7.0023   136.5245   -49.8179  -999.2500
  536.0000     9.6259     7.0049   138.0139   -49.6661  -999.2500
  536.5000     9.5326     7.0070   139.5033   -49.6646  -999.2500
  537.0000     9.4159     7.0092   141.7897   -49.6632  -999.2500
  537.5000     9.3562     7.0865   144.7377   -49.5110  -999.2500
  538.0000     9.2814     7.0055   147.7309   -49.2088  -999.2500
  538.5000     9.1462     6.7906   150.7205   -48.9067  -999.2500
  539.0000     8.9473     6.3416   153.7136   -48.7548  -999.2500
  539.5000     8.7255     5.9678   157.4663   -48.7534  -999.2500
  540.0000     8.5302     5.8947   161.2001   -48.6012  -999.2500
  540.5000     8.2294     5.8970   161.9413   -48.4494  -999.2500
  541.0000     7.9437     5.8997   161.9233   -48.1472  -999.2500
  541.5000     7.6716     5.9018   161.1571   -47.9954  -999.2500
  542.0000     7.6132     6.2047   159.6389   -47.9940  -999.2500
  542.5000     7.7041     6.2815   158.0076   -47.8418  -999.2500
  543.0000     7.8552     6.1338   155.0954   -47.8404  -999.2500
  543.5000     8.1869     6.3621   152.8254   -47.6886  -999.2500
  544.0000     8.5191     6.5146   150.5554   -47.6871  -999.2500
  544.5000     8.6698     6.5168   148.2854   -47.3849  -999.2500
  545.0000     8.7757     6.5941   147.4435   -47.2331  -999.2500
  545.5000     8.8665     6.6715   145.9975   -47.0810  -999.2500
  546.0000     8.9271     6.7488   145.9831   -46.7788  -999.2500
  546.5000     8.9125     6.5254   147.4761   -46.4766  -999.2500
  547.0000     8.8828     6.4523   148.9619   -46.1744  -999.2500
  547.5000     8.8231     6.6054   149.7369   -45.7118  -999.2500
  548.0000     8.7784     6.7579   151.9371   -45.4193  -999.2500
  548.5000     8.7335     6.7602   153.4265   -45.1171  -999.2500
  549.0000     8.6587     6.5372   155.6678   -44.9653  -999.2500
  549.5000     8.5797     6.3890   157.9091   -44.8135  -999.2500
  550.0000     8.4844     6.3691   159.3985   -44.6809  -999.2500
  550.5000     8.3646     6.1654   164.6541   -44.7600  -999.2500
  551.0000     8.2223     6.0150   167.7442   -44.8120  -999.2500
  551.5000     8.0845     5.7143   173.6605   -44.6617  -999.2500
  552.0000     7.8602     5.4135   178.9165   -44.3609  -999.2500
  552.5000     7.4985     5.1065   186.4282   -44.0602  -999.2500
  553.0000     7.0464     4.8120   190.9525   -43.9098  -999.2500
  553.5000     6.6997     4.6617   194.6829   -43.6090  -999.2500
  554.0000     6.3379     4.6617   194.6758   -43.6090  -999.2500
  554.5000     6.2322     4.7368   194.6687   -43.6090  -999.2500
  555.0000     6.3223     4.8872   194.6615   -43.6090  -999.2500
  555.5000     6.6533     5.2632   190.8932   -43.6090  -999.2500
  556.0000     7.4060     5.6391   185.6230   -43.4586  -999.2500
  556.5000     7.7671     6.2406   177.3452   -43.1579  -999.2500
  557.0000     8.1283     6.5414   169.8193   -42.9884  -999.2500
  557.5000     8.3991     6.6917   160.5893   -42.4060  -999.2500
  558.0000     8.5530     6.8421   150.2544   -41.9549  -999.2500
  558.5000     8.6846     6.8421   147.2397   -41.6541  -999.2500
  559.0000     8.8801     6.8421   144.2251   -41.2001  -999.2500
  559.5000     9.0907     6.7669   141.9624   -40.6015  -999.2500
  560.0000     9.2430     6.8421   138.9460   -40.3008  -999.2500
  560.5000     9.3912     6.9173   136.6832   -40.0000  -999.2500
  561.0000     9.4813     6.9173   134.4204   -39.6992  -999.2500
  561.5000     9.6316     7.0677   132.9096   -39.3985  -999.2500
  562.0000     9.7825     7.3684   132.1504   -39.2481  -999.2500
  562.5000     9.9268     7.5188   131.3898   -39.2481  -999.2500
  563.0000    10.0825     7.5188   131.3827   -39.2481  -999.2500
  563.5000    10.0889     7.3684   131.3756   -39.2481  -999.2500
  564.0000    10.0956     7.3684   132.1203   -39.2481  -999.2500
  564.5000    10.1023     7.3684   131.3596   -39.2481  -999.2500
  565.0000    10.1090     7.3684   132.1061   -39.2481  -999.2500
  565.5000    10.1157     7.3684   132.0972   -39.2481  -999.2500
  566.0000    10.1223     7.3684   132.0901   -39.2261  -999.2500
  566.5000    10.1290     7.2932   132.0827   -38.9474  -999.2500
  567.0000    10.1357     7.2180   132.8277   -38.9474  -999.2500
  567.5000    10.1424     7.1429   134.3226   -38.7970  -999.2500
  568.0000    10.1491     6.9925   135.0691   -38.7909  -999.2500
  568.5000    10.0163     6.9173   136.5640   -38.4962  -999.2500
  569.0000     9.7475     6.9173   136.5551   -38.3459  -999.2500
  569.5000     9.6418     6.9173   138.0518   -38.0451  -999.2500
  570.0000     9.5361     6.9173   139.5502   -38.0451  -999.2500
  570.5000     9.4444     6.9173   141.7969   -37.7444  -999.2500
  571.0000     9.2945     6.9097   146.2993   -37.5940  -999.2500
  571.5000     9.0232     6.6165   149.2997   -37.2932  -999.2500
  572.0000     8.7217     6.3158   153.0520   -36.9925  -999.2500
  572.5000     8.4804     6.2406   158.3080   -36.6917  -999.2500
  573.0000     8.1487     6.0150   162.2005   -36.3910  -999.2500
  573.5000     7.8924     5.7143   169.5702   -35.9398  -999.2500
  574.0000     7.5759     5.4135   176.3300   -35.7895  -999.2500
  574.5000     6.9129     5.0376   189.1049   -35.6391  -999.2500
  575.0000     6.2801     4.6617   206.3910   -35.4887  -999.2500
  575.5000     5.7978     4.3571   223.6753   -35.3383  -999.2500
  576.0000     5.3156     3.9098   258.2547   -35.0376  -999.2500
  576.5000     4.9539     3.5338   295.8409   -35.0376  -999.2500
  577.0000     4.4615     3.0827   310.8714   -35.0376  -999.2500
  577.5000     4.0647     2.7068   333.4207   -35.0376  -999.2500
