~VERSION INFORMATION
 VERS.                2.0:   CWLS LOG ASCII STANDARD - VERSION 2.0
 WRAP.                 NO:   ONE LINE PER DEPTH STEP
~WELL INFORMATION
#MNEM.UNIT      DATA TYPE    INFORMATION
#----------   ------------   ------------------------------
 STRT.F           90.0000:   START DEPTH
 STOP.F          799.0000:   STOP DEPTH
 STEP.F            0.5000:   STEP LENGTH
 NULL.          -999.2500:   NO VALUE
 COMP. U S NAVY-INTEX OIL:   COMPANY
 WELL. RES 3 TEAPOT DOM #83S-34:   WELL
 FLD .             TEAPOT:   FIELD
 LOC .      S34 T39N R78W:   LOCATION
 CNTY.            NATRONA:   COUNTY
 STAT.            WYOMING:   STATE
 CTRY. UNITED STATES OF AMERICA:   COUNTRY
 SRVC.       Schlumberger:   SERVICE COMPANY
 DATE.        15-FEB-1961:   LOGDATE
 API .       490250655100:   API NUMBER
~CURVE INFORMATION
#MNEM.UNIT       API CODE    CURVE DESCRIPTION
#----------   ------------   ------------------------------
 DEPT.F                  :   
 ASN .OHMM   05 041 16 00:   AMPLIFIED SHORT NORMAL 16"
 ILD .OHMM   05 120 46 00:   INDUCTION LOG DEEP RESISTIVITY.
 CILD.MMHO   05 110 46 00:   CONDUCTIVITY INDUCTION LOG DEEP
 SPR .MV     05 010 01 00:   SPONTANEOUS POTENTIAL FROM RES.
 GR  .GAPI   30 310 01 00:   GAMMA RAY
~PARAMETER INFORMATION
#MNEM.UNIT          VALUE    DESCRIPTION
#----------   ------------   ------------------------------
 PD  .                 GL:   PERMANENT DATUM
 EPD .F              5090:   ELEVATION PERMANENT DATUM
 LMF .                 KB:   LOG MEASURED FROM
 DAPD.F                 4:   FEET ABOVE PERMANENT DATUM
 DMF .                 KB:   DRILLING MEASURED FROM
 EKB .F              5094:   KELLING BUSHING
 EGL .F              5090:   GROUND LEVEL
 DATE.        15-FEB-1961:   RUN DATE
 RUN .                  1:   RUN NUMBER
 DD  .F               800:   DEPTH DRILLER
 DL  .F               800:   DEPTH LOGGER
 BLI .F               799:   BOTTOM LOG INTERVAL
 TLI .F               100:   TOP LOG INTERVAL
 CBD .F                12:   CASING BOTTOM DRILLER
 BS  .IN            7.875:   BIT SIZE
 BSD .F               800:   BIT SIZE AT DEPTH
 DFT .       OIL EMULSION:   DRILLING FLUID TYPE
 DFD .                9.5:   DRILLING FLUID DENSITY
 DFV .                 50:   DRILLING FLUID VISCOSITY
 RMS .OHMM           1.25:   RESISTIVITY MUD SAMPLE
 MST .F                57:   MUD SAMPLE TEMPERATURE
 RMB .OHMM           0.98:   RESISTIVITY MUD AT BHT
 BHT .F                73:   BOTTOM HOLE TEMPERATURE
 TCS .HRS               1:   TIME CURCULATED STOPPED
 LUN .               2572:   LOGGING UNIT NUMBER
 LUL .                 NC:   LOGGING UNIT LOCATION
 ENGI.            EARNEST:   RECORDING ENGINEER
 WITN.          JORGENSEN:   WITNESSED BY
 CLNT.            A2DTECH:   CLIENT CODE
 ORIG.       2" ,5" PRINT:   ORIGIN OF DATA
 UWI .       490250655100:   UNIQUE WELL ID
 DICO. A2D Technologies, Inc.:   DIGITIZING COMPANY
~OTHER INFORMATION
~A   DEPT        ASN        ILD      CILD       SPR         GR   
# ...
  334.0000     8.9512     7.2304   151.4465   -41.7534  -999.2500
  334.5000     9.1004     7.2316   150.1226   -41.6023  -999.2500
  335.0000     9.1800     7.3081   148.2482   -41.6015  -999.2500
  335.5000     9.2082     7.2718   147.0984   -41.4504  -999.2500
  336.0000     9.2235     7.2348   147.0860   -41.4496  -999.2500
  336.5000     9.2595     7.2362   147.4650   -41.4488  -999.2500
  337.0000     9.2994     7.1973   147.9630   -41.3554  -999.2500
  337.5000     9.3461     7.1629   148.5548   -41.2970  -999.2500
  338.0000     9.3786     7.1642   149.3743   -41.2962  -999.2500
  338.5000     9.3756     7.1227   150.0353   -41.2955  -999.2500
  339.0000     9.2850     7.0910   150.7727   -41.2947  -999.2500
  339.5000     9.0933     7.0170   151.2037   -41.1436  -999.2500
  340.0000     8.9247     7.0181   151.5033   -41.2932  -999.2500
  340.5000     8.7585     7.0192   151.4899   -41.2925  -999.2500
  341.0000     8.6498     7.0204   152.9805   -41.2917  -999.2500
  341.5000     8.6545     7.0968   152.9692   -41.2908  -999.2500
  342.0000     8.6796     7.1215   152.2071   -41.2902  -999.2500
  342.5000     8.7052     7.1743   150.4567   -41.2895  -999.2500
  343.0000     8.7610     7.3263   148.1782   -41.2886  -999.2500
  343.5000     8.8666     7.3534   146.8956   -41.2880  -999.2500
  344.0000     9.0741     7.4056   143.9019   -41.2872  -999.2500
  344.5000     9.7343     7.5555   142.3911   -41.2864  -999.2500
  345.0000    10.1289     7.5853   140.8784   -41.2857  -999.2500
  345.5000    10.5333     7.6329   140.8653   -41.1346  -999.2500
  346.0000    10.6057     7.6342   139.3544   -41.1337  -999.2500
  346.5000    10.5001     7.6352   139.3431   -41.2835  -999.2500
  347.0000    10.3752     7.6290   139.3302   -41.2827  -999.2500
  347.5000    10.1583     7.4870   139.3206   -41.2819  -999.2500
  348.0000    10.0161     7.4880   139.3093   -41.2812  -999.2500
  348.5000     9.7648     7.4792   139.2967   -41.2804  -999.2500
  349.0000     9.5604     7.4149   140.0025   -41.1292  -999.2500
  349.5000     9.9077     7.3407   140.8934   -41.1286  -999.2500
  350.0000     9.7816     7.2540   142.2661   -40.9774  -999.2500
  350.5000     9.5598     7.1924   144.1416   -40.9766  -999.2500
  351.0000     9.3380     7.1541   145.5331   -40.8982  -999.2500
  351.5000     9.2076     7.1042   146.7380   -40.7960  -999.2500
  352.0000     9.0267     7.0452   148.2282   -40.6736  -999.2500
  352.5000     8.7515     6.9290   149.7200   -40.6729  -999.2500
  353.0000     8.6529     6.8790   149.7066   -40.7048  -999.2500
  353.5000     8.6466     6.8227   149.6959   -40.8218  -999.2500
  354.0000     8.6470     6.8685   149.6847   -40.9063  -999.2500
  354.5000     8.6806     6.9960   149.6730   -40.9708  -999.2500
  355.0000     8.7400     7.2026   148.7362   -40.9699  -999.2500
  355.5000     8.8587     7.4016   148.1494   -41.1195  -999.2500
  356.0000     8.9922     7.4538   147.3872   -41.1188  -999.2500
  356.5000     9.1195     7.5072   146.6254   -41.1180  -999.2500
  357.0000     9.2512     7.5582   146.1186   -41.1173  -999.2500
  357.5000     9.3269     7.5847   145.1013   -41.1165  -999.2500
  358.0000     9.3679     7.5858   144.3372   -41.1158  -999.2500
  358.5000     9.4187     7.6625   143.3033   -40.9647  -999.2500
  359.0000     9.4784     7.6634   142.0646   -40.8135  -999.2500
  359.5000     9.5263     7.5892   141.3007   -40.6624  -999.2500
  360.0000     9.6185     7.5152   140.5405   -40.6615  -999.2500
  360.5000     9.7654     7.5162   140.5293   -40.5105  -999.2500
  361.0000     9.8450     7.4420   140.5164   -40.5073  -999.2500
  361.5000     9.9030     7.4433   141.2575   -40.3585  -999.2500
  362.0000     9.9169     7.4779   141.3313   -40.3028  -999.2500
  362.5000     9.9021     7.5207   141.9857   -40.2068  -999.2500
  363.0000     9.8853     7.5220   141.9745   -40.0555  -999.2500
  363.5000     9.8425     7.4867   142.8253   -40.0549  -999.2500
  364.0000     9.7753     7.3494   143.4534   -40.0541  -999.2500
  364.5000     9.6946     7.0735   143.8213   -40.0533  -999.2500
  365.0000     9.5271     7.0745   144.3193   -39.9023  -999.2500
  365.5000     9.3973     7.0757   144.9212   -39.9015  -999.2500
  366.0000     9.3044     7.1522   144.9099   -39.7503  -999.2500
  366.5000     9.2118     7.2701   144.8987   -39.7496  -999.2500
  367.0000     9.1650     7.3803   144.8867   -39.7489  -999.2500
  367.5000     9.1147     7.3815   144.8761   -39.5977  -999.2500
  368.0000     9.0621     7.3825   144.6747   -39.5970  -999.2500
  368.5000     9.0232     7.3837   144.1024   -39.4459  -999.2500
  369.0000     8.9982     7.3848   143.6336   -39.4450  -999.2500
  369.5000     8.9726     7.3106   143.3296   -39.2940  -999.2500
  370.0000     8.9729     7.2362   143.3181   -39.2932  -999.2500
  370.5000     8.9976     7.2376   142.8229   -39.1420  -999.2500
  371.0000     9.0488     7.2387   142.5451   -39.1414  -999.2500
  371.5000     9.1245     7.2398   142.5338   -39.1406  -999.2500
  372.0000     9.1954     7.2410   141.7696   -39.1398  -999.2500
  372.5000     9.2613     7.3176   141.7605   -39.1391  -999.2500
  373.0000     9.3211     7.3185   141.7492   -39.1383  -999.2500
  373.5000     9.3422     7.3950   141.7361   -39.1375  -999.2500
  374.0000     9.3678     7.3963   141.7267   -39.1368  -999.2500
  374.5000     9.3711     7.4277   141.7155   -39.1361  -999.2500
  375.0000     9.3612     7.5552   141.7025   -39.1353  -999.2500
  375.5000     9.3376     7.6255   141.6929   -39.1346  -999.2500
  376.0000     9.3681     7.6265   141.6817   -39.1338  -999.2500
  376.5000     9.4121     7.6276   141.6690   -39.1331  -999.2500
  377.0000     9.4800     7.6289   141.6591   -39.2827  -999.2500
  377.5000     9.5497     7.6299   141.6479   -39.2820  -999.2500
  378.0000     9.5801     7.6426   140.8847   -39.2812  -999.2500
  378.5000     9.5955     7.7076   140.5005   -39.2804  -999.2500
  379.0000     9.6109     7.7839   139.8474   -39.2797  -999.2500
  379.5000     9.6190     7.7850   138.5989   -39.2789  -999.2500
  380.0000     9.6868     7.7862   138.1882   -39.4286  -999.2500
  380.5000     9.8678     7.7873   137.0758   -39.4278  -999.2500
  381.0000    10.1697     7.7130   136.3131   -39.4271  -999.2500
  381.5000    10.5190     7.7896   135.5518   -39.4262  -999.2500
  382.0000    10.3941     7.9533   134.6046   -39.4256  -999.2500
  382.5000    10.1883     8.2631   134.0273   -39.4248  -999.2500
  383.0000     9.9937     8.3954   132.5150   -39.4239  -999.2500
  383.5000     9.8898     8.5181   131.5415   -39.4233  -999.2500
  384.0000     9.8163     8.6233   129.4892   -39.4226  -999.2500
  384.5000     9.8658     8.5493   128.9989   -39.4217  -999.2500
  385.0000    10.0414     8.6258   127.4900   -39.4211  -999.2500
  385.5000    10.3479     8.6516   126.4527   -39.4203  -999.2500
  386.0000    10.6509     8.7038   124.9378   -39.4194  -999.2500
  386.5000    10.7804     8.7800   124.9287   -39.4188  -999.2500
  387.0000    11.0346     8.8562   123.3934   -39.5685  -999.2500
  387.5000    11.3331     8.9326   121.9012   -39.7180  -999.2500
  388.0000    11.5141     8.9339   120.1001   -39.7173  -999.2500
  388.5000    11.7270     8.9649   118.7801   -39.7378  -999.2500
  389.0000    12.0906     9.1734   117.3631   -39.8662  -999.2500
  389.5000    12.3060     9.5397   115.8521   -39.8654  -999.2500
  390.0000    12.5602     9.7565   114.2643   -39.8647  -999.2500
  390.5000    12.9234     9.9267   112.8251   -40.0142  -999.2500
  391.0000    13.1441    10.1455   110.9710   -40.0135  -999.2500
  391.5000    13.2376    10.1112   108.1982   -40.0128  -999.2500
  392.0000    13.2291     9.9859   107.5363   -40.0120  -999.2500
  392.5000    13.1564     9.9228   108.2770   -40.0113  -999.2500
  393.0000    12.9804     9.8107   108.2658   -40.0431  -999.2500
  393.5000    12.7818     9.6855   108.2535   -40.1601  -999.2500
  394.0000    12.6285     9.5498   109.7447   -40.2446  -999.2500
  394.5000    12.3927     9.5508   109.7335   -40.3091  -999.2500
