~VERSION INFORMATION
 VERS.                2.0:   CWLS LOG ASCII STANDARD - VERSION 2.0
 WRAP.                 NO:   ONE LINE PER DEPTH STEP
~WELL INFORMATION
#MNEM.UNIT      DATA TYPE    INFORMATION
#----------   ------------   ------------------------------
 STRT.F         1208.5000:   START DEPTH
 STOP.F         3816.0000:   STOP DEPTH
 STEP.F            0.5000:   STEP LENGTH
 NULL.          -999.2500:   NO VALUE
 COMP. BROWN JOHN E&C INC:   COMPANY
 WELL. NPR 3 STX-11 #13-11:   WELL
 FLD .             TEAPOT:   FIELD
 LOC .      S11 T38N R78W:   LOCATION
 CNTY.            NATRONA:   COUNTY
 STAT.            WYOMING:   STATE
 CTRY. UNITED STATES OF AMERICA:   COUNTRY
 SRVC.            Unknown:   SERVICE COMPANY
 DATE.        08-APR-1986:   LOGDATE
 API .       490251105000:   API NUMBER
~CURVE INFORMATION
#MNEM.UNIT       API CODE    CURVE DESCRIPTION
#----------   ------------   ------------------------------
 DEPT.F                  :   
 ROP .MIN/FT 91 810 01 00:   RATE OF DRILLING PENETRATION
 TGAS.UNITS  91 830 01 00:   TOTAL GAS FROM HOTWIRE
 GR  .GAPI   81 310 01 00:   GAMMA RAY
 TT  .US/F   81 520 00 00:   TRANSIT TIME
~PARAMETER INFORMATION
#MNEM.UNIT          VALUE    DESCRIPTION
#----------   ------------   ------------------------------
 PD  .                 GL:   PERMANENT DATUM
 EPD .F              5176:   ELEVATION PERMANENT DATUM
 LMF .                 KB:   LOG MEASURED FROM
 DAPD.F              11.8:   FEET ABOVE PERMANENT DATUM
 DMF .                 KB:   DRILLING MEASURED FROM
 EKB .F            5187.8:   KELLING BUSHING
 EGL .F              5176:   GROUND LEVEL
 DATE.             4-8-86:   RUN DATE
 RUN .                  1:   RUN NUMBER
 DD  .F              4051:   DEPTH DRILLER
 DL  .F              3815:   DEPTH LOGGER
 BLI .F              3815:   BOTTOM LOG INTERVAL
 TLI .F              2200:   TOP LOG INTERVAL
 CS  .IN              5.5:   CASING SIZE
 CBD .F              3861:   CASING BOTTOM DRILLER
 DFT .              WATER:   DRILLING FLUID TYPE
 BHT .F               167:   BOTTOM HOLE TEMPERATURE
 MRT .F               167:   MAXIMUM RECORDED TEMPERATURE
 LUN .            558/374:   LOGGING UNIT NUMBER
 LUL .             CASPER:   LOGGING UNIT LOCATION
 ENGI.             BAILEY:   RECORDING ENGINEER
 WITN.             BARRON:   WITNESSED BY
 CLNT.            A2DTECH:   CLIENT CODE
 ORIG.     2.5", 5" PRINT:   ORIGIN OF DATA
 UWI .       490251105000:   UNIQUE WELL ID
 DICO. A2D Technologies, Inc.:   DIGITIZING COMPANY
~OTHER INFORMATION
~A  DEPT         ROP     TGAS         GR         TT   
# ...
 1427.5000     0.6413    42.4850  -999.2500  -999.2500
 1428.0000     0.6408    44.3793  -999.2500  -999.2500
 1428.5000     0.6267    46.7397  -999.2500  -999.2500
 1429.0000     0.6010    48.5087  -999.2500  -999.2500
 1429.5000     0.5621    49.6552  -999.2500  -999.2500
 1430.0000     0.5423    49.6552  -999.2500  -999.2500
 1430.5000     0.5417    49.2672  -999.2500  -999.2500
 1431.0000     0.5412    48.8132  -999.2500  -999.2500
 1431.5000     0.5406    47.8870  -999.2500  -999.2500
 1432.0000     0.5400    46.3835  -999.2500  -999.2500
 1432.5000     0.5394    44.0980  -999.2500  -999.2500
 1433.0000     0.5388    41.7253  -999.2500  -999.2500
 1433.5000     0.5383    38.9046  -999.2500  -999.2500
 1434.0000     0.5376    35.7555  -999.2500  -999.2500
 1434.5000     0.5371    33.3621  -999.2500  -999.2500
 1435.0000     0.5365    31.8103  -999.2500  -999.2500
 1435.5000     0.5360    29.8707  -999.2500  -999.2500
 1436.0000     0.5354    27.7863  -999.2500  -999.2500
 1436.5000     0.5348    26.0030  -999.2500  -999.2500
 1437.0000     0.5342    23.9821  -999.2500  -999.2500
 1437.5000     0.5433    21.8130  -999.2500  -999.2500
 1438.0000     0.5523    19.5944  -999.2500  -999.2500
 1438.5000     0.5921    18.5451  -999.2500  -999.2500
 1439.0000     0.6664    17.9619  -999.2500  -999.2500
 1439.5000     0.7044    17.4569  -999.2500  -999.2500
 1440.0000     0.7038    17.4569  -999.2500  -999.2500
 1440.5000     0.7052    17.4573  -999.2500  -999.2500
 1441.0000     0.7258    17.8448  -999.2500  -999.2500
 1441.5000     0.7406    17.8448  -999.2500  -999.2500
 1442.0000     0.7400    17.8448  -999.2500  -999.2500
 1442.5000     0.7394    17.8448  -999.2500  -999.2500
 1443.0000     0.7388    17.8448  -999.2500  -999.2500
 1443.5000     0.7383    17.6098  -999.2500  -999.2500
 1444.0000     0.7376    17.4569  -999.2500  -999.2500
 1444.5000     0.7178    17.0690  -999.2500  -999.2500
 1445.0000     0.6596    17.0690  -999.2500  -999.2500
 1445.5000     0.6167    17.0654  -999.2500  -999.2500
 1446.0000     0.5777    16.5958  -999.2500  -999.2500
 1446.5000     0.5560    15.8234  -999.2500  -999.2500
 1447.0000     0.5496    15.3964  -999.2500  -999.2500
 1447.5000     0.5702    15.1293  -999.2500  -999.2500
 1448.0000     0.5792    14.9302  -999.2500  -999.2500
 1448.5000     0.6325    14.7414  -999.2500  -999.2500
 1449.0000     0.7819    14.7414  -999.2500  -999.2500
 1449.5000     0.7929    14.7414  -999.2500  -999.2500
 1450.0000     0.7308    14.3534  -999.2500  -999.2500
 1450.5000     0.6456    14.3534  -999.2500  -999.2500
 1451.0000     0.6008    14.3534  -999.2500  -999.2500
 1451.5000     0.5751    14.3534  -999.2500  -999.2500
 1452.0000     0.5361    14.3534  -999.2500  -999.2500
 1452.5000     0.5163    14.3534  -999.2500  -999.2500
 1453.0000     0.4965    14.3534  -999.2500  -999.2500
 1453.5000     0.4921    14.3534  -999.2500  -999.2500
 1454.0000     0.4704    14.6341  -999.2500  -999.2500
 1454.5000     0.4640    14.7414  -999.2500  -999.2500
 1455.0000     0.4750    14.7414  -999.2500  -999.2500
 1455.5000     0.4860    14.3534  -999.2500  -999.2500
 1456.0000     0.5200    14.3534  -999.2500  -999.2500
 1456.5000     0.5885    14.3534  -999.2500  -999.2500
 1457.0000     0.6457    14.3534  -999.2500  -999.2500
 1457.5000     0.7221    14.5199  -999.2500  -999.2500
 1458.0000     0.7619    14.7414  -999.2500  -999.2500
 1458.5000     0.7788    14.7414  -999.2500  -999.2500
 1459.0000     0.7781    14.7414  -999.2500  -999.2500
 1459.5000     0.7775    14.7414  -999.2500  -999.2500
 1460.0000     0.7865    14.7414  -999.2500  -999.2500
 1460.5000     0.7840    14.3534  -999.2500  -999.2500
 1461.0000     0.7623    14.4059  -999.2500  -999.2500
 1461.5000     0.6789    14.7414  -999.2500  -999.2500
 1462.0000     0.6399    14.7414  -999.2500  -999.2500
 1462.5000     0.6010    14.5717  -999.2500  -999.2500
 1463.0000     0.6004    14.3534  -999.2500  -999.2500
 1463.5000     0.5998    14.3534  -999.2500  -999.2500
 1464.0000     0.5992    14.3534  -999.2500  -999.2500
 1464.5000     0.5987    14.3534  -999.2500  -999.2500
 1465.0000     0.5788    14.3534  -999.2500  -999.2500
 1465.5000     0.5360    14.3534  -999.2500  -999.2500
 1466.0000     0.5200    14.4090  -999.2500  -999.2500
 1466.5000     0.5193    14.7414  -999.2500  -999.2500
 1467.0000     0.4996    14.7414  -999.2500  -999.2500
 1467.5000     0.4990    14.7414  -999.2500  -999.2500
 1468.0000     0.5177    14.7414  -999.2500  -999.2500
 1468.5000     0.5133    14.7414  -999.2500  -999.2500
 1469.0000     0.5031    14.7414  -999.2500  -999.2500
 1469.5000     0.5160    14.7414  -999.2500  -999.2500
 1470.0000     0.5250    14.7414  -999.2500  -999.2500
 1470.5000     0.5571    14.7414  -999.2500  -999.2500
 1471.0000     0.6258    14.6825  -999.2500  -999.2500
 1471.5000     0.7251    14.2554  -999.2500  -999.2500
 1472.0000     0.7823    13.9655  -999.2500  -999.2500
 1472.5000     0.7817    13.7893  -999.2500  -999.2500
 1473.0000     0.8004    13.3623  -999.2500  -999.2500
 1473.5000     0.7960    12.9352  -999.2500  -999.2500
 1474.0000     0.7800    12.5081  -999.2500  -999.2500
 1474.5000     0.7640    12.0259  -999.2500  -999.2500
 1475.0000     0.7308    11.6379  -999.2500  -999.2500
 1475.5000     0.6860    11.6150  -999.2500  -999.2500
 1476.0000     0.6219    11.1880  -999.2500  -999.2500
 1476.5000     0.5655    10.8621  -999.2500  -999.2500
 1477.0000     0.5649    10.8621  -999.2500  -999.2500
 1477.5000     0.5837    10.8621  -999.2500  -999.2500
 1478.0000     0.5831    10.8621  -999.2500  -999.2500
 1478.5000     0.5748    10.8621  -999.2500  -999.2500
 1479.0000     0.5204    10.8621  -999.2500  -999.2500
 1479.5000     0.4429    10.8621  -999.2500  -999.2500
 1480.0000     0.4558    10.8621  -999.2500  -999.2500
 1480.5000     0.5725    10.8621  -999.2500  -999.2500
 1481.0000     0.6719    10.8621  -999.2500  -999.2500
 1481.5000     0.7712    10.8621  -999.2500  -999.2500
 1482.0000     0.7707    10.8621  -999.2500  -999.2500
 1482.5000     0.7510    10.8621  -999.2500  -999.2500
 1483.0000     0.7292    10.8621  -999.2500  -999.2500
 1483.5000     0.7075    10.8621  -999.2500  -999.2500
 1484.0000     0.6915    10.5620  -999.2500  -999.2500
 1484.5000     0.6833    10.4741  -999.2500  -999.2500
 1485.0000     0.6712    10.0862  -999.2500  -999.2500
 1485.5000     0.6475    10.0568  -999.2500  -999.2500
 1486.0000     0.6181     9.6983  -999.2500  -999.2500
 1486.5000     0.5732     9.5907  -999.2500  -999.2500
 1487.0000     0.5342     9.3103  -999.2500  -999.2500
 1487.5000     0.5337     9.1245  -999.2500  -999.2500
 1488.0000     0.5792     8.9224  -999.2500  -999.2500
 1488.5000     0.6556     8.9224  -999.2500  -999.2500
 1489.0000     0.6973     8.9224  -999.2500  -999.2500
 1489.5000     0.7237     8.9224  -999.2500  -999.2500
 1490.0000     0.7231     8.9224  -999.2500  -999.2500
 1490.5000     0.7225     8.9224  -999.2500  -999.2500
 1491.0000     0.7085     8.9224  -999.2500  -999.2500
 1491.5000     0.7020     8.9224  -999.2500  -999.2500
 1492.0000     0.7015     8.9224  -999.2500  -999.2500
 1492.5000     0.6817     8.9224  -999.2500  -999.2500
 1493.0000     0.6812     9.1506  -999.2500  -999.2500
 1493.5000     0.6806     9.3103  -999.2500  -999.2500
 1494.0000     0.6800     9.3103  -999.2500  -999.2500
 1494.5000     0.6794     9.3103  -999.2500  -999.2500
 1495.0000     0.6724     9.3103  -999.2500  -999.2500
 1495.5000     0.6507     9.3103  -999.2500  -999.2500
 1496.0000     0.6392     9.3103  -999.2500  -999.2500
 1496.5000     0.6630     9.3103  -999.2500  -999.2500
 1497.0000     0.7047     9.3103  -999.2500  -999.2500
 1497.5000     0.7913     9.3103  -999.2500  -999.2500
 1498.0000     0.8292     9.3103  -999.2500  -999.2500
 1498.5000     0.8479     9.0398  -999.2500  -999.2500
 1499.0000     0.8281     8.9224  -999.2500  -999.2500
 1499.5000     0.8185     8.9224  -999.2500  -999.2500
 1500.0000     0.7756     8.9224  -999.2500  -999.2500
