~VERSION INFORMATION
 VERS.                2.0:   CWLS LOG ASCII STANDARD - VERSION 2.0
 WRAP.                 NO:   ONE LINE PER DEPTH STEP
~WELL INFORMATION
#MNEM.UNIT      DATA TYPE    INFORMATION
#----------   ------------   ------------------------------
 STRT.F           20.5000:   START DEPTH
 STOP.F          544.0000:   STOP DEPTH
 STEP.F            0.5000:   STEP LENGTH
 NULL.          -999.2500:   NO VALUE
 COMP. LAWRENCE/ALLISON INC:   COMPANY
 WELL.    45-65 SX #10-10:   WELL
 FLD .             TEAPOT:   FIELD
 LOC .      S10 T38N R78W:   LOCATION
 CNTY.            NATRONA:   COUNTY
 STAT.            WYOMING:   STATE
 CTRY. UNITED STATES OF AMERICA:   COUNTRY
 SRVC.            Unknown:   SERVICE COMPANY
 DATE.        01-SEP-1984:   LOGDATE
 API .       490251098400:   API NUMBER
~CURVE INFORMATION
#MNEM.UNIT       API CODE    CURVE DESCRIPTION
#----------   ------------   ------------------------------
 DEPT.F                  :   
 GRD .GAPI   45 310 01 00:   GAMMA RAY FROM DENSITY LOG
 CALD.IN     45 280 60 00:   CALIPER
 DEN .G/C3   45 350 01 00:   COMPENSATED BULK DENSTIY
 CORR.G/C3   45 356 01 00:   DENSITY CORRECTION
 CNC .DEC    42 890 03 00:   NEUTRON POROSITY SANDSTONE
 PORD.DEC    45 890 12 00:   POROSITY DENSITY SANDSTONE
 AC  .US/F   60 520 00 00:   ACOUSTIC SONIC
 SPR .MV     07 010 01 00:   SPONTANEOUS POTENTIAL
 RILD.OHMM   07 120 46 00:   INDUCTION LOG DEEP RESISTIVITY
 RILM.OHMM   07 120 44 00:   INDUCTION LOG MEDIUM RESISTIVITY
 RFOC.OHMM   07 220 04 00:   RESISTIVITY FOCUSED LOG
~PARAMETER INFORMATION
#MNEM.UNIT          VALUE    DESCRIPTION
#----------   ------------   ------------------------------
 PD  .                 GL:   PERMANENT DATUM
 EPD .F              5208:   ELEVATION PERMANENT DATUM
 LMF .                 KB:   LOG MEASURED FROM
 DAPD.F                12:   FEET ABOVE PERMANENT DATUM
 DMF .                 KB:   DRILLING MEASURED FROM
 EKB .F              5220:   KELLING BUSHING
 EGL .F              5208:   GROUND LEVEL
 DATE.        1-SEPT-1984:   RUN DATE
 RUN .                  1:   RUN NUMBER
 DD  .F               550:   DEPTH DRILLER
 DL  .F               544:   DEPTH LOGGER
 BLI .F               544:   BOTTOM LOG INTERVAL
 TLI .F                30:   TOP LOG INTERVAL
 CBL .F                44:   CASING BOTTOM LOGGER
 BS  .IN            7.875:   BIT SIZE
 BSD .F               550:   BIT SIZE AT DEPTH
 DFT .          KCL WATER:   DRILLING FLUID TYPE
 MSS .               TANK:   MUD SAMPLE SOURCE
 RMS .OHMM           .236:   RESISTIVITY MUD SAMPLE
 MST .F                75:   MUD SAMPLE TEMPERATURE
 TCS .HRS               3:   TIME CURCULATED STOPPED
 MRT .F               100:   MAXIMUM RECORDED TEMPERATURE
 LUN .               4082:   LOGGING UNIT NUMBER
 LUL .               ROOS:   LOGGING UNIT LOCATION
 ENGI.             MILLER:   RECORDING ENGINEER
 WITN.            JOHNSON:   WITNESSED BY
 CLNT.            A2DTECH:   CLIENT CODE
 ORIG.       2", 5" PRINT:   ORIGIN OF DATA
 UWI .       490251098400:   UNIQUE WELL ID
 DICO. A2D Technologies, Inc.:   DIGITIZING COMPANY
~OTHER INFORMATION
~A   DEPT      GRD       CALD        DEN       CORR          CNC     PORD         AC        SPR       RILD       RILM       RFOC   
# ...
  478.0000    99.6930     7.6075     2.4963     0.0125     0.2247     0.1010    95.5935   -65.2196    11.0716    10.3902    11.6537
  478.5000   100.8180     7.6016     2.5048     0.0441     0.2301     0.1032    96.0494   -65.5327    10.7732    10.0129    11.4860
  479.0000   102.0062     7.6073     2.5120     0.0642     0.2209     0.0986    96.6228   -65.8452    10.4828     9.6493    11.2533
  479.5000   104.2617     7.6126     2.5137     0.0738     0.2211     0.0991    97.5524   -66.2438    10.1208     9.2510    10.7983
  480.0000   106.6364     7.6180     2.5165     0.0834     0.2198     0.0982    98.4820   -66.6618     9.5477     8.8136    10.3661
  480.5000   108.0944     7.6233     2.5206     0.0834     0.2285     0.0954    99.4116   -67.2050     9.0070     8.3968     9.9507
  481.0000   102.8122     7.6286     2.5236     0.0650     0.2452     0.0940   100.1986   -67.3963     8.4969     7.9998     9.5519
  481.5000    97.0614     7.6340     2.5212     0.0470     0.2476     0.0951   100.6006   -67.3332     8.0157     7.3959     9.1982
  482.0000    96.4977     7.6393     2.5185     0.0402     0.2399     0.0954   101.2012   -67.2687     7.0257     6.3200     8.8931
  482.5000    96.6703     7.6446     2.5226     0.0327     0.2412     0.0935   102.2053   -67.3030     5.9484     5.4007     8.4222
  483.0000    97.3745     7.6500     2.5271     0.0404     0.2449     0.0928   104.1674   -67.4848     5.0363     4.6150     7.9764
  483.5000    99.8582     7.6553     2.5230     0.0533     0.2550     0.0985   107.9820   -67.5664     4.2641     3.9438     7.5142
  484.0000   102.3003     7.6599     2.5047     0.0488     0.2650     0.1081   113.2734   -67.2552     3.6103     3.3651     6.0590
  484.5000   102.0792     7.6540     2.4870     0.0354     0.2750     0.1176   119.1359   -66.9043     3.0567     3.0072     4.8261
  485.0000   101.3199     7.6485     2.4627     0.0227     0.2818     0.1267   127.2867   -66.3306     2.8636     2.9521     3.8272
  485.5000   100.6201     7.6429     2.4141     0.0200     0.2834     0.1353   131.3586   -65.6213     2.7590     2.9154     3.3425
  486.0000   101.2419     7.6388     2.3639     0.0418     0.2754     0.1576   129.0200   -64.7155     2.8835     3.1096     2.9423
  486.5000   101.5521     7.6358     2.3105     0.0774     0.2649     0.2096   122.5722   -64.0557     3.0803     3.3978     3.8374
  487.0000    99.9262     7.6329     2.2542     0.1124     0.2544     0.2559   114.0567   -64.2862     3.2907     3.7653     5.0519
  487.5000    97.0701     7.6299     2.2396     0.1387     0.2413     0.2573   107.3233   -64.5017     3.6928     4.2872     6.6509
  488.0000    94.2084     7.6270     2.3181     0.1334     0.2633     0.1973   102.2629   -64.6568     4.2527     4.8815     8.3904
  488.5000    94.5737     7.6241     2.4347     0.0842     0.2445     0.1306   101.5156   -64.6906     4.9794     5.5582     8.1535
  489.0000    96.8226     7.6210     2.4877     0.0577     0.2455     0.0976   101.0633   -64.8173     5.8302     6.3286     7.9402
  489.5000    96.8673     7.6203     2.5244     0.0484     0.2473     0.0933   100.6111   -64.9420     6.8542     7.0459     8.1525
  490.0000    96.2280     7.6203     2.5249     0.0559     0.2441     0.0968   100.1588   -65.0668     7.1342     7.4386     8.5383
  490.5000    96.5981     7.6203     2.5083     0.0608     0.2462     0.1032    99.6903   -65.1918     7.4454     7.7375     8.9423
  491.0000    99.6336     7.6203     2.5014     0.0579     0.2490     0.1086    99.5904   -65.3177     7.5307     7.8094     9.1012
  491.5000   100.6341     7.6203     2.4960     0.0510     0.2473     0.1084   100.2085   -65.4410     7.6183     7.8819     9.1982
  492.0000   100.1649     7.6203     2.4905     0.0360     0.2497     0.1103   100.8617   -65.4158     7.7071     7.9551     9.1385
  492.5000    99.9562     7.6200     2.4848     0.0206     0.2330     0.1165   101.2889   -65.2192     7.7964     8.0875     9.0891
  493.0000   100.8230     7.6146     2.4832     0.0264     0.2336     0.1176   101.4892   -65.0244     7.8685     8.0712     9.0310
  493.5000   101.6220     7.6093     2.4907     0.0357     0.2384     0.1129   101.5258   -64.8303     7.8351     8.0510     9.0967
  494.0000   103.2429     7.6041     2.5004     0.0445     0.2349     0.1082   101.5609   -64.6362     7.7955     8.0309     9.1778
  494.5000   105.3169     7.5988     2.5080     0.0312     0.2548     0.1035   101.5968   -64.4419     7.7561     8.0109     9.2597
  495.0000   106.5811     7.5936     2.5095     0.0167     0.2542     0.1017   101.6327   -64.2473     7.7169     7.9909     9.3424
  495.5000   107.8236     7.5884     2.5112     0.0005     0.2535     0.1010   101.6685   -64.0620     7.6779     7.9709     9.4550
  496.0000   108.1509     7.5832     2.5060     0.0045     0.2546     0.1014   101.7824   -64.0098     7.6391     7.9511     9.4000
  496.5000   106.4001     7.5858     2.5010     0.0228     0.2557     0.1049   101.9918   -63.9628     7.6005     7.9402     9.3124
  497.0000   104.4390     7.5962     2.4964     0.0410     0.2517     0.1086   102.1878   -63.9144     7.5621     7.8791     9.2266
  497.5000   103.8477     7.6067     2.4958     0.0385     0.2473     0.1094   102.0306   -63.8635     7.5238     7.8086     9.1417
  498.0000   104.7295     7.6176     2.4951     0.0332     0.2462     0.1103   101.8828   -63.8874     7.4858     7.7388     9.1138
  498.5000   105.5761     7.6192     2.4932     0.0325     0.2509     0.1112   101.7350   -64.4585     7.4480     7.6695     9.1141
  499.0000   105.3722     7.6179     2.4914     0.0334     0.2510     0.1120   101.7742   -65.0272     7.4103     7.6009     9.1141
  499.5000   104.1014     7.6165     2.4904     0.0345     0.2497     0.1128   102.1535   -65.5914     7.3729     7.5328     9.1141
  500.0000   102.7825     7.6151     2.4901     0.0129     0.2518     0.1135   102.5645   -66.1431     7.3356     7.4654     8.9210
  500.5000   105.6930     7.6137     2.4897    -0.0043     0.2540     0.1139   102.7577   -66.6403     7.3098     7.4454     8.0135
  501.0000   111.0988     7.6123     2.4880    -0.0015     0.2481     0.1142   102.6873   -66.4328     7.3767     7.6121     8.2028
  501.5000   115.3668     7.6109     2.4851     0.0195     0.2487     0.1163   102.1898   -66.2137     7.4284     7.7427     8.5902
  502.0000   117.3007     7.6095     2.4824     0.0408     0.2437     0.1165   101.6425   -65.9921     7.4805     7.8754     8.9959
  502.5000   115.0368     7.6081     2.4933     0.0341     0.2423     0.1094   101.4284   -65.7712     7.5330     7.9402     9.1982
  503.0000   112.1240     7.6067     2.5118     0.0265     0.2431     0.0954   101.4201   -65.5503     7.5858     7.9214     9.1290
  503.5000   111.8716     7.6053     2.5303     0.0225     0.2426     0.1014   101.7947   -65.3291     7.6544     7.8953     9.0783
  504.0000   113.6056     7.6039     2.5494     0.0194     0.2514     0.0782   102.4218   -65.1002     7.6533     7.8676     9.0267
  504.5000   110.4717     7.6025     2.5524     0.0431     0.2601     0.0861   102.8220   -65.0726     7.5823     7.8063     8.8278
  505.0000   106.2084     7.6011     2.5299     0.0714     0.2601     0.0954   103.0869   -65.1138     7.5066     7.7410     8.6664
  505.5000   104.4316     7.6014     2.5221     0.0800     0.2579     0.0910   103.0869   -65.1566     7.4317     7.6764     8.5079
  506.0000   107.7929     7.6032     2.5166     0.0771     0.2553     0.0993   103.0869   -65.1990     7.3576     7.6125     8.4679
  506.5000   112.1292     7.6051     2.5107     0.0524     0.2549     0.1102   103.0865   -65.2413     7.2111     7.4359     8.5926
  507.0000   113.5220     7.6069     2.5002     0.0337     0.2546     0.1143   103.1248   -65.2836     6.9370     7.1735     8.6864
  507.5000   112.2527     7.6087     2.4897     0.0379     0.2504     0.1148   103.3803   -65.3258     6.6732     6.9204     8.7851
  508.0000   111.0899     7.6106     2.4881     0.0421     0.2454     0.1152   104.1402   -65.3672     6.4195     6.6764     8.9480
