~VERSION INFORMATION
 VERS.                2.0:   CWLS LOG ASCII STANDARD - VERSION 2.0
 WRAP.                 NO:   ONE LINE PER DEPTH STEP
~WELL INFORMATION
#MNEM.UNIT      DATA TYPE    INFORMATION
#----------   ------------   ------------------------------
 STRT.F            0.0000:   START DEPTH
 STOP.F         4112.0000:   STOP DEPTH
 STEP.F            0.5000:   STEP LENGTH
 NULL.          -999.2500:   NO VALUE
 COMP. LAWRENCE-ALLISON &AS:   COMPANY
 WELL. N P R 3-76-1-SX #3-3:   WELL
 FLD .          N.P.R. #3:   FIELD
 LOC .       S3 T38N R78W:   LOCATION
 CNTY.            NATRONA:   COUNTY
 STAT.            WYOMING:   STATE
 CTRY. UNITED STATES OF AMERICA:   COUNTRY
 SRVC.      Dresser Atlas:   SERVICE COMPANY
 DATE.        04-SEP-1983:   LOGDATE
 API .       490251093100:   API NUMBER
~CURVE INFORMATION
#MNEM.UNIT       API CODE    CURVE DESCRIPTION
#----------   ------------   ------------------------------
 DEPT.F                  :   
 DEN .G/C3   45 350 01 00:   COMPENSATED BULK DENSTIY
 CORR.G/C3   45 356 01 00:   DENSITY CORRECTION
 PORD.DEC    45 890 12 00:   POROSITY DENSITY SANDSTONE
 CNC .DEC    42 890 03 00:   NEUTRON POROSITY SANDSTONE
 SPR .MV     07 010 01 00:   SPONTANEOUS POTENTIAL
 GRR .GAPI   07 310 01 00:   GAMMA RAY FROM RES. LOG.
 RFOC.OHMM   07 220 04 00:   RESISTIVITY FOCUSED LOG
 CALD.IN     45 280 60 00:   CALIPER
 AC  .US/F   60 520 00 00:   ACOUSTIC SONIC
 RILD.OHMM   07 120 46 00:   INDUCTION LOG DEEP RESISTIVITY
 RILM.OHMM   07 120 44 00:   INDUCTION LOG MEDIUM RESISTIVITY
~PARAMETER INFORMATION
#MNEM.UNIT          VALUE    DESCRIPTION
#----------   ------------   ------------------------------
 PD  .                 GL:   PERMANENT DATUM
 EPD .F              5147:   ELEVATION PERMANENT DATUM
 LMF .                 KB:   LOG MEASURED FROM
 DAPD.F                10:   FEET ABOVE PERMANENT DATUM
 DMF .                 KB:   DRILLING MEASURED FROM
 EKB .F              5157:   KELLING BUSHING
 EGL .F              5147:   GROUND LEVEL
 DATE.             9-4-83:   RUN DATE
 RUN .                  1:   RUN NUMBER
 DD  .F              4119:   DEPTH DRILLER
 DL  .F              4115:   DEPTH LOGGER
 BLI .F              4112:   BOTTOM LOG INTERVAL
 CS  .IN            9.625:   CASING SIZE
 CBD .F               491:   CASING BOTTOM DRILLER
 CBL .F               494:   CASING BOTTOM LOGGER
 BS  .IN             8.75:   BIT SIZE
 BSD .F              4119:   BIT SIZE AT DEPTH
 DFT .            KCL GEL:   DRILLING FLUID TYPE
 DFD .                8.9:   DRILLING FLUID DENSITY
 DFV .                 46:   DRILLING FLUID VISCOSITY
 DFPH.                  9:   DRILLING FLUID PH
 DFL .               13.6:   DRILLING FLUID LOSS
 MSS .            MUDTANK:   MUD SAMPLE SOURCE
 RMS .OHMM           .315:   RESISTIVITY MUD SAMPLE
 MST .F                92:   MUD SAMPLE TEMPERATURE
 RMF .OHMM            .25:   RESISTIVITY MUD FILTRATE SAMPLE
 MFST.F                84:   MUD FILTRATE SAMPLE TEMPERATURE
 RMC .OHMM             .4:   RESISTIVITY MUD CAKE
 MCST.F                92:   MUD CAKE SAMPLE TEMPERATURE
 MFSS.                  M:   MUD FILTRATE SAMPLE SOURCE
 MCSS.                  C:   MUD CAKE SAMPLE SOURCE
 RMB .OHMM            .22:   RESISTIVITY MUD AT BHT
 BHT .F               132:   BOTTOM HOLE TEMPERATURE
 TCS .HRS               4:   TIME CURCULATED STOPPED
 MRT .F               132:   MAXIMUM RECORDED TEMPERATURE
 LUN .               6274:   LOGGING UNIT NUMBER
 LUL .               GLTE:   LOGGING UNIT LOCATION
 ENGI.             RAUTIO:   RECORDING ENGINEER
 WITN.             STRONG:   WITNESSED BY
 CLNT.            A2DTECH:   CLIENT CODE
 ORIG. 1", 2", 2.5", 5" PRINT:   ORIGIN OF DATA
 UWI .       490251093100:   UNIQUE WELL ID
 DICO. A2D Technologies, Inc.:   DIGITIZING COMPANY
~OTHER INFORMATION
~A    DEPT     DEN       CORR       PORD        CNC        SPR          GRR     RFOC       CALD         AC       RILD       RILM   
# ...
 2165.5000     2.4757     0.0393     0.1054     0.3150   -42.8780   122.5149     7.6994     9.5530    95.1856     6.7076     7.0983
 2166.0000     2.4733     0.0382     0.1056     0.3070   -42.8149   125.7248     8.0362     9.5534    94.8523     6.8713     7.2947
 2166.5000     2.4706     0.0366     0.1062     0.2991   -42.7533   126.8670     8.3878     9.5538    94.5190     7.0392     7.5781
 2167.0000     2.4717     0.0352     0.1068     0.2835   -42.6973   124.2991     8.7547     9.5542    94.1856     7.1719     7.5425
 2167.5000     2.4734     0.0343     0.1081     0.2846   -42.5571   124.2068     9.1008     9.5540    93.8423     7.0558     7.3872
 2168.0000     2.4692     0.0276     0.1113     0.2935   -42.3240   126.7470     8.7515     9.5537    94.1434     6.9151     7.2352
 2168.5000     2.4625     0.0142     0.1159     0.3016   -42.0965   125.9214     8.2866     9.5534    94.4537     6.5791     6.9599
 2169.0000     2.4562     0.0016     0.1197     0.3079   -41.8704   122.8469     7.7429     9.5532    94.7641     6.2473     6.6102
 2169.5000     2.4503    -0.0109     0.1196     0.3141   -41.6422   119.9345     7.8607     9.5529    95.0744     5.9321     6.2780
 2170.0000     2.4532    -0.0068     0.1175     0.3249   -41.4148   116.9343     7.3391     9.5527    95.3848     5.6329     5.9626
 2170.5000     2.4574     0.0004     0.1154     0.3353   -41.1874   115.7872     6.5007     9.5524    95.6690     5.3488     5.6630
 2171.0000     2.4620     0.0075     0.1130     0.3296   -40.9595   116.9448     5.7580     9.5522    95.8357     5.1842     5.2543
 2171.5000     2.4685     0.0147     0.1101     0.3181   -40.7323   117.6162     5.3514     9.5519    95.9381     5.2687     5.3346
 2172.0000     2.4752     0.0218     0.1056     0.3066   -40.5048   111.9912     5.4503     9.5517    95.2808     5.3514     5.4846
 2172.5000     2.4819     0.0371     0.1003     0.2755   -40.2757   114.4835     6.0278     9.5514    94.6141     5.4560     5.6388
 2173.0000     2.4886     0.0509     0.0970     0.2825   -40.0512   119.9600     7.0208     9.5511    93.9474     5.5588     5.7973
 2173.5000     2.4907     0.0653     0.0953     0.2899   -39.8231   124.8430     8.3046     9.5509    93.4446     5.6635     5.9603
 2174.0000     2.4918     0.0572     0.0965     0.2980   -39.5832   130.2122     8.0255     9.5506    93.5326     5.7702     6.0637
 2174.5000     2.4896     0.0435     0.0992     0.2980   -39.5107   131.5814     7.5872     9.5504    93.8508     5.8644     5.9906
 2175.0000     2.4842     0.0295     0.1018     0.2910   -39.6002   131.0950     7.1699     9.5501    94.1689     5.5105     5.7580
 2175.5000     2.4807     0.0172     0.1006     0.2869   -39.6780   127.2826     7.1776     9.5499    94.4871     5.2156     5.4853
 2176.0000     2.4848     0.0069     0.0970     0.2842   -39.7521   126.2062     7.0360     9.5496    94.8819     4.9365     5.2255
 2176.5000     2.4977     0.0222     0.0932     0.2815   -39.8307   127.8327     6.2013     9.5493    95.5763     4.6724     4.9780
 2177.0000     2.4997     0.0383     0.0948     0.2842   -39.9079   127.3398     5.5371     9.5491    96.2708     4.4224     4.7422
 2177.5000     2.4936     0.0286     0.0940     0.2908   -39.9847   125.5217     4.7991     9.5488    96.9652     4.2957     4.4694
 2178.0000     2.5004     0.0225     0.0881     0.2843   -40.0619   123.8828     4.9051     9.5486    97.2355     4.3279     4.5005
 2178.5000     2.5166     0.0133     0.0793     0.2749   -40.1389   122.5041     5.2623     9.5483    96.5426     4.3731     4.5633
 2179.0000     2.5316     0.0074     0.0707     0.2735   -40.2158   121.8561     5.6449     9.5480    95.6897     4.4188     4.6270
 2179.5000     2.5374     0.0145     0.0672     0.2814   -40.2926   121.1914     6.2003     9.5478    94.8367     4.4650     4.6916
 2180.0000     2.5334     0.0229     0.0690     0.2940   -40.3698   120.5944     6.1909     9.5475    94.2415     4.5117     4.7946
 2180.5000     2.5292     0.0733     0.0736     0.3140   -40.4466   120.2668     5.8690     9.5473    94.3711     4.5383     4.7329
 2181.0000     2.5163     0.0574     0.0818     0.3159   -40.5228   123.1254     5.9581     9.5470    94.6788     4.4377     4.5936
 2181.5000     2.4972     0.0367     0.0923     0.3160   -40.6014   127.3651     6.1065     9.5468    94.9865     4.3444     4.4585
 2182.0000     2.4813     0.0288     0.1004     0.3234   -40.6776   131.3940     6.1956     9.5465    95.2942     4.2532     4.3273
 2182.5000     2.4847     0.0297     0.1004     0.3207   -40.7969   135.8555     5.1589     9.5462    95.6019     4.1638     4.1413
 2183.0000     2.4890     0.0418     0.0961     0.3160   -40.9121   136.1649     5.0653     9.5460    95.9348     4.0764     4.1612
 2183.5000     2.4939     0.0518     0.0934     0.3113   -41.0299   135.7182     5.0653     9.5457    96.3373     3.9922     4.1993
 2184.0000     2.4986     0.0426     0.0916     0.3065   -41.1463   133.6220     4.7946     9.5455    96.5958     4.0235     4.2376
 2184.5000     2.5068     0.0410     0.0871     0.3017   -41.2636   131.9557     4.8243     9.5452    96.8363     4.0726     4.2764
 2185.0000     2.5152     0.0560     0.0803     0.2903   -41.3820   127.9781     4.8832     9.5450    96.5398     4.1224     4.3155
 2185.5000     2.5115     0.0712     0.0817     0.2763   -41.4688   124.3917     5.4939     9.5447    95.7184     4.1413     4.3549
 2186.0000     2.5064     0.0915     0.0847     0.2841   -41.4960   122.6693     6.1889     9.5444    94.8969     4.1413     4.3751
 2186.5000     2.5025     0.0804     0.0877     0.2912   -41.5300   126.2790     6.6701     9.5442    94.4411     4.1414     4.3751
 2187.0000     2.4987     0.0567     0.0907     0.3056   -41.5630   126.9765     5.7325     9.5439    95.3824     4.1674     4.4451
 2187.5000     2.4952     0.0400     0.0940     0.3189   -41.5954   124.7741     4.7120     9.5437    96.2375     4.2846     4.5635
 2188.0000     2.4922     0.0258     0.0940     0.3106   -41.6284   122.5484     4.7887     9.5434    96.7365     4.4051     4.6850
 2188.5000     2.4891     0.0307     0.0968     0.3014   -41.6613   122.9324     4.8954     9.5431    96.1399     4.5290     4.8098
 2189.0000     2.4860     0.0380     0.0996     0.2943   -41.6943   125.0972     5.4516     9.5429    95.2548     4.6563     4.9379
 2189.5000     2.4833     0.0454     0.1004     0.2884   -41.7269   127.2449     6.0832     9.5426    94.3382     4.7872     5.0694
 2190.0000     2.4801     0.0527     0.1008     0.2880   -41.7603   125.8338     6.9151     9.5424    93.6427     4.9218     5.2044
 2190.5000     2.4856     0.0500     0.0995     0.2900   -41.7938   124.3616     6.9151     9.5421    93.4707     5.0600     5.3430
 2191.0000     2.4814     0.0373     0.1004     0.2868   -41.8241   122.7352     6.8445     9.5419    93.2707     5.1779     5.5490
 2191.5000     2.4765     0.0322     0.1043     0.2827   -41.8569   121.1391     6.7896     9.5416    93.2435     5.2411     5.4904
 2192.0000     2.4720     0.0273     0.1066     0.2847   -41.7460   118.8728     6.5335     9.5414    93.8066     5.1826     5.3770
 2192.5000     2.4711     0.0229     0.1068     0.2868   -41.5928   115.3876     6.1956     9.5411    94.4566     5.0936     5.2658
 2193.0000     2.4706     0.0212     0.1068     0.2859   -41.4385   111.7064     6.4326     9.5408    94.2056     5.0061     5.1569
 2193.5000     2.4703     0.0311     0.1068     0.2852   -41.2864   110.7755     6.6664     9.5406    93.7056     4.9201     5.0503
 2194.0000     2.4750     0.0433     0.1053     0.2887   -41.1335   113.7649     6.0388     9.5403    93.6273     4.7946     4.9960
 2194.5000     2.4794     0.0538     0.1032     0.2923   -40.9805   116.4824     5.4803     9.5401    94.2561     4.8312     5.0829
 2195.0000     2.4773     0.0629     0.1020     0.2857   -40.8277   119.1937     5.1589     9.5398    94.9561     4.9039     5.1725
 2195.5000     2.4667     0.0325     0.1069     0.2709   -40.6749   120.6542     5.5517     9.5395    95.0399     4.9776     5.2629
