~VERSION INFORMATION
 VERS.                2.0:   CWLS LOG ASCII STANDARD - VERSION 2.0
 WRAP.                 NO:   ONE LINE PER DEPTH STEP
~WELL INFORMATION
#MNEM.UNIT      DATA TYPE    INFORMATION
#----------   ------------   ------------------------------
 STRT.F           66.0000:   START DEPTH
 STOP.F         1030.5000:   STOP DEPTH
 STEP.F            0.5000:   STEP LENGTH
 NULL.          -999.2500:   NO VALUE
 COMP. U S NAVY/INTEX OIL CO:   COMPANY
 WELL.      NRP-3 #68S-11:   WELL
 FLD .             TEAPOT:   FIELD
 LOC .      S11 T38N R78W:   LOCATION
 CNTY.            NATRONA:   COUNTY
 STAT.            WYOMING:   STATE
 CTRY. UNITED STATES OF AMERICA:   COUNTRY
 SRVC.       Schlumberger:   SERVICE COMPANY
 DATE.        07-JUL-1962:   LOGDATE
 API .       490250632700:   API NUMBER
~CURVE INFORMATION
#MNEM.UNIT       API CODE    CURVE DESCRIPTION
#----------   ------------   ------------------------------
 DEPT.F                  :   
 SPR .MV     05 010 01 00:   SPONTANEOUS POTENTIAL FROM RES.
 ASN .OHMM   05 041 16 00:   AMPLIFIED SHORT NORMAL 16"
 ILD .OHMM   05 120 46 00:   INDUCTION LOG DEEP
 CILD.MMHO   05 110 46 00:   CONDUCTIVITY INDUCTION LOG DEEP
 GRN .GAPI   35 310 30 00:   GAMMA RAY
 GR  .GAPI   81 310 01 00:   GAMMA RAY
~PARAMETER INFORMATION
#MNEM.UNIT          VALUE    DESCRIPTION
#----------   ------------   ------------------------------
 LMF .                 KB:   LOG MEASURED FROM
 DMF .                 KB:   DRILLING MEASURED FROM
 EKB .F              5226:   KELLING BUSHING
 EGL .F              5221:   GROUND LEVEL
 DATE.           7-7-1962:   RUN DATE
 RUN .                  1:   RUN NUMBER
 DD  .F              1030:   DEPTH DRILLER
 DL  .F              1031:   DEPTH LOGGER
 BLI .F              1030:   BOTTOM LOG INTERVAL
 TLI .F                90:   TOP LOG INTERVAL
 CBD .F                10:   CASING BOTTOM DRILLER
 BS  .IN             6.75:   BIT SIZE
 BSD .F              1030:   BIT SIZE AT DEPTH
 DFT .            GEL-OIL:   DRILLING FLUID TYPE
 DFD .               10.2:   DRILLING FLUID DENSITY
 DFV .                 50:   DRILLING FLUID VISCOSITY
 DFL .                3.6:   DRILLING FLUID LOSS
 RMS .OHMM           5.06:   RESISTIVITY MUD SAMPLE
 MST .F                71:   MUD SAMPLE TEMPERATURE
 RMF .OHMM           4.89:   RESISTIVITY MUD FILTRATE SAMPLE
 MFST.F                71:   MUD FILTRATE SAMPLE TEMPERATURE
 RMC .OHMM           4.85:   RESISTIVITY MUD CAKE
 MCST.F                71:   MUD CAKE SAMPLE TEMPERATURE
 MFSS.                  M:   MUD FILTRATE SAMPLE SOURCE
 MCSS.                  M:   MUD CAKE SAMPLE SOURCE
 RMB .OHMM           4.54:   RESISTIVITY MUD AT BHT
 BHT .F                82:   BOTTOM HOLE TEMPERATURE
 TCS .HRS               1:   TIME CURCULATED STOPPED
 MRT .F                82:   MAXIMUM RECORDED TEMPERATURE
 LUN .               2503:   LOGGING UNIT NUMBER
 LUL .              CSPR.:   LOGGING UNIT LOCATION
 ENGI.             KNOBEL:   RECORDING ENGINEER
 WITN.          JORGENSEN:   WITNESSED BY
 CLNT.            A2DTECH:   CLIENT CODE
 ORIG.      2" & 5" PRINT:   ORIGIN OF DATA
 UWI .       490250632700:   UNIQUE WELL ID
 DICO. A2D Technologies, Inc.:   DIGITIZING COMPANY
~OTHER INFORMATION
~A   DEPT      SPR        ASN        ILD       CILD        GRN          GR  
# ...
  430.0000   -39.4445     5.0821     5.3889   200.2655  -999.2500    95.8843
  430.5000   -39.4656     5.2551     5.5516   194.1693  -999.2500    99.4136
  431.0000   -39.4867     5.4826     5.7175   188.0730  -999.2500    99.4826
  431.5000   -39.5079     5.7113     5.8837   181.9768  -999.2500    97.3394
  432.0000   -39.5291     5.9211     6.0500   175.8805  -999.2500    95.0946
  432.5000   -39.5502     6.0634     6.2162   169.9668  -999.2500    96.8110
  433.0000   -39.5706     6.2058     6.3838   167.9120  -999.2500   100.1054
  433.5000   -39.5438     6.3195     6.4605   165.9168  -999.2500   103.4426
  434.0000   -39.4506     6.3945     6.4890   163.9934  -999.2500   106.7850
  434.5000   -39.3584     6.4105     6.5166   164.2282  -999.2500   108.0527
  435.0000   -39.2659     6.4158     6.5443   164.4550  -999.2500   105.2501
  435.5000   -39.1734     6.4209     6.5720   164.6817  -999.2500   101.8955
  436.0000   -39.0809     6.4261     6.5997   164.9084  -999.2500    99.8222
  436.5000   -38.9884     6.4314     6.6266   165.1351  -999.2500    98.3558
  437.0000   -38.8955     6.4367     6.6044   165.3618  -999.2500    96.8913
  437.5000   -38.8019     6.4420     6.5170   165.5885  -999.2500    95.4239
  438.0000   -38.8208     6.4450     6.4304   165.8153  -999.2500    93.8775
  438.5000   -38.8575     6.4235     6.3435   166.3759  -999.2500    94.5047
  439.0000   -38.8946     6.4019     6.2569   167.9197  -999.2500    95.8497
  439.5000   -38.9314     6.3801     6.2245   169.4636  -999.2500    97.2423
  440.0000   -38.9683     6.3547     6.2013   171.0074  -999.2500    98.5259
  440.5000   -39.0051     6.3299     6.1782   172.5513  -999.2500    99.8226
  441.0000   -39.0419     6.3047     6.1550   174.0951  -999.2500   101.4365
  441.5000   -39.0787     6.2724     6.1318   175.6390  -999.2500   103.3048
  442.0000   -39.1157     6.2108     6.1085   177.1828  -999.2500   104.7534
  442.5000   -39.1531     6.1507     6.0850   178.7267  -999.2500   103.8351
  443.0000   -39.1819     6.0915     6.0626   176.5827  -999.2500   102.9545
  443.5000   -39.0934     6.0448     6.0762   173.8923  -999.2500   102.0793
  444.0000   -39.0049     6.1548     6.2145   170.9082  -999.2500   101.2206
  444.5000   -38.9171     6.2913     6.3478   166.9264  -999.2500   100.6800
  445.0000   -38.8293     6.3876     6.4808   162.9980  -999.2500   100.1537
  445.5000   -38.7415     6.4823     6.6137   159.0600  -999.2500    99.6245
  446.0000   -38.6540     6.5773     6.7466   155.1223  -999.2500    99.1007
  446.5000   -38.5892     6.6777     6.8640   151.1821  -999.2500    98.5545
  447.0000   -38.5965     6.8098     6.9488   147.2420  -999.2500    99.7138
  447.5000   -38.6988     6.9379     7.0318   143.3076  -999.2500   101.6897
  448.0000   -38.7892     6.9929     7.1166   141.7222  -999.2500   103.9305
  448.5000   -38.7918     6.9417     7.1113   141.0162  -999.2500   111.1106
  449.0000   -38.7871     6.8574     7.0699   140.3334  -999.2500   118.2470
  449.5000   -38.6506     6.7767     6.9984   142.1984  -999.2500   123.9899
  450.0000   -38.0839     6.6529     6.8259   145.2572  -999.2500   128.4555
  450.5000   -38.2244     6.5280     6.6661   148.0897  -999.2500   126.3106
  451.0000   -38.9759     6.4063     6.4480   155.3385  -999.2500   123.5794
  451.5000   -38.7894     6.1604     6.2283   164.4016  -999.2500   120.8757
  452.0000   -38.6007     5.8739     6.0253   186.8373  -999.2500   118.3894
  452.5000   -38.4006     5.5942     5.1204   227.4839  -999.2500   117.5577
  453.0000   -38.6040     5.1535     3.9553   264.5464  -999.2500   117.8860
  453.5000   -38.5892     4.6475     3.0269   328.2168  -999.2500   120.5111
  454.0000   -38.5892     4.0588     2.3498   386.7850  -999.2500   122.8273
  454.5000   -38.4927     3.5573     1.8097   445.4968  -999.2500   118.7741
  455.0000   -38.2870     3.2531     1.6310   499.5022  -999.2500   114.6580
  455.5000   -38.0828     3.0989     1.4669   551.6577  -999.2500   114.5068
  456.0000   -37.8776     3.0085     1.4630   575.3871  -999.2500   113.8566
  456.5000   -37.6735     2.9476     1.4774   561.2849  -999.2500   112.2446
  457.0000   -37.4618     3.0365     1.7314   530.5863  -999.2500   115.0893
  457.5000   -37.6265     3.1739     1.9773   450.0719  -999.2500   118.5235
  458.0000   -37.9516     3.3107     2.4348   423.8385  -999.2500   120.5938
  458.5000   -38.2665     3.6120     2.9613   332.9285  -999.2500   118.6117
  459.0000   -38.5650     4.2554     4.0501   247.6217  -999.2500   117.0655
  459.5000   -38.8576     5.5318     5.8753   207.9729  -999.2500   118.3908
  460.0000   -39.1500     6.7375     7.9875   136.8938  -999.2500   117.7119
  460.5000   -39.4425     7.8481     9.7170   106.2500  -999.2500   115.3460
  461.0000   -39.7350     8.5654    10.9974    94.3031  -999.2500   112.9289
  461.5000   -40.0279     9.2549    11.5188    87.3341  -999.2500   116.9731
  462.0000   -40.3202     9.6461    11.2094    93.1526  -999.2500   122.2101
  462.5000   -40.6103     9.6876    10.2841   101.3344  -999.2500   124.0876
  463.0000   -40.6868     9.4022     9.3667   117.4801  -999.2500   119.6601
  463.5000   -40.4846     9.1335     8.4427   134.6595  -999.2500   113.9523
  464.0000   -40.2400     8.6289     7.5141   152.4020  -999.2500   109.2162
  464.5000   -39.9295     7.8438     6.5661   170.1446  -999.2500   111.6961
  465.0000   -39.6206     7.0653     5.7531   181.7810  -999.2500   114.9262
  465.5000   -39.3111     6.3457     5.3945   191.8695  -999.2500   116.5372
  466.0000   -39.0006     5.8708     5.0529   197.6712  -999.2500   114.2689
  466.5000   -38.6877     5.5576     5.1518   199.5334  -999.2500   110.4549
  467.0000   -38.4163     6.1276     5.3743   193.8108  -999.2500   107.4436
  467.5000   -38.8477     6.9036     5.9988   184.4960  -999.2500   106.9342
  468.0000   -39.2979     7.6847     6.6532   167.0567  -999.2500   109.2354
  468.5000   -39.7458     8.1943     7.3773   147.9493  -999.2500   114.4954
  469.0000   -40.1702     8.5358     8.0891   130.5288  -999.2500   115.5227
  469.5000   -40.2440     8.7268     8.7883   119.1925  -999.2500   114.5507
  470.0000   -40.3027     8.9521     9.3892   112.4226  -999.2500   112.0943
  470.5000   -40.3540     9.2334     9.6147   106.8340  -999.2500   109.8844
  471.0000   -40.8631     9.5498     9.8457   104.9496  -999.2500   108.9639
  471.5000   -41.4579    10.0393    10.0774   103.0652  -999.2500   108.2073
  472.0000   -41.8557    10.3508    10.3096   101.1808  -999.2500   111.2874
  472.5000   -42.2118    10.7527    10.5410    99.2964  -999.2500   114.4893
  473.0000   -42.5477    10.9712    10.7373    97.4120  -999.2500   117.6550
  473.5000   -42.4951    11.0997    10.7780    95.6724  -999.2500   118.5491
  474.0000   -42.4252    11.1711    10.8214    94.1438  -999.2500   114.7976
  474.5000   -42.3721    11.2306    10.8652    92.6152  -999.2500   111.4800
  475.0000   -42.6607    11.2900    10.9090    92.6183  -999.2500   114.1686
  475.5000   -42.9643    11.3494    10.9528    93.0004  -999.2500   117.7774
  476.0000   -43.2661    11.4072    10.9969    93.3831  -999.2500   118.9514
  476.5000   -43.5633    11.5532    11.0532    93.7687  -999.2500   117.8311
  477.0000   -43.6362    11.7186    11.1299    94.1433  -999.2500   116.2768
  477.5000   -43.3297    11.8844    11.2062    93.5660  -999.2500   114.2285
  478.0000   -43.0289    12.0500    11.2825    92.2946  -999.2500   112.1569
  478.5000   -42.7308    12.2156    11.3591    91.0309  -999.2500   112.8200
  479.0000   -42.4307    12.3812    11.4523    89.7673  -999.2500   115.3225
  479.5000   -42.3152    12.5468    11.6272    88.5043  -999.2500   114.3969
  480.0000   -42.5552    12.7126    11.8013    87.2413  -999.2500   112.1301
  480.5000   -42.7595    12.8809    11.9735    85.9782  -999.2500   112.3430
  481.0000   -42.8867    12.9629    12.1295    84.7152  -999.2500   113.9247
  481.5000   -43.0888    13.0453    12.4158    83.4522  -999.2500   115.5636
