~VERSION INFORMATION
 VERS.                2.0:   CWLS LOG ASCII STANDARD - VERSION 2.0
 WRAP.                 NO:   ONE LINE PER DEPTH STEP
~WELL INFORMATION
#MNEM.UNIT      DATA TYPE    INFORMATION
#----------   ------------   ------------------------------
 STRT.F           68.0000:   START DEPTH
 STOP.F          560.0000:   STOP DEPTH
 STEP.F            0.5000:   STEP LENGTH
 NULL.          -999.2500:   NO VALUE
 COMP.               NAVY:   COMPANY
 WELL. RES 3 TEAPOT DOM #24S-11:   WELL
 FLD .             TEAPOT:   FIELD
 LOC .      S11 T38N R78W:   LOCATION
 CNTY.            NATRONA:   COUNTY
 STAT.            WYOMING:   STATE
 CTRY. UNITED STATES OF AMERICA:   COUNTRY
 SRVC.       Schlumberger:   SERVICE COMPANY
 DATE.        16-JUL-1963:   LOGDATE
 API .       490250634300:   API NUMBER
~CURVE INFORMATION
#MNEM.UNIT       API CODE    CURVE DESCRIPTION
#----------   ------------   ------------------------------
 DEPT.F                  :   
 GR  .GAPI   30 310 01 00:   GAMMA RAY
 CALS.IN     60 280 50 00:   CALIPER FROM SONIC LOG
 DT  .US/F   60 520 00 00:   INTERVAL TRANSIT TIME
 SPR .MV     05 010 01 00:   SPONTANEOUS POTENTIAL FROM RES.
 CILD.MMHO   05 110 00 00:   CONDUCTIVITY INDUCTION LOG
 ASN .OHMM   05 041 16 00:   AMPLIFIED SHORT NORMAL 16"
 ILD .OHMM   05 120 46 00:   INDUCTION LOG DEEP
~PARAMETER INFORMATION
#MNEM.UNIT          VALUE    DESCRIPTION
#----------   ------------   ------------------------------
 PD  .                 GL:   PERMANENT DATUM
 EPD .F              5168:   ELEVATION PERMANENT DATUM
 LMF .                 KB:   LOG MEASURED FROM
 DAPD.F                 5:   FEET ABOVE PERMANENT DATUM
 DMF .                 KB:   DRILLING MEASURED FROM
 EKB .F              5173:   KELLING BUSHING
 EGL .F              5168:   GROUND LEVEL
 DATE.            7-16-63:   RUN DATE
 RUN .                  1:   RUN NUMBER
 DD  .F               562:   DEPTH DRILLER
 DL  .F               561:   DEPTH LOGGER
 BLI .F               560:   BOTTOM LOG INTERVAL
 TLI .F                94:   TOP LOG INTERVAL
 CS  .IN            8.625:   CASING SIZE
 CBD .F                10:   CASING BOTTOM DRILLER
 BS  .IN            6.875:   BIT SIZE
 BSD .F               562:   BIT SIZE AT DEPTH
 DFT .            NATURAL:   DRILLING FLUID TYPE
 DFD .                 10:   DRILLING FLUID DENSITY
 DFV .                 65:   DRILLING FLUID VISCOSITY
 MSS .           FLOWLINE:   MUD SAMPLE SOURCE
 RMS .OHMM            3.4:   RESISTIVITY MUD SAMPLE
 MST .F                76:   MUD SAMPLE TEMPERATURE
 RMF .OHMM            1.8:   RESISTIVITY MUD FILTRATE SAMPLE
 MFST.F                75:   MUD FILTRATE SAMPLE TEMPERATURE
 RMC .OHMM            3.4:   RESISTIVITY MUD CAKE
 MCST.F                75:   MUD CAKE SAMPLE TEMPERATURE
 MFSS.                 FP:   MUD FILTRATE SAMPLE SOURCE
 MCSS.                 FP:   MUD CAKE SAMPLE SOURCE
 TCS .HRS               1:   TIME CURCULATED STOPPED
 MRT .F                80:   MAXIMUM RECORDED TEMPERATURE
 LUN .               4507:   LOGGING UNIT NUMBER
 LUL .               CSPR:   LOGGING UNIT LOCATION
 ENGI.            GIFFORD:   RECORDING ENGINEER
 WITN.          JORGENSON:   WITNESSED BY
 CLNT.            A2DTECH:   CLIENT CODE
 ORIG.       2", 5" PRINT:   ORIGIN OF DATA
 UWI .       490250634300:   UNIQUE WELL ID
 DICO. A2D Technologies, Inc.:   DIGITIZING COMPANY
~OTHER INFORMATION
~A   DEPT       GR         CALS       DT        SPR       CILD        ASN        ILD   
# ...
  159.0000  -999.2500     6.9079   108.6612   -34.0410   139.6097     8.2877     7.2302
  159.5000  -999.2500     6.9338   104.4607   -34.1609   136.0674     8.4007     7.4636
  160.0000  -999.2500     6.9581   103.0528   -34.2809   132.5251     8.6980     7.7899
  160.5000  -999.2500     6.9229   102.6586   -34.4585   128.9829     9.0957     8.1081
  161.0000  -999.2500     6.8919   101.9448   -35.0813   126.4520     9.0399     8.3689
  161.5000  -999.2500     6.8554   101.5106   -35.7565   127.2636     8.9239     8.7572
  162.0000  -999.2500     6.8179   102.0141   -35.8144   129.4119     8.9102     9.0728
  162.5000  -999.2500     6.8147   106.6465   -35.8823   131.4821     8.9286     9.6102
  163.0000  -999.2500     6.8371   107.6770   -35.8227   133.5522     8.9044     7.6077
  163.5000  -999.2500     6.8080   108.6594   -35.4981   135.6414     8.7189     7.5588
  164.0000  -999.2500     6.7757   109.2648   -35.1791   138.7092     8.5391     7.3621
  164.5000  -999.2500     6.7941   109.0959   -34.8568   142.1579     8.3596     7.1978
  165.0000  -999.2500     6.8790   108.8620   -34.7026   145.2113     8.1843     7.0994
  165.5000  -999.2500     6.9603   108.7613   -34.5896   148.2475     8.0208     6.9932
  166.0000  -999.2500     7.0410   109.1826   -34.4796   150.7414     7.8637     6.8882
  166.5000  -999.2500     7.0999   109.6115   -34.3702   151.9156     7.7467     6.7981
  167.0000  -999.2500     7.0932   109.8920   -34.2605   153.0955     7.7196     6.7417
  167.5000  -999.2500     7.0736   110.0687   -34.1508   152.3709     7.7421     6.8369
  168.0000  -999.2500     7.0544   110.2416   -34.0406   150.3009     7.7788     6.9331
  168.5000  -999.2500     7.0379   110.3726   -33.9250   148.2307     7.8221     7.0318
  169.0000  -999.2500     7.0340   110.5760   -34.0579   146.1606     7.9672     7.1305
  169.5000  -999.2500     7.0267   111.3479   -34.2522   143.9917     8.1657     7.3018
  170.0000  -999.2500     7.0186   111.7825   -34.4481   141.1804     8.3473     7.2953
  170.5000  -999.2500     7.0441   110.8594   -34.6427   138.9631     8.4739     7.2937
  171.0000  -999.2500     7.0755   109.6375   -34.8399   137.8787     8.5008     7.2938
  171.5000  -999.2500     7.0996   108.6606   -34.8488   136.7943     8.4943     7.2919
  172.0000  -999.2500     7.1051   108.9666   -34.7339   136.0997     8.4880     7.2876
  172.5000  -999.2500     7.1109   109.3268   -34.6166   135.7104     8.4799     7.4448
  173.0000  -999.2500     7.1168   108.8948   -34.4993   135.3119     8.5674     7.5988
  173.5000  -999.2500     7.1227   107.9557   -34.3836   132.8421     8.6826     7.7495
  174.0000  -999.2500     7.1285   108.2425   -34.3389   130.2817     8.8474     7.8995
  174.5000  -999.2500     7.1347   108.6606   -34.4131   127.4246     9.0139     8.0502
  175.0000  -999.2500     7.1407   108.1974   -34.4841   125.4344     9.0457     8.1949
  175.5000  -999.2500     7.1199   107.8861   -34.6458   124.0543     9.1454     8.2002
  176.0000  -999.2500     7.1184   107.7717   -34.8635   123.2394     9.3504     8.1996
  176.5000  -999.2500     7.0677   107.0262   -35.0915   123.2394     9.5428     8.2001
  177.0000  -999.2500     6.9277   105.7764   -34.8152   124.1535     9.4795     8.1945
  177.5000  -999.2500     6.7909   104.9194   -34.4363   126.3222     9.3303     8.0607
  178.0000  -999.2500     6.6482   104.5987   -34.0514   128.4910     9.3508     7.9236
  178.5000  -999.2500     6.6127   104.5564   -33.9086   131.2133     9.2230     7.7872
  179.0000  -999.2500     6.7303   104.4160   -33.9043   134.2514     8.8603     7.6508
  179.5000  -999.2500     6.8894   104.7490   -33.9207   137.2875     8.5400     7.5163
  180.0000  -999.2500     6.9613   106.6983   -33.7664   140.3293     8.4021     7.4084
  180.5000  -999.2500     6.9989   107.8745   -33.9637   142.0660     8.3412     7.3071
  181.0000  -999.2500     7.0356   108.3609   -34.1426   143.1503     8.3515     7.2056
  181.5000  -999.2500     7.0716   108.7212   -34.3238   144.2347     8.3567     7.1055
  182.0000  -999.2500     7.1003   109.0471   -34.5057   143.6182     8.3408     7.1385
  182.5000  -999.2500     7.0698   109.2648   -34.6913   142.5181     8.3255     7.2354
  183.0000  -999.2500     7.0355   108.9627   -34.6139   141.4181     8.3104     7.3318
  183.5000  -999.2500     6.9990   109.3525   -34.5022   140.3238     8.2995     7.4269
  184.0000  -999.2500     6.9171   109.8671   -34.2246   139.2659     8.3544     7.4962
  184.5000  -999.2500     6.8544   109.8820   -33.9408   138.7327     8.4620     7.4948
  185.0000  -999.2500     6.9220   109.4703   -33.6604   138.1832     8.5704     7.4950
  185.5000  -999.2500     7.0032   109.0454   -33.5337   137.6361     8.6209     7.4950
  186.0000  -999.2500     7.0546   108.5823   -33.6955   137.0890     8.6216     7.4950
  186.5000  -999.2500     7.0416   107.9882   -33.8537   136.5419     8.6053     7.4950
  187.0000  -999.2500     7.0299   107.0876   -33.9361   135.9949     8.5525     7.4950
  187.5000  -999.2500     7.0167   107.0493   -34.0050   135.4478     8.5227     7.4949
  188.0000  -999.2500     6.9761   107.4236   -34.0733   134.6408     8.5507     7.4945
  188.5000  -999.2500     6.9356   107.7991   -34.1749   133.7478     8.5826     7.4967
  189.0000  -999.2500     6.8952   108.1764   -34.3201   132.8548     8.6135     7.5785
  189.5000  -999.2500     6.8549   108.5538   -34.4656   132.2938     8.6996     7.6660
  190.0000  -999.2500     6.8143   108.7613   -34.4734   131.9048     8.8013     7.7534
  190.5000  -999.2500     6.7971   108.2600   -34.3856   131.2301     8.9020     7.8408
  191.0000  -999.2500     6.8309   107.7543   -34.2974   130.5535     9.0193     7.9276
  191.5000  -999.2500     6.9277   107.7066   -34.2080   129.2051     9.1411     8.0015
  192.0000  -999.2500     7.0229   107.6536   -34.1155   127.3780     9.2451     8.0572
  192.5000  -999.2500     7.0703   107.4304   -34.2846   125.5548     9.2984     8.1169
  193.0000  -999.2500     7.0241   107.0301   -34.4876   123.7310     9.2860     8.1765
  193.5000  -999.2500     6.9797   106.6549   -34.6919   121.9129     9.3171     8.2360
  194.0000  -999.2500     6.9351   106.2138   -34.8944   120.9084     9.3997     8.2955
  194.5000  -999.2500     6.8906   105.2790   -34.9193   120.4054     9.5091     8.3540
  195.0000  -999.2500     6.8466   105.1460   -34.9223   119.3741     9.6553     8.4071
  195.5000  -999.2500     6.8161   105.6395   -34.7572   118.0425     9.8003     8.5500
  196.0000  -999.2500     6.8162   105.6395   -34.5261   116.7108     9.9222     8.6951
  196.5000  -999.2500     6.8707   105.3374   -34.2917   115.3791     9.9687     8.8115
  197.0000  -999.2500     6.9659   105.1359   -34.0576   115.5016    10.0156     8.8383
  197.5000  -999.2500     7.0614   105.6221   -33.8232   115.8630    10.0569     8.8665
  198.0000  -999.2500     7.0235   106.2437   -33.7040   116.1972    10.0845     8.8934
  198.5000  -999.2500     6.8980   106.0121   -33.7078   115.0309    10.1460     8.9903
  199.0000  -999.2500     6.9160   105.4403   -33.8895   113.9465    10.2055     9.0993
  199.5000  -999.2500     6.9925   105.1359   -34.2652   112.5446    10.2648     9.2461
  200.0000  -999.2500     7.0152   105.1359   -34.6390   110.3736    10.3240     9.4050
  200.5000  -999.2500     6.8791   104.9337   -35.0283   108.2025    10.3835     9.5647
  201.0000  -999.2500     6.7761   104.6465   -35.0486   106.3373    10.4117     9.7240
  201.5000  -999.2500     6.7557   104.3588   -34.8073   104.7637    10.4100     9.8833
  202.0000  -999.2500     6.8191   103.9513   -34.5643   103.1902    10.5369    10.0435
  202.5000  -999.2500     6.9360   103.4384   -34.3215   101.6166    10.7068    10.2053
  203.0000  -999.2500     7.0550   102.9305   -34.3380   100.0430    10.7136    10.2755
  203.5000  -999.2500     7.0503   102.5969   -34.3771    98.4694    10.7065    10.3415
  204.0000  -999.2500     6.9733   102.1414   -34.4153    96.2951    10.8155    10.4153
