~VERSION INFORMATION
 VERS.                2.0:   CWLS LOG ASCII STANDARD - VERSION 2.0
 WRAP.                 NO:   ONE LINE PER DEPTH STEP
~WELL INFORMATION
#MNEM.UNIT      DATA TYPE    INFORMATION
#----------   ------------   ------------------------------
 STRT.F           29.0000:   START DEPTH
 STOP.F          500.0000:   STOP DEPTH
 STEP.F            0.5000:   STEP LENGTH
 NULL.          -999.2500:   NO VALUE
 COMP.    FENIX & SCISSON:   COMPANY
 WELL.        NPR #48-S-3:   WELL
 FLD .             TEAPOT:   FIELD
 LOC .       S3 T38N R78W:   LOCATION
 CNTY.            NATRONA:   COUNTY
 STAT.            WYOMING:   STATE
 CTRY. UNITED STATES OF AMERICA:   COUNTRY
 SRVC.              Welex:   SERVICE COMPANY
 DATE.        24-APR-1977:   LOGDATE
 API .       490251034900:   API NUMBER
~CURVE INFORMATION
#MNEM.UNIT       API CODE    CURVE DESCRIPTION
#----------   ------------   ------------------------------
 DEPT.F                  :   
 SPR .MV     07 010 01 00:   SPONTANEOUS POTENTIAL
 ILD .OHMM   07 120 46 00:   INDUCTION LOG DEEP
 ILM .OHMM   07 120 44 00:   INDUCTION LOG MEDIUM
 SGRD.OHMM   07 221 05 00:   SHALLOW SHORT GUARD RESISTIVITY
 GRD .GAPI   45 310 01 00:   GAMMA RAY FROM DENSITY LOG
 CALD.IN     45 280 60 00:   CALIPER FROM DENSITY LOG
 CORR.G/C3   45 356 01 00:   DENSITY CORRECTION
 RHOB.G/C3   45 350 01 00:   BULK DENSITY
 DPHI.DEC    45 890 12 00:   DENSITY POROSITY SANDSTONE
~PARAMETER INFORMATION
#MNEM.UNIT          VALUE    DESCRIPTION
#----------   ------------   ------------------------------
 PD  .                 GL:   PERMANENT DATUM
 EPD .F              5199:   ELEVATION PERMANENT DATUM
 LMF .                 GL:   LOG MEASURED FROM
 DMF .                 GL:   DRILLING MEASURED FROM
 EGL .F              5199:   GROUND LEVEL
 DATE.        24-APR-1977:   RUN DATE
 RUN .                  1:   RUN NUMBER
 DD  .F               500:   DEPTH DRILLER
 DL  .F               499:   DEPTH LOGGER
 BLI .F               497:   BOTTOM LOG INTERVAL
 TLI .F                30:   TOP LOG INTERVAL
 CS  .IN            8.625:   CASING SIZE
 BS  .IN               12:   BIT SIZE
 BSD .F               500:   BIT SIZE AT DEPTH
 DFT .             KCLMUD:   DRILLING FLUID TYPE
 DFD .                8.9:   DRILLING FLUID DENSITY
 TCS .HRS               1:   TIME CURCULATED STOPPED
 MRT .F                70:   MAXIMUM RECORDED TEMPERATURE
 ENGI.          T. JOYNER:   RECORDING ENGINEER
 WITN.            R. LYON:   WITNESSED BY
 CLNT.            A2DTECH:   CLIENT CODE
 ORIG.           5" PRINT:   ORIGIN OF DATA
 UWI .       490251034900:   UNIQUE WELL ID
 DICO. A2D Technologies, Inc.:   DIGITIZING COMPANY
~OTHER INFORMATION
~A   DEPT      SPR        ILD        ILM       SGRD        GRD         CALD      CORR        RHOB     DPHI   
# ...
  138.5000   -52.1665     7.5057     8.7248    13.2578   115.4932     7.8523    -0.0041     2.4777     0.1127
  139.0000   -52.1561     7.5641     8.7327    13.1791   115.9374     7.8367    -0.0063     2.4695     0.1103
  139.5000   -52.1457     7.6229     8.7405    13.1891   116.3930     7.8361    -0.0071     2.4673     0.1082
  140.0000   -52.1353     7.6916     8.7484    12.8397   117.1231     7.8206    -0.0071     2.4867     0.1076
  140.5000   -52.1249     7.7944     8.8170    12.7586   117.7164     7.8200    -0.0070     2.4890     0.1085
  141.0000   -52.2654     7.8088     8.8250    13.1284   118.4586     7.8195    -0.0070     2.4785     0.1103
  141.5000   -52.4034     7.9160     8.8942    13.5063   119.4989     7.8187    -0.0063     2.4718     0.1127
  142.0000   -52.6871     7.9776     8.9022    13.7046   120.6883     7.8182    -0.0055     2.4657     0.1154
  142.5000   -52.6767     7.9842     8.9721    13.9057   122.1757     7.8176    -0.0047     2.4598     0.1184
  143.0000   -52.8173     7.9908     8.9801    14.1098   122.9270     7.8170    -0.0040     2.4546     0.1222
  143.5000   -52.8042     7.9975     8.9882    14.2184   122.2906     7.8164    -0.0039     2.4463     0.1247
  144.0000   -52.7938     7.9489     8.9963    14.2293   120.2289     7.8158    -0.0032     2.4561     0.1188
  144.5000   -52.7834     7.9556     9.0044    14.0448   118.8847     7.8003    -0.0024     2.4636     0.1164
  145.0000   -52.9214     7.9073     8.9484    13.8628   118.1367     7.7997    -0.0024     2.4718     0.1152
  145.5000   -52.9110     7.9140     8.8967    13.6805   118.4319     7.7990    -0.0024     2.4793     0.1135
  146.0000   -53.0515     7.9206     8.8434    13.3206   119.3232     7.7984    -0.0024     2.4854     0.1111
  146.5000   -53.0385     7.8724     8.7278    13.1454   120.2145     7.7978    -0.0016     2.4900     0.1084
  147.0000   -53.0281     7.8792     8.7376    12.8857   120.0625     7.7973    -0.0016     2.4928     0.1054
  147.5000   -53.0177     7.8858     8.7455    12.9874   119.1655     7.7817    -0.0008     2.4876     0.1028
  148.0000   -53.1582     7.8924     8.7534    13.4348   120.1083     7.7811    -0.0008     2.4831     0.1022
  148.5000   -53.1452     7.8445     8.7612    14.0173   121.0971     7.7806    -0.0008     2.4786     0.1028
  149.0000   -53.1348     7.8511     8.7691    13.9341   120.9444     7.7949     0.0000     2.4749     0.1055
  149.5000   -53.2754     7.8019     8.8379    13.6611   120.4945     7.8093     0.0015     2.4719     0.1091
  150.0000   -53.2521     7.7546     8.8633    13.4863   119.0630     7.8385     0.0014     2.4653     0.1166
  150.5000   -53.0994     7.9259     9.0387    13.3138   116.6735     7.8379    -0.0001     2.4565     0.1190
  151.0000   -53.0831     7.9334     8.9849    13.3266   114.2840     7.8523    -0.0008     2.4494     0.1202
  151.5000   -53.2345     7.8230     8.9938    13.3393   111.0742     7.8458     0.0007     2.4554     0.1185
  152.0000   -53.4962     7.7317     8.8785    13.2596   109.8734     7.8230     0.0006     2.4576     0.1167
  152.5000   -53.6285     7.5820     8.7649    13.2727   111.9513     7.8378     0.0006     2.4584     0.1164
  153.0000   -53.7567     7.5351     8.6549    13.1938   114.0291     7.8675     0.0006     2.4614     0.1155
  153.5000   -53.7405     7.4387     8.5442    13.1141   116.4051     7.8674     0.0005     2.4709     0.1134
  154.0000   -53.8768     7.3453     8.4915    12.9420   118.4908     7.9121    -0.0002     2.4771     0.1107
  154.5000   -54.0050     7.3017     8.3271    12.6941   119.9625     7.9269    -0.0003     2.4748     0.1092
  155.0000   -53.9888     7.2566     8.2206    12.7067   121.7423     7.9118    -0.0003     2.4703     0.1128
  155.5000   -54.1251     7.1654     8.1135    12.7214   121.1376     7.9116    -0.0011     2.4606     0.1158
  156.0000   -54.1049     7.1229     7.9016    12.7336   119.6387     7.8965    -0.0011     2.4546     0.1188
  156.5000   -54.3895     6.9816     7.7468    12.6549   119.4630     7.8964    -0.0019     2.4556     0.1170
  157.0000   -54.5217     6.7977     7.6477    12.4069   120.5226     7.8813    -0.0027     2.4613     0.1153
  157.5000   -54.6540     6.6199     7.4979    12.0829   120.5050     7.8812    -0.0035     2.4598     0.1147
  158.0000   -54.9305     6.4455     7.4020    11.8462   119.7513     7.8810    -0.0035     2.4553     0.1177
  158.5000   -54.9144     6.2758     7.2570    11.6141   118.6995     7.8659    -0.0035     2.4441     0.1210
  159.0000   -55.0506     6.1528     7.1148    11.3865   116.1574     7.8658    -0.0035     2.4343     0.1243
  159.5000   -55.0304     6.1132     7.0723    11.0101   117.1920     7.8507    -0.0036     2.4290     0.1273
  160.0000   -55.1632     6.0745     6.9819    10.6461   119.4585     7.8356    -0.0036     2.4253     0.1282
  160.5000   -55.1465     6.0438     7.0373    10.3656   120.1555     7.8354    -0.0044     2.4223     0.1270
  161.0000   -55.1304     6.0510     7.0929    10.0925   118.0583     7.8352    -0.0044     2.4201     0.1273
  161.5000   -55.1142     6.0988     7.1986    10.3139   120.2852     7.8501    -0.0044     2.4186     0.1291
  162.0000   -55.0921     6.1470     7.3566    10.9866   120.4278     7.8649    -0.0045     2.4178     0.1312
  162.5000   -54.9333     6.2386     7.5180    11.8662   119.5229     7.8647    -0.0045     2.4194     0.1321
  163.0000   -54.7686     6.3315     7.6368    12.2107   118.7561     7.8646    -0.0045     2.4230     0.1318
  163.5000   -54.6038     6.4704     7.7976    12.1381   117.2682     7.8644    -0.0046     2.4260     0.1307
  164.0000   -54.5844     6.6123     7.9703    12.1499   115.4712     7.8642    -0.0046     2.4298     0.1292
  164.5000   -54.5682     6.7573     8.0332    12.2461   115.3157     7.8641    -0.0046     2.4335     0.1277
  165.0000   -54.5521     6.9056     8.1529    12.2721   117.3915     7.8640    -0.0047     2.4372     0.1262
  165.5000   -54.5359     6.9601     8.1607    12.4430   115.1474     7.8638    -0.0039     2.4405     0.1244
  166.0000   -54.5198     7.0638     8.1685    12.5413   114.3937     7.8637    -0.0032     2.4447     0.1226
  166.5000   -54.5036     7.0218     8.1764    12.4638   116.0223     7.8635    -0.0025     2.4477     0.1205
  167.0000   -54.6399     6.9320     8.1259    12.3898   117.9511     7.8634    -0.0025     2.4514     0.1187
  167.5000   -54.7721     6.8433     8.0776    12.3162   121.0722     7.8632    -0.0018     2.4552     0.1172
  168.0000   -54.9043     6.7074     7.9762    12.0778   120.6158     7.8631    -0.0011     2.4597     0.1155
  168.5000   -55.3293     6.5735     7.8723    11.9204   119.8621     7.8629    -0.0004     2.4645     0.1137
  169.0000   -55.4655     6.3538     7.6667    11.6091   120.8967     7.8628     0.0011     2.4709     0.1122
  169.5000   -55.5977     6.1091     7.3622    11.3032   123.8688     7.8626     0.0018     2.4754     0.1104
  170.0000   -55.8743     5.9071     6.9727    11.0817   124.7544     7.8625     0.0033     2.4791     0.1080
  170.5000   -56.1549     5.6725     6.6957    11.0133   121.7630     7.8623     0.0040     2.4836     0.1050
  171.0000   -56.4355     5.4471     6.3415    10.8724   119.2209     7.8622     0.0047     2.4843     0.1107
  171.5000   -56.4193     5.3023     6.1318    10.6619   117.8711     7.8620     0.0055     2.4637     0.1173
  172.0000   -56.4032     5.1283     5.8883    10.3095   119.0547     7.8619     0.0062     2.4401     0.1236
  172.5000   -56.2387     5.0266     5.8532     9.6299   120.2384     7.8617     0.0062     2.4199     0.1336
  173.0000   -56.2225     5.0326     5.8589     8.7497   120.8260     7.8616     0.0054     2.4131     0.1371
  173.5000   -55.9095     5.0374     5.8646     8.0025   120.8152     7.8614     0.0053     2.4124     0.1386
  174.0000   -55.7448     5.1124     5.9966     7.6342   120.3596     7.8762     0.0053     2.4139     0.1377
  174.5000   -55.5801     5.1886     6.1780     8.9338   119.4568     7.8910     0.0060     2.4195     0.1341
