~VERSION INFORMATION
 VERS.                2.0:   CWLS LOG ASCII STANDARD - VERSION 2.0
 WRAP.                 NO:   ONE LINE PER DEPTH STEP
~WELL INFORMATION
#MNEM.UNIT      DATA TYPE    INFORMATION
#----------   ------------   ------------------------------
 STRT.F           30.0000:   START DEPTH
 STOP.F          500.0000:   STOP DEPTH
 STEP.F            0.5000:   STEP LENGTH
 NULL.          -999.2500:   NO VALUE
 COMP. FENIX & SCISSON INC:   COMPANY
 WELL.     3-FI #55-45 SX:   WELL
 FLD .             TEAPOT:   FIELD
 LOC .       S3 T38N R78W:   LOCATION
 CNTY.            NATRONA:   COUNTY
 STAT.            WYOMING:   STATE
 CTRY. UNITED STATES OF AMERICA:   COUNTRY
 SRVC.              Welex:   SERVICE COMPANY
 DATE.        16-MAY-1980:   LOGDATE
 API .       490251082700:   API NUMBER
~CURVE INFORMATION
#MNEM.UNIT       API CODE    CURVE DESCRIPTION
#----------   ------------   ------------------------------
 DEPT.F                  :   
 SPR .MV     07 010 01 00:   SPONTANEOUS POTENTIAL
 GURD.OHMM   07 220 05 00:   GUARD RESISTIVITY
 CALD.IN     45 280 60 00:   CALIPER
 GRD .GAPI   45 310 01 00:   GAMMA RAY FROM DENSITY LOG
 RHOB.G/C3   45 350 01 00:   BULK DENSITY
 CORR.G/C3   45 356 01 00:   DENSITY CORRECTION
 NPHI.DEC    42 890 03 00:   NEUTRON POROSITY SANDSTONE
 DPHI.DEC    45 890 12 00:   DENSITY POROSITY SANDSTONE
 ILD .OHMM   07 120 46 00:   INDUCTION LOG DEEP
 ILM .OHMM   07 120 44 00:   INDUCTION LOG MEDIUM
~PARAMETER INFORMATION
#MNEM.UNIT          VALUE    DESCRIPTION
#----------   ------------   ------------------------------
 PD  .                 GL:   PERMANENT DATUM
 EPD .F              5167:   ELEVATION PERMANENT DATUM
 LMF .                 KB:   LOG MEASURED FROM
 DAPD.F                 5:   FEET ABOVE PERMANENT DATUM
 DMF .                 KB:   DRILLING MEASURED FROM
 EKB .F              5172:   KELLING BUSHING
 EGL .F              5167:   GROUND LEVEL
 DATE.            5-16-80:   RUN DATE
 RUN .                  1:   RUN NUMBER
 DD  .F               483:   DEPTH DRILLER
 DL  .F               496:   DEPTH LOGGER
 BLI .F               494:   BOTTOM LOG INTERVAL
 TLI .F                35:   TOP LOG INTERVAL
 BS  .IN             9.75:   BIT SIZE
 BSD .F               483:   BIT SIZE AT DEPTH
 DFT .            KCL MUD:   DRILLING FLUID TYPE
 DFD .                9.5:   DRILLING FLUID DENSITY
 DFV .                 45:   DRILLING FLUID VISCOSITY
 DFL .                7.5:   DRILLING FLUID LOSS
 MSS .            MUD PIT:   MUD SAMPLE SOURCE
 RMS .OHMM            .29:   RESISTIVITY MUD SAMPLE
 MST .F                75:   MUD SAMPLE TEMPERATURE
 RMF .OHMM            .23:   RESISTIVITY MUD FILTRATE SAMPLE
 MFST.F                75:   MUD FILTRATE SAMPLE TEMPERATURE
 RMC .OHMM            .35:   RESISTIVITY MUD CAKE
 MCST.F                75:   MUD CAKE SAMPLE TEMPERATURE
 MFSS.           MEASURED:   MUD FILTRATE SAMPLE SOURCE
 MCSS.           MEASURED:   MUD CAKE SAMPLE SOURCE
 TCS .HRS               2:   TIME CURCULATED STOPPED
 LUN .               9685:   LOGGING UNIT NUMBER
 LUL .             CASPER:   LOGGING UNIT LOCATION
 ENGI.            TOTHILL:   RECORDING ENGINEER
 WITN.              AMEND:   WITNESSED BY
 CLNT.            A2DTECH:   CLIENT CODE
 ORIG.           5" PRINT:   ORIGIN OF DATA
 UWI .       490251082700:   UNIQUE WELL ID
 DICO. A2D Technologies, Inc.:   DIGITIZING COMPANY
~OTHER INFORMATION
~A   DEPT      SPR         GURD     CALD        GRD       RHOB       CORR         NPHI       DPHI        ILD        ILM 
   30.0000   -58.3475     6.8461  -999.2500  -999.2500  -999.2500  -999.2500     0.3361     0.1383     3.3709     5.0803
   30.5000   -59.0000     6.8461  -999.2500  -999.2500  -999.2500  -999.2500     0.3361     0.1383     3.3709     5.1362
   31.0000   -59.0285     6.8461  -999.2500  -999.2500  -999.2500  -999.2500     0.3361     0.1383     3.4776     5.3351
   31.5000   -59.1309     7.0769  -999.2500  -999.2500  -999.2500  -999.2500     0.3340     0.1393     3.5801     5.5845
   32.0000   -59.2333     7.3595    10.3270   101.1523     2.4381     0.0395     0.3296     0.1394     3.6857     5.8455
   32.5000   -59.3357     7.6564    10.2112   100.8437     2.4395     0.0432     0.3253     0.1359     3.7945     6.1215
   33.0000   -59.4381     7.4003    10.1784   100.2358     2.4431     0.0490     0.3285     0.1367     3.9064     6.1056
   33.5000   -59.5632     7.4305    10.1808    99.9967     2.4462     0.0432     0.3260     0.1333     3.9777     6.1270
   34.0000   -59.5917     7.2332    10.1993   100.7096     2.4413     0.0553     0.3217     0.1299     4.0805     6.0910
   34.5000   -59.6944     6.9749    10.2181   101.0509     2.4552     0.0704     0.3191     0.1390     4.2008     6.0763
   35.0000   -59.7974     7.1062    10.2368   101.3786     2.4409     0.0611     0.3158     0.1331     4.3247     6.0617
   35.5000   -59.8974     7.4383    10.2555   101.7039     2.4438     0.0726     0.3157     0.1253     4.3763     6.0472
   36.0000   -60.0053     7.9473    10.2742   102.0318     2.4637     0.0936     0.3190     0.1173     4.3639     6.0327
   36.5000   -60.1017     7.7012    10.2926   102.3503     2.4722     0.1148     0.3170     0.1109     4.3480     6.0182
   37.0000   -60.1825     7.2738    10.3126   102.1361     2.4834     0.1265     0.3205     0.1087     4.3322     6.0085
   37.5000   -59.9787     6.8701    10.2341   101.8498     2.4894     0.1329     0.3241     0.1129     4.3164     6.0353
   38.0000   -59.7822     6.6573    10.0984   102.1567     2.4940     0.1266     0.3207     0.1295     4.3006     6.0643
   38.5000   -59.5717     6.8781    10.1202   102.7825     2.4619     0.0807     0.3168     0.1534     4.2849     6.0934
   39.0000   -59.3689     7.2399    10.1847   103.4164     2.4147     0.0332     0.3183     0.1526     4.2693     6.1227
   39.5000   -59.1637     7.0649    10.2500   104.0546     2.4168     0.0328     0.3209     0.1566     4.2537     6.1520
   40.0000   -58.9579     6.5955    10.2548   104.6980     2.4169     0.0307     0.3235     0.1510     4.2382     6.1815
   40.5000   -58.7548     6.7134    10.2467   104.2558     2.4185     0.0295     0.3261     0.1439     4.2228     6.2111
   41.0000   -58.5462     7.0272    10.2385   103.6793     2.4206     0.0341     0.3245     0.1493     4.2162     6.2361
   41.5000   -58.3450     7.2399    10.2304   103.1000     2.4314     0.0408     0.3229     0.1590     4.2121     6.1989
   42.0000   -58.1419     6.9935    10.2222   102.5218     2.4149     0.0294     0.3188     0.1566     4.2008     6.1491
   42.5000   -57.9117     6.5517    10.2255   101.9460     2.4124     0.0325     0.3142     0.1687     4.1894     6.0998
   43.0000   -57.8889     6.0085    10.2388   101.4372     2.4004     0.0271     0.3146     0.1758     4.1783     6.0508
   43.5000   -58.2159     6.1559    10.2521   101.4457     2.3865     0.0117     0.3217     0.1640     4.1671     6.0022
   44.0000   -58.5112     7.0600    10.2655   101.5253     2.3797     0.0145     0.3190     0.1635     4.1551     5.9540
   44.5000   -58.8187     7.0026    10.2788   102.0254     2.4036     0.0357     0.3213     0.1603     4.1394     5.8975
   45.0000   -59.1243     6.0365    10.2922   102.5226     2.4015     0.0316     0.3257     0.1530     4.1591     5.9465
   45.5000   -59.3919     5.6816    10.3056   103.0098     2.4087     0.0430     0.3207     0.1459     4.2167     6.0072
   46.0000   -59.4550     6.0680    10.3177   103.4989     2.4214     0.0566     0.3158     0.1467     4.2732     6.0685
   46.5000   -59.5113     6.6052    10.3017   103.9900     2.4328     0.0534     0.3110     0.1248     4.3305     6.1304
   47.0000   -59.5604     7.2399    10.2847   104.4480     2.4567     0.0655     0.3062     0.1343     4.3886     6.1930
   47.5000   -59.6140     7.1109    10.2678   104.3894     2.4680     0.0777     0.3162     0.1449     4.4475     6.2561
   48.0000   -59.6652     6.9731    10.2595   104.0348     2.4314     0.0412     0.3134     0.1467     4.5071     6.3200
   48.5000   -59.7177     6.8461    10.2643   103.6911     2.4309     0.0250     0.3099     0.1435     4.5676     6.3541
   49.0000   -59.7721     6.9749    10.2689   103.3485     2.4308     0.0235     0.3096     0.1401     4.6288     6.4785
   49.5000   -59.7993     6.9372    10.2732   103.0054     2.4382     0.0244     0.3113     0.1344     4.7152     6.5955
   50.0000   -59.7364     6.9144    10.2788   102.6573     2.4497     0.0322     0.3108     0.1258     4.7019     6.5698
   50.5000   -59.6768     6.8918    10.2358   102.3248     2.4653     0.0523     0.3038     0.1278     4.6371     6.5281
   51.0000   -59.6141     6.8692    10.2385   103.4157     2.4628     0.0509     0.3034     0.1322     4.5733     6.4866
   51.5000   -59.5524     6.8461    10.2373   104.6044     2.4580     0.0477     0.3086     0.1343     4.5103     6.4454
   52.0000   -59.4908     6.7196    10.2966   105.7977     2.4532     0.0439     0.3098     0.1359     4.4587     6.4044
   52.5000   -59.4286     6.6918    10.3144   106.9869     2.4486     0.0386     0.3058     0.1606     4.4587     6.3638
   53.0000   -59.3671     6.6680    10.3030   108.0544     2.4234     0.0146     0.3022     0.1602     4.4588     6.3234
   53.5000   -59.3050     6.6443    10.2917   108.0899     2.3994    -0.0027     0.3044     0.1506     4.4588     6.2832
   54.0000   -59.2428     6.6207    10.2799   108.4400     2.4289     0.0089     0.3050     0.1443     4.4588     6.2434
   54.5000   -59.1832     6.5955    10.2785   108.7832     2.4398     0.0215     0.3018     0.1367     4.4588     6.2038
   55.0000   -59.1165     6.5955    10.2785   108.7268     2.4466     0.0273     0.2978     0.1383     4.4588     6.1645
   55.5000   -59.0603     6.5554    10.2786   108.2160     2.4419     0.0227     0.2978     0.1415     4.4510     6.1219
   56.0000   -59.0157     6.5198    10.2780   108.1329     2.4381     0.0207     0.2998     0.1382     4.4264     6.1219
   56.5000   -59.2211     6.4845    10.3112   108.9629     2.4403     0.0266     0.3237     0.1359     4.4019     6.1218
   57.0000   -59.4195     6.4493    10.3583   109.8487     2.4436     0.0194     0.3285     0.1538     4.3775     6.1218
   57.5000   -59.6307     6.4141    10.4059   110.7341     2.4180     0.0004     0.3321     0.1483     4.3532     6.1214
   58.0000   -59.8351     6.3788    10.4531   111.3311     2.4176     0.0080     0.3361     0.1439     4.3291     6.1215
   58.5000   -60.0396     6.3330    10.4600   110.1227     2.4379     0.0164     0.3377     0.1522     4.3051     6.1215
   59.0000   -60.2488     6.2592    10.4184   108.9389     2.4211     0.0056     0.3318     0.1579     4.2811     6.1217
   59.5000   -60.4542     6.1860    10.3772   108.0467     2.4111    -0.0022     0.3262     0.1602     4.2572     6.1214
   60.0000   -60.6526     6.1161    10.3393   108.0655     2.4036    -0.0101     0.3219     0.1553     4.2338     6.1217
   60.5000   -60.8885     6.2296    10.3385   108.0585     2.4140     0.0099     0.3176     0.1654     4.2166     6.1219
   61.0000   -60.9309     6.3254    10.3386   108.5165     2.3965    -0.0139     0.3150     0.1662     4.2162     6.1215
   61.5000   -60.5802     6.5378    10.3387   109.1840     2.3977    -0.0098     0.3138     0.1665     4.2496     6.1215
   62.0000   -60.4146     6.7573    10.3387   109.8593     2.3969    -0.0137     0.3189     0.1683     4.2824     6.1215
   62.5000   -59.5563     6.8461    10.3387   110.5348     2.3835     0.0049     0.3277     0.1671     4.3156     6.1215
   63.0000   -59.1171     6.1946    10.3387   111.2098     2.3654    -0.0145     0.3281     0.1861     4.3490     5.6816
