~VERSION INFORMATION
 VERS.                2.0:   CWLS LOG ASCII STANDARD - VERSION 2.0
 WRAP.                 NO:   ONE LINE PER DEPTH STEP
~WELL INFORMATION
#MNEM.UNIT      DATA TYPE    INFORMATION
#----------   ------------   ------------------------------
 STRT.F           68.0000:   START DEPTH
 STOP.F          560.0000:   STOP DEPTH
 STEP.F            0.5000:   STEP LENGTH
 NULL.          -999.2500:   NO VALUE
 COMP.               NAVY:   COMPANY
 WELL. RES 3 TEAPOT DOM #24S-11:   WELL
 FLD .             TEAPOT:   FIELD
 LOC .      S11 T38N R78W:   LOCATION
 CNTY.            NATRONA:   COUNTY
 STAT.            WYOMING:   STATE
 CTRY. UNITED STATES OF AMERICA:   COUNTRY
 SRVC.       Schlumberger:   SERVICE COMPANY
 DATE.        16-JUL-1963:   LOGDATE
 API .       490250634300:   API NUMBER
~CURVE INFORMATION
#MNEM.UNIT       API CODE    CURVE DESCRIPTION
#----------   ------------   ------------------------------
 DEPT.F                  :   
 GR  .GAPI   30 310 01 00:   GAMMA RAY
 CALS.IN     60 280 50 00:   CALIPER FROM SONIC LOG
 DT  .US/F   60 520 00 00:   INTERVAL TRANSIT TIME
 SPR .MV     05 010 01 00:   SPONTANEOUS POTENTIAL FROM RES.
 CILD.MMHO   05 110 00 00:   CONDUCTIVITY INDUCTION LOG
 ASN .OHMM   05 041 16 00:   AMPLIFIED SHORT NORMAL 16"
 ILD .OHMM   05 120 46 00:   INDUCTION LOG DEEP
~PARAMETER INFORMATION
#MNEM.UNIT          VALUE    DESCRIPTION
#----------   ------------   ------------------------------
 PD  .                 GL:   PERMANENT DATUM
 EPD .F              5168:   ELEVATION PERMANENT DATUM
 LMF .                 KB:   LOG MEASURED FROM
 DAPD.F                 5:   FEET ABOVE PERMANENT DATUM
 DMF .                 KB:   DRILLING MEASURED FROM
 EKB .F              5173:   KELLING BUSHING
 EGL .F              5168:   GROUND LEVEL
 DATE.            7-16-63:   RUN DATE
 RUN .                  1:   RUN NUMBER
 DD  .F               562:   DEPTH DRILLER
 DL  .F               561:   DEPTH LOGGER
 BLI .F               560:   BOTTOM LOG INTERVAL
 TLI .F                94:   TOP LOG INTERVAL
 CS  .IN            8.625:   CASING SIZE
 CBD .F                10:   CASING BOTTOM DRILLER
 BS  .IN            6.875:   BIT SIZE
 BSD .F               562:   BIT SIZE AT DEPTH
 DFT .            NATURAL:   DRILLING FLUID TYPE
 DFD .                 10:   DRILLING FLUID DENSITY
 DFV .                 65:   DRILLING FLUID VISCOSITY
 MSS .           FLOWLINE:   MUD SAMPLE SOURCE
 RMS .OHMM            3.4:   RESISTIVITY MUD SAMPLE
 MST .F                76:   MUD SAMPLE TEMPERATURE
 RMF .OHMM            1.8:   RESISTIVITY MUD FILTRATE SAMPLE
 MFST.F                75:   MUD FILTRATE SAMPLE TEMPERATURE
 RMC .OHMM            3.4:   RESISTIVITY MUD CAKE
 MCST.F                75:   MUD CAKE SAMPLE TEMPERATURE
 MFSS.                 FP:   MUD FILTRATE SAMPLE SOURCE
 MCSS.                 FP:   MUD CAKE SAMPLE SOURCE
 TCS .HRS               1:   TIME CURCULATED STOPPED
 MRT .F                80:   MAXIMUM RECORDED TEMPERATURE
 LUN .               4507:   LOGGING UNIT NUMBER
 LUL .               CSPR:   LOGGING UNIT LOCATION
 ENGI.            GIFFORD:   RECORDING ENGINEER
 WITN.          JORGENSON:   WITNESSED BY
 CLNT.            A2DTECH:   CLIENT CODE
 ORIG.       2", 5" PRINT:   ORIGIN OF DATA
 UWI .       490250634300:   UNIQUE WELL ID
 DICO. A2D Technologies, Inc.:   DIGITIZING COMPANY
~OTHER INFORMATION
~A   DEPT       GR         CALS       DT        SPR       CILD        ASN        ILD   
# ...
  204.5000  -999.2500     6.8865   101.4595   -34.4531    93.9289    11.0035    10.6726
  205.0000  -999.2500     6.8151   101.0070   -34.4911    91.5413    11.2025    10.9453
  205.5000  -999.2500     6.8403   100.6090   -34.5419    91.3150    11.3972    11.2098
  206.0000  -999.2500     6.9005    99.8600   -34.6135    91.6451    11.4657    11.1743
  206.5000  -999.2500     6.9605    98.7079   -34.7015    91.9866    11.3266    11.1189
  207.0000  -999.2500     6.8197    97.8514   -34.4707    92.3246    11.2999    11.1171
  207.5000  -999.2500     6.6586    97.6838   -34.3213    92.6626    11.7567    11.1166
  208.0000  -999.2500     6.5866    96.9859   -34.1580    93.0007    11.9950    11.0623
  208.5000  -999.2500     6.7039    96.7774   -34.0000    95.4613    11.4068    10.7823
  209.0000  -999.2500     6.8275    97.4559   -34.0546    98.3587    10.9727    10.5072
  209.5000  -999.2500     6.9393    99.1614   -34.3974   101.1066    10.9288    10.3418
  210.0000  -999.2500     6.9576   100.6618   -34.7366   102.6301    10.8058    10.2317
  210.5000  -999.2500     6.9582   100.9048   -35.0775   103.9587    10.6807    10.1222
  211.0000  -999.2500     6.9571   101.1601   -35.4185   105.2264    10.5532    10.0127
  211.5000  -999.2500     6.8396   101.4154   -35.7282   106.4940    10.4275     9.9030
  212.0000  -999.2500     6.6037   101.7380   -35.7455   107.7616    10.3912     9.7932
  212.5000  -999.2500     6.6151   102.3000   -35.2337   108.3250    10.3619     9.6850
  213.0000  -999.2500     6.6493   102.8212   -34.6530   108.5785    10.3327     9.5980
  213.5000  -999.2500     6.7600   102.8169   -34.5274   108.8320    10.3156     9.5711
  214.0000  -999.2500     6.9675   102.6225   -34.6261   109.0855    10.3299     9.5427
  214.5000  -999.2500     7.0729   102.8736   -34.7200   109.3390    10.3435     9.5145
  215.0000  -999.2500     6.9728   103.1218   -34.6669   109.5926    10.3573     9.4864
  215.5000  -999.2500     6.8697   102.9778   -34.5987   109.8461    10.3710     9.4581
  216.0000  -999.2500     6.7952   102.6496   -34.5283   110.0996    10.3848     9.4300
  216.5000  -999.2500     6.9048   102.3213   -34.5528   110.2321    10.3989     9.4056
  217.0000  -999.2500     7.0902   102.1148   -34.6203   110.3260    10.4096     9.3958
  217.5000  -999.2500     7.0275   102.2572   -34.6868   110.4200    10.3351     9.3848
  218.0000  -999.2500     6.8840   102.7724   -34.5873   110.5138    10.3372     9.3738
  218.5000  -999.2500     6.7411   103.5247   -34.2429   110.6077    10.3448     9.3627
  219.0000  -999.2500     6.7372   103.6254   -33.9187   110.7016    10.3517     9.3517
  219.5000  -999.2500     6.8648   103.8252   -34.0420   110.7955    10.3700     9.3407
  220.0000  -999.2500     7.0032   104.1289   -34.3878   110.8894    10.3988     9.3297
  220.5000  -999.2500     7.0729   103.8425   -34.7090   110.9827    10.4276     9.3189
  221.0000  -999.2500     7.0764   103.5247   -34.7190   111.0738    10.3963     9.3096
  221.5000  -999.2500     7.0725   103.7071   -34.7169   111.1691    10.3058     9.2322
  222.0000  -999.2500     7.0688   103.8794   -34.6889   111.9230    10.1143     9.1441
  222.5000  -999.2500     7.0652   104.3154   -34.5573   112.6473     9.9743     9.0562
  223.0000  -999.2500     7.0619   104.8573   -34.4298   114.0305     9.9539     8.9673
  223.5000  -999.2500     7.0580   105.3979   -34.3090   117.2329     9.9627     8.8479
  224.0000  -999.2500     7.1021   105.7134   -34.2203   120.4352     9.9685     8.6100
  224.5000  -999.2500     7.1577   105.6405   -34.1341   123.6376     9.8987     8.3793
  225.0000  -999.2500     7.1386   105.5675   -34.1098   126.8400     9.6488     8.1475
  225.5000  -999.2500     7.1187   105.7212   -34.1105   130.0424     9.3763     7.9082
  226.0000  -999.2500     7.0987   106.1679   -34.1071   133.2447     9.0696     7.7505
  226.5000  -999.2500     7.0844   106.9261   -33.8607   136.4471     8.7569     7.5911
  227.0000  -999.2500     7.0968   108.0040   -33.5862   138.9020     8.5133     7.4308
  227.5000  -999.2500     7.0938   108.8142   -33.3108   140.3421     8.3932     7.2894
  228.0000  -999.2500     7.0900   109.3656   -33.4089   139.5313     8.2985     7.3179
  228.5000  -999.2500     7.0862   109.9799   -33.6142   138.0400     8.2774     7.4967
  229.0000  -999.2500     7.0824   110.3767   -33.8182   136.5487     8.3573     7.6749
  229.5000  -999.2500     7.0788   110.0071   -34.0238   134.7866     8.5740     7.8514
  230.0000  -999.2500     7.0783   108.6861   -34.1080   131.7104     8.9974     8.0062
  230.5000  -999.2500     7.0692   107.0663   -34.1095   128.6308     9.2781     8.1714
  231.0000  -999.2500     7.0599   105.7367   -34.1095   125.5490     9.3940     8.3494
  231.5000  -999.2500     7.0506   104.6710   -34.1093   122.4727     9.4603     8.5280
  232.0000  -999.2500     7.0413   103.5964   -34.1093   119.3942     9.5336     8.6974
  232.5000  -999.2500     7.0320   102.5272   -34.1092   118.2093     9.6050     8.7046
  233.0000  -999.2500     7.0226   102.0141   -34.1083   118.2093     9.6003     8.7081
  233.5000  -999.2500     7.0184   102.2381   -34.1460   118.2093     9.6666     8.7873
  234.0000  -999.2500     7.0536   102.2155   -34.1902   119.7531     9.6685     8.6176
  234.5000  -999.2500     7.0923   100.9956   -34.2339   121.5968     9.5986     8.5053
  235.0000  -999.2500     7.1096    99.8352   -34.2795   122.7867     9.3919     8.3977
  235.5000  -999.2500     7.0788    98.8426   -34.3905   123.6318     9.4032     8.3079
  236.0000  -999.2500     7.0490    97.7845   -34.7428   124.4769     9.4725     8.2121
  236.5000  -999.2500     7.0181    97.1803   -35.0815   125.2515     9.3149     8.2624
  237.0000  -999.2500     6.9717    97.4034   -35.3093   124.8290     9.2190     8.3037
  237.5000  -999.2500     6.9241    99.4839   -35.2264   124.4389     9.2255     8.3459
  238.0000  -999.2500     6.8769   102.9204   -35.1549   123.7541     9.2804     8.3881
  238.5000  -999.2500     6.8352   104.9518   -34.8213   122.7790     9.4008     8.4303
  239.0000  -999.2500     6.7959   106.4904   -34.6108   121.8039     9.4736     8.4726
  239.5000  -999.2500     6.8030   106.6465   -34.5436   120.8288     9.5455     8.5361
  240.0000  -999.2500     6.9665   106.2437   -34.7609   119.8537     9.6122     8.6453
  240.5000  -999.2500     7.1182   107.5529   -34.9773   119.3535     9.6311     8.7546
  241.0000  -999.2500     7.0353   106.6004   -35.0882   119.7502     9.6511     8.7935
  241.5000  -999.2500     6.9389   105.4614   -34.9824   120.1530     9.6636     8.7355
  242.0000  -999.2500     6.8988   104.6324   -34.9252   120.5544     9.6030     8.6769
  242.5000  -999.2500     7.0100   105.3250   -35.2025   120.9547     9.5235     8.6182
  243.0000  -999.2500     6.9342   106.1259   -35.2612   121.3550     9.4689     8.5593
  243.5000  -999.2500     6.7397   106.1459   -34.9302   121.7553     9.4906     8.5031
  244.0000  -999.2500     6.5682   105.3629   -34.9569   122.1556     9.5060     8.5142
  244.5000  -999.2500     6.7027   104.5317   -35.1811   122.2334     9.4978     8.5283
  245.0000  -999.2500     6.8913   104.3169   -35.3995   122.2334     9.4896     8.5421
  245.5000  -999.2500     6.8052   104.0282   -35.5276   122.2334     9.5053     8.5558
  246.0000  -999.2500     6.6487   103.6800   -35.5272   122.2334     9.5323     8.5695
  246.5000  -999.2500     6.5525   103.3233   -35.5262   122.2334     9.5542     8.5831
  247.0000  -999.2500     6.6328   103.3962   -35.4482   122.2334     9.5314     8.5973
  247.5000  -999.2500     6.6456   103.5164   -35.0763   121.9718     9.4501     8.5869
  248.0000  -999.2500     6.6017   103.6361   -34.7146   121.2274     9.4166     8.5652
  248.5000  -999.2500     6.5771   103.7702   -34.3575   121.2274     9.4406     8.5432
  249.0000  -999.2500     6.7010   104.0788   -34.4255   121.7390     9.4063     8.5214
  249.5000  -999.2500     6.8263   104.4641   -34.6676   122.3223     9.3407     8.4986
