~VERSION INFORMATION
 VERS.                2.0:   CWLS LOG ASCII STANDARD - VERSION 2.0
 WRAP.                 NO:   ONE LINE PER DEPTH STEP
~WELL INFORMATION
#MNEM.UNIT      DATA TYPE    INFORMATION
#----------   ------------   ------------------------------
 STRT.F           85.5000:   START DEPTH
 STOP.F         1080.5000:   STOP DEPTH
 STEP.F            0.5000:   STEP LENGTH
 NULL.          -999.2500:   NO VALUE
 COMP.         U.S.  NAVY:   COMPANY
 WELL.  N.P.R. #3 #67-S-2:   WELL
 FLD .             TEAPOT:   FIELD
 LOC .       S2 T38N R78W:   LOCATION
 CNTY.            NATRONA:   COUNTY
 STAT.            WYOMING:   STATE
 CTRY. UNITED STATES OF AMERICA:   COUNTRY
 SRVC.       Schlumberger:   SERVICE COMPANY
 DATE.        20-JUL-1964:   LOGDATE
 API .       490250639700:   API NUMBER
~CURVE INFORMATION
#MNEM.UNIT       API CODE    CURVE DESCRIPTION
#----------   ------------   ------------------------------
 DEPT.F                  :   
 GR  .GAPI   30 310 01 00:   GAMMA RAY
 DT  .US/F   60 520 33 00:   INTERVAL TRANSIT TIME
 SPR .MV     06 010 01 00:   SPONTANEOUS POTENTIAL
 CILD.MMHO   06 110 46 00:   CONDUCTIVITY INDUCTION LOG DEEP
 ASN .OHMM   06 041 16 00:   AMPLIFIED SHORT NORMAL 16"
 ILD .OHMM   06 120 46 00:   INDUCTION LOG DEEP
~PARAMETER INFORMATION
#MNEM.UNIT          VALUE    DESCRIPTION
#----------   ------------   ------------------------------
 PD  .                 GL:   PERMANENT DATUM
 EPD .F              5207:   ELEVATION PERMANENT DATUM
 LMF .                 KB:   LOG MEASURED FROM
 DAPD.F                 5:   FEET ABOVE PERMANENT DATUM
 DMF .                 KB:   DRILLING MEASURED FROM
 EKB .F              5212:   KELLING BUSHING
 EGL .F              5207:   GROUND LEVEL
 DATE.          7-20-1964:   RUN DATE
 RUN .                  1:   RUN NUMBER
 DD  .F              1080:   DEPTH DRILLER
 DL  .F              1081:   DEPTH LOGGER
 BLI .F              1080:   BOTTOM LOG INTERVAL
 TLI .F                86:   TOP LOG INTERVAL
 CS  .IN            8.625:   CASING SIZE
 CBD .F                10:   CASING BOTTOM DRILLER
 BS  .IN             6.75:   BIT SIZE
 BSD .F              1080:   BIT SIZE AT DEPTH
 DFT .            GEL-OIL:   DRILLING FLUID TYPE
 DFD .                9.5:   DRILLING FLUID DENSITY
 DFV .                 43:   DRILLING FLUID VISCOSITY
 MSS .           FLOWLINE:   MUD SAMPLE SOURCE
 RMS .OHMM           1.85:   RESISTIVITY MUD SAMPLE
 MST .F                83:   MUD SAMPLE TEMPERATURE
 RMF .OHMM           1.29:   RESISTIVITY MUD FILTRATE SAMPLE
 MFST.F                83:   MUD FILTRATE SAMPLE TEMPERATURE
 RMC .OHMM           2.49:   RESISTIVITY MUD CAKE
 MCST.F                83:   MUD CAKE SAMPLE TEMPERATURE
 MFSS.                 FP:   MUD FILTRATE SAMPLE SOURCE
 MCSS.                 FP:   MUD CAKE SAMPLE SOURCE
 TCS .HRS               2:   TIME CURCULATED STOPPED
 LUN .               4507:   LOGGING UNIT NUMBER
 LUL .               CSPR:   LOGGING UNIT LOCATION
 ENGI.             DANNER:   RECORDING ENGINEER
 WITN.          JORGENSEN:   WITNESSED BY
 CLNT.            A2DTECH:   CLIENT CODE
 ORIG.           2" PRINT:   ORIGIN OF DATA
 UWI .       490250639700:   UNIQUE WELL ID
 DICO. A2D Technologies, Inc.:   DIGITIZING COMPANY
~OTHER INFORMATION
~A   DEPT       GR         DT        SPR       CILD        ASN        ILD   
   85.5000  -999.2500  -999.2500  -999.2500  -999.2500  -999.2500  -999.2500
   86.0000  -999.2500  -999.2500   -28.3113   131.9721     6.5510     7.8480
   86.5000  -999.2500  -999.2500   -28.2196   131.9721     7.6880     7.8972
   87.0000  -999.2500  -999.2500   -28.0973   131.9358     7.6855     7.8910
   87.5000  -999.2500  -999.2500   -27.9750   135.9530     8.1773     7.9488
   88.0000  -999.2500  -999.2500   -27.8528   136.9550     8.0976     7.9908
   88.5000  -999.2500  -999.2500   -27.8429   138.9411     8.0976     8.0017
   89.0000  -999.2500  -999.2500   -27.7298   138.1600     8.0976     7.9635
   89.5000  -999.2500  -999.2500   -27.6085   138.5482     8.1375     7.9352
   90.0000  -999.2500  -999.2500   -27.5163   138.9467     7.9980     7.8988
   90.5000  -999.2500  -999.2500   -27.5787   137.4667     8.0179     7.8689
   91.0000  -999.2500  -999.2500   -27.6283   135.9957     8.0777     7.8341
   91.5000  -999.2500  -999.2500   -27.6777   134.5166     8.6784     7.8028
   92.0000  -999.2500  -999.2500   -27.7276   133.0448     9.0139     7.7690
   92.5000  -999.2500  -999.2500   -27.7773   131.5665     6.3372     7.7370
   93.0000  -999.2500  -999.2500   -27.8268   129.9820     5.1713     7.7039
   93.5000  -999.2500  -999.2500   -27.8768   130.9753     6.1942     7.6717
   94.0000  -999.2500  -999.2500   -27.9261   132.7706     7.2171     7.6394
   94.5000  -999.2500  -999.2500   -27.9763   134.7352     8.3566     7.5863
   95.0000  -999.2500  -999.2500   -28.0251   136.7047     8.3566     7.5021
   95.5000  -999.2500  -999.2500   -28.0755   138.6695     8.2638     7.4178
   96.0000  -999.2500  -999.2500   -28.1119   140.6391     8.1583     7.3336
   96.5000  -999.2500  -999.2500   -27.9322   142.6037     8.0519     7.2492
   97.0000  -999.2500  -999.2500   -27.7870   144.5733     7.9465     7.1650
   97.5000  -999.2500  -999.2500   -27.6432   146.9114     7.8401     7.0806
   98.0000  -999.2500  -999.2500   -27.4983   146.3417     7.7346     7.0369
   98.5000  -999.2500  -999.2500   -27.3181   145.6326     7.6592     7.0860
   99.0000  -999.2500  -999.2500   -27.3678   144.9287     7.6954     7.1172
   99.5000  -999.2500  -999.2500   -27.4340   144.2198     7.7526     7.1019
  100.0000  -999.2500  -999.2500   -27.5007   143.5158     7.8099     7.0866
  100.5000  -999.2500  -999.2500   -27.5666   142.8070     7.8669     7.0712
  101.0000  -999.2500  -999.2500   -27.6337   141.9340     7.9380     7.0559
  101.5000  -999.2500  -999.2500   -27.7147   143.2383     7.8633     7.0406
  102.0000  -999.2500  -999.2500   -27.5119   144.9559     7.7651     7.0218
  102.5000  -999.2500  -999.2500   -27.2446   146.6703     7.6669     6.9506
  103.0000  -999.2500  -999.2500   -26.9215   148.8147     7.5684     6.8581
  103.5000  -999.2500  -999.2500   -26.9825   152.0680     7.4704     6.7659
  104.0000  -999.2500  -999.2500   -27.0636   155.3212     7.3715     6.6734
  104.5000  -999.2500  -999.2500   -27.1421   158.5744     7.2715     6.5812
  105.0000  -999.2500  -999.2500   -27.2231   161.3048     7.1714     6.4886
  105.5000  -999.2500  -999.2500   -27.3018   162.8063     7.0713     6.3965
  106.0000  -999.2500  -999.2500   -27.3826   164.3078     6.9823     6.3038
  106.5000  -999.2500  -999.2500   -27.4616   165.8093     6.9585     6.2118
  107.0000  -999.2500  -999.2500   -27.5070   167.3108     6.9297     6.1191
  107.5000  -999.2500  -999.2500   -27.4757   168.8123     6.9002     6.0271
  108.0000  -999.2500  -999.2500   -27.4456   170.3138     6.8716     5.9344
  108.5000  -999.2500  -999.2500   -27.4144   171.8152     6.8420     5.8272
  109.0000  -999.2500  -999.2500   -27.3842   172.6152     6.8233     5.8621
  109.5000  -999.2500  -999.2500   -27.3530   172.0433     6.8226     5.9046
  110.0000  -999.2500  -999.2500   -27.3182   171.4713     6.7556     5.9463
  110.5000  -999.2500  -999.2500   -27.2792   170.8167     6.6746     5.9888
  111.0000  -999.2500  -999.2500   -27.1708   169.5931     6.6586     6.0306
  111.5000  -999.2500  -999.2500   -27.0614   168.1631     6.7528     6.0729
  112.0000  -999.2500  -999.2500   -26.9531   166.7331     6.8496     6.1148
  112.5000  -999.2500  -999.2500   -26.8437   165.3031     6.9434     6.1571
  113.0000  -999.2500  -999.2500   -26.7224   163.8731     7.0405     6.1991
  113.5000  -999.2500  -999.2500   -26.7951   162.4431     7.1341     6.2251
  114.0000  -999.2500  -999.2500   -26.8788   160.8566     7.2419     6.2251
  114.5000  -999.2500  -999.2500   -26.9615   160.9457     7.2996     6.2250
  115.0000  -999.2500  -999.2500   -27.0451   161.0458     7.0029     6.2304
  115.5000  -999.2500  -999.2500   -27.1279   161.1459     7.0473     6.2436
  116.0000  -999.2500  -999.2500   -27.2113   161.2460     7.1007     6.2570
  116.5000  -999.2500  -999.2500   -27.2943   161.3461     7.1503     6.2702
  117.0000  -999.2500  -999.2500   -27.3775   161.4462     7.1050     6.2837
  117.5000  -999.2500  -999.2500   -27.4607   161.5463     6.9193     6.2969
  118.0000  -999.2500  -999.2500   -27.5438   161.6464     6.7236     6.3104
  118.5000  -999.2500  -999.2500   -27.6271   161.7465     6.8741     6.3244
  119.0000  -999.2500  -999.2500   -27.7150   161.8526     7.2252     6.2934
  119.5000  -999.2500  -999.2500   -27.7055   162.9821     7.4198     6.2599
  120.0000  -999.2500  -999.2500   -27.6951   164.1833     7.1931     6.2267
  120.5000  -999.2500  -999.2500   -27.6850   165.5657     6.9421     6.1931
  121.0000  -999.2500  -999.2500   -27.6746   167.1673     6.9516     6.1599
  121.5000  -999.2500  -999.2500   -27.6646   168.8247     6.9621     6.1264
  122.0000  -999.2500  -999.2500   -27.6541   169.4193     6.8496     6.0932
  122.5000  -999.2500  -999.2500   -27.6441   170.0352     6.6037     6.0596
  123.0000  -999.2500  -999.2500   -27.6337   170.6512     6.6989     6.0265
  123.5000  -999.2500  -999.2500   -27.6236   171.2672     6.7990     5.9930
  124.0000  -999.2500  -999.2500   -27.6133   171.8832     6.7906     5.9598
  124.5000  -999.2500  -999.2500   -27.6031   172.4992     6.7829     5.9261
  125.0000  -999.2500  -999.2500   -27.5929   173.9471     6.6745     5.8398
  125.5000  -999.2500  -999.2500   -27.5827   176.2351     6.5660     5.7526
  126.0000  -999.2500  -999.2500   -27.5725   178.5231     6.4572     5.6658
  126.5000  -999.2500  -999.2500   -27.5623   180.8110     6.4080     5.5786
  127.0000  -999.2500  -999.2500   -27.5520   183.0990     6.4146     5.4918
  127.5000  -999.2500  -999.2500   -27.5418   185.3870     6.4214     5.4046
  128.0000  -999.2500  -999.2500   -27.5315   187.6750     6.3584     5.3178
  128.5000  -999.2500  -999.2500   -27.5213   190.3436     6.2335     5.2307
  129.0000  -999.2500  -999.2500   -27.5110   193.3466     6.1083     5.1438
  129.5000  -999.2500  -999.2500   -27.5008   196.3496     5.9835     5.0567
  130.0000  -999.2500  -999.2500   -27.4906   199.3526     5.9429     4.9698
  130.5000  -999.2500  -999.2500   -27.4803   202.3556     5.9734     4.9786
  131.0000  -999.2500  -999.2500   -27.4701   203.6853     5.9499     5.0654
  131.5000  -999.2500  -999.2500   -27.4598   204.6813     5.8856     5.1520
  132.0000  -999.2500  -999.2500   -27.4496   202.2357     5.8199     5.2388
  132.5000  -999.2500  -999.2500   -27.4393   197.9237     5.7555     5.3254
  133.0000  -999.2500  -999.2500   -27.4291   193.6117     5.7503     5.4122
  133.5000  -999.2500  -999.2500   -27.4188   189.2997     5.7878     5.4988
  134.0000  -999.2500  -999.2500   -27.4086   184.9877     6.0473     5.5856
  134.5000  -999.2500  -999.2500   -27.3983   180.6758     6.2882     5.6722
  135.0000  -999.2500  -999.2500   -27.3881   176.7928     6.5036     5.7590
  135.5000  -999.2500  -999.2500   -27.3778   174.0413     6.6045     5.8457
  136.0000  -999.2500  -999.2500   -27.3677   171.5388     6.6946     5.9324
  136.5000  -999.2500  -999.2500   -27.3573   169.0363     6.7865     6.0191
  137.0000  -999.2500  -999.2500   -27.3472   166.5339     6.8764     6.1058
