~VERSION INFORMATION
 VERS.                2.0:   CWLS LOG ASCII STANDARD - VERSION 2.0
 WRAP.                 NO:   ONE LINE PER DEPTH STEP
~WELL INFORMATION
#MNEM.UNIT      DATA TYPE    INFORMATION
#----------   ------------   ------------------------------
 STRT.F           80.0000:   START DEPTH
 STOP.F          660.0000:   STOP DEPTH
 STEP.F            0.5000:   STEP LENGTH
 NULL.          -999.2500:   NO VALUE
 COMP. U S NAVY-INTEX OIL:   COMPANY
 WELL.    NPR #3 #34 S-11:   WELL
 FLD .             TEAPOT:   FIELD
 LOC .      S11 T38N R78W:   LOCATION
 CNTY.            NATRONA:   COUNTY
 STAT.            WYOMING:   STATE
 CTRY. UNITED STATES OF AMERICA:   COUNTRY
 SRVC.       Schlumberger:   SERVICE COMPANY
 DATE.        10-JUL-1962:   LOGDATE
 API .       490250635000:   API NUMBER
~CURVE INFORMATION
#MNEM.UNIT       API CODE    CURVE DESCRIPTION
#----------   ------------   ------------------------------
 DEPT.F                  :   
 SPR .MV     05 010 01 00:   SPONTANEOUS POTENTIAL FROM RES.
 ASN .OHMM   05 041 16 00:   AMPLIFIED SHORT NORMAL 16"
 ILD .OHMM   05 120 46 00:   INDUCTION LOG DEEP
 GR  .GAPI   30 310 01 00:   GAMMA RAY
 CALM.IN     15 280 01 00:   CALIPER FROM MICRO LOG
 CILD.MMHO   05 110 46 00:   CONDUCTIVITY INDUCTION LOG DEEP
~PARAMETER INFORMATION
#MNEM.UNIT          VALUE    DESCRIPTION
#----------   ------------   ------------------------------
 CLNT.            A2DTECH:   CLIENT CODE
 UWI .       490250635000:   UNIQUE WELL ID
 DICO. A2D Technologies, Inc.:   DIGITIZING COMPANY
~OTHER INFORMATION
~A   DEPT      SPR        ASN        ILD         GR       CALM        CILD  
# ...
  132.0000   -69.9327     5.6874     5.1957  -999.2500  -999.2500   188.6747
  132.5000   -69.9312     5.6259     5.2675  -999.2500  -999.2500   187.9508
  133.0000   -69.6136     5.5797     5.3403  -999.2500  -999.2500   187.9819
  133.5000   -69.4694     5.5789     5.3356  -999.2500  -999.2500   187.2573
  134.0000   -69.3147     5.6569     5.4083  -999.2500  -999.2500   185.7809
  134.5000   -69.3132     5.8100     5.5548  -999.2500  -999.2500   184.3121
  135.0000   -69.3117     5.9407     5.7021  -999.2500  -999.2500   181.3298
  135.5000   -69.4635     6.0006     5.7748  -999.2500  -999.2500   177.5944
  136.0000   -69.4616     6.0454     5.9968  -999.2500  -999.2500   170.8470
  136.5000   -69.6133     6.1205     5.9931  -999.2500  -999.2500   164.0996
  137.0000   -69.6115     6.2108     5.9894  -999.2500  -999.2500   158.8583
  137.5000   -69.6100     6.3163     5.9856  -999.2500  -999.2500   152.8639
  138.0000   -69.7617     6.2700     5.9819  -999.2500  -999.2500   149.1286
  138.5000   -69.7599     6.0569     5.9781  -999.2500  -999.2500   148.3979
  139.0000   -69.7584     5.9802     5.9736  -999.2500  -999.2500   149.1880
  139.5000   -69.6040     5.9188     5.9699  -999.2500  -999.2500   150.7238
  140.0000   -69.4495     5.8589     5.8906  -999.2500  -999.2500   153.7656
  140.5000   -69.2951     5.7655     5.7358  -999.2500  -999.2500   158.3134
  141.0000   -69.1407     5.6737     5.6566  -999.2500  -999.2500   162.9213
  141.5000   -69.1388     5.5364     5.3508  -999.2500  -999.2500   168.3735
  142.0000   -68.9844     5.3535     4.9694  -999.2500  -999.2500   181.1245
  142.5000   -68.8300     5.0038     4.2104  -999.2500  -999.2500   222.4457
  143.0000   -68.8285     4.6367     3.3004  -999.2500  -999.2500   297.7766
  143.5000   -69.1332     4.1416     2.8435  -999.2500  -999.2500   355.0353
  144.0000   -69.1313     3.6492     2.4621  -999.2500  -999.2500   427.2664
  144.5000   -68.8240     3.1948     2.0808  -999.2500  -999.2500   462.6411
  145.0000   -68.3638     3.1182     1.8505  -999.2500  -999.2500   501.1234
  145.5000   -68.0565     3.0568     1.7711  -999.2500  -999.2500   500.7560
  146.0000   -67.5963     3.0259     1.7674  -999.2500  -999.2500   502.2594
  146.5000   -67.5947     3.1615     1.9894  -999.2500  -999.2500   542.6656
  147.0000   -67.8991     3.3732     2.2878  -999.2500  -999.2500   628.5459
  147.5000   -68.0505     3.5394     2.8128  -999.2500  -999.2500   598.4625
  148.0000   -68.5178     3.7359     3.4133  -999.2500  -999.2500   354.6183
  148.5000   -68.9852     4.2663     4.2390  -999.2500  -999.2500   283.9228
  149.0000   -69.4217     5.4188     6.1929  -999.2500  -999.2500   190.4442
  149.5000   -69.8789     6.7686     8.3868  -999.2500  -999.2500   138.5228
  150.0000   -70.2486     7.9514    10.0447  -999.2500  -999.2500    96.3918
  150.5000   -71.1026     8.8157    11.8536  -999.2500  -999.2500    80.6162
  151.0000   -71.2570     9.5435    12.1529  -999.2500  -999.2500    73.1237
  151.5000   -71.7172    10.4685    11.3930  -999.2500  -999.2500    79.1855
  152.0000   -72.3304    10.0885     9.9542  -999.2500  -999.2500    92.7774
  152.5000   -73.0964     9.6022     8.1377  -999.2500  -999.2500   103.3572
  153.0000   -74.1947     8.8278     6.8500  -999.2500  -999.2500   122.9731
  153.5000   -71.7233     7.5374     6.0154  -999.2500  -999.2500   150.8723
  154.0000   -69.8900     6.8084     5.5585  -999.2500  -999.2500   178.0183
  154.5000   -68.9740     6.1401     5.3282  -999.2500  -999.2500   192.3632
  155.0000   -68.9756     5.7905     5.1734  -999.2500  -999.2500   198.4250
  155.5000   -68.2126     5.0463     5.0941  -999.2500  -999.2500   202.2277
  156.0000   -67.6025     5.1216     5.2414  -999.2500  -999.2500   204.5244
  156.5000   -67.7610     6.1832     5.3897  -999.2500  -999.2500   200.7969
  157.0000   -69.1468     7.3055     6.0647  -999.2500  -999.2500   188.0334
  157.5000   -71.0015     8.0940     7.2694  -999.2500  -999.2500   154.9385
  158.0000   -72.3629     8.5942     8.3231  -999.2500  -999.2500   121.0906
  158.5000   -72.8272     8.7453     8.9991  -999.2500  -999.2500   106.0680
  159.0000   -73.1162     8.9268     9.5996  -999.2500  -999.2500    96.3165
  159.5000   -73.1442     9.1386     9.8979  -999.2500  -999.2500    90.3301
  160.0000   -74.1899     9.3353    10.0453  -999.2500  -999.2500    88.0425
  160.5000   -74.3443     9.6534    10.4192  -999.2500  -999.2500    87.3617
  161.0000   -74.3458    10.0776    10.5665  -999.2500  -999.2500    86.6809
  161.5000   -74.6532    10.5322    10.7138  -999.2500  -999.2500    85.9586
  162.0000   -74.8076    10.7594    10.7855  -999.2500  -999.2500    82.9839
  162.5000   -75.2678    10.9106    10.8573  -999.2500  -999.2500    79.2563
  163.0000   -76.0339    10.9858    11.0046  -999.2500  -999.2500    79.2936
  163.5000   -77.1057    10.9851    11.0008  -999.2500  -999.2500    79.3310
  164.0000   -77.2602    11.0605    10.9970  -999.2500  -999.2500    80.1214
  164.5000   -77.1084    11.0597    10.9925  -999.2500  -999.2500    80.9118
  165.0000   -76.6516    11.2109    10.9887  -999.2500  -999.2500    81.7022
  165.5000   -75.8886    11.2863    10.9850  -999.2500  -999.2500    82.4926
  166.0000   -75.4310    11.2856    10.9812  -999.2500  -999.2500    82.5302
  166.5000   -75.4329    11.3608    11.0539  -999.2500  -999.2500    82.5677
  167.0000   -76.1989    11.4361    11.0492  -999.2500  -999.2500    82.6054
  167.5000   -76.0475    11.5114    11.1220  -999.2500  -999.2500    82.6431
  168.0000   -75.8958    11.5866    11.2683  -999.2500  -999.2500    81.9265
  168.5000   -77.2738    11.7396    11.2646  -999.2500  -999.2500    81.2108
  169.0000   -78.3457    11.8889    11.3373  -999.2500  -999.2500    80.4952
  169.5000   -78.0414    11.9642    11.4081  -999.2500  -999.2500    79.7796
  170.0000   -77.7371    12.1254    11.4799  -999.2500  -999.2500    77.5672
  170.5000   -76.8212    12.2794    11.6272  -999.2500  -999.2500    76.8423
  171.0000   -76.6694    12.4935    11.7000  -999.2500  -999.2500    76.1266
  171.5000   -76.8242    12.7204    11.9228  -999.2500  -999.2500    74.6580
  172.0000   -76.2141    13.0991    12.2202  -999.2500  -999.2500    73.9424
  172.5000   -75.6040    13.5538    12.5941  -999.2500  -999.2500    71.7300
  173.0000   -76.5230    14.0843    13.1946  -999.2500  -999.2500    68.7554
  173.5000   -77.4419    14.9941    13.9461  -999.2500  -999.2500    65.7807
  174.0000   -77.9022    15.9040    14.9243  -999.2500  -999.2500    59.7940
  174.5000   -77.7508    16.9656    15.7513  -999.2500  -999.2500    53.8073
  175.0000   -77.4465    17.6479    16.1254  -999.2500  -999.2500    51.5763
  175.5000   -77.1381    17.2679    16.2075  -999.2500  -999.2500    51.6230
  176.0000   -76.3629    16.2052    15.8911  -999.2500  -999.2500    52.4134
  176.5000   -75.4633    16.8873    15.5097  -999.2500  -999.2500    53.9568
  177.0000   -75.0061    17.1145    14.9773  -999.2500  -999.2500    57.7592
  177.5000   -75.0076    16.1274    14.3693  -999.2500  -999.2500    60.8086
  178.0000   -75.6697    14.9129    13.3807  -999.2500  -999.2500    65.3641
  178.5000   -76.2339    14.0018    12.5426  -999.2500  -999.2500    72.9316
  179.0000   -76.3887    13.3183    11.8490  -999.2500  -999.2500    81.2521
  179.5000   -76.3902    12.7866    10.9320  -999.2500  -999.2500    85.8107
  180.0000   -76.2384    12.3308    10.3374  -999.2500  -999.2500    89.6131
  180.5000   -76.2403    12.1784    10.0292  -999.2500  -999.2500    93.4155
  181.0000   -76.0886    12.0261     9.7966  -999.2500  -999.2500    95.7120
  181.5000   -75.3259    11.8737     9.7311  -999.2500  -999.2500    95.7493
  182.0000   -74.5629    11.7952     9.6519  -999.2500  -999.2500    95.7867
  182.5000   -73.9528    11.4894     9.4971  -999.2500  -999.2500    95.8241
  183.0000   -73.6482    11.2649     9.2667  -999.2500  -999.2500    95.8615
  183.5000   -73.1913    11.0274     8.8853  -999.2500  -999.2500    96.6519
