~VERSION INFORMATION
 VERS.                2.0:   CWLS LOG ASCII STANDARD - VERSION 2.0
 WRAP.                 NO:   ONE LINE PER DEPTH STEP
~WELL INFORMATION
#MNEM.UNIT      DATA TYPE    INFORMATION
#----------   ------------   ------------------------------
 STRT.F           28.0000:   START DEPTH
 STOP.F          659.0000:   STOP DEPTH
 STEP.F            0.5000:   STEP LENGTH
 NULL.          -999.2500:   NO VALUE
 COMP. FENIX & SCISSON INC:   COMPANY
 WELL.    NPR 3 #46-SX-34:   WELL
 FLD .             TEAPOT:   FIELD
 LOC .      S34 T39N R78W:   LOCATION
 CNTY.            NATRONA:   COUNTY
 STAT.            WYOMING:   STATE
 CTRY. UNITED STATES OF AMERICA:   COUNTRY
 SRVC.              Welex:   SERVICE COMPANY
 DATE.        01-MAY-1977:   LOGDATE
 API .       490251035600:   API NUMBER
~CURVE INFORMATION
#MNEM.UNIT       API CODE    CURVE DESCRIPTION
#----------   ------------   ------------------------------
 DEPT.F                  :   
 CALD.IN     45 280 60 00:   CALIPER FROM DENSITY
 GRD .GAPI   45 310 01 00:   GAMMA RAY FROM DENSITY LOG
 CORR.G/C3   45 356 01 00:   DENSITY CORRECTION
 DPHI.DEC    45 890 12 00:   DENSITY POROSITY SANDSTONE
 RHOB.G/C3   45 350 01 00:   BULK DENSITY
 SPR .MV     07 010 01 00:   SPONTANEOUS POTENTIAL
 ILD .OHMM   07 120 46 00:   INDUCTION LOG DEEP
 ILM .OHMM   07 120 44 00:   INDUCTION LOG MEDIUM
 SGRD.OHMM   07 221 05 00:   SHALLOW SHORT GUARD RESISTIVITY
~PARAMETER INFORMATION
#MNEM.UNIT          VALUE    DESCRIPTION
#----------   ------------   ------------------------------
 PD  .                 GL:   PERMANENT DATUM
 EPD .F              5120:   ELEVATION PERMANENT DATUM
 LMF .                 GL:   LOG MEASURED FROM
 DMF .                 GL:   DRILLING MEASURED FROM
 EGL .F              5120:   GROUND LEVEL
 DATE.        01-MAY-1977:   RUN DATE
 RUN .                  1:   RUN NUMBER
 DD  .F               660:   DEPTH DRILLER
 DL  .F               663:   DEPTH LOGGER
 BLI .F               661:   BOTTOM LOG INTERVAL
 TLI .F                28:   TOP LOG INTERVAL
 CS  .IN            8.625:   CASING SIZE
 BS  .IN               12:   BIT SIZE
 BSD .F               660:   BIT SIZE AT DEPTH
 DFT .            KCL MUD:   DRILLING FLUID TYPE
 DFD .                8.7:   DRILLING FLUID DENSITY
 TCS .HRS            0100:   TIME CURCULATED STOPPED
 MRT .F                71:   MAXIMUM RECORDED TEMPERATURE
 ENGI.          T. JOYNER:   RECORDING ENGINEER
 WITN.            R. LYON:   WITNESSED BY
 CLNT.            A2DTECH:   CLIENT CODE
 ORIG.           5" PRINT:   ORIGIN OF DATA
 UWI .       490251035600:   UNIQUE WELL ID
 DICO. A2D Technologies, Inc.:   DIGITIZING COMPANY
~OTHER INFORMATION
~A   DEPT     CALD        GRD        CORR      DPHI       RHOB        SPR        ILD        ILM       SGRD   
# ...
  283.5000     7.7691   104.4632     0.0145     0.1269     2.4693   -37.6963    13.3163    14.4648    15.3907
  284.0000     7.7684    99.6597     0.0160     0.1254     2.4738   -37.6905    13.3163    14.3654    15.3907
  284.5000     7.7676   100.5619     0.0174     0.1230     2.4738   -37.6845    13.2248    14.2667    15.2849
  285.0000     7.7669   103.4160     0.0174     0.1212     2.4737   -37.5298    13.1339    14.0713    15.0756
  285.5000     7.7661   105.0689     0.0144     0.1206     2.4737   -37.5227    13.0437    13.9747    14.7670
  286.0000     7.7653   105.9711     0.0144     0.1227     2.4692   -37.5168    12.8651    13.7833    14.6656
  286.5000     7.7646   105.0715     0.0144     0.1304     2.4609   -37.5110    12.6889    13.6886    14.4648
  287.0000     7.7638   102.6703     0.0144     0.1333     2.4579   -37.5051    12.5152    13.4993    14.3654
  287.5000     7.7630   103.7226     0.0144     0.1315     2.4571   -37.4993    12.1748    13.3163    14.2667
  288.0000     7.7775   107.4777     0.0144     0.1297     2.4616   -37.6437    11.8436    13.2248    14.1687
  288.5000     7.7615   108.9804     0.0144     0.1318     2.4571   -37.6364    11.6815    13.1339    14.1687
  289.0000     7.7760   109.7325     0.0144     0.1333     2.4525   -37.6305    11.5215    13.1339    14.0713
  289.5000     7.7752   111.0851     0.0144     0.1360     2.4510   -37.6247    11.4423    13.1339    13.9747
  290.0000     7.7594   111.5365     0.0144     0.1387     2.4488   -37.6189    11.2857    13.2248    13.8787
  290.5000     7.7587   109.6872     0.0144     0.1405     2.4472   -37.6130    11.1311    13.1339    13.7833
  291.0000     7.7729   108.2282     0.0144     0.1412     2.4442   -37.7560    11.1311    12.9541    13.6886
  291.5000     7.7722   106.1349     0.0144     0.1415     2.4404   -37.8989    11.1311    12.7767    13.5946
  292.0000     7.7714   103.8839     0.0144     0.1403     2.4430   -37.9166    11.1311    12.6018    13.5012
  292.5000     7.7706   100.4317     0.0144     0.1376     2.4480   -38.0361    11.1311    12.3438    13.5012
  293.0000     7.7699   100.2828     0.0144     0.1358     2.4517   -38.0288    11.1311    12.1748    13.4084
  293.5000     7.7691   101.4853     0.0129     0.1343     2.4517   -38.1732    11.1414    11.9256    13.5012
  294.0000     7.7684   104.4896     0.0098     0.1367     2.4494   -38.1659    11.2857    11.7623    13.5012
  294.5000     7.7676   107.1936     0.0068     0.1403     2.4434   -38.3103    11.3637    11.6012    13.5946
  295.0000     7.7668   108.9966     0.0068     0.1431     2.4381   -38.4533    11.4423    11.6012    13.5946
  295.5000     7.7661   108.9979     0.0083     0.1439     2.4364   -38.5962    11.5215    11.6012    13.5012
  296.0000     7.7653   107.4977     0.0098     0.1429     2.4380   -38.7377    11.4423    11.6012    13.2248
  296.5000     7.7495   105.6971     0.0098     0.1385     2.4456   -38.7319    11.3637    11.8436    13.0437
  297.0000     7.7638   105.0975     0.0113     0.1346     2.4538   -38.7260    11.2081    11.6012    13.1339
  297.5000     7.7630   104.1982     0.0129     0.1328     2.4553   -38.7202    11.1311    11.5215    13.3163
  298.0000     7.7623   103.8988     0.0129     0.1337     2.4553   -38.8632    10.8284    11.2857    13.4084
  298.5000     7.7617   104.0766     0.0129     0.1352     2.4575   -38.8571    10.5338    11.2081    13.3013
  299.0000     7.7609   104.5195     0.0129     0.1322     2.4605   -39.1476    10.2473    10.9787    13.1339
  299.5000     7.7602   104.9712     0.0129     0.1274     2.4650   -39.2920     9.9686    10.6801    12.9541
  300.0000     7.7594   105.7057     0.0129     0.1334     2.4597   -39.4571     9.6975    10.3526    12.8403
  300.5000     7.7557   106.4958     0.0129     0.1340     2.4560   -39.7270     9.4008    10.1274    12.5388
  301.0000     7.7520   107.2859     0.0129     0.1337     2.4552   -39.9969     9.1041     9.9019    12.0965
  301.5000     7.7483   107.8262     0.0129     0.1365     2.4534   -40.2668     8.8109     9.7002    11.4498
  302.0000     7.7446   108.5831     0.0144     0.1383     2.4475   -40.6131     8.6323     9.5682    10.8377
  302.5000     7.7420   109.4901     0.0144     0.1314     2.4531   -40.6225     8.3992     9.4402    10.2583
  303.0000     7.7416   110.0969     0.0159     0.1284     2.4634   -40.7560     8.2859     9.4415     9.9127
  303.5000     7.7411   109.3507     0.0159     0.1278     2.4626   -40.7530     8.2307     9.5112    10.0524
  304.0000     7.7558   109.3584     0.0141     0.1314     2.4628   -40.8989     8.2324     9.6450    10.5516
  304.5000     7.7553   109.5147     0.0141     0.1265     2.4680   -40.8958     8.3484     9.7807    11.3070
  305.0000     7.7549   109.8699     0.0141     0.1242     2.4703   -40.8929     8.5836     9.9138    11.7060
  305.5000     7.7695   112.5786     0.0140     0.1241     2.4733   -40.8899     8.8254     9.9152    11.6274
  306.0000     7.7690   115.0871     0.0140     0.1232     2.4755   -41.0359     9.0117     9.9851    11.5499
  306.5000     7.7535   115.9941     0.0140     0.1223     2.4778   -41.0322     9.1387     9.9865    11.5528
  307.0000     7.7530   117.3516     0.0139     0.1211     2.4793   -41.0292     9.3316    10.0635    11.7156
  307.5000     7.7676   118.8592     0.0139     0.1184     2.4823   -41.0262     9.5286    10.1980    11.9629
  308.0000     7.7671   112.1086     0.0139     0.1142     2.4853   -41.0233     9.6629    10.2775    12.1315
  308.5000     7.7667   110.4616     0.0123     0.1148     2.4861   -41.0203     9.8669    10.4221    12.0500
  309.0000     7.7663   110.6194     0.0108     0.1155     2.4861   -41.1669    10.0751    10.5600    12.0532
  309.5000     7.7659   113.3282     0.0093     0.1166     2.4853   -41.1632    10.1469    10.7175    12.0556
  310.0000     7.7654   116.9380     0.0077     0.1178     2.4808   -41.1602    10.2192    10.8583    12.0581
  310.5000     7.7650   118.1438     0.0062     0.1202     2.4733   -41.3068    10.2920    10.9349    12.1441
  311.0000     7.7645   117.0490     0.0031     0.1242     2.4670   -41.1543    10.3654    11.0232    12.3152
  311.5000     7.7640   116.1917     0.0001     0.1272     2.4605   -41.3001    10.2963    11.0898    12.6621
  312.0000     7.7636   115.4595     0.0000     0.1317     2.4582   -41.2972    10.2277    11.1680    13.0188
  312.5000     7.7631   115.0151     0.0045     0.1314     2.4590   -41.2942    10.2298    11.2598    13.2023
  313.0000     7.7777   115.4717     0.0075     0.1278     2.4612   -41.2912    10.1615    11.3398    13.0235
  313.5000     7.7772   117.2797     0.0105     0.1218     2.4695   -41.4378    10.1637    11.4061    12.9367
  314.0000     7.7768   120.8894     0.0120     0.1206     2.4778   -41.5829    10.0959    11.5810    12.6745
  314.5000     7.7764   122.5472     0.0135     0.1252     2.4703   -41.5800    10.0286    11.7283    12.4183
  315.0000     7.7759   118.9497     0.0150     0.1254     2.4673   -41.7266     9.9617    11.9753    12.3349
  315.5000     7.7755   119.8568     0.0134     0.1245     2.4673   -41.7229     9.8954    11.9770    12.2527
  316.0000     7.7750   120.3133     0.0089     0.1239     2.4680   -41.7199     9.8975    12.0615    12.0050
  316.5000     7.7746   120.4696     0.0058     0.1260     2.4672   -41.7169     9.8995    12.0632    12.0074
  317.0000     7.7892   120.4745     0.0058     0.1299     2.4612   -41.7140     9.9015    12.1483    12.0099
  317.5000     7.7887   119.9924     0.0057     0.1369     2.4522   -41.7110     9.9036    12.0661    11.9293
  318.0000     7.7882   115.3063     0.0072     0.1393     2.4492   -41.7080     9.9742    12.0681    11.9323
  318.5000     7.8029   111.6338     0.0087     0.1338     2.4530   -41.7051     9.9762    12.0698    11.8522
  319.0000     7.8024   110.5888     0.0087     0.1294     2.4590   -41.8517    10.0473    11.9885    11.8552
  319.5000     7.8020   110.2947     0.0102     0.1257     2.4680   -41.8480    10.1189    11.9902    11.9397
