~VERSION INFORMATION
 VERS.                2.0:   CWLS LOG ASCII STANDARD - VERSION 2.0
 WRAP.                 NO:   ONE LINE PER DEPTH STEP
~WELL INFORMATION
#MNEM.UNIT      DATA TYPE    INFORMATION
#----------   ------------   ------------------------------
 STRT.F           86.5000:   START DEPTH
 STOP.F         1282.0000:   STOP DEPTH
 STEP.F            0.5000:   STEP LENGTH
 NULL.          -999.2500:   NO VALUE
 COMP.      UNITED STATES:   COMPANY
 WELL.             NPR #3:   WELL
 FLD .        TEAPOT DOME:   FIELD
 LOC .      S14 T38N R78W:   LOCATION
 CNTY.            NATRONA:   COUNTY
 STAT.            WYOMING:   STATE
 CTRY. UNITED STATES OF AMERICA:   COUNTRY
 SRVC.       Schlumberger:   SERVICE COMPANY
 DATE.        06-JUL-1962:   LOGDATE
 API .       490250631800:   API NUMBER
~CURVE INFORMATION
#MNEM.UNIT       API CODE    CURVE DESCRIPTION
#----------   ------------   ------------------------------
 DEPT.F                  :   
 SPR .MV     05 010 01 00:   SPONTANEOUS POTENTIAL FROM RES.
 CILD.MMHO   05 110 00 00:   CONDUCTIVITY INDUCTION LOG
 ASN .OHMM   05 041 16 00:   AMPLIFIED SHORT NORMAL 16"
 ILD .OHMM   05 120 46 00:   INDUCTION LOG DEEP
 GR  .GAPI   30 310 01 00:   GAMMA RAY
~PARAMETER INFORMATION
#MNEM.UNIT          VALUE    DESCRIPTION
#----------   ------------   ------------------------------
 PD  .                 GL:   PERMANENT DATUM
 EPD .F              5288:   ELEVATION PERMANENT DATUM
 LMF .                 KB:   LOG MEASURED FROM
 DAPD.F                 5:   FEET ABOVE PERMANENT DATUM
 DMF .                 KB:   DRILLING MEASURED FROM
 EKB .F              5293:   KELLING BUSHING
 EGL .F              5288:   GROUND LEVEL
 DATE.             7-6-62:   RUN DATE
 RUN .                  1:   RUN NUMBER
 DD  .F              1286:   DEPTH DRILLER
 DL  .F              1283:   DEPTH LOGGER
 BLI .F              1282:   BOTTOM LOG INTERVAL
 TLI .F                87:   TOP LOG INTERVAL
 CBD .F                10:   CASING BOTTOM DRILLER
 BS  .IN             6.75:   BIT SIZE
 BSD .F              1286:   BIT SIZE AT DEPTH
 DFT .            GEL-OIL:   DRILLING FLUID TYPE
 DFD .               10.3:   DRILLING FLUID DENSITY
 DFV .                 53:   DRILLING FLUID VISCOSITY
 DFL .                3.6:   DRILLING FLUID LOSS
 MSS .           FLOWLINE:   MUD SAMPLE SOURCE
 RMS .OHMM           5.66:   RESISTIVITY MUD SAMPLE
 MST .F                78:   MUD SAMPLE TEMPERATURE
 RMF .OHMM           5.59:   RESISTIVITY MUD FILTRATE SAMPLE
 MFST.F                78:   MUD FILTRATE SAMPLE TEMPERATURE
 RMC .OHMM           4.47:   RESISTIVITY MUD CAKE
 MCST.F                78:   MUD CAKE SAMPLE TEMPERATURE
 MFSS.                  M:   MUD FILTRATE SAMPLE SOURCE
 MCSS.                  M:   MUD CAKE SAMPLE SOURCE
 RMB .OHMM           5.08:   RESISTIVITY MUD AT BHT
 BHT .F                88:   BOTTOM HOLE TEMPERATURE
 TCS .HRS               1:   TIME CURCULATED STOPPED
 MRT .F                88:   MAXIMUM RECORDED TEMPERATURE
 LUN .               2503:   LOGGING UNIT NUMBER
 LUL .               CSPR:   LOGGING UNIT LOCATION
 ENGI.             KNOBEL:   RECORDING ENGINEER
 WITN.          JORGENSEN:   WITNESSED BY
 CLNT.            A2DTECH:   CLIENT CODE
 ORIG.       2", 5" PRINT:   ORIGIN OF DATA
 UWI .       490250631800:   UNIQUE WELL ID
 DICO. A2D Technologies, Inc.:   DIGITIZING COMPANY
~OTHER INFORMATION
~A   DEPT      SPR       CILD        ASN        ILD         GR   
   86.5000   -46.7132  -999.2500  -999.2500  -999.2500  -999.2500
   87.0000   -46.7132  -999.2500     5.6326     1.8692  -999.2500
   87.5000   -46.7132  -999.2500     5.4494     4.0235  -999.2500
   88.0000   -46.7547  -999.2500     5.3158     5.2503  -999.2500
   88.5000   -46.5554  -999.2500     5.2144     4.9500  -999.2500
   89.0000   -46.4304  -999.2500     4.9852     4.8195  -999.2500
   89.5000   -46.3056  -999.2500     4.5343     3.6980  -999.2500
   90.0000   -46.1807  -999.2500     2.7586     2.3526  -999.2500
   90.5000   -46.0559  -999.2500     0.8219     0.9530  -999.2500
   91.0000   -45.9310  -999.2500     0.9905     0.9520  -999.2500
   91.5000   -45.8061   212.1671     1.2131     1.3562  -999.2500
   92.0000   -45.6812   204.8434     1.4398     2.1516  -999.2500
   92.5000   -45.5559   207.0457     2.9309     3.2533  -999.2500
   93.0000   -45.4303   209.0548     4.6393     4.3610  -999.2500
   93.5000   -45.3208   210.8998     5.0165     4.6708  -999.2500
   94.0000   -45.3843   214.0095     4.9428     4.5017  -999.2500
   94.5000   -45.6509   217.6607     4.8959     4.3288  -999.2500
   95.0000   -45.9081   221.3119     4.8565     4.1551  -999.2500
   95.5000   -46.1629   224.9631     4.7945     4.0546  -999.2500
   96.0000   -46.2415   225.7376     4.7334     4.0738  -999.2500
   96.5000   -46.0704   225.7376     4.7291     4.0912  -999.2500
   97.0000   -45.9012   225.8978     4.7961     4.1090  -999.2500
   97.5000   -45.7302   226.7387     4.7466     4.1267  -999.2500
   98.0000   -45.5559   226.0369     4.7079     4.1418  -999.2500
   98.5000   -45.5183   221.0741     4.8068     4.2622  -999.2500
   99.0000   -45.5176   216.1114     4.9066     4.4139  -999.2500
   99.5000   -45.5183   211.1487     4.9927     4.5490  -999.2500
  100.0000   -45.5909   206.1859     4.8926     4.5507  -999.2500
  100.5000   -45.7327   203.7144     4.8655     4.6107  -999.2500
  101.0000   -45.8747   201.7259     4.9819     4.7309  -999.2500
  101.5000   -46.0173   200.9644     5.0946     4.8513  -999.2500
  102.0000   -46.1612   200.1193     5.1937     4.9716  -999.2500
  102.5000   -46.3088   199.2767     5.2031     5.0922  -999.2500
  103.0000   -46.3162   198.4389     5.2143     5.1530  -999.2500
  103.5000   -46.3150   197.6013     5.2443     5.1796  -999.2500
  104.0000   -46.3148   196.7638     5.2998     5.2063  -999.2500
  104.5000   -46.3176   195.9262     5.3559     5.2330  -999.2500
  105.0000   -46.2039   194.1243     5.4126     5.2635  -999.2500
  105.5000   -46.0513   191.9678     5.4151     5.3080  -999.2500
  106.0000   -45.8975   189.8106     5.4135     5.3510  -999.2500
  106.5000   -45.7438   187.6502     5.4584     5.3941  -999.2500
  107.0000   -45.5903   185.4877     5.5163     5.4372  -999.2500
  107.5000   -45.4365   183.5703     5.5751     5.4803  -999.2500
  108.0000   -45.2814   182.9219     5.6332     5.5231  -999.2500
  108.5000   -45.1256   182.2742     5.6350     5.5476  -999.2500
  109.0000   -45.1189   181.6218     5.6168     5.5262  -999.2500
  109.5000   -45.2154   180.9664     5.5978     5.5053  -999.2500
  110.0000   -45.3915   180.6881     5.5786     5.4844  -999.2500
  110.5000   -45.5666   180.6902     5.5749     5.4630  -999.2500
  111.0000   -45.6821   180.9411     5.5748     5.4496  -999.2500
  111.5000   -45.4329   182.2812     5.5748     5.3730  -999.2500
  112.0000   -45.1795   183.6213     5.5723     5.3503  -999.2500
  112.5000   -44.9309   184.6944     5.5655     5.3508  -999.2500
  113.0000   -45.0529   184.6944     5.5585     5.3341  -999.2500
  113.5000   -45.0902   185.0762     5.5327     5.3143  -999.2500
  114.0000   -45.0416   186.9188     5.4779     5.2940  -999.2500
  114.5000   -44.9927   188.7594     5.4350     5.2740  -999.2500
  115.0000   -44.9428   190.6048     5.4359     5.2561  -999.2500
  115.5000   -44.9729   192.4517     5.4109     5.1814  -999.2500
  116.0000   -45.0619   194.2996     5.3825     5.0989  -999.2500
  116.5000   -45.0873   195.7060     5.3537     5.0352  -999.2500
  117.0000   -44.8793   195.7060     5.3249     4.9989  -999.2500
  117.5000   -44.6724   195.8395     5.2963     4.9623  -999.2500
  118.0000   -44.4657   196.3978     5.2734     4.9504  -999.2500
  118.5000   -44.2592   196.3151     5.2973     4.9223  -999.2500
  119.0000   -44.0535   194.7281     5.3323     4.8815  -999.2500
  119.5000   -43.9224   193.1412     5.3675     4.8696  -999.2500
  120.0000   -43.9250   191.5543     5.4038     4.9611  -999.2500
  120.5000   -43.9864   190.1201     5.4327     5.0502  -999.2500
  121.0000   -44.1543   188.8638     5.4598     5.1384  -999.2500
  121.5000   -44.3199   187.6075     5.4610     5.1495  -999.2500
  122.0000   -44.4881   186.0634     5.4036     5.1882  -999.2500
  122.5000   -44.3827   183.7601     5.3751     5.2433  -999.2500
  123.0000   -44.1542   181.4568     5.4816     5.2982  -999.2500
  123.5000   -43.9291   179.1536     5.6031     5.3561  -999.2500
  124.0000   -43.9757   176.8503     5.7244     5.5162  -999.2500
  124.5000   -44.0431   175.1884     5.8383     5.6765  -999.2500
  125.0000   -44.1109   174.1833     5.9390     5.8317  -999.2500
  125.5000   -44.1238   173.6828     6.0347     5.8537  -999.2500
  126.0000   -44.1614   171.1313     6.1297     5.8989  -999.2500
  126.5000   -44.2571   167.5131     6.1972     5.9900  -999.2500
  127.0000   -44.3521   163.8949     6.2322     6.0821  -999.2500
  127.5000   -44.4465   160.2767     6.3025     6.1745  -999.2500
  128.0000   -44.5285   156.6585     6.4048     6.2668  -999.2500
  128.5000   -44.4080   155.6639     6.5371     6.3591  -999.2500
  129.0000   -44.3447   155.3529     6.6710     6.4514  -999.2500
  129.5000   -44.4438   152.9881     6.6739     6.5437  -999.2500
  130.0000   -44.4890   150.6233     6.7950     6.6360  -999.2500
  130.5000   -44.3104   148.2584     6.9580     6.7305  -999.2500
  131.0000   -44.1364   147.6554     6.9584     6.7537  -999.2500
  131.5000   -43.9629   149.5274     6.7806     6.6765  -999.2500
  132.0000   -43.7882   151.5016     6.6403     6.5765  -999.2500
  132.5000   -43.7540   153.4758     6.4998     6.4756  -999.2500
  133.0000   -43.8891   155.4501     6.4627     6.3731  -999.2500
  133.5000   -44.0226   157.4243     6.4299     6.3517  -999.2500
  134.0000   -44.1207   159.1139     6.3965     6.3512  -999.2500
  134.5000   -43.9367   160.3200     6.3632     6.3526  -999.2500
  135.0000   -43.7519   161.5260     6.3333     6.3112  -999.2500
  135.5000   -43.8108   162.7321     6.3804     6.2600  -999.2500
  136.0000   -43.9429   163.9382     6.4097     6.2084  -999.2500
  136.5000   -44.0783   164.9873     6.3733     6.1568  -999.2500
  137.0000   -44.1207   165.7913     6.3377     6.1052  -999.2500
  137.5000   -44.0522   166.5954     6.3021     6.0536  -999.2500
  138.0000   -43.9828   167.3994     6.2664     6.0019  -999.2500
  138.5000   -43.9137   168.2035     6.2307     5.9519  -999.2500
  139.0000   -43.8446   168.9067     6.1954     5.9374  -999.2500
  139.5000   -43.7763   169.4651     6.1615     5.9244  -999.2500
  140.0000   -43.7240   170.0234     6.1279     5.9112  -999.2500
  140.5000   -43.7619   170.5815     6.0960     5.8980  -999.2500
  141.0000   -43.8419   171.1377     6.0945     5.8847  -999.2500
  141.5000   -43.9219   171.6807     6.1161     5.8716  -999.2500
  142.0000   -44.0022   171.1622     6.1359     5.8585  -999.2500
  142.5000   -44.0790   170.6797     6.1353     5.8601  -999.2500
  143.0000   -44.0484   170.6797     6.1352     5.8811  -999.2500
  143.5000   -43.7444   170.6797     6.1356     5.9019  -999.2500
  144.0000   -43.5639   169.7658     6.1488     5.9228  -999.2500
  144.5000   -43.7510   168.6890     6.2088     5.9439  -999.2500
  145.0000   -43.9284   167.6765     6.2667     5.9811  -999.2500
  145.5000   -44.1007   163.7402     6.2751     6.0272  -999.2500
  146.0000   -44.0539   160.0258     6.3240     6.1430  -999.2500
  146.5000   -43.7736   156.3115     6.5747     6.3407  -999.2500
  147.0000   -43.5281   152.5972     6.8219     6.5379  -999.2500
