~VERSION INFORMATION
 VERS.                2.0:   CWLS LOG ASCII STANDARD - VERSION 2.0
 WRAP.                 NO:   ONE LINE PER DEPTH STEP
~WELL INFORMATION
#MNEM.UNIT      DATA TYPE    INFORMATION
#----------   ------------   ------------------------------
 STRT.F            2.0000:   START DEPTH
 STOP.F          500.0000:   STOP DEPTH
 STEP.F            0.5000:   STEP LENGTH
 NULL.          -999.2500:   NO VALUE
 COMP. BROWN JOHN E&C INC:   COMPANY
 WELL. NAVAL PETROLEUM RESERVE 3 SHX- #65-1-3:   WELL
 FLD .             TEAPOT:   FIELD
 LOC .       S3 T38N R78W:   LOCATION
 CNTY.            NATRONA:   COUNTY
 STAT.            WYOMING:   STATE
 CTRY. UNITED STATES OF AMERICA:   COUNTRY
 SRVC.     Atlas Wireline:   SERVICE COMPANY
 DATE.        13-DEC-1991:   LOGDATE
 API .       490252247400:   API NUMBER
~CURVE INFORMATION
#MNEM.UNIT       API CODE    CURVE DESCRIPTION
#----------   ------------   ------------------------------
 DEPT.F                  :   
 RILD.OHMM   07 120 46 00:   RESISTIVITY INDUCTION LOG DEEP
 RILM.OHMM   07 120 44 00:   RESISTIVITY INDUCTION LOG MEDIUM
 GRR .GAPI   07 310 01 00:   GAMMA RAY FROM RESISTIVITY
~PARAMETER INFORMATION
#MNEM.UNIT          VALUE    DESCRIPTION
#----------   ------------   ------------------------------
 PD  .                 GL:   PERMANENT DATUM
 EPD .F              5148:   ELEVATION PERMANENT DATUM
 LMF .                 KB:   LOG MEASURED FROM
 DAPD.F                10:   FEET ABOVE PERMANENT DATUM
 DMF .                 KB:   DRILLING MEASURED FROM
 EKB .F              5150:   KELLING BUSHING
 EDF .F              5149:   DRILLING FLOOR
 EGL .F              5148:   GROUND LEVEL
 DATE.        13-DEC-1991:   RUN DATE
 RUN .                  1:   RUN NUMBER
 DD  .F               510:   DEPTH DRILLER
 DL  .F               510:   DEPTH LOGGER
 BLI .F               508:   BOTTOM LOG INTERVAL
 CS  .IN            9.625:   CASING SIZE
 CBD .F                51:   CASING BOTTOM DRILLER
 CBL .F                50:   CASING BOTTOM LOGGER
 BS  .IN             8.75:   BIT SIZE
 BSD .F               510:   BIT SIZE AT DEPTH
 DFT .                AIR:   DRILLING FLUID TYPE
 MRT .F                95:   MAXIMUM RECORDED TEMPERATURE
 LUN .            HL-6274:   LOGGING UNIT NUMBER
 LUL .             CASPER:   LOGGING UNIT LOCATION
 ENGI.             RAUTIO:   RECORDING ENGINEER
 WITN.        GARY STRONG:   WITNESSED BY
 CLNT.            A2DTECH:   CLIENT CODE
 ORIG.           5" PRINT:   ORIGIN OF DATA
 UWI .       490252247400:   UNIQUE WELL ID
 DICO. A2D Technologies, Inc.:   DIGITIZING COMPANY
~OTHER INFORMATION
~A    DEPT    RILD       RILM         GRR  
# ...
   93.0000     8.6622     8.5636   137.6633
   93.5000     8.6605     8.6204   139.1721
   94.0000     8.7197     8.6776   139.7484
   94.5000     8.7786     8.8571   136.4344
   95.0000     9.0237     9.0396   131.6210
   95.5000     9.4056     9.3548   129.5104
   96.0000     9.6686     9.5483   128.2986
   96.5000     9.8063     9.8137   127.3891
   97.0000    10.0758    10.0167   127.0824
   97.5000    10.2863    10.2943   129.1739
   98.0000    10.5005    10.5073   132.5806
   98.5000    10.7937    10.7993   136.6622
   99.0000    11.0188    11.0229   137.8570
   99.5000    11.1714    11.3291   136.3449
  100.0000    11.4833    11.5635   131.8318
  100.5000    11.7221    11.6413   126.1261
  101.0000    12.0495    11.9658   124.3243
  101.5000    12.2998    12.2150   124.0240
  102.0000    12.4692    12.3838   125.8258
  102.5000    12.4668    12.6411   126.1261
  103.0000    12.4643    12.7266   123.6797
  103.5000    12.4613    12.7235   121.0210
  104.0000    12.4589    12.7210   121.3213
  104.5000    12.4565    12.6300   122.8228
  105.0000    12.4425    12.5403   124.3243
  105.5000    12.1946    12.3653   124.9249
  106.0000    12.1080    12.2773   123.7237
  106.5000    12.0220    12.1052   119.9960
  107.0000    11.8535    11.9362   116.2162
  107.5000    11.7693    11.8982   114.4144
  108.0000    11.6856    11.6857   111.7117
  108.5000    11.6026    11.6022   113.8138
  109.0000    11.5196    11.6000   117.7177
  109.5000    11.4378    11.5977   121.6216
  110.0000    11.4356    11.5148   125.0050
  110.5000    11.4328    11.5125   126.7267
  111.0000    11.3516    11.5103   124.9249
  111.5000    11.3493    11.5882   120.1151
  112.0000    11.3471    11.5853   115.0150
  112.5000    11.4239    11.5831   114.1141
  113.0000    11.4211    11.6615   115.3153
  113.5000    11.4189    11.7397   113.5135
  114.0000    11.4161    11.6563   111.7117
  114.5000    11.4139    11.5735   110.8108
  115.0000    11.2545    11.4913   115.3553
  115.5000    11.1735    11.2519   121.0210
  116.0000    11.0179    11.2497   120.1201
  116.5000    10.8640    11.1349   117.7177
  117.0000    10.7868    11.0066   119.8198
  117.5000    10.6263    10.8595   122.8228
  118.0000    10.4871    10.7078   123.1231
  118.5000    10.4126    10.6317   122.5225
  119.0000    10.2672    10.4827   121.3213
  119.5000    10.1941    10.3363   120.1201
  120.0000    10.1215    10.2629   118.6186
  120.5000    10.0494    10.0491   117.4174
  121.0000     9.9780     9.9777   117.7177
  121.5000     9.9066     9.9068   117.7177
  122.0000     9.9047     9.8364   115.2312
  122.5000     9.8343     9.8340   113.2132
  123.0000     9.7640     9.7642   115.3153
  123.5000     9.6946     9.7623   115.6156
  124.0000     9.6258     9.7603   115.9159
  124.5000     9.6239     9.6905   118.0180
  125.0000     9.6215     9.6217   120.7207
  125.5000     9.6197     9.6198   123.4975
  126.0000     9.6178     9.5510   125.8258
  126.5000     9.6155     9.5492   126.1261
  127.0000     9.6136     9.4813   122.5225
  127.5000     9.6117     9.4139   117.7177
  128.0000     9.6099     9.2179   117.4174
  128.5000     9.4752     8.9639   117.4585
  129.0000     9.3428     8.7170   115.0150
  129.5000     9.0854     8.4764   112.9129
  130.0000     8.7659     8.3002   116.5165
  130.5000     8.4730     8.1843   119.8338
  131.0000     8.2395     8.0142   121.0210
  131.5000     8.0683     7.9569   122.5225
  132.0000     7.9002     7.9004   125.2252
  132.5000     7.8441     7.8442   125.8258
  133.0000     7.7884     7.8423   127.3273
  133.5000     7.8461     7.8408   129.7297
  134.0000     7.8941     7.8938   132.1481
  134.5000     7.9103     7.9472   128.5285
  135.0000     8.0009     8.0083   125.2252
  135.5000     8.1110     8.1676   126.1261
  136.0000     8.1659     8.2225   128.8288
  136.5000     8.2784     8.3937   125.8258
  137.0000     8.3339     8.4505   122.5225
  137.5000     8.3903     8.5669   120.4204
  138.0000     8.4648     8.6844   124.0240
  138.5000     8.5303     8.8036   128.8288
  139.0000     8.5612     8.8633   132.1321
  139.5000     8.6192     8.9235   130.9309
  140.0000     8.6771     8.9855   125.8258
  140.5000     8.7358     9.1067   122.2222
  141.0000     8.7949     9.1049   120.9870
  141.5000     8.7927     9.1031   119.8198
  142.0000     8.8522     9.1009   118.9189
  142.5000     8.8504     9.0363   117.7177
  143.0000     8.8483     9.0345   120.7207
  143.5000     8.8466     8.9703   123.1231
  144.0000     8.8151     8.9681   126.1261
  144.5000     8.7816     8.9044   128.8288
  145.0000     8.7799     8.9027   129.7297
  145.5000     8.7782     8.8390   129.7297
  146.0000     8.7765     8.7762   130.3303
  146.5000     8.7744     8.7139   128.5285
  147.0000     8.7727     8.6520   125.2252
  147.5000     8.7103     8.6498   123.9890
  148.0000     8.7082     8.6482   124.6246
  148.5000     8.6919     8.6465   124.6246
  149.0000     8.6447     8.6448   124.9249
  149.5000     8.6430     8.6427   125.2252
  150.0000     8.6411     8.7015   123.4230
  150.5000     8.5790     8.6987   123.7205
  151.0000     8.5170     8.6964   124.6186
  151.5000     8.5148     8.6336   125.2164
  152.0000     8.3954     8.6313   125.8135
  152.5000     8.3347     8.5695   128.2131
  153.0000     8.2749     8.5075   130.6526
  153.5000     8.2728     8.4465   130.3089
  154.0000     8.2130     8.3860   128.8046
  154.5000     8.1541     8.3205   130.0230
  155.0000     8.0397     8.1518   132.4019
  155.5000     8.0313     8.0934   131.7985
  156.0000     7.8696     7.9791   129.6936
  156.5000     7.7592     7.7054   126.9874
  157.0000     7.5394     7.3894   125.1829
  157.5000     7.1851     7.0864   127.2822
  158.0000     6.8905     6.7484   130.6627
  158.5000     6.6079     6.5621   131.7811
  159.0000     6.4251     6.4700   126.6725
  159.5000     6.2912     6.3347   124.5676
  160.0000     6.2867     6.4663   124.8644
  160.5000     6.4644     6.6465   126.6634
  161.0000     6.6908     6.8792   128.7627
  161.5000     6.8772     7.1196   131.1616
  162.0000     7.1226     7.3180   132.6603
  162.5000     7.3668     7.4700   132.9585
  163.0000     7.4683     7.6781   133.5556
  163.5000     7.5768     7.7296   130.8494
  164.0000     7.6739     7.7809   128.4443
  164.5000     7.7254     7.7784   128.1412
  165.0000     7.7228     7.7764   131.1407
  165.5000     7.7204     7.7206   134.1409
  166.0000     7.7184     7.6648   127.8318
  166.5000     7.6101     7.6628   122.1226
  167.0000     7.5551     7.6608   121.5192
  167.5000     7.5009     7.5499   123.3182
  168.0000     7.3446     7.3954   125.7578
  168.5000     7.1414     7.1912   128.4170
  169.0000     6.9442     6.9927   130.8166
  169.5000     6.6594     6.6592   133.8368
  170.0000     6.2544     6.4305   135.9162
  170.5000     6.0397     6.1242   135.3121
  171.0000     5.8324     5.7918   135.0090
  171.5000     5.5928     5.4778   134.4049
  172.0000     5.4763     5.2532   134.1018
  172.5000     5.3994     5.1389   131.6966
  173.0000     5.3980     5.1778   127.0290
  173.5000     5.5098     5.3221   125.9853
  174.0000     5.7027     5.5126   128.0846
  174.5000     6.0282     5.8614   127.1702
  175.0000     6.5474     6.2807   125.3749
  175.5000     6.9192     6.7300   124.7722
  176.0000     7.2114     7.2110   128.6726
  176.5000     7.5154     7.4636   132.5730
  177.0000     7.6189     7.6715   134.3720
  177.5000     7.7228     7.7767   134.0690
  178.0000     7.7203     7.8288   131.5435
  178.5000     7.7183     7.8812   129.2579
  179.0000     7.7705     7.9888   129.2551
  179.5000     7.8765     8.0423   129.5526
  180.0000     7.9293     8.0397   128.9485
  180.5000     7.9824     8.0947   128.0448
  181.0000     8.0913     8.2040   128.3423
  181.5000     8.1456     8.2595   132.5430
  182.0000     8.2325     8.3143   135.5432
  182.5000     8.3699     8.3700   137.6425
  183.0000     8.3672     8.4842   136.0581
  183.5000     8.4818     8.4820   133.1317
