~VERSION INFORMATION
 VERS.                2.0:   CWLS LOG ASCII STANDARD - VERSION 2.0
 WRAP.                 NO:   ONE LINE PER DEPTH STEP
~WELL INFORMATION
#MNEM.UNIT      DATA TYPE    INFORMATION
#----------   ------------   ------------------------------
 STRT.F            0.0000:   START DEPTH
 STOP.F          883.0000:   STOP DEPTH
 STEP.F            0.5000:   STEP LENGTH
 NULL.          -999.2500:   NO VALUE
 COMP.       F D SERV INC:   COMPANY
 WELL. N P R 3 SX-35 #26-1-35:   WELL
 FLD .             TEAPOT:   FIELD
 LOC .      S35 T39N R78W:   LOCATION
 CNTY.            NATRONA:   COUNTY
 STAT.            WYOMING:   STATE
 CTRY. UNITED STATES OF AMERICA:   COUNTRY
 SRVC.     Atlas Wireline:   SERVICE COMPANY
 DATE.        21-NOV-1991:   LOGDATE
 API .       490252247800:   API NUMBER
~CURVE INFORMATION
#MNEM.UNIT       API CODE    CURVE DESCRIPTION
#----------   ------------   ------------------------------
 DEPT.F                  :   
 GRR .GAPI   07 310 01 00:   GAMMA RAY
 RILD.OHMM   07 120 46 00:   INDUCTION LOG DEEP RESISTIVITY
 RILM.OHMM   07 120 44 00:   INDUCTION LOG MEDIUM RESISTIVITY
 SPR .MV     07 010 01 00:   SPONTANEOUS POTENTIAL
 RFOC.OHMM   07 270 04 00:   RESISTIVITY FOCUSED LOG
~PARAMETER INFORMATION
#MNEM.UNIT          VALUE    DESCRIPTION
#----------   ------------   ------------------------------
 PD  .                 GL:   PERMANENT DATUM
 EPD .F              5098:   ELEVATION PERMANENT DATUM
 LMF .                 KB:   LOG MEASURED FROM
 DAPD.F                10:   FEET ABOVE PERMANENT DATUM
 DMF .                 KB:   DRILLING MEASURED FROM
 EKB .F              5108:   KELLING BUSHING
 EGL .F              5098:   GROUND LEVEL
 DATE.        21-NOV-1991:   RUN DATE
 RUN .                  1:   RUN NUMBER
 DD  .F               939:   DEPTH DRILLER
 DL  .F               887:   DEPTH LOGGER
 BLI .F               884:   BOTTOM LOG INTERVAL
 CS  .IN            9.625:   CASING SIZE
 CBD .F                40:   CASING BOTTOM DRILLER
 CBL .F                47:   CASING BOTTOM LOGGER
 BS  .IN             8.75:   BIT SIZE
 BSD .F               939:   BIT SIZE AT DEPTH
 DFT .               LSND:   DRILLING FLUID TYPE
 MSS .            MUDTANK:   MUD SAMPLE SOURCE
 RMS .OHMM           0.32:   RESISTIVITY MUD SAMPLE
 MST .F                90:   MUD SAMPLE TEMPERATURE
 RMB .OHMM           0.27:   RESISTIVITY MUD AT BHT
 BHT .F               103:   BOTTOM HOLE TEMPERATURE
 TCS .HRS               2:   TIME CURCULATED STOPPED
 MRT .F               103:   MAXIMUM RECORDED TEMPERATURE
 LUN .            HL 6307:   LOGGING UNIT NUMBER
 LUL .             CASPER:   LOGGING UNIT LOCATION
 ENGI.            WADDELL:   RECORDING ENGINEER
 WITN.             STRONG:   WITNESSED BY
 CLNT.            A2DTECH:   CLIENT CODE
 ORIG.           5" PRINT:   ORIGIN OF DATA
 UWI .       490252247800:   UNIQUE WELL ID
 DICO. A2D Technologies, Inc.:   DIGITIZING COMPANY
~OTHER INFORMATION
~A    DEPT      GRR      RILD       RILM        SPR       RFOC   
# ...
  427.0000   116.1702     5.4939     6.0742   -46.4585     6.5065
  427.5000   115.7083     5.5707     6.0722   -46.1609     6.5499
  428.0000   115.4741     5.6486     6.0283   -45.8632     6.4113
  428.5000   115.2399     5.6089     5.9847   -45.5671     6.5449
  429.0000   114.5504     5.6085     5.9001   -45.4197     6.6807
  429.5000   115.6819     5.6082     5.8985   -45.1236     6.6785
  430.0000   117.4962     5.5688     5.9383   -44.8260     6.6297
  430.5000   117.2010     5.5297     6.0226   -44.6786     6.5222
  431.0000   115.2052     5.4736     6.1032   -44.5341     6.3978
  431.5000   114.0605     5.4143     6.1443   -44.3884     6.2629
  432.0000   113.5986     5.3762     6.0570   -44.6992     6.1309
  432.5000   113.1368     5.2643     6.0436   -45.4638     6.0861
  433.0000   113.1302     5.0834     6.0116   -46.0767     6.0412
  433.5000   112.8960     5.0125     6.0100   -46.5378     5.9971
  434.0000   110.3703     5.0122     6.0083   -46.6954     5.9951
  434.5000   112.4258     4.9770     5.9649   -46.8530     6.0356
  435.0000   114.6954     5.0115     5.9629   -47.0106     6.0330
  435.5000   115.8285     5.1172     6.0035   -47.0167     6.0733
  436.0000   115.5927     5.2842     6.0858   -47.1756     6.1138
  436.5000   116.2689     5.4865     6.1697   -47.1815     6.2918
  437.0000   116.2623     5.5633     6.2986   -46.8838     6.5513
  437.5000   116.0281     5.6494     6.5207   -46.5862     6.7820
  438.0000   114.8224     5.8005     6.7505   -46.3996     6.8757
  438.5000   116.4684     5.9229     6.9440   -45.9910     7.0184
  439.0000   119.1932     6.0382     7.0356   -45.6934     7.0360
  439.5000   121.4628     6.1755     6.9356   -45.5478     7.0629
  440.0000   120.7734     6.3058     6.8855   -45.2514     7.0112
  440.5000   118.4906     6.3941     6.7882   -45.1040     6.9110
  441.0000   115.9802     6.2174     6.6457   -44.9581     6.8128
  441.5000   114.1525     6.0037     6.5061   -44.8137     6.6228
  442.0000   116.1929     5.8379     6.3252   -44.9714     6.4380
  442.5000   121.1939     5.6372     6.1881   -45.4325     6.2585
  443.0000   124.8292     5.4434     6.0620   -45.8938     6.1265
  443.5000   124.5949     5.3302     6.0603   -46.5079     6.0395
  444.0000   121.8569     5.2928     6.0587   -46.9690     5.9953
  444.5000   119.1189     5.2190     6.0571   -47.2784     5.9928
  445.0000   119.7951     5.1823     6.1410   -47.3344     6.0409
  445.5000   121.1844     5.1458     6.2253   -47.5936     6.0736
  446.0000   122.5117     5.2179     6.2236   -47.5995     6.2431
  446.5000   123.8708     5.2909     6.2655   -47.4536     6.3288
  447.0000   122.7261     5.3650     6.2637   -47.3080     6.4157
  447.5000   118.1671     5.4401     6.2617   -46.8599     6.5728
  448.0000   112.6977     5.5162     6.2600   -46.5622     6.7397
  448.5000   112.4333     5.5158     6.3021   -46.1129     6.9208
  449.0000   115.2185     5.6756     6.3890   -45.9655     6.8702
  449.5000   118.8219     5.8318     6.5225   -45.6692     6.5859
  450.0000   122.0019     5.8722     6.6125   -45.5235     6.3576
  450.5000   124.0455     5.9131     6.7095   -45.3776     6.2678
  451.0000   108.1040     5.9958     6.8432   -45.3850     7.1547
  451.5000   102.6346     5.9953     6.8898   -45.2377     7.5665
  452.0000   100.8071     5.9949     6.9362   -45.2450     7.4035
  452.5000   103.2575     6.0788     6.9338   -45.4026     7.1469
  453.0000   105.5183     6.1653     6.8358   -45.5602     6.8991
  453.5000   111.8762     6.2067     6.7392   -46.0213     6.7537
  454.0000   119.4781     6.1630     6.6905   -46.4826     6.7514
  454.5000   120.9501     6.0348     6.6356   -46.7933     6.7491
  455.0000   117.9718     5.9507     6.5478   -46.9509     6.7469
  455.5000   116.1354     5.7864     6.5005   -46.9568     6.6976
  456.0000   115.2095     5.7057     6.4086   -46.9627     6.6486
  456.5000   119.5189     5.6657     6.3623   -46.8153     6.5996
  457.0000   122.4625     5.5867     6.2723   -46.6709     6.5058
  457.5000   124.2680     5.5863     6.2706   -46.5250     6.4134
  458.0000   122.8831     5.5859     6.2689   -46.3591     6.3222
  458.5000   117.8601     5.5466     6.2672   -46.1696     6.2970
  459.0000   115.5685     5.5076     6.3095   -45.9059     6.3386
  459.5000   114.4150     5.4309     6.3073   -45.7898     6.3343
  460.0000   113.4891     5.5455     6.3056   -45.6439     6.2868
  460.5000   114.3842     5.6232     6.2600   -45.6513     6.2834
  461.0000   115.7374     5.6621     6.1716   -45.5054     6.2362
  461.5000   117.8324     5.6223     6.1269   -45.4304     6.2766
  462.0000   119.5693     5.5828     6.0606   -45.0634     6.3224
  462.5000   120.4644     5.5049     6.0810   -45.0693     6.4026
  463.0000   120.6804     5.5046     5.9947   -45.2269     6.4445
  463.5000   119.7507     5.5042     5.9470   -45.6880     6.5303
  464.0000   118.8248     5.4678     5.7811   -46.1491     6.5271
  464.5000   119.7199     5.4371     5.8192   -46.7620     6.5232
  465.0000   120.3873     5.5885     6.2040   -47.2231     6.5197
  465.5000   119.6852     5.6243     6.6823   -47.5326     6.4694
  466.0000   117.6213     5.6217     7.0624   -47.5398     6.4221
  466.5000   116.6954     5.6590     7.2585   -47.5456     6.5539
  467.0000   117.5904     5.6954     6.8605   -47.5515     6.5503
  467.5000   117.8065     5.7325     6.6215   -47.4042     6.5468
  468.0000   115.2835     5.7933     6.5719   -47.2583     6.4976
  468.5000   115.7233     5.8887     6.6152   -47.2657     6.5397
  469.0000   116.3907     5.9271     6.7575   -46.9580     6.5361
  469.5000   116.8306     5.9665     6.6992   -46.5201     6.6277
  470.0000   116.5837     5.9630     6.7434   -46.2225     6.7603
  470.5000   115.6578     6.0441     6.7865   -45.9249     6.8527
  471.0000   114.7319     6.0839     6.8787   -45.7776     6.8003
  471.5000   116.3098     6.1696     6.9716   -45.6317     6.8453
  472.0000   118.5797     6.2930     6.9669   -45.6390     6.9378
  472.5000   121.0926     6.2900     6.9631   -45.6449     7.0802
  473.0000   121.2674     6.2433     6.8627   -45.9747     7.2768
  473.5000   123.5281     6.2848     6.8105   -46.2651     7.3752
  474.0000   126.9270     6.2811     6.8068   -46.4692     7.3189
  474.5000   128.5088     6.3232     6.8517   -46.7258     7.2134
  475.0000   126.2133     6.3634     6.8960   -47.4962     7.1094
  475.5000   125.0598     6.4050     6.9883   -47.9636     7.1056
  476.0000   125.0440     6.4012     7.0334   -48.2813     7.1017
  476.5000   124.5699     6.4438     7.0789   -48.4448     7.1477
  477.0000   122.7336     6.4859     7.1246   -48.3048     7.2443
  477.5000   120.2144     6.5275     7.1707   -48.1648     7.3423
  478.0000   121.7923     6.5701     7.2274   -48.0243     7.4928
  478.5000   123.1426     6.6672     7.3145   -47.8847     7.7010
  479.0000   123.1272     6.7964     7.4134   -47.5751     7.8599
  479.5000   122.3998     6.8895     7.5652   -47.3041     7.9662
  480.0000   119.9059     7.0312     7.7212   -46.8606     8.0751
  480.5000   118.5248     7.1276     7.7743   -46.5689     8.0134
  481.0000   118.2817     7.2742     7.9302   -46.1224     8.0652
  481.5000   117.1282     7.3224     7.9259   -45.8307     8.2883
  482.0000   114.8367     7.4240     7.9782   -45.6935     8.5186
  482.5000   111.6346     7.5211     7.9173   -45.8725     8.5737
  483.0000   110.9363     7.6232     7.8580   -46.3270     8.6896
  483.5000   113.2679     7.6739     7.8537   -46.7939     8.8689
  484.0000   115.4540     7.7241     7.8495   -47.2609     9.0521
  484.5000   116.8043     7.7737     7.8451   -47.5761     8.9840
  485.0000   117.9270     7.6604     7.7312   -47.7396     8.9103
  485.5000   118.8221     7.4467     7.6198   -47.9031     8.7257
  486.0000   117.8962     7.3400     7.4578   -47.9150     8.4806
  486.5000   116.5151     7.0848     7.4029   -47.9294     8.3002
  487.0000   115.1077     6.9833     7.5545   -47.7865     8.1236
  487.5000   116.4804     7.0297     7.6568   -47.8012     7.7858
