~VERSION INFORMATION
 VERS.                2.0:   CWLS LOG ASCII STANDARD - VERSION 2.0
 WRAP.                 NO:   ONE LINE PER DEPTH STEP
~WELL INFORMATION
#MNEM.UNIT      DATA TYPE    INFORMATION
#----------   ------------   ------------------------------
 STRT.F            1.0000:   START DEPTH
 STOP.F          520.0000:   STOP DEPTH
 STEP.F            0.5000:   STEP LENGTH
 NULL.          -999.2500:   NO VALUE
 COMP. LAWRENCE/ALLISON INC:   COMPANY
 WELL.      77-13 SX #3-3:   WELL
 FLD .              NPR 3:   FIELD
 LOC .       S3 T38N R78W:   LOCATION
 CNTY.            NATRONA:   COUNTY
 STAT.            WYOMING:   STATE
 CTRY. UNITED STATES OF AMERICA:   COUNTRY
 SRVC.           Gearhart:   SERVICE COMPANY
 DATE.        22-JUN-1988:   LOGDATE
 API .       490251123700:   API NUMBER
~CURVE INFORMATION
#MNEM.UNIT       API CODE    CURVE DESCRIPTION
#----------   ------------   ------------------------------
 DEPT.F                  :   
 GRR .GAPI   07 310 01 00:   GAMMA RAY
 RILD.OHMM   07 120 46 00:   INDUCTION LOG DEEP RESISTIVITY
 RILM.OHMM   07 120 44 00:   INDUCTION LOG MEDIUM RESISTIVITY
~PARAMETER INFORMATION
#MNEM.UNIT          VALUE    DESCRIPTION
#----------   ------------   ------------------------------
 PD  .                 GL:   PERMANENT DATUM
 EPD .F              5166:   ELEVATION PERMANENT DATUM
 LMF .                 KB:   LOG MEASURED FROM
 DAPD.F                10:   FEET ABOVE PERMANENT DATUM
 DMF .                 KB:   DRILLING MEASURED FROM
 EKB .F              5176:   KELLING BUSHING
 EGL .F              5166:   GROUND LEVEL
 DATE.        22-JUN-1988:   RUN DATE
 RUN .                  1:   RUN NUMBER
 DD  .F               530:   DEPTH DRILLER
 DL  .F               528:   DEPTH LOGGER
 BLI .F               520:   BOTTOM LOG INTERVAL
 TLI .F                50:   TOP LOG INTERVAL
 CS  .IN            9.625:   CASING SIZE
 CBD .F                50:   CASING BOTTOM DRILLER
 CBL .F                50:   CASING BOTTOM LOGGER
 BS  .IN             8.75:   BIT SIZE
 BSD .F               530:   BIT SIZE AT DEPTH
 DFT .                AIR:   DRILLING FLUID TYPE
 TLAB.HRS            0908:   TIME LOGGER AT BOTTOM
 MRT .F                70:   MAXIMUM RECORDED TEMPERATURE
 LUN .               7597:   LOGGING UNIT NUMBER
 LUL .           GILLETTE:   LOGGING UNIT LOCATION
 ENGI.           JOHNSTON:   RECORDING ENGINEER
 WITN.             STRONG:   WITNESSED BY
 CLNT.            A2DTECH:   CLIENT CODE
 ORIG.           5" PRINT:   ORIGIN OF DATA
 UWI .       490251123700:   UNIQUE WELL ID
 DICO. A2D Technologies, Inc.:   DIGITIZING COMPANY
~OTHER INFORMATION
~A    DEPT       GRR     RILD       RILM   
# ...
  183.0000   133.6335     6.5362     6.1381
  183.5000   134.2513     6.9597     6.5371
  184.0000   136.0869     7.2065     6.9631
  184.5000   137.0069     7.5670     7.2636
  185.0000   135.1917     7.7266     7.5771
  185.5000   133.6786     7.8896     7.8419
  186.0000   131.5568     8.0561     8.0001
  186.5000   128.8261     8.2837     8.1228
  187.0000   128.5285     8.4585     8.2832
  187.5000   130.9751     8.5768     8.3989
  188.0000   133.4194     8.6969     8.5165
  188.5000   136.1682     8.7572     8.5757
  189.0000   137.0882     8.8204     8.6955
  189.5000   134.9686     8.9413     8.8172
  190.0000   132.2379     9.0034     8.8784
  190.5000   131.5900     9.0027     8.9400
  191.0000   133.7780     9.0652     9.0020
  191.5000   134.7003     9.0645     9.0645
  192.0000   134.7093     9.0639     9.0638
  192.5000   135.0228     9.1439     9.1269
  193.0000   135.9452     9.4504     9.1902
  193.5000   136.8990     9.4498     9.3188
  194.0000   137.8791     9.5268     9.4490
  194.5000   138.7123     9.9348     9.5812
  195.0000   138.7232     9.9906     9.6479
  195.5000   137.5146     9.5132     9.7148
  196.0000   132.9574     9.2505     9.6464
  196.5000   132.3553     9.1855     9.5786
  197.0000   134.8019     9.1848     9.4451
  197.5000   137.5507     9.1842     9.3135
  198.0000   139.9951     9.1836     9.2480
  198.5000   138.7864     9.1190     9.1191
  199.0000   137.2734     8.9919     9.0550
  199.5000   136.0648     8.9287     8.9288
  200.0000   136.0128     8.7869     8.7431
  200.5000   135.4783     8.5756     8.5595
  201.0000   136.0992     8.2669     8.3214
  201.5000   137.6334     7.7628     8.0849
  202.0000   140.0808     6.9903     7.7018
  202.5000   142.8326     6.3389     7.3761
  203.0000   144.3667     5.8289     7.0384
  203.5000   144.9876     5.3600     6.5513
  204.0000   145.9129     4.9289     5.6834
  204.5000   146.2294     4.3464     5.1515
  205.0000   146.2415     3.8867     4.7022
  205.5000   145.0359     3.5244     4.1157
  206.0000   142.3083     3.2865     3.4543
  206.5000   136.5365     3.0861     3.0235
  207.0000   129.8514     3.0219     2.8183
  207.5000   123.4708     3.0217     2.6827
  208.0000   121.3516     3.0640     2.6818
  208.5000   121.6685     3.1726     2.7377
  209.0000   125.6379     3.4497     2.9145
  209.5000   135.6957     3.9115     3.2584
  210.0000   143.9269     4.3129     4.0459
  210.5000   146.0801     4.7554     4.8850
  211.0000   146.7114     5.3920     5.4234
  211.5000   147.6469     5.8628     5.8961
  212.0000   148.8868     6.0285     6.1467
  212.5000   150.1269     6.2860     6.3632
  213.0000   151.3083     6.6004     6.5420
  213.5000   150.4072     6.7869     6.6778
  214.0000   146.7663     6.9302     6.7229
  214.5000   144.9489     6.9296     6.7677
  215.0000   146.7905     6.8330     6.8601
  215.5000   150.4555     6.5522     6.8661
  216.0000   151.0734     6.2829     6.7601
  216.5000   151.0885     6.0247     6.5255
  217.0000   151.4050     5.8584     6.1683
  217.5000   152.9391     5.6570     5.7901
  218.0000   157.8218     5.4625     5.3221
  218.5000   163.3133     5.2747     4.9957
  219.0000   161.1945     5.1650     4.8220
  219.5000   156.0316     5.0930     4.7871
  220.0000   148.7377     5.1643     4.8574
  220.5000   145.4012     5.3102     5.0657
  221.0000   146.0221     5.5370     5.3154
  221.5000   149.6871     5.8957     5.5813
  222.0000   152.1346     6.1906     5.8195
  222.5000   152.7554     6.5003     6.1015
  223.0000   152.4627     6.7779     6.4054
  223.5000   152.4752     7.0675     6.7244
  224.0000   151.5738     7.4210     7.1588
  224.5000   149.4552     7.7380     7.5153
  225.0000   150.3805     7.9566     7.8346
  225.5000   154.0759     8.1822     8.0548
  226.0000   156.5136     8.3540     8.1085
  226.5000   156.8094     8.3534     8.1050
  227.0000   155.2995     8.2947     8.1022
  227.5000   153.3839     8.2364     8.0429
  228.0000   150.4560     8.1785     7.9841
  228.5000   147.1195     8.1211     7.9257
  229.0000   146.5197     8.0019     7.8677
  229.5000   148.0569     7.8347     7.7017
  230.0000   150.5043     7.7320     7.5392
  230.5000   153.5605     7.5634     7.3801
  231.0000   156.6167     7.3540     7.1740
  231.5000   157.2376     7.0920     6.9737
  232.0000   153.2923     6.7519     6.6382
  232.5000   151.1735     6.3123     6.2311
  233.0000   151.7944     6.0108     5.8900
  233.5000   156.9815     5.8448     5.4520
  234.0000   160.9510     5.8037     5.1177
  234.5000   158.5277     5.8441     4.8715
  235.0000   155.1913     5.8436     4.8314
  235.5000   147.8974     5.8432     4.9713
  236.0000   144.5609     5.9665     5.2555
  236.5000   146.3995     6.1350     5.7136
  237.0000   149.4557     6.4871     6.2553
  237.5000   151.2943     6.8116     6.7060
  238.0000   151.9152     7.1523     7.2425
  238.5000   152.2317     7.4578     7.6032
  239.0000   153.4614     7.7222     7.7588
  239.5000   154.9955     7.9404     7.8712
  240.0000   156.5297     8.1647     8.0293
  240.5000   156.2274     8.3372     8.0829
  241.0000   155.0116     8.4537     8.2514
  241.5000   154.1306     8.5125     8.3640
  242.0000   153.8383     8.6316     8.4796
  242.5000   153.9016     8.6913     8.5361
  243.0000   154.7787     8.6907     8.5324
  243.5000   155.7040     8.7511     8.5294
  244.0000   156.6293     8.8119     8.5265
  244.5000   156.9458     8.8111     8.5235
  245.0000   155.7402     8.7492     8.5206
  245.5000   154.2302     8.7486     8.5176
  246.0000   153.3260     8.7479     8.5146
  246.5000   154.5588     8.7473     8.5117
  247.0000   155.7885     8.7467     8.5087
  247.5000   157.0182     8.7461     8.5058
  248.0000   156.1171     8.7455     8.5028
  248.5000   153.6938     8.6841     8.4999
  249.0000   150.9662     8.5630     8.4377
  249.5000   150.0620     8.2111     8.4348
  250.0000   151.5165     7.8748     8.3627
  250.5000   154.9598     7.5496     8.2959
  251.0000   160.1470     7.2300     8.1435
  251.5000   161.0723     6.8801     7.4885
  252.0000   162.3021     6.6452     6.0294
  252.5000   165.0539     6.4588     5.7017
  253.0000   168.4145     6.3302     5.6984
  253.5000   168.4708     6.1972     5.9886
  254.0000   166.6122     6.1096     6.2895
  254.5000   163.8846     6.0654     6.4245
  255.0000   160.5481     6.1490     6.5630
  255.5000   159.3302     6.2337     6.6064
  256.0000   160.8768     6.3197     6.4180
  256.5000   161.8021     6.3622     6.1450
  257.0000   162.1186     6.4050     5.7454
  257.5000   160.5681     6.4481     5.6264
  258.0000   157.4632     6.4915     5.8271
  258.5000   153.8631     6.4897     6.2935
  259.0000   153.3390     6.4879     6.7972
  259.5000   156.8583     6.5773     7.3413
  260.0000   159.1501     6.8568     7.6564
  260.5000   158.5533     7.1983     7.8193
  261.0000   156.7389     7.5042     7.9856
  261.5000   155.8378     7.8230     8.2127
  262.0000   154.6322     7.9313     8.2709
  262.5000   153.4267     7.9286     8.2137
  263.0000   152.5255     7.6544     8.2719
  263.5000   151.0156     7.1862     7.9884
  264.0000   145.5482     6.7466     7.5543
  264.5000   143.4264     6.4230     7.0445
  265.0000   145.5724     6.1149     6.3434
  265.5000   150.7595     5.9865     5.7121
  266.0000   155.9467     5.9431     5.5162
  266.5000   159.6117     5.9831     5.5166
  267.0000   160.5371     6.0656     5.7154
  267.5000   161.4624     6.2357     6.0481
  268.0000   161.7789     6.5921     6.6795
  268.5000   160.5733     7.0652     7.3656
  269.0000   158.7590     7.4094     7.9041
  269.5000   155.7269     7.7800     8.2795
  270.0000   152.9993     8.1551     8.4558
  270.5000   151.4893     8.5783     8.6963
  271.0000   150.5851     9.0016     8.9436
  271.5000   149.3826     9.5281     9.1339
  272.0000   148.1770     9.7959     9.3282
  272.5000   146.9715    10.0011     9.4602
  273.0000   147.5924    10.0835     9.5273
  273.5000   149.4310    10.2088     9.6621
