~VERSION INFORMATION
 VERS.                2.0:   CWLS LOG ASCII STANDARD - VERSION 2.0
 WRAP.                 NO:   ONE LINE PER DEPTH STEP
~WELL INFORMATION
#MNEM.UNIT      DATA TYPE    INFORMATION
#----------   ------------   ------------------------------
 STRT.F           30.0000:   START DEPTH
 STOP.F          570.0000:   STOP DEPTH
 STEP.F            0.5000:   STEP LENGTH
 NULL.          -999.2500:   NO VALUE
 COMP.    FENIX & SCISSON:   COMPANY
 WELL.  NPR #3 #13SX11-11:   WELL
 FLD .             TEAPOT:   FIELD
 LOC .      S11 T38N R78W:   LOCATION
 CNTY.            NATRONA:   COUNTY
 STAT.            WYOMING:   STATE
 CTRY. UNITED STATES OF AMERICA:   COUNTRY
 SRVC.       Schlumberger:   SERVICE COMPANY
 DATE.        27-FEB-1977:   LOGDATE
 API .       490251029400:   API NUMBER
~CURVE INFORMATION
#MNEM.UNIT       API CODE    CURVE DESCRIPTION
#----------   ------------   ------------------------------
 DEPT.F                  :   
 GRD .GAPI   45 310 01 00:   GAMMA RAY FROM DENSITY LOG
 CALD.IN     45 280 60 00:   CALIPER FROM DENSITY LOG
 CORR.G/C3   45 356 01 00:   DENSITY CORRECTION
 DPHI.DEC    45 890 12 00:   DENSITY POROSITY STANDSTONE
 RHOB.G/C3   45 350 01 00:   BULK DENSITY
 SPR .MV     07 010 01 00:   SPONTANEOUS POTENTIAL
 ILD .OHMM   07 120 46 00:   INDUCTION LOG DEEP
 ILM .OHMM   07 120 44 00:   INDUCTION LOG MEDIUM
 LL8 .OHMM   07 220 08 00:   LATEROLOG-8 RES.
~PARAMETER INFORMATION
#MNEM.UNIT          VALUE    DESCRIPTION
#----------   ------------   ------------------------------
 PD  .                 GL:   PERMANENT DATUM
 EPD .F              5180:   ELEVATION PERMANENT DATUM
 LMF .                 GL:   LOG MEASURED FROM
 DAPD.F                 0:   FEET ABOVE PERMANENT DATUM
 DMF .                 GL:   DRILLING MEASURED FROM
 EKB .F              5183:   KELLING BUSHING
 EGL .F              5180:   GROUND LEVEL
 DATE.        27-FEB-1977:   RUN DATE
 RUN .                  1:   RUN NUMBER
 DD  .F               585:   DEPTH DRILLER
 DL  .F               571:   DEPTH LOGGER
 BLI .F               570:   BOTTOM LOG INTERVAL
 TLI .F                44:   TOP LOG INTERVAL
 CS  .IN            8.625:   CASING SIZE
 CBD .F                40:   CASING BOTTOM DRILLER
 CBL .F                44:   CASING BOTTOM LOGGER
 BS  .IN            7.875:   BIT SIZE
 BSD .F               585:   BIT SIZE AT DEPTH
 DFT .                KCL:   DRILLING FLUID TYPE
 DFD .                8.7:   DRILLING FLUID DENSITY
 DFV .                 42:   DRILLING FLUID VISCOSITY
 DFPH.                  8:   DRILLING FLUID PH
 DFL .                9.2:   DRILLING FLUID LOSS
 MSS .                PIT:   MUD SAMPLE SOURCE
 RMS .OHMM           .806:   RESISTIVITY MUD SAMPLE
 MST .F                70:   MUD SAMPLE TEMPERATURE
 RMF .OHMM           .720:   RESISTIVITY MUD FILTRATE SAMPLE
 MFST.F                70:   MUD FILTRATE SAMPLE TEMPERATURE
 MFSS.               MEAS:   MUD FILTRATE SAMPLE SOURCE
 RMB .OHMM           .973:   RESISTIVITY MUD AT BHT
 BHT .F                58:   BOTTOM HOLE TEMPERATURE
 TCS .HRS            0230:   TIME CURCULATED STOPPED
 MRT .F                58:   MAXIMUM RECORDED TEMPERATURE
 LUN .               5642:   LOGGING UNIT NUMBER
 LUL .             CASPER:   LOGGING UNIT LOCATION
 ENGI.         JIM MARTIN:   RECORDING ENGINEER
 WITN.         STUEBINGER:   WITNESSED BY
 CLNT.            A2DTECH:   CLIENT CODE
 ORIG.           5" PRINT:   ORIGIN OF DATA
 UWI .       490251029400:   UNIQUE WELL ID
 DICO. A2D Technologies, Inc.:   DIGITIZING COMPANY
~OTHER INFORMATION
~A   DEPT      GRD       CALD       CORR       DPHI       RHOB        SPR        ILD        ILM        LL8   
# ...
  139.5000   113.9376     8.1460    -0.0008     0.1287     2.4265   -29.7863     8.0573     7.7719     8.9590
  140.0000   117.4127     8.1479     0.0007     0.1332     2.4099   -29.9396     7.6754     7.5111     8.4749
  140.5000   118.3170     8.1483     0.0112     0.1203     2.4189   -29.9418     7.5168     7.4056     8.4157
  141.0000   116.9498     8.1487     0.0186     0.1179     2.4550   -29.9199     7.4640     7.4036     8.4152
  141.5000   118.1556     8.1643     0.0141     0.1182     2.4574   -29.6441     7.4632     7.4016     8.3564
  142.0000   120.7230     8.1647     0.0021     0.1221     2.4542   -29.4953     7.4623     7.4511     8.2981
  142.5000   122.0800     8.1652     0.0104     0.1284     2.4527   -29.3465     7.5654     7.6057     8.2402
  143.0000   122.3782     8.1656     0.0043     0.1321     2.4293   -28.8961     7.6699     7.8175     8.2970
  143.5000   122.0710     8.1661     0.0036     0.1327     2.4165   -28.8984     7.8840     8.0352     8.5298
  144.0000   123.1255     8.1665     0.0110     0.1315     2.4220   -28.9006     8.1043     8.2590     9.2772
  144.5000   125.6949     8.1670     0.0095     0.1291     2.4364   -28.9029     8.3310     8.4891     9.6627
  145.0000   127.6652     8.1674     0.0005     0.1234     2.4515   -28.9051     8.5636     8.7254     9.7293
  145.5000   128.4070     8.1830     0.0073     0.1192     2.4600   -28.7563     8.8029     8.7231     9.6612
  146.0000   128.0292     8.1683     0.0117     0.1180     2.4622   -28.0032     8.8632     8.7206     9.6605
  146.5000   124.6177     8.1839     0.0042     0.1198     2.4562   -28.1565     8.7401     8.5981     9.6599
  147.0000   119.7821     8.1823     0.0005     0.1234     2.4539   -28.7630     8.5595     8.4769     9.5925
  147.5000   115.1563     8.1697     0.0004     0.1261     2.4320   -29.0674     8.4995     8.4160     9.5255
  148.0000   110.2291     8.1702     0.0035     0.1243     2.4523   -29.5228     8.4398     8.3556     9.3287
  148.5000   108.1066     8.1707     0.0157     0.1162     2.4666   -29.5250     8.4388     8.3533     9.1996
  149.0000   107.8006     8.1559     0.0269     0.1051     2.4937   -29.5272     8.4964     8.3510     9.0723
  149.5000   109.4591     8.1565     0.0289     0.1042     2.4869   -29.5295     8.5544     8.3487     8.9467
  150.0000   110.8677     8.1568     0.0241     0.1142     2.4532   -29.3807     8.6128     8.3595     8.8228
  150.5000   110.9669     8.1553     0.0117     0.1211     2.4414   -29.2318     8.5353     8.4359     9.7868
  151.0000   110.3598     8.1539     0.0025     0.1157     2.4572   -28.9320     8.5325     8.4600     9.4483
  151.5000   109.9045     8.1525     0.0018     0.1151     2.4593   -28.9132     8.6485     8.5167     8.7507
  152.0000   108.8440     8.1510     0.0019     0.1169     2.4499   -28.3322     8.9501     8.7544     7.9377
  152.5000   109.4476     8.1496     0.0042     0.1205     2.4568   -27.8818     9.1356     9.1245     7.6647
  153.0000   111.5641     8.1482     0.0125     0.1144     2.4638   -27.7325     9.3234     9.3145     8.8619
  153.5000   113.0755     8.1468     0.0216     0.1114     2.4701   -27.7353     9.3203     9.3778    16.0835
  154.0000   114.2843     8.1454     0.0272     0.1100     2.4658   -28.3417     9.2530     9.3754    13.8978
  154.5000   112.6186     8.1440     0.0107     0.1269     2.4335   -28.6461     9.2500     9.2443    11.4401
  155.0000   109.8940     8.1425     0.0361     0.1190     2.4417   -28.3462     9.0569     9.1151    10.0933
  155.5000   103.8411     8.1418     0.0541     0.1058     2.4815   -27.7442     8.8680     8.9256    10.1593
  156.0000    97.6368     8.1418     0.0136     0.1160     2.4589   -27.4444     8.7432     8.8620    10.1675
  156.5000    91.7352     8.1418     0.0113     0.1085     2.4821   -27.1439     8.6801     8.8602     9.7372
  157.0000    90.2208     8.1418     0.0008     0.0983     2.5039   -27.7509     8.6772     8.8584     9.4014
  157.5000    97.3298     8.1116     0.0225     0.0971     2.5061   -28.3574     8.6744     8.8565     9.2680
  158.0000   105.8003     8.1116     0.0135     0.1097     2.4625   -28.3597     8.7324     8.9163     9.4590
  158.5000   112.1630     8.0965     0.0007     0.1191     2.4534   -27.7577     8.7895     8.9145     9.7210
  159.0000   114.1342     8.0965     0.0150     0.1200     2.4519   -27.7599     8.8483     8.9126     9.9903
  159.5000   114.0882     8.1116     0.0224     0.1164     2.4601   -28.2153     8.9068     8.9728    10.1962
  160.0000   112.9047     8.1116     0.0209     0.1110     2.4713   -28.3686     8.9032     8.9709     9.9131
  160.5000   113.5084     8.0661     0.0141     0.1206     2.4608   -28.3709     8.9003     8.9691     9.6378
  161.0000   113.8095     8.0211     0.0246     0.1164     2.4637   -28.0710     8.8974     8.9672     9.7684
  161.5000   114.4127     8.0060     0.0238     0.1137     2.4584   -27.9222     8.8331     8.9034    10.1792
  162.0000   115.4702     8.0372     0.0178     0.1095     2.4794   -27.7733     8.7693     8.9015    10.4622
  162.5000   116.5277     8.0965     0.0021     0.1134     2.4651   -27.7757     8.7060     8.8381    10.1005
  163.0000   118.3417     8.1116    -0.0092     0.1209     2.4493   -27.6268     8.7031     8.8302     9.8192
  163.5000   119.7017     8.1134    -0.0055     0.1252     2.4387   -27.6296     8.7003     8.7734     9.5456
  164.0000   117.8848     8.1267    -0.0085     0.1231     2.4364   -27.4802     8.6974     8.7716     9.4094
  164.5000   116.5218     8.1290    -0.0108     0.1155     2.4559   -27.3314     8.7557     8.7698     9.4081
  165.0000   117.1254     8.1418     0.0057     0.1098     2.4776   -27.1826     8.8136     8.7679     9.4697
  165.5000   117.4268     8.1418     0.0027     0.1026     2.4926   -27.0343     8.8099     8.7661     9.4657
  166.0000   117.1228     8.1418     0.0139     0.0996     2.4965   -26.8849     8.8071     8.7639     9.4556
  166.5000   118.9363     8.1418     0.0086     0.1195     2.4527   -27.0388     8.7434     8.7016     9.1990
  167.0000   120.7503     8.1569     0.0079     0.1174     2.4549   -27.4942     8.6803     8.6997     9.0685
  167.5000   121.6565     8.1569     0.0011     0.1213     2.4444   -27.7985     8.5582     8.6979     9.0647
  168.0000   122.4114     8.1569    -0.0102     0.1315     2.4270   -28.1029     8.4378     8.6961     9.1242
  168.5000   122.7973     8.1418     0.0025     0.1153     2.4555   -28.4073     8.4350     8.6943     9.1939
  169.0000   119.8366     8.1418     0.0093     0.1141     2.4630   -28.1074     8.4323     8.6925     9.4495
  169.5000   117.5658     8.1569     0.0115     0.1120     2.4660   -27.8074     8.4295     8.6907     9.6998
  170.0000   115.7488     8.1569     0.0107     0.1090     2.4758   -27.6586     8.4859     8.6889     9.7632
  170.5000   114.6883     8.1569    -0.0080     0.1168     2.4726   -27.3588     8.5421     8.6871     9.4912
  171.0000   113.9284     8.1569     0.0069     0.1105     2.4744   -27.2100     8.5986     8.6853     9.1005
  171.5000   114.7176     8.1569     0.0137     0.1087     2.4778   -27.0612     8.5950     8.6835     8.8479
  172.0000   117.4634     8.1569     0.0121     0.1142     2.4591   -27.0634     8.6526     8.6817     8.7831
  172.5000   118.9184     8.1569     0.0099     0.1150     2.4717   -27.0657     8.6490     8.6799     8.7188
  173.0000   117.8316     8.1569     0.0075     0.1053     2.4897   -27.0680     8.6462     8.6781     8.7151
  173.5000   119.3688     8.1569    -0.0001     0.1036     2.4874   -27.0707     8.5837     8.6763     8.7722
  174.0000   120.4263     8.1569    -0.0022     0.1090     2.4633   -27.0729     8.6412     8.6745     8.7685
  174.5000   121.1813     8.1569     0.0077     0.1179     2.4475   -26.9236     8.6377     8.6728     8.8268
  175.0000   121.6340     8.1569     0.0127     0.1196     2.4549   -26.7753     8.6348     8.7921     8.8845
  175.5000   122.0860     8.1569     0.0111     0.1165     2.4557   -26.0223     8.7523     8.8519     9.0666
