~VERSION INFORMATION
 VERS.                2.0:   CWLS LOG ASCII STANDARD - VERSION 2.0
 WRAP.                 NO:   ONE LINE PER DEPTH STEP
~WELL INFORMATION
#MNEM.UNIT      DATA TYPE    INFORMATION
#----------   ------------   ------------------------------
 STRT.F            0.5000:   START DEPTH
 STOP.F         2271.5000:   STOP DEPTH
 STEP.F            0.5000:   STEP LENGTH
 NULL.          -999.2500:   NO VALUE
 COMP. BROWN JOHN E&C INC:   COMPANY
 WELL. NPR 3 STX-11 #27-11:   WELL
 FLD .             TEAPOT:   FIELD
 LOC .      S11 T38N R78W:   LOCATION
 CNTY.            NATRONA:   COUNTY
 STAT.            WYOMING:   STATE
 CTRY. UNITED STATES OF AMERICA:   COUNTRY
 SRVC.      Dresser Atlas:   SERVICE COMPANY
 DATE.        20-JAN-1993:   LOGDATE
 API .       490251108500:   API NUMBER
~CURVE INFORMATION
#MNEM.UNIT       API CODE    CURVE DESCRIPTION
#----------   ------------   ------------------------------
 DEPT.F                  :   
 ILD .OHMM   07 120 46 00:   INDUCTION LOG DEEP
 ILM .OHMM   07 120 44 00:   INDUCTION LOG MEDIUM
 GRR .GAPI   07 310 01 00:   GAMMA RAY FROM RES. LOG.
~PARAMETER INFORMATION
#MNEM.UNIT          VALUE    DESCRIPTION
#----------   ------------   ------------------------------
 PD  .                 GL:   PERMANENT DATUM
 EPD .F              5187:   ELEVATION PERMANENT DATUM
 LMF .                 KB:   LOG MEASURED FROM
 DAPD.F                12:   FEET ABOVE PERMANENT DATUM
 DMF .                 KB:   DRILLING MEASURED FROM
 EKB .F            5198.8:   KELLING BUSHING
 EDF .F            5197.8:   DRILLING FLOOR
 EGL .F              5187:   GROUND LEVEL
 DATE.            1-20-93:   RUN DATE
 RUN .                  1:   RUN NUMBER
 DD  .F              2279:   DEPTH DRILLER
 DL  .F              2279:   DEPTH LOGGER
 BLI .F              2271:   BOTTOM LOG INTERVAL
 TLI .F               692:   TOP LOG INTERVAL
 CS  .IN            8.625:   CASING SIZE
 CBD .F               689:   CASING BOTTOM DRILLER
 CBL .F               692:   CASING BOTTOM LOGGER
 BS  .IN            7.875:   BIT SIZE
 BSD .F              2279:   BIT SIZE AT DEPTH
 DFT .                OIL:   DRILLING FLUID TYPE
 BHT .F                92:   BOTTOM HOLE TEMPERATURE
 TCS .HRS               2:   TIME CURCULATED STOPPED
 MRT .F                92:   MAXIMUM RECORDED TEMPERATURE
 LUN .            HL-6274:   LOGGING UNIT NUMBER
 LUL .             CASPER:   LOGGING UNIT LOCATION
 ENGI.             RAUTIO:   RECORDING ENGINEER
 WITN.             STRONG:   WITNESSED BY
 CLNT.            A2DTECH:   CLIENT CODE
 ORIG.  2", 5", 20" PRINT:   ORIGIN OF DATA
 UWI .       490251108500:   UNIQUE WELL ID
 DICO. A2D Technologies, Inc.:   DIGITIZING COMPANY
~OTHER INFORMATION
~A    DEPT     ILD        ILM         GRR  
# ...
 1456.5000     8.6757     8.2151   111.0254
 1457.0000     8.9895     8.4129   115.9246
 1457.5000     9.3221     8.6153   120.5492
 1458.0000     9.6670     8.8226   120.1685
 1458.5000    10.0247     9.0350   112.7437
 1459.0000    10.2435     9.2522   107.8307
 1459.5000    10.4388     9.4478   105.8259
 1460.0000    10.6287     9.5457   106.1292
 1460.5000    10.6489     9.6176   106.3715
 1461.0000    10.7392     9.6529   106.6707
 1461.5000    10.8267     9.6883   109.1250
 1462.0000    10.8268     9.7239   114.3783
 1462.5000    10.8267     9.7596   117.8992
 1463.0000    10.8267     9.7956   114.7803
 1463.5000    10.8267     9.8319   110.7794
 1464.0000    10.8267     9.8739   109.2644
 1464.5000    10.7027     9.7718   108.4352
 1465.0000    10.5203     9.6205   106.7561
 1465.5000    10.3410     9.4727   105.4840
 1466.0000    10.1647     9.3273   106.9322
 1466.5000     9.9914     9.1840   109.1811
 1467.0000     9.8091     9.0449   111.8393
 1467.5000     9.6029     8.9123   114.5520
 1468.0000     9.4011     8.7817   114.9423
 1468.5000     9.2035     8.6529   114.7905
 1469.0000     9.0100     8.5180   114.3132
 1469.5000     8.8206     8.2963   112.3869
 1470.0000     8.6352     8.0654   110.4937
 1470.5000     8.4537     7.8407   108.9659
 1471.0000     8.2760     7.6207   110.5424
 1471.5000     8.1019     7.4679   112.3071
 1472.0000     7.9312     7.4177   110.5424
 1472.5000     7.6948     7.3478   104.9559
 1473.0000     7.7139     7.3824   104.0874
 1473.5000     7.7473     7.4430   108.6643
 1474.0000     7.7808     7.5043   113.3004
 1474.5000     7.8145     7.5661   113.2413
 1475.0000     7.8483     7.6283   110.4878
 1475.5000     7.8823     7.6911   109.8574
 1476.0000     7.9164     7.7543   110.7293
 1476.5000     7.9506     7.7662   110.8288
 1477.0000     7.9842     7.7662   108.7607
 1477.5000     7.9939     7.7662   106.7256
 1478.0000     8.0035     7.7662   105.0303
 1478.5000     8.0130     7.7662   108.2505
 1479.0000     8.0225     7.7662   111.6652
 1479.5000     8.0322     7.7662   113.9335
 1480.0000     8.0417     7.7662   111.2792
 1480.5000     8.0516     7.7662   107.5177
 1481.0000     8.0848     7.7662   103.7043
 1481.5000     8.1891     7.7662   104.5078
 1482.0000     8.2932     7.8725   111.9200
 1482.5000     8.3989     7.9953   117.9375
 1483.0000     8.5059     8.1200   115.3314
 1483.5000     8.7597     8.3512   111.8428
 1484.0000     9.0385     8.6016   111.2836
 1484.5000     9.3262     8.8595   112.9881
 1485.0000     9.6231     9.1251   114.8187
 1485.5000     9.9294     9.3987   115.0442
 1486.0000    10.2455     9.6829   113.7408
 1486.5000    10.5716     9.9067   109.7975
 1487.0000    10.9271    10.1814   105.9601
 1487.5000    10.9271    10.5311   102.0109
 1488.0000    10.8796    10.3490   102.3760
 1488.5000    10.7520    10.0944   109.1081
 1489.0000    10.2992     9.7593   112.2470
 1489.5000     9.8655     9.4271   113.3102
 1490.0000     9.4500     8.9221   113.8307
 1490.5000     9.0521     8.4319   114.1732
 1491.0000     8.6709     7.9686   113.4917
 1491.5000     8.3057     7.5308   113.0766
 1492.0000     7.9559     7.2263   114.1521
 1492.5000     7.6242     7.0933   116.2372
 1493.0000     7.3497     7.0165   113.0964
 1493.5000     7.3446     7.0297   109.9882
 1494.0000     7.4001     7.0396   109.1867
 1494.5000     7.4376     7.0493   109.2781
 1495.0000     7.4750     7.0588   109.6993
 1495.5000     7.5126     7.0681   109.0513
 1496.0000     7.5503     7.0783   107.8195
 1496.5000     7.5876     7.2135   106.5725
 1497.0000     7.6251     7.2457   105.3257
 1497.5000     7.7992     7.2764   104.0694
 1498.0000     7.9674     7.4436   103.3214
 1498.5000     8.1392     7.6356   106.5933
 1499.0000     8.3147     7.8326   110.2518
 1499.5000     8.4940     8.0346   109.1379
 1500.0000     8.6772     8.2418   107.4554
 1500.5000     8.8643     8.4544   106.5478
 1501.0000     8.9614     8.5573   107.9099
 1501.5000     9.0020     8.5960   108.0314
 1502.0000     8.9243     8.3457   107.8615
 1502.5000     8.8187     8.0438   110.6693
 1503.0000     8.7140     7.9405   113.7671
 1503.5000     8.6107     7.8386   116.8508
 1504.0000     8.5086     7.6953   119.7526
 1504.5000     8.4077     7.7097   119.6947
 1505.0000     8.3080     7.7382   117.0430
 1505.5000     8.2084     7.7658   114.3051
 1506.0000     8.3532     7.7882   112.2627
 1506.5000     8.5403     7.8161   112.6453
 1507.0000     8.7315     7.9088   112.6490
 1507.5000     8.9271     8.2536   112.6404
 1508.0000     9.0020     8.6747   113.0997
 1508.5000     9.0020     8.5969   113.1908
 1509.0000     9.0020     8.5037   112.4992
 1509.5000     9.0020     8.4112   111.8155
 1510.0000     8.7827     8.2311   113.7906
 1510.5000     8.5344     7.9530   116.2241
 1511.0000     8.2918     7.6842   116.4932
 1511.5000     8.0568     7.4245   112.1926
 1512.0000     7.9487     7.1736   111.4345
 1512.5000     7.8797     7.1472   115.1200
 1513.0000     7.8101     7.3362   118.7482
 1513.5000     7.7413     7.4652   120.5366
 1514.0000     7.6948     7.5541   116.9567
 1514.5000     7.7400     7.4986   113.3941
 1515.0000     7.7744     7.4569   109.8520
 1515.5000     7.8088     7.4154   106.5863
 1516.0000     7.8380     7.3741   106.7841
 1516.5000     7.8020     7.3478   109.2674
 1517.0000     7.7708     7.3651   110.6335
 1517.5000     7.7397     7.3778   109.0487
 1518.0000     7.7087     7.3905   107.5208
 1518.5000     7.6778     7.4033   108.6689
 1519.0000     7.6471     7.4153   112.9432
 1519.5000     7.6165     7.4032   113.0017
 1520.0000     7.5861     7.3904   109.7516
 1520.5000     7.5557     7.3777   108.7295
 1521.0000     7.5255     7.3652   110.8569
 1521.5000     7.4847     7.3523   113.2176
 1522.0000     7.5847     7.3478   114.9299
 1522.5000     7.6537     7.4427   115.4600
 1523.0000     7.7226     7.5089   115.5156
 1523.5000     7.7923     7.5763   113.2794
 1524.0000     7.8628     7.6533   110.4863
 1524.5000     7.9339     7.7618   108.1632
 1525.0000     7.9842     7.8382   109.5059
 1525.5000     7.9844     7.8382   111.8229
 1526.0000     7.9845     7.8382   112.5721
 1526.5000     7.9414     7.7730   112.3695
 1527.0000     7.8820     7.6831   112.5346
 1527.5000     7.8231     7.5943   114.0105
 1528.0000     7.7646     7.5065   114.9272
 1528.5000     7.7066     7.4684   115.7105
 1529.0000     7.6490     7.4468   117.5581
 1529.5000     7.6161     7.4251   118.4768
 1530.0000     7.6020     7.4061   115.4786
 1530.5000     7.5878     7.3889   112.6496
 1531.0000     7.5738     7.3718   112.3164
 1531.5000     7.5541     7.3485   114.5876
 1532.0000     7.5867     7.3791   116.7385
 1532.5000     7.6406     7.4319   118.2068
 1533.0000     7.6948     7.4847   116.1720
 1533.5000     7.7495     7.5379   113.5412
 1534.0000     7.8045     7.5914   111.1499
 1534.5000     7.8600     7.6453   111.5597
 1535.0000     7.9158     7.6996   112.8319
 1535.5000     7.9720     7.7544   113.5915
 1536.0000     8.0287     7.8091   113.9769
 1536.5000     8.0883     7.8646   114.8868
 1537.0000     8.1512     7.9186   114.0191
 1537.5000     8.2147     7.9733   112.6319
 1538.0000     8.2845     8.0284   111.3393
 1538.5000     8.2845     8.0837   110.8600
 1539.0000     8.2845     8.1321   109.4849
 1539.5000     8.2845     8.1192   107.7150
 1540.0000     8.2845     8.1070   111.1860
 1540.5000     8.2845     8.0949   115.6227
 1541.0000     8.2844     8.0827   117.3940
 1541.5000     8.2841     8.0710   109.6467
 1542.0000     8.2851     8.0582   108.4172
 1542.5000     8.2080     7.9551   110.7718
 1543.0000     8.1300     7.8498   112.6908
 1543.5000     8.0528     7.7462   112.6679
 1544.0000     7.9764     7.6439   113.3792
 1544.5000     7.9006     7.5925   115.1218
 1545.0000     7.8255     7.5533   116.8623
 1545.5000     7.7513     7.5144   117.7398
 1546.0000     7.6922     7.4847   117.4895
 1546.5000     7.6811     7.4847   116.5694
 1547.0000     7.6699     7.4848   114.3008
