~VERSION INFORMATION
 VERS.                2.0:   CWLS LOG ASCII STANDARD - VERSION 2.0
 WRAP.                 NO:   ONE LINE PER DEPTH STEP
~WELL INFORMATION
#MNEM.UNIT      DATA TYPE    INFORMATION
#----------   ------------   ------------------------------
 STRT.F            3.0000:   START DEPTH
 STOP.F          587.0000:   STOP DEPTH
 STEP.F            0.5000:   STEP LENGTH
 NULL.          -999.2500:   NO VALUE
 COMP.   FLUOR DANIEL INC:   COMPANY
 WELL. NAVAL PETROLEUM RESERVE 3 STX- #1-3:   WELL
 FLD .          N.P.R. #3:   FIELD
 LOC .       S3 T38N R78W:   LOCATION
 CNTY.            NATRONA:   COUNTY
 STAT.            WYOMING:   STATE
 CTRY. UNITED STATES OF AMERICA:   COUNTRY
 SRVC.      Western Atlas:   SERVICE COMPANY
 DATE.        03-FEB-1995:   LOGDATE
 API .       490252269200:   API NUMBER
~CURVE INFORMATION
#MNEM.UNIT       API CODE    CURVE DESCRIPTION
#----------   ------------   ------------------------------
 DEPT.F                  :   
 GRR .GAPI   07 310 01 00:   GAMMA RAY FROM RES. LOG.
 RILD.OHMM   07 120 46 00:   INDUCTION LOG DEEP RESISTIVITY
 RILM.OHMM   07 120 44 00:   INDUCTION LOG MEDIUM RESISTIVITY
~PARAMETER INFORMATION
#MNEM.UNIT          VALUE    DESCRIPTION
#----------   ------------   ------------------------------
 PD  .                 GL:   PERMANENT DATUM
 EPD .F              5226:   ELEVATION PERMANENT DATUM
 LMF .                 KB:   LOG MEASURED FROM
 DAPD.F                10:   FEET ABOVE PERMANENT DATUM
 DMF .                 KB:   DRILLING MEASURED FROM
 EKB .F              5236:   KELLING BUSHING
 EDF .F              5235:   DRILLING FLOOR
 EGL .F              5226:   GROUND LEVEL
 DATE.         3-FEB-1995:   RUN DATE
 RUN .                  1:   RUN NUMBER
 DD  .F               595:   DEPTH DRILLER
 DL  .F               595:   DEPTH LOGGER
 BLI .F               587:   BOTTOM LOG INTERVAL
 CS  .IN            9.625:   CASING SIZE
 CBD .F                55:   CASING BOTTOM DRILLER
 CBL .F                55:   CASING BOTTOM LOGGER
 BS  .IN             8.75:   BIT SIZE
 BSD .F               595:   BIT SIZE AT DEPTH
 DFT .                AIR:   DRILLING FLUID TYPE
 MRT .F                90:   MAXIMUM RECORDED TEMPERATURE
 LUN .             HL6274:   LOGGING UNIT NUMBER
 LUL .             CASPER:   LOGGING UNIT LOCATION
 ENGI.        VERN RAUTIO:   RECORDING ENGINEER
 WITN.        STEVE HARDY:   WITNESSED BY
 CLNT.            A2DTECH:   CLIENT CODE
 ORIG.           5" PRINT:   ORIGIN OF DATA
 UWI .       490252269200:   UNIQUE WELL ID
 DICO. A2D Technologies, Inc.:   DIGITIZING COMPANY
~OTHER INFORMATION
~A    DEPT      GRR      RILD       RILM   
# ...
  458.0000    91.4791    12.8759    13.7740
  458.5000    92.5539    12.8057    13.5790
  459.0000    94.4196    12.7062    13.3677
  459.5000    95.5450    12.6073    13.4603
  460.0000    94.7444    12.5190    13.5937
  460.5000    94.1017    12.6610    13.7284
  461.0000    94.4181    12.7915    13.8645
  461.5000    94.7318    12.9231    14.0019
  462.0000    93.9882    13.0565    14.1407
  462.5000    92.1897    13.1915    14.2810
  463.0000    90.3913    13.3687    14.4083
  463.5000    88.7998    13.3670    14.3126
  464.0000    89.0031    13.3681    14.2072
  464.5000    89.1140    13.3679    14.1024
  465.0000    87.5908    13.3677    14.0088
  465.5000    86.2986    13.3677    14.0449
  466.0000    86.7813    13.3025    14.0779
  466.5000    87.1497    13.0875    14.1109
  467.0000    86.8823    12.8759    14.1407
  467.5000    86.7028    12.6678    13.7380
  468.0000    88.3572    12.4631    13.2430
  468.5000    90.3886    12.2616    12.8477
  469.0000    90.4277    12.0634    12.4706
  469.5000    89.9216    11.8683    12.1041
  470.0000    89.1774    11.6764    11.7480
  470.5000    90.0816    11.5056    11.5066
  471.0000    92.2210    11.5043    11.5066
  471.5000    94.2766    11.5038    11.5066
  472.0000    95.3719    11.7238    11.7243
  472.5000    95.5271    11.7223    12.1639
  473.0000    95.7120    12.3572    12.8920
  473.5000    94.8699    13.2223    13.8090
  474.0000    92.6772    14.1481    14.7912
  474.5000    87.3488    15.2329    16.6577
  475.0000    82.0577    17.4416    19.1685
  475.5000    78.2297    20.2761    21.8890
  476.0000    74.7719    23.5719    24.5505
  476.5000    71.3550    27.3906    27.5318
  477.0000    67.9290    31.3582    30.8723
  477.5000    64.3785    34.0972    33.3273
  478.0000    63.8369    35.7535    34.1172
  478.5000    64.3384    35.7535    34.1172
  479.0000    65.5200    33.3060    30.6992
  479.5000    68.6756    30.7826    28.3048
  480.0000    71.7383    28.4503    26.3676
  480.5000    74.8005    26.2983    25.9996
  481.0000    77.8673    24.8582    26.1275
  481.5000    80.6312    24.0306    26.2444
  482.0000    80.9450    23.2326    26.3617
  482.5000    78.9846    22.3800    26.4914
  483.0000    77.0204    22.3800    26.4914
  483.5000    76.6560    22.3251    25.6293
  484.0000    76.3743    22.2754    23.6811
  484.5000    76.1349    22.2258    21.8811
  485.0000    76.6240    22.1762    20.3783
  485.5000    78.5476    22.1269    20.1883
  486.0000    80.1960    22.0775    20.3511
  486.5000    79.7219    22.0283    20.5335
  487.0000    77.5057    21.9792    20.7175
  487.5000    76.9676    21.8075    21.1503
  488.0000    78.2925    21.5854    21.0927
  488.5000    79.0972    21.3652    20.9798
  489.0000    77.8895    21.1472    20.8668
  489.5000    77.0352    20.9312    20.7524
  490.0000    79.1804    20.7183    20.6383
  490.5000    81.3476    20.5702    20.5249
  491.0000    81.8287    20.5019    20.3783
  491.5000    81.2829    20.4400    20.6370
  492.0000    80.3326    20.3783    20.8613
  492.5000    78.9693    20.3168    21.0881
  493.0000    77.7748    20.2555    21.1566
  493.5000    78.1760    20.1883    20.7696
  494.0000    79.8105    19.8498    20.4257
  494.5000    80.8026    19.5500    20.0872
  495.0000    80.2996    19.2547    19.7539
  495.5000    78.8851    18.9642    19.4261
  496.0000    78.5568    18.6782    19.1038
  496.5000    79.3132    18.3966    18.7868
  497.0000    80.0769    18.1192    18.4751
  497.5000    80.7693    17.7059    18.3599
  498.0000    82.0591    17.7627    18.3202
  498.5000    84.0649    17.8447    18.2801
  499.0000    83.6798    17.9273    18.2395
  499.5000    83.0755    18.0101    18.2108
  500.0000    83.5789    18.0931    18.2114
  500.5000    84.5819    18.1765    18.2112
  501.0000    84.3380    18.2602    18.2112
  501.5000    83.9185    18.3444    18.2112
  502.0000    82.3488    18.4289    18.2113
  502.5000    80.6417    18.5138    18.2106
  503.0000    79.4995    18.5991    18.2196
  503.5000    80.1292    18.6848    18.2112
  504.0000    80.7153    18.7303    18.3826
  504.5000    81.7993    18.4655    17.9674
  505.0000    83.4502    18.2209    17.5872
  505.5000    84.5693    17.9796    17.2139
  506.0000    83.8388    17.7415    16.8472
  506.5000    83.5113    17.2502    16.5777
  507.0000    84.7041    16.7292    16.0614
  507.5000    85.8870    16.2241    15.5856
  508.0000    87.8541    15.7341    15.1210
  508.5000    90.2011    15.2590    14.6702
  509.0000    92.1252    14.7982    14.2328
  509.5000    89.9951    14.3513    13.8085
  510.0000    86.7270    14.1392    13.3968
  510.5000    85.6195    13.8251    13.0860
  511.0000    85.8259    13.5180    13.0078
  511.5000    85.6699    13.2177    12.9270
  512.0000    85.1205    12.9240    12.8479
  512.5000    85.4837    12.6369    12.7696
  513.0000    87.5260    12.5998    12.6917
  513.5000    88.7811    12.5380    12.6142
  514.0000    87.7459    12.4765    12.5373
  514.5000    86.0850    12.4155    12.4608
  515.0000    84.4603    12.3547    12.3848
  515.5000    84.6859    12.2942    12.3092
  516.0000    85.1074    12.2339    12.2341
  516.5000    84.9811    12.1721    12.1721
  517.0000    84.7817    12.1721    12.1895
  517.5000    84.5783    12.1721    12.2202
  518.0000    84.3787    12.1721    12.2511
  518.5000    84.2936    12.1721    12.2820
  519.0000    85.0968    12.1721    12.3131
  519.5000    86.9266    12.1721    12.3442
  520.0000    88.8396    12.1721    12.3756
  520.5000    90.7761    12.1721    12.4028
  521.0000    92.3850    12.1721    12.4675
  521.5000    91.4501    12.1721    12.5374
  522.0000    90.3398    12.1721    12.6079
  522.5000    89.2424    12.1721    12.6786
  523.0000    89.8951    12.1721    12.7558
  523.5000    92.5648    12.1721    12.9971
  524.0000    95.2062    12.1725    12.9971
  524.5000    95.0256    12.1732    12.8302
  525.0000    92.3338    12.0847    12.6814
  525.5000    90.2676    11.9888    12.5343
  526.0000    90.2560    11.8937    12.3889
  526.5000    91.2574    11.7993    12.2452
  527.0000    91.2009    11.7057    12.1031
  527.5000    91.3359    11.6128    11.9627
  528.0000    94.3023    11.5207    11.8343
  528.5000    97.3352    11.3993    11.8347
  529.0000    97.7977    11.4110    11.9193
  529.5000    95.0556    11.4358    11.9863
  530.0000    92.8039    11.4606    12.0536
  530.5000    93.6759    11.4855    12.1212
  531.0000    95.3659    11.5105    12.1721
  531.5000    96.9014    11.5354    12.0236
  532.0000    96.6235    11.5604    11.8841
  532.5000    96.2972    11.5858    11.7463
  533.0000    95.5108    11.6110    11.6150
  533.5000    94.0919    11.6149    11.6019
  534.0000    92.6501    11.5780    11.5719
  534.5000    93.9790    11.5479    11.5420
  535.0000    96.6450    11.5180    11.5123
  535.5000    99.3081    11.5066    11.4866
  536.0000   100.3490    11.4113    11.3928
  536.5000   100.2026    11.3183    11.2997
  537.0000    99.1459    11.2260    11.2076
  537.5000    99.0108    11.1345    11.1162
  538.0000    99.7436    11.0437    11.0256
  538.5000    99.4272    10.9537    10.9357
  539.0000    99.8970    10.8644    10.8465
  539.5000   102.0937    10.7758    10.7581
  540.0000   104.2827    10.6880    10.6704
  540.5000   103.7322    10.6002    10.5834
  541.0000   103.5150    10.5131    10.4971
  541.5000   104.7437    10.3377    10.2907
  542.0000   105.9508    10.0999    10.0534
  542.5000   106.6280     9.8677     9.8215
  543.0000   106.0728     9.6401     9.5950
  543.5000   104.5076     9.4178     9.3738
  544.0000   103.4505     9.0929     8.9894
  544.5000   103.4673     8.5889     8.4911
  545.0000   103.4560     8.0451     7.8613
  545.5000   104.4310     7.1705     7.0066
  546.0000   107.3996     6.3909     6.2449
  546.5000   113.9033     5.8609     5.5958
  547.0000   119.8450     5.8956     5.4377
  547.5000   123.4721     5.9437     5.5406
  548.0000   126.6458     5.9915     6.0020
  548.5000   123.3951     6.0404     6.5358
