~VERSION INFORMATION
 VERS.                2.0:   CWLS LOG ASCII STANDARD - VERSION 2.0
 WRAP.                 NO:   ONE LINE PER DEPTH STEP
~WELL INFORMATION
#MNEM.UNIT      DATA TYPE    INFORMATION
#----------   ------------   ------------------------------
 STRT.F           80.0000:   START DEPTH
 STOP.F         1011.0000:   STOP DEPTH
 STEP.F            0.5000:   STEP LENGTH
 NULL.          -999.2500:   NO VALUE
 COMP.          U.S. NAVY:   COMPANY
 WELL. RES 3 TEAPOT DOM #61S-11:   WELL
 FLD .             TEAPOT:   FIELD
 LOC .      S11 T38N R78W:   LOCATION
 CNTY.            NATRONA:   COUNTY
 STAT.            WYOMING:   STATE
 CTRY. UNITED STATES OF AMERICA:   COUNTRY
 SRVC.       Schlumberger:   SERVICE COMPANY
 DATE.        23-JUL-1964:   LOGDATE
 API .       490250637500:   API NUMBER
~CURVE INFORMATION
#MNEM.UNIT       API CODE    CURVE DESCRIPTION
#----------   ------------   ------------------------------
 DEPT.F                  :   
 CALS.IN     60 280 50 00:   CALIPER FROM SONIC LOG
 DT  .US/F   60 520 33 00:   INTERVAL TRANSIT TIME
 GR  .GAPI   30 310 01 00:   GAMMA RAY
 CILD.MMHO   05 110 46 00:   CONDUCTIVITY INDUCTION LOG DEEP
 ILD .OHMM   05 120 46 00:   INDUCTION LOG DEEP
 ASN .OHMM   05 041 16 00:   AMPLIFIED SHORT NORMAL 16"
 SPR .MV     05 010 01 00:   SPONTANEOUS POTENTIAL FROM RES.
~PARAMETER INFORMATION
#MNEM.UNIT          VALUE    DESCRIPTION
#----------   ------------   ------------------------------
 PD  .                 GL:   PERMANENT DATUM
 EPD .F              5199:   ELEVATION PERMANENT DATUM
 LMF .                 KB:   LOG MEASURED FROM
 DAPD.F                 5:   FEET ABOVE PERMANENT DATUM
 DMF .                 KB:   DRILLING MEASURED FROM
 EKB .F              5204:   KELLING BUSHING
 EGL .F              5199:   GROUND LEVEL
 DATE.          7-23-1964:   RUN DATE
 RUN .                  1:   RUN NUMBER
 DD  .F              1010:   DEPTH DRILLER
 DL  .F              1012:   DEPTH LOGGER
 BLI .F              1011:   BOTTOM LOG INTERVAL
 TLI .F                88:   TOP LOG INTERVAL
 CS  .IN            8.625:   CASING SIZE
 CBD .F                10:   CASING BOTTOM DRILLER
 BS  .IN             6.75:   BIT SIZE
 BSD .F              1010:   BIT SIZE AT DEPTH
 DFT .            GEL-OIL:   DRILLING FLUID TYPE
 DFD .                9.8:   DRILLING FLUID DENSITY
 DFV .                 54:   DRILLING FLUID VISCOSITY
 MSS .           FLOWLINE:   MUD SAMPLE SOURCE
 RMS .OHMM           1.47:   RESISTIVITY MUD SAMPLE
 MST .F                86:   MUD SAMPLE TEMPERATURE
 RMF .OHMM            .96:   RESISTIVITY MUD FILTRATE SAMPLE
 MFST.F                86:   MUD FILTRATE SAMPLE TEMPERATURE
 RMC .OHMM           2.10:   RESISTIVITY MUD CAKE
 MCST.F                86:   MUD CAKE SAMPLE TEMPERATURE
 MFSS.                 FP:   MUD FILTRATE SAMPLE SOURCE
 MCSS.                 FP:   MUD CAKE SAMPLE SOURCE
 TCS .HRS               2:   TIME CURCULATED STOPPED
 LUN .               4507:   LOGGING UNIT NUMBER
 LUL .              CSPR.:   LOGGING UNIT LOCATION
 ENGI.             DANNER:   RECORDING ENGINEER
 WITN.          JORGENSEN:   WITNESSED BY
 CLNT.            A2DTECH:   CLIENT CODE
 ORIG.      2" & 5" PRINT:   ORIGIN OF DATA
 UWI .       490250637500:   UNIQUE WELL ID
 DICO. A2D Technologies, Inc.:   DIGITIZING COMPANY
~OTHER INFORMATION
~A   DEPT     CALS         DT         GR        CILD         ILD        ASN      SPR   
# ...
  444.0000     6.6893  -999.2500    55.3810   411.3911     2.4300     2.5948   -30.7082
  444.5000     6.6893  -999.2500    52.5252   443.4532     2.5773     2.7407   -30.9195
  445.0000     6.6893  -999.2500    47.2669   414.5676     2.6510     2.8129   -30.6331
  445.5000     6.6893  -999.2500    47.7144   399.7801     2.7246     2.9293   -30.3352
  446.0000     6.6893  -999.2500    45.4599   378.8264     2.9455     2.9887   -30.0603
  446.5000     6.6893  -999.2500    47.4081   340.8243     3.1664     3.0587   -30.0620
  447.0000     6.7044  -999.2500    48.4562   311.2920     3.3873     3.4696   -30.4951
  447.5000     6.7195  -999.2500    50.5553   282.7631     3.5346     3.7038   -31.0720
  448.0000     6.7195  -999.2500    53.4051   261.2244     3.7663     3.8350   -31.3822
  448.5000     6.7345  -999.2500    54.1536   248.6657     3.9028     3.8924   -31.6506
  449.0000     6.7496  -999.2500    52.3481   247.9940     3.9764     3.9352   -31.6519
  449.5000     6.7496  -999.2500    52.7955   253.6402     4.1237     3.9485   -31.7972
  450.0000     6.7496   117.0180    50.8413   263.0134     4.0501     3.9467   -31.7986
  450.5000     6.7486   116.4918    51.1352   270.5141     3.9764     3.9306   -31.8003
  451.0000     6.7473   116.1911    51.7417   276.5290     3.9028     3.8997   -31.8016
  451.5000     6.7461   116.2674    56.5406   283.2868     3.8292     3.8541   -31.6591
  452.0000     6.7448   116.7199    54.5624   293.0164     3.6819     3.7938   -31.6605
  452.5000     6.7436   116.6454    55.4153   308.3204     3.4561     3.6880   -31.3741
  453.0000     6.7424   116.4955    59.0751   334.0386     3.2401     3.5844   -31.0880
  453.5000     6.7411   116.8728    59.2073   367.5423     2.9455     3.4799   -30.6577
  454.0000     6.7399   117.7771    56.3002   406.2467     2.6510     3.4048   -30.6591
  454.5000     6.7386   118.9827    56.5106   430.0921     2.5773     3.2561   -30.5166
  455.0000     6.7374   119.8118    54.3945   445.7652     2.4300     3.0927   -30.3550
  455.5000     6.7362   121.3185    54.0783   445.8365     2.5037     2.9146   -30.0880
  456.0000     6.7349   125.0090    50.1805   432.5404     2.5773     2.7364   -30.0894
  456.5000     6.7496   128.0219    46.1081   399.9346     2.7982     2.9997   -30.0907
  457.0000     6.7647   130.0557    46.7589   379.9465     2.9455     3.1898   -30.0921
  457.5000     6.8100   130.8848    45.6459   365.1590     3.3137     3.2476   -30.6693
  458.0000     6.8552   127.0841    48.3427   334.8618     3.6819     2.9958   -31.2462
  458.5000     6.8703   123.3740    45.9328   303.3030     4.0501     3.8777   -31.6793
  459.0000     6.8703   119.6770    43.8247   266.5735     4.4183     4.3200   -31.9684
  459.5000     6.8250   114.6506    46.3713   236.1842     4.5694     4.5373   -31.9774
  460.0000     6.6591   110.1606    42.9118   219.9108     4.7128     4.6479   -32.2592
  460.5000     6.5686   110.1061    42.6055   210.2321     4.7865     4.7550   -32.2606
  461.0000     6.5686   111.7018    43.2001   207.2427     4.8601     4.8620   -32.4059
  461.5000     6.5686   112.2163    45.1461   201.2816     4.9337     4.9485   -32.2633
  462.0000     6.5686   113.5724    46.4930   190.8584     5.0163     5.1105   -32.2647
  462.5000     6.5837   114.8533    44.3834   184.1543     5.3019     5.3019   -32.2664
  463.0000     6.5837   113.2727    43.7783   178.1931     5.5228     5.5608   -32.1236
  463.5000     6.5837   111.4662    44.6732   174.4608     5.8174     5.8198   -32.1253
  464.0000     6.5686   110.1116    41.9630   169.2422     6.0383     6.0972   -31.9827
  464.5000     6.4928   108.9075    46.0111   166.9918     6.1856     6.3034   -32.1283
  465.0000     6.3575   107.8540    45.7048   166.2313     6.3328     6.4396   -32.1297
  465.5000     6.3583   107.1771    42.9961   166.2137     6.3328     6.5538   -31.9868
  466.0000     6.4654   106.9519    44.7919   166.1961     6.3328     6.6274   -31.8447
  466.5000     6.5702   106.8772    47.0382   167.6644     6.3328     6.6716   -31.8460
  467.0000     6.6290   106.8781    47.9346   168.3897     6.2592     6.6863   -31.5596
  467.5000     6.6765   106.9542    48.3791   169.8536     6.1856     6.6568   -31.2736
  468.0000     6.6893   107.1808    49.1223   171.3225     6.1856     6.5832   -31.2749
  468.5000     6.7044   107.3322    51.9692   172.0472     6.1856     6.5096   -31.4202
  469.0000     6.7195   107.4082    53.9152   172.7725     6.1856     6.4654   -31.5654
  469.5000     6.7195   107.3337    57.6629   173.4979     6.0383     6.4501   -31.7110
  470.0000     6.7195   107.4097    55.4047   174.2232     5.8174     6.4359   -31.4246
  470.5000     6.7195   107.7870    54.1975   174.9443     5.5965     6.4359   -31.4260
  471.0000     6.7345   108.0889    53.8912   177.1510     5.4492     6.4654   -31.5712
  471.5000     6.7345   108.1650    54.9363   178.6193     5.3019     6.4948   -31.5729
  472.0000     6.7496   108.1657    56.1315   180.8349     5.2283     6.4933   -31.7182
  472.5000     6.7496   108.1665    57.4769   181.5564     5.2283     6.4065   -31.8634
  473.0000     6.7496   108.0917    58.3733   181.5379     5.3019     6.3770   -31.7206
  473.5000     6.7496   107.8666    54.7637   180.7733     5.3776     6.3770   -31.7223
  474.0000     6.7195   108.0181    55.6586   180.0127     5.5965     6.3623   -31.7240
  474.5000     6.6742   108.8472    51.7472   178.5092     5.8174     6.1414   -31.7254
  475.0000     6.5988   109.3750    52.4920   177.7487     5.9647     6.0825   -31.5825
  475.5000     6.5837   109.9029    49.0326   176.9838     6.1119     6.2592   -31.5842
  476.0000     6.6742   109.9036    48.8779   174.7373     6.3397     6.5538   -31.4417
  476.5000     6.7496   109.4526    47.5191   171.7480     6.5538     6.6865   -31.4434
  477.0000     6.7496   108.1732    44.8104   164.3009     6.7747     6.7452   -31.3005
  477.5000     6.6742   107.2703    41.2008   156.7147     6.9219     6.8329   -31.0145
  478.0000     6.5988   106.1416    42.6963   148.6595     7.0692     6.9676   -31.1597
  478.5000     6.5535   105.2387    42.2399   144.9272     7.1429     7.1281   -31.4492
  479.0000     6.5535   104.6340    44.0357   142.6808     7.2901     7.2018   -31.5945
  479.5000     6.5988   103.9536    41.4772   140.4344     7.2901     7.2459   -31.5958
  480.0000     6.6591   102.7309    44.1739   137.4406     7.2901     7.2607   -31.5972
  480.5000     6.6893   101.6889    45.2473   140.3948     7.1429     7.2011   -31.7424
  481.0000     6.6893   101.2515    44.1619   142.6104     7.0692     7.0545   -31.7441
  481.5000     6.7044   101.0913    41.4532   143.3357     6.9956     6.9367   -31.7455
  482.0000     6.7195   100.9518    39.3451   144.8363     6.9219     6.7894   -31.7469
  482.5000     6.7195   100.9387    39.9399   149.2353     6.7936     6.6568   -31.7482
  483.0000     6.7195   100.7276    42.1860   159.6189     6.4801     6.5342   -31.6057
  483.5000     6.7195   100.9542    47.2851   178.9178     5.7437     6.3486   -31.6074
  484.0000     6.7195   101.8586    51.3332   220.8964     4.1237     5.9764   -31.4646
  484.5000     6.7044   102.9888    53.7296   289.2840     3.3873     5.5998   -31.3224
  485.0000     6.7044   103.3661    55.8257   342.3921     2.9455     4.9913   -31.1799
  485.5000     6.6893   103.7433    55.2191   395.5001     2.5773     4.3594   -30.8725
  486.0000     6.6893   105.1748    50.4083   444.1755     2.2808     3.9425   -30.4635
  486.5000     6.6893   112.7810    46.7988   493.8137     2.0619     3.3579   -30.1771
  487.0000     6.6893   120.8390    44.5405   516.8273     1.8409     3.2401   -30.0346
  487.5000     6.6906   129.7253    44.2342   519.0386     1.8409     3.1222   -29.7482
  488.0000     6.7044   134.1688    43.4469   490.9272     2.0619     2.9897   -29.8938
  488.5000     6.7044   139.4406    39.8559   454.0630     2.2897     3.0814   -29.8952
  489.0000     6.7195   144.7124    36.6484   405.6614     2.6510     3.2990   -30.1843
