~VERSION INFORMATION
 VERS.                2.0:   CWLS LOG ASCII STANDARD - VERSION 2.0
 WRAP.                 NO:   ONE LINE PER DEPTH STEP
~WELL INFORMATION
#MNEM.UNIT      DATA TYPE    INFORMATION
#----------   ------------   ------------------------------
 STRT.F           30.0000:   START DEPTH
 STOP.F          500.0000:   STOP DEPTH
 STEP.F            0.5000:   STEP LENGTH
 NULL.          -999.2500:   NO VALUE
 COMP. FENIX & SCISSON INC:   COMPANY
 WELL.     3-FI #55-45 SX:   WELL
 FLD .             TEAPOT:   FIELD
 LOC .       S3 T38N R78W:   LOCATION
 CNTY.            NATRONA:   COUNTY
 STAT.            WYOMING:   STATE
 CTRY. UNITED STATES OF AMERICA:   COUNTRY
 SRVC.              Welex:   SERVICE COMPANY
 DATE.        16-MAY-1980:   LOGDATE
 API .       490251082700:   API NUMBER
~CURVE INFORMATION
#MNEM.UNIT       API CODE    CURVE DESCRIPTION
#----------   ------------   ------------------------------
 DEPT.F                  :   
 SPR .MV     07 010 01 00:   SPONTANEOUS POTENTIAL
 GURD.OHMM   07 220 05 00:   GUARD RESISTIVITY
 CALD.IN     45 280 60 00:   CALIPER
 GRD .GAPI   45 310 01 00:   GAMMA RAY FROM DENSITY LOG
 RHOB.G/C3   45 350 01 00:   BULK DENSITY
 CORR.G/C3   45 356 01 00:   DENSITY CORRECTION
 NPHI.DEC    42 890 03 00:   NEUTRON POROSITY SANDSTONE
 DPHI.DEC    45 890 12 00:   DENSITY POROSITY SANDSTONE
 ILD .OHMM   07 120 46 00:   INDUCTION LOG DEEP
 ILM .OHMM   07 120 44 00:   INDUCTION LOG MEDIUM
~PARAMETER INFORMATION
#MNEM.UNIT          VALUE    DESCRIPTION
#----------   ------------   ------------------------------
 PD  .                 GL:   PERMANENT DATUM
 EPD .F              5167:   ELEVATION PERMANENT DATUM
 LMF .                 KB:   LOG MEASURED FROM
 DAPD.F                 5:   FEET ABOVE PERMANENT DATUM
 DMF .                 KB:   DRILLING MEASURED FROM
 EKB .F              5172:   KELLING BUSHING
 EGL .F              5167:   GROUND LEVEL
 DATE.            5-16-80:   RUN DATE
 RUN .                  1:   RUN NUMBER
 DD  .F               483:   DEPTH DRILLER
 DL  .F               496:   DEPTH LOGGER
 BLI .F               494:   BOTTOM LOG INTERVAL
 TLI .F                35:   TOP LOG INTERVAL
 BS  .IN             9.75:   BIT SIZE
 BSD .F               483:   BIT SIZE AT DEPTH
 DFT .            KCL MUD:   DRILLING FLUID TYPE
 DFD .                9.5:   DRILLING FLUID DENSITY
 DFV .                 45:   DRILLING FLUID VISCOSITY
 DFL .                7.5:   DRILLING FLUID LOSS
 MSS .            MUD PIT:   MUD SAMPLE SOURCE
 RMS .OHMM            .29:   RESISTIVITY MUD SAMPLE
 MST .F                75:   MUD SAMPLE TEMPERATURE
 RMF .OHMM            .23:   RESISTIVITY MUD FILTRATE SAMPLE
 MFST.F                75:   MUD FILTRATE SAMPLE TEMPERATURE
 RMC .OHMM            .35:   RESISTIVITY MUD CAKE
 MCST.F                75:   MUD CAKE SAMPLE TEMPERATURE
 MFSS.           MEASURED:   MUD FILTRATE SAMPLE SOURCE
 MCSS.           MEASURED:   MUD CAKE SAMPLE SOURCE
 TCS .HRS               2:   TIME CURCULATED STOPPED
 LUN .               9685:   LOGGING UNIT NUMBER
 LUL .             CASPER:   LOGGING UNIT LOCATION
 ENGI.            TOTHILL:   RECORDING ENGINEER
 WITN.              AMEND:   WITNESSED BY
 CLNT.            A2DTECH:   CLIENT CODE
 ORIG.           5" PRINT:   ORIGIN OF DATA
 UWI .       490251082700:   UNIQUE WELL ID
 DICO. A2D Technologies, Inc.:   DIGITIZING COMPANY
~OTHER INFORMATION
~A   DEPT      SPR         GURD     CALD        GRD       RHOB       CORR         NPHI       DPHI        ILD        ILM 
# ...
  130.5000   -53.8472     6.0529    10.2059   100.3433     2.4032     0.0629     0.3078     0.1530     4.7006     5.8949
  131.0000   -53.7963     6.1038    10.2140    99.4738     2.4193     0.0815     0.3158     0.1640     4.7532     5.8742
  131.5000   -53.8003     6.1552    10.2220    98.6068     2.3981     0.0595     0.3193     0.1714     4.8039     5.8355
  132.0000   -53.8001     6.2071    10.2300    97.8190     2.3860     0.0412     0.3129     0.1658     4.7911     5.7902
  132.5000   -53.7994     6.2596    10.2381    97.8490     2.3968     0.0481     0.3050     0.1726     4.7711     5.8638
  133.0000   -53.8001     6.3127    10.2461    98.7220     2.3888     0.0333     0.3062     0.1965     4.7511     5.9537
  133.5000   -53.7999     6.3665    10.2541    99.6898     2.3639     0.0039     0.3009     0.2008     4.7313     6.0450
  134.0000   -53.7999     6.4208    10.2622   100.6577     2.3401    -0.0104     0.2998     0.2017     4.7152     6.1379
  134.5000   -53.8000     6.4737    10.2702   101.1546     2.3380     0.0014     0.3024     0.1949     4.6964     6.2367
  135.0000   -53.8000     6.3305    10.2782   101.0870     2.3389     0.0194     0.3064     0.2013     4.6457     6.2367
  135.5000   -53.8000     6.0854    10.2864   100.9975     2.3497     0.0252     0.3123     0.1985     4.5954     6.1703
  136.0000   -53.8000     5.8499    10.2949   100.9124     2.3369     0.0219     0.3203     0.1970     4.5457     6.1138
  136.5000   -53.8000     5.7885    10.3199   100.8096     2.3413     0.0421     0.3274     0.1945     4.4965     6.0577
  137.0000   -53.8000     5.7885    10.3231    99.3884     2.3467     0.0499     0.3319     0.1912     4.4479     6.0085
  137.5000   -53.8000     5.7885    10.3274    98.0135     2.3521     0.0586     0.3337     0.1879     4.3998     6.0225
  138.0000   -53.8000     5.7205    10.3322    96.6419     2.3575     0.0675     0.3302     0.1845     4.3757     6.0351
  138.5000   -53.8000     5.6457    10.3370    95.2916     2.3623     0.0727     0.3317     0.1810     4.3763     6.0477
  139.0000   -53.8000     5.5767    10.3387    94.5393     2.3665     0.0670     0.3342     0.1913     4.3763     6.0604
  139.5000   -53.8000     5.5767    10.3363    94.7826     2.3711     0.0611     0.3336     0.2010     4.3763     6.0731
  140.0000   -53.8000     5.6589    10.3327    94.7056     2.3657     0.0457     0.3260     0.2053     4.3763     6.0858
  140.5000   -53.8000     5.8482    10.3290    94.6162     2.3317     0.0098     0.3165     0.1862     4.3763     6.0986
  141.0000   -53.7998     6.1215    10.3253    94.6146     2.3477    -0.0038     0.3211     0.1714     4.3763     6.1178
  141.5000   -53.8000     6.1070    10.3216    94.9830     2.3693     0.0141     0.3294     0.1640     4.3763     6.1089
  142.0000   -53.7997     6.0371    10.3187    95.2408     2.3912     0.0324     0.3341     0.1563     4.3763     6.0480
  142.5000   -53.7993     5.9680    10.3173    95.4453     2.4019     0.0505     0.3378     0.1514     4.2967     5.9878
  143.0000   -53.8016     5.8975    10.3400    95.3176     2.4191     0.0688     0.3414     0.1615     4.2183     5.9281
  143.5000   -53.7966     5.8975    10.3385    95.2097     2.4118     0.0758     0.3459     0.1688     4.1415     5.8691
  144.0000   -53.8028     5.7680    10.3386    96.1618     2.4007     0.0702     0.3492     0.1761     4.0660     5.8106
  144.5000   -53.8178     5.4117    10.3387    97.3743     2.3892     0.0638     0.3408     0.1786     3.9919     5.7527
  145.0000   -54.0905     5.0774    10.3387    98.0195     2.3777     0.0621     0.3489     0.1670     3.9191     5.6954
  145.5000   -54.3170     4.7637    10.3386    97.0820     2.3780     0.0704     0.3432     0.1598     3.8476     5.6387
  146.0000   -54.5815     4.4694    10.3386    96.1560     2.4045     0.0902     0.3442     0.1666     3.7773     5.5767
  146.5000   -54.5458     4.2162    10.3419    95.7351     2.3971     0.1097     0.3461     0.1595     3.7083     5.6538
  147.0000   -54.4935     4.2162    10.3654    96.3575     2.4071     0.1008     0.3425     0.1674     3.6319     5.7412
  147.5000   -54.4302     4.4770    10.3888    97.1864     2.4011     0.0944     0.3346     0.1674     3.6319     5.8300
  148.0000   -54.3760     5.0932    10.4127    98.0180     2.3928     0.0770     0.3267     0.1575     3.6735     5.9202
  148.5000   -54.3118     5.4736    10.3955    98.7681     2.3980     0.0610     0.3244     0.1397     3.7377     6.0085
  149.0000   -54.2633     5.4549    10.3809    98.6940     2.4229     0.0748     0.3249     0.1359     3.8030     6.0307
  149.5000   -54.2004     5.4369    10.3654    98.4997     2.4488     0.1027     0.3217     0.1481     3.8695     6.0522
  150.0000   -54.1667     5.4190    10.3498    98.3108     2.4487     0.1077     0.3159     0.1586     3.9371     6.0738
  150.5000   -53.7939     5.4011    10.3385    98.1220     2.4178     0.0929     0.3130     0.1606     4.0059     6.0954
  151.0000   -53.4821     5.3832    10.3432    97.9333     2.4065     0.0795     0.3245     0.1635     4.0618     6.1215
  151.5000   -53.4711     5.3440    10.3580    97.7445     2.4065     0.0832     0.3221     0.1678     4.0618     6.0760
  152.0000   -53.5751     5.2733    10.3723    97.5558     2.3984     0.0799     0.3225     0.1721     4.0618     6.0197
  152.5000   -53.6826     5.2035    10.3974    97.3671     2.3899     0.0732     0.3254     0.1735     4.0618     5.9638
  153.0000   -53.7789     5.1759    10.4196    97.1775     2.3840     0.0673     0.3225     0.1722     4.0618     5.8975
  153.5000   -54.1054     4.9494    10.4081    96.9801     2.3867     0.0693     0.3309     0.1789     3.9974     5.8975
  154.0000   -54.5062     4.6281    10.3977    96.9455     2.3858     0.0689     0.3279     0.1844     3.9184     5.8975
  154.5000   -54.9060     4.6860    10.4570    97.2309     2.3694     0.0511     0.3243     0.1794     3.8409     5.8975
  155.0000   -55.3058     4.8339    10.5063    98.8948     2.3667     0.0371     0.3256     0.1767     3.7649     5.7043
  155.5000   -55.6987     4.9865    10.4174    99.5686     2.3759     0.0413     0.3289     0.1768     3.6904     5.5176
  156.0000   -56.0983     4.8108    10.3310   100.2608     2.3837     0.0464     0.3303     0.1754     3.6319     5.3369
  156.5000   -56.1891     4.6414    10.2780   100.9556     2.3744     0.0515     0.3379     0.1909     3.4481     5.1621
  157.0000   -56.1593     4.4779    10.2786   101.6402     2.3759     0.0410     0.3309     0.1968     3.3021     4.9931
  157.5000   -56.1339     4.3202    10.2785   102.0363     2.3549     0.0277     0.3317     0.2006     3.1622     4.5899
  158.0000   -56.1125     4.0618    10.2788   102.2171     2.3392     0.0195     0.3333     0.1997     3.0273     3.9144
  158.5000   -56.0873     4.1178    10.2854   101.9181     2.3416     0.0252     0.3361     0.2030     2.8490     3.3308
  159.0000   -56.0639     4.2609    10.2922   101.6336     2.3358     0.0261     0.3301     0.1991     2.8506     2.7430
  159.5000   -56.0401     4.4091    10.2990   101.6640     2.3375     0.0235     0.3252     0.1903     2.8481     3.4779
  160.0000   -56.0162     4.5624    10.3057   102.5985     2.3473     0.0174     0.3291     0.1761     2.9385     4.9709
  160.5000   -55.9925     4.7211    10.3125   103.2778     2.3740     0.0172     0.3339     0.1598     2.9943     5.0024
  161.0000   -55.9687     4.9865    10.3187   102.6365     2.4044     0.0415     0.3355     0.1711     3.0167     5.0891
  161.5000   -55.9451     4.9710    10.3154   101.9263     2.3926     0.0285     0.3335     0.1726     3.1739     5.1914
  162.0000   -55.9211     4.9325    10.3116   101.2113     2.3912     0.0299     0.3361     0.1716     3.3134     5.2792
  162.5000   -55.8973     4.8943    10.3079   100.8504     2.3853     0.0199     0.3266     0.1507     3.4591     5.3685
  163.0000   -55.8745     4.8943    10.3041   101.3890     2.4156     0.0363     0.3278     0.1661     3.6112     5.4594
  163.5000   -55.8480     4.9710    10.3004   102.4549     2.4246     0.0460     0.3377     0.1553     3.7699     5.5518
