~VERSION INFORMATION
 VERS.                2.0:   CWLS LOG ASCII STANDARD - VERSION 2.0
 WRAP.                 NO:   ONE LINE PER DEPTH STEP
~WELL INFORMATION
#MNEM.UNIT      DATA TYPE    INFORMATION
#----------   ------------   ------------------------------
 STRT.F           35.0000:   START DEPTH
 STOP.F          474.0000:   STOP DEPTH
 STEP.F            0.5000:   STEP LENGTH
 NULL.          -999.2500:   NO VALUE
 COMP.    FENIX & SCISSON:   COMPANY
 WELL.        NPR #53-S-3:   WELL
 FLD .             TEAPOT:   FIELD
 LOC .       S3 T38N R78W:   LOCATION
 CNTY.            NATRONA:   COUNTY
 STAT.            WYOMING:   STATE
 CTRY. UNITED STATES OF AMERICA:   COUNTRY
 SRVC.       Schlumberger:   SERVICE COMPANY
 DATE.        21-FEB-1977:   LOGDATE
 API .       490251027800:   API NUMBER
~CURVE INFORMATION
#MNEM.UNIT       API CODE    CURVE DESCRIPTION
#----------   ------------   ------------------------------
 DEPT.F                  :   
 SPR .MV     07 010 01 00:   SPONTANEOUS POTENTIAL
 ILD .OHMM   07 120 46 00:   INDUCTION LOG DEEP
 ILM .OHMM   07 120 44 00:   INDUCTION LOG MEDIUM
 LL8 .OHMM   07 220 08 00:   LATEROLOG-8 RES.
 CALD.IN     45 280 60 00:   CALIPER FROM DENSITY LOG
 CORR.G/C3   45 356 01 00:   DENSITY CORRECTION
 RHOB.G/C3   45 350 01 00:   BULK DENSITY
 DPHI.DEC    45 890 12 00:   DENSITY POROSITY SANDSTONE
 GRD .GAPI   45 310 01 00:   GAMMA RAY FROM DENSITY LOG
~PARAMETER INFORMATION
#MNEM.UNIT          VALUE    DESCRIPTION
#----------   ------------   ------------------------------
 PD  .                 GL:   PERMANENT DATUM
 EPD .F              5163:   ELEVATION PERMANENT DATUM
 LMF .                 GL:   LOG MEASURED FROM
 DMF .                 KB:   DRILLING MEASURED FROM
 EKB .F              5167:   KELLING BUSHING
 EGL .F              5163:   GROUND LEVEL
 DATE.        21-FEB-1977:   RUN DATE
 RUN .                  1:   RUN NUMBER
 DD  .F               480:   DEPTH DRILLER
 DL  .F               475:   DEPTH LOGGER
 BLI .F               474:   BOTTOM LOG INTERVAL
 TLI .F                39:   TOP LOG INTERVAL
 CS  .IN            8.625:   CASING SIZE
 CBD .F                40:   CASING BOTTOM DRILLER
 CBL .F                39:   CASING BOTTOM LOGGER
 BS  .IN            7.875:   BIT SIZE
 BSD .F               480:   BIT SIZE AT DEPTH
 DFT .            KCL MUD:   DRILLING FLUID TYPE
 DFD .                8.6:   DRILLING FLUID DENSITY
 DFV .                 35:   DRILLING FLUID VISCOSITY
 DFPH.                8.0:   DRILLING FLUID PH
 DFL .                6.8:   DRILLING FLUID LOSS
 MSS .           FLOWLINE:   MUD SAMPLE SOURCE
 RMS .OHMM            .41:   RESISTIVITY MUD SAMPLE
 MST .F                70:   MUD SAMPLE TEMPERATURE
 RMF .OHMM            .46:   RESISTIVITY MUD FILTRATE SAMPLE
 MFST.F                70:   MUD FILTRATE SAMPLE TEMPERATURE
 MFSS.               MEAS:   MUD FILTRATE SAMPLE SOURCE
 TCS .HRS               1:   TIME CURCULATED STOPPED
 LUN .               7680:   LOGGING UNIT NUMBER
 LUL .               CSPR:   LOGGING UNIT LOCATION
 ENGI.             TAYLOR:   RECORDING ENGINEER
 WITN.               JAPP:   WITNESSED BY
 CLNT.            A2DTECH:   CLIENT CODE
 ORIG.           5" PRINT:   ORIGIN OF DATA
 UWI .       490251027800:   UNIQUE WELL ID
 DICO. A2D Technologies, Inc.:   DIGITIZING COMPANY
~OTHER INFORMATION
~A   DEPT      SPR        ILD        ILM        LL8       CALD       CORR       RHOB       DPHI         GRD  
   35.0000  -999.2500  -999.2500  -999.2500  -999.2500  -999.2500  -999.2500  -999.2500  -999.2500    87.3268
   35.5000  -999.2500  -999.2500  -999.2500  -999.2500  -999.2500  -999.2500  -999.2500  -999.2500    87.3468
   36.0000  -999.2500  -999.2500  -999.2500  -999.2500  -999.2500  -999.2500  -999.2500  -999.2500    87.3668
   36.5000  -999.2500  -999.2500  -999.2500  -999.2500  -999.2500  -999.2500  -999.2500  -999.2500    87.6116
   37.0000  -999.2500  -999.2500  -999.2500  -999.2500  -999.2500  -999.2500  -999.2500  -999.2500    88.5312
   37.5000  -999.2500  -999.2500  -999.2500  -999.2500  -999.2500  -999.2500  -999.2500  -999.2500    91.0249
   38.0000  -999.2500  -999.2500  -999.2500  -999.2500  -999.2500  -999.2500  -999.2500  -999.2500    94.6431
   38.5000  -999.2500  -999.2500  -999.2500  -999.2500  -999.2500  -999.2500  -999.2500  -999.2500   101.1848
   39.0000  -999.2500  -999.2500  -999.2500  -999.2500     8.4854    -0.0113     1.3520     0.4044   106.3772
   39.5000  -999.2500  -999.2500  -999.2500  -999.2500     9.0406     0.0931     1.4256     0.3586   108.6460
   40.0000  -999.2500  -999.2500  -999.2500  -999.2500     9.9251     0.1029     1.5075     0.2988   105.9673
   40.5000  -150.4341     2.8450  -999.2500   883.7379     8.3599     0.0285     2.2187     0.2255   109.5855
   41.0000  -150.2695     7.2946  -999.2500   591.7377     8.1763     0.0405     2.3741     0.1669   115.0480
   41.5000  -150.1019    10.8270  -999.2500   942.6366     8.2398     0.0255     2.4125     0.1444   119.5840
   42.0000  -149.9374    10.9818  -999.2500   671.9125     8.3290     0.0293     2.4332     0.1255   121.8231
   42.5000  -150.0724    10.9468    12.2879   277.0182     8.3902     0.0248     2.4403     0.1237   121.1397
   43.0000  -150.0577    10.6198    10.4118   913.3528     8.4365     0.0263     2.4306     0.1269   120.9298
   43.5000  -150.1963     9.1245    11.9622   637.6979     8.4528     0.0158     2.4274     0.1417   122.7538
   44.0000  -150.4773     8.6372    14.2272   114.4654     8.4238     0.0096     2.4150     0.1378   126.3720
   44.5000  -150.9117     8.5200    11.8894   225.9855     8.3806     0.0188     2.4276     0.1282   129.7653
   45.0000  -151.3461     8.7300    10.4170   280.3622     8.3220     0.0323     2.4332     0.1270   127.7613
   45.5000  -151.7805     9.6942    10.8004   217.1728     8.2036     0.0520     2.4102     0.1463   126.8817
   46.0000  -152.8136    10.7255    11.3666   887.8727     8.0852     0.0640     2.3980     0.1310   125.1026
   46.5000  -154.1462    10.2942    12.6179  1056.6498     8.0562     0.0794     2.4372     0.1199   122.6488
   47.0000  -155.6285     9.6105    11.5896   587.0287     8.1627     0.1036     2.4673     0.1070   120.1950
   47.5000  -157.4102     8.9104    10.8192   418.4347     8.2239     0.1149     2.4854     0.1066   119.3104
   48.0000  -158.6128     8.2043    10.8236   380.1356     8.2552     0.0638     2.4269     0.1404   119.7802
   48.5000  -157.8593     8.5562    10.7533   370.0285     8.2864     0.0428     2.4209     0.1397   118.6807
   49.0000  -154.5180     8.8616    10.6835   370.5057     8.3177     0.0300     2.4240     0.1346   119.3753
   49.5000  -153.4554     8.9274    10.4672   392.0314     8.3490     0.0195     2.4294     0.1254   120.9695
   50.0000  -152.8196     8.8904    10.3730   435.2029     8.3503     0.0278     2.4490     0.1242   122.7886
   50.5000  -150.8775     8.8495    10.1895   457.3227     8.3524     0.0299     2.4415     0.1248   123.9333
   51.0000  -148.9137     8.8132    10.2631   438.9357     8.3829     0.0292     2.4318     0.1266   124.8531
   51.5000  -145.0037     8.9391    10.4089   404.1294     8.4015     0.0224     2.4273     0.1325   125.0982
   52.0000  -140.7944     8.9415    10.4841   421.5178     8.4158     0.0280     2.4484     0.1349   126.4717
   52.5000  -137.0341     8.9439    10.6331   675.6440     8.4019     0.0175     2.4365     0.1283   128.9654
   53.0000  -134.7709     8.9464    10.7098   820.7835     8.3736     0.0085     2.4245     0.1373   130.3347
   53.5000  -133.1065     8.9488    10.7871   868.0480     8.3749     0.0191     2.4298     0.1394   127.2063
   54.0000  -131.8912     8.8894    10.7900   745.7360     8.3912     0.0372     2.4434     0.1261   125.8769
   54.5000  -131.5740     8.7697    10.7930   740.8887     8.4075     0.0304     2.4269     0.1251   126.3467
   55.0000  -131.7066     8.7116    10.7960   682.2312     8.3935     0.0440     2.4390     0.1288   128.1658
   55.5000  -131.3889     8.5903    10.6504   623.7941     8.3653     0.0493     2.4435     0.1219   130.6595
   56.0000  -130.7723     8.4707    10.5069   582.2656     8.3666     0.0321     2.4165     0.1354   133.1532
   56.5000  -130.7545     8.2492    10.2945   648.2921     8.3526     0.0419     2.4610     0.1182   134.9723
   57.0000  -130.5748     8.0824    10.0858   555.3739     8.3543     0.0517     2.4760     0.1107   135.2122
   57.5000  -130.4192     7.8639     9.7454   490.5082     8.3556     0.0427     2.4625     0.1155   133.2131
   58.0000  -130.2515     7.6513     9.4166   498.3272     8.3570     0.0285     2.4513     0.1193   132.3328
   58.5000  -130.0805     7.3931     9.0988   522.6464     8.3433     0.0248     2.4348     0.1259   133.2531
   59.0000  -129.4639     7.2432     8.7311   468.1095     8.3596     0.0218     2.4334     0.1313   133.0482
   59.5000  -128.8474     7.1451     8.4365   407.7451     8.3609     0.0196     2.4349     0.1307   132.3935
   60.0000  -128.2309     7.0488     8.3228   372.8193     8.3623     0.0420     2.4470     0.1238   132.1886
   60.5000  -127.6143     7.0512     8.2106   355.3585     8.3636     0.0595     2.4703     0.1126   132.4610
   61.0000  -126.9978     7.1021     8.2129   327.1796     8.3799     0.0642     2.4719     0.1117   133.1679
   61.5000  -126.2316     7.1534     8.1585   305.4395     8.3963     0.0401     2.4397     0.1210   134.5024
   62.0000  -125.3157     7.2050     8.1607   312.0264     8.4278     0.0182     2.4074     0.1372   136.3214
   62.5000  -124.6991     7.4093     8.2197   325.4520     8.4291     0.0139     2.4150     0.1423   137.4659
   63.0000  -124.2323     7.5703     8.3948   332.4705     8.4305     0.0303     2.4218     0.1361   137.9356
   63.5000  -123.9152     7.8353     8.6328   344.3807     8.4019     0.0680     2.4308     0.1288   130.9841
   64.0000  -123.8974     8.0579     8.8163   356.7176     8.3283     0.0974     2.4679     0.1089   125.6067
   64.5000  -123.7300     8.3439     9.0662   361.8936     8.2399     0.1102     2.4888     0.1050   120.0045
   65.0000  -123.4129     8.6400     9.4531   354.6406     8.1810     0.0794     2.4302     0.1275   118.0005
   65.5000  -123.0957     8.7628     9.7211   342.4378     8.1524     0.0652     2.4281     0.1374   116.8910
   66.0000  -122.6287     8.8260     9.9966   338.2156     8.2588     0.0938     2.4476     0.1280   117.5907
   66.5000  -122.2834     8.8897    10.3513   367.7961     8.3649     0.1013     2.4755     0.1097   119.4097
   67.0000  -121.5229     8.8302    10.7187   388.9754     8.3812     0.0669     2.4575     0.1169   120.3293
   67.5000  -120.4755     8.7717    10.8710   405.7119     8.3673     0.0384     2.4838     0.1072   118.9999
   68.0000  -119.5596     8.7747    10.6505   397.5806     8.3390     0.0422     2.4779     0.1090   117.4457
   68.5000  -118.3442     8.5967    10.4279   403.3495     8.3253     0.0467     2.4892     0.0982   118.5901
   69.0000  -117.5780     8.4809    10.0742   454.0302     8.3267     0.0472     2.4870     0.0978   120.8651
   69.5000  -116.9615     8.3089     9.8105   432.7659     8.3430     0.0198     2.4758     0.1035   121.3471
   70.0000  -116.4946     8.1969     9.7449   421.1061     8.3743     0.0063     2.4593     0.1188   122.3088
   70.5000  -116.0278     8.0865     9.6803   501.1089     8.3906     0.0056     2.4361     0.1220   123.9273
   71.0000  -115.7107     8.0329     9.6836   518.9896     8.3919     0.0132     2.4437     0.1233   124.5420
