~VERSION INFORMATION
 VERS.                2.0:   CWLS LOG ASCII STANDARD - VERSION 2.0
 WRAP.                 NO:   ONE LINE PER DEPTH STEP
~WELL INFORMATION
#MNEM.UNIT      DATA TYPE    INFORMATION
#----------   ------------   ------------------------------
 STRT.F            0.0000:   START DEPTH
 STOP.F          844.0000:   STOP DEPTH
 STEP.F            0.5000:   STEP LENGTH
 NULL.          -999.2500:   NO VALUE
 COMP. BROWN JOHN E&C INC:   COMPANY
 WELL. NAVAL PETROLEUM RESERVE 3 SX-1 #42-1-14:   WELL
 FLD .             TEAPOT:   FIELD
 LOC .      S14 T38N R78W:   LOCATION
 CNTY.            NATRONA:   COUNTY
 STAT.            WYOMING:   STATE
 CTRY. UNITED STATES OF AMERICA:   COUNTRY
 SRVC.     Atlas Wireline:   SERVICE COMPANY
 DATE.        11-JAN-1992:   LOGDATE
 API .       490252247700:   API NUMBER
~CURVE INFORMATION
#MNEM.UNIT       API CODE    CURVE DESCRIPTION
#----------   ------------   ------------------------------
 DEPT.F                  :   
 GRR .GAPI   07 310 01 00:   GAMMA RAY
 RFOC.OHMM   07 220 04 00:   RESISTIVITY FOCUSED LOG
 RILD.OHMM   07 120 46 00:   INDUCTION LOG DEEP RESISTIVITY
 RILM.OHMM   07 120 44 00:   INDUCTION LOG MEDIUM RESISTIVITY
 SPR .MV     07 010 01 00:   SPONTANEOUS POTENTIAL
~PARAMETER INFORMATION
#MNEM.UNIT          VALUE    DESCRIPTION
#----------   ------------   ------------------------------
 PD  .                 GL:   PERMANENT DATUM
 EPD .F              5201:   ELEVATION PERMANENT DATUM
 LMF .                 KB:   LOG MEASURED FROM
 DAPD.F                10:   FEET ABOVE PERMANENT DATUM
 DMF .                 KB:   DRILLING MEASURED FROM
 EKB .F              5211:   KELLING BUSHING
 EGL .F              5201:   GROUND LEVEL
 DATE.        11-JAN-1992:   RUN DATE
 RUN .                  1:   RUN NUMBER
 DD  .F               848:   DEPTH DRILLER
 DL  .F               847:   DEPTH LOGGER
 BLI .F               845:   BOTTOM LOG INTERVAL
 CS  .IN            10.75:   CASING SIZE
 CBD .F               101:   CASING BOTTOM DRILLER
 CBL .F               101:   CASING BOTTOM LOGGER
 BS  .IN             8.75:   BIT SIZE
 BSD .F               848:   BIT SIZE AT DEPTH
 DFT .               CHEM:   DRILLING FLUID TYPE
 DFD .                9.0:   DRILLING FLUID DENSITY
 DFV .                 40:   DRILLING FLUID VISCOSITY
 DFPH.                9.0:   DRILLING FLUID PH
 DFL .                8.4:   DRILLING FLUID LOSS
 MSS .           FLOWLINE:   MUD SAMPLE SOURCE
 RMS .OHMM           0.22:   RESISTIVITY MUD SAMPLE
 MST .F                78:   MUD SAMPLE TEMPERATURE
 RMF .OHMM           0.17:   RESISTIVITY MUD FILTRATE SAMPLE
 MFST.F                78:   MUD FILTRATE SAMPLE TEMPERATURE
 RMC .OHMM           0.28:   RESISTIVITY MUD CAKE
 MCST.F                78:   MUD CAKE SAMPLE TEMPERATURE
 MFSS.               MEAS:   MUD FILTRATE SAMPLE SOURCE
 MCSS.               CALC:   MUD CAKE SAMPLE SOURCE
 RMB .OHMM           0.14:   RESISTIVITY MUD AT BHT
 BHT .F               126:   BOTTOM HOLE TEMPERATURE
 TCS .HRS               3:   TIME CURCULATED STOPPED
 MRT .F               126:   MAXIMUM RECORDED TEMPERATURE
 LUN .            HL-6274:   LOGGING UNIT NUMBER
 LUL .         CASPER, WY:   LOGGING UNIT LOCATION
 ENGI.             ZIEGER:   RECORDING ENGINEER
 WITN.         MR. STRONG:   WITNESSED BY
 CLNT.            A2DTECH:   CLIENT CODE
 ORIG.           5" PRINT:   ORIGIN OF DATA
 UWI .       490252247700:   UNIQUE WELL ID
 DICO. A2D Technologies, Inc.:   DIGITIZING COMPANY
~OTHER INFORMATION
~A    DEPT      GRR      RFOC       RILD       RILM        SPR   
# ...
  427.0000   109.8112     7.3653     7.1962     7.3121   -14.0098
  427.5000   109.1876     7.4154     7.2449     7.3136   -14.0155
  428.0000   109.1646     7.4653     7.3962     7.3151   -13.8695
  428.5000   108.5195     7.6207     7.4984     7.3166   -13.7263
  429.0000   107.6113     7.6720     7.6021     7.3184   -13.4314
  429.5000   106.9877     7.6699     7.5998     7.4230   -13.1378
  430.0000   106.9647     7.6140     7.5980     7.5291   -12.8414
  430.5000   108.1429     7.6120     7.5963     7.6367   -12.5465
  431.0000   107.8196     7.6099     7.5945     7.6918   -12.4019
  431.5000   106.2162     7.6612     7.5926     7.7474   -12.5595
  432.0000   104.7705     7.7127     7.5905     7.8034   -12.5654
  432.5000   109.2463     7.8190     7.6423     7.8598   -12.5725
  433.0000   111.6314     7.8717     7.6936     7.9168   -12.5782
  433.5000   109.2003     7.9247     7.7457     7.9740   -12.7344
  434.0000   105.5696     7.9780     7.7982     7.9756   -12.7402
  434.5000   104.9500     7.9199     7.7963     7.9772   -12.8963
  435.0000   106.1225     7.9178     7.7940     7.9236   -13.0677
  435.5000   107.6010     7.8606     7.7922     7.9252   -13.3605
  436.0000   110.8813     7.8033     7.6823     7.9266   -13.5166
  436.5000   112.3604     7.7470     7.6805     7.9282   -13.8231
  437.0000   112.9374     7.6909     7.6788     7.9300   -14.1297
  437.5000   112.9086     7.6888     7.6769     7.9316   -14.1355
  438.0000   112.2850     7.6868     7.6750     7.9332   -14.4421
  438.5000   111.0608     7.6847     7.6731     7.9106   -14.4492
  439.0000   108.9357     7.6827     7.6713     7.8811   -14.4550
  439.5000   108.0118     7.6272     7.6692     7.8831   -14.4608
  440.0000   108.3283     7.5716     7.6674     7.9400   -14.1644
  440.5000   110.0678     7.6231     7.7193     7.8862   -14.0212
  441.0000   110.6397     7.6744     7.8080     7.9499   -13.8766
  441.5000   112.1182     7.7802     7.9338     8.0009   -14.0342
  442.0000   115.0982     7.8869     8.0001     8.1722   -14.1904
  442.5000   115.0650     7.9969     8.1547     8.2890   -14.1955
  443.0000   109.6410     8.2191     8.3253     8.4075   -14.5027
  443.5000   108.1165     8.3907     8.4405     8.5276   -14.5084
  444.0000   107.4929     8.5659     8.6219     8.6543   -14.5143
  444.5000   106.8693     8.7448     8.7975     8.7735   -14.5215
  445.0000   105.6451     8.8037     8.9810     8.9613   -14.5272
  445.5000   103.4734     8.8638     9.2980     9.0894   -14.5330
  446.0000    99.8876     8.9226     9.6935     9.4808   -14.6892
  446.5000   102.2727     8.9196     9.9657     9.7517   -14.5444
  447.0000   103.1506     9.1058    10.1092     9.9633   -14.5504
  447.5000   102.8216     9.4266    10.3873    10.1742   -14.4058
  448.0000   100.9968     9.8270    10.5309    10.1763   -14.2612
  448.5000    96.6867     9.9624    10.6022    10.1783   -14.1166
  449.0000    97.3414     9.9591    10.5991    10.1804   -13.9720
  449.5000    99.7208     9.8184    10.3047    10.1824   -13.6784
  450.0000   102.7008     9.8845    10.1594    10.2560   -14.4360
  450.5000    95.4751    10.0909    10.3835    10.4874   -14.1338
  451.0000    92.4597    10.2306    10.6633    10.6258   -13.9819
  451.5000    96.3930    10.3709    10.8107    10.6279   -13.6797
  452.0000    96.3988    10.5139    10.7323    10.6300   -13.5276
  452.5000    95.4983    10.5103    10.6552    10.6322   -13.3757
  453.0000    96.4119    10.5075    10.5785    10.5602   -13.3743
  453.5000    97.6262    10.3591    10.5022    10.4887   -13.3728
  454.0000    98.8404    10.2843    10.4994    10.4077   -13.3714
  454.5000    98.8463    10.2101    10.4239    10.3472   -13.3699
  455.0000    99.1542    10.0658    10.2769    10.2772   -13.5189
  455.5000    99.1601    10.0625    10.2030    10.2076   -13.8178
  456.0000    99.1673    10.0598    10.0270    10.1390   -14.1175
  456.5000    99.1731    10.0571     9.9172    10.0704   -14.2664
  457.0000    99.1789     9.9151     9.8074    10.0730   -14.5654
  457.5000    99.1847     9.7751     9.7065     9.9228   -14.5639
  458.0000    98.8884     9.7044     9.6367     9.9208   -14.5621
  458.5000    97.9878     9.6338     9.6345     9.9341   -14.5607
  459.0000    97.0873     9.5642     9.6998    10.1262   -14.4088
  459.5000    96.4889     9.4952     9.7654    10.1950   -14.2570
  460.0000    95.2877     9.6261     9.9004    10.2644   -14.2556
  460.5000    92.8766     9.6909    10.0373    10.4065   -14.2541
  461.0000    91.6737     9.6882    10.1052    10.1884   -14.2526
  461.5000    91.0755     9.6177    10.0320     9.9060   -14.2509
  462.0000    93.8018     9.3504     9.8905     9.8351   -14.2494
  462.5000    93.5055     9.1543     9.7510     9.7647   -14.2480
  463.0000    91.6986     8.8999     9.5359     9.7628   -14.5476
  463.5000    89.2875     8.8357     9.3460     9.7556   -14.6962
  464.0000    90.1997     8.8333     9.3441     9.5562   -14.8451
  464.5000    94.1330     8.9551     9.2766     9.3564   -15.1444
  465.0000    94.7432     9.1414     9.4049     9.0970   -15.2930
  465.5000    92.9376     9.3329     9.6017     8.9068   -15.2916
  466.0000    92.6398     9.4615     9.3194     8.8431   -15.2901
  466.5000    93.5534     9.0706     9.0121     8.7798   -15.2887
  467.0000    93.5592     8.8181     8.8850     8.7166   -15.2872
  467.5000    93.5651     8.6936     8.8211     8.6542   -15.4361
  468.0000    96.6766     8.6913     8.8190     8.6527   -15.7354
  468.5000    99.0162     8.6890     8.7556     8.6509   -15.8843
  469.0000    97.8135     8.5662     8.6926     8.6491   -16.0328
  469.5000    97.2151     8.5038     8.6296     8.6473   -16.0314
  470.0000    96.6167     8.4424     8.5676     8.5850   -15.7292
  470.5000    96.0183     8.4402     8.5655     8.5833   -15.4270
  471.0000    94.7996     8.3792     8.5635     8.5817   -15.2752
  471.5000    94.2172     8.3188     8.5616     8.5202   -15.2842
  472.0000    99.0583     8.2586     8.5571     8.4004   -15.5727
  472.5000    99.6684     8.3137     8.4974     8.3403   -15.7219
  473.0000    99.6742     8.3115     8.4955     8.3382   -15.7201
  473.5000    99.0755     8.3093     8.4344     8.3365   -15.4179
  474.0000    96.6646     8.3071     8.4324     8.3349   -15.1157
  474.5000    95.7655     8.3048     8.3717     8.3333   -14.8135
  475.0000    95.4678     8.3607     8.3115     8.3315   -14.6617
  475.5000    94.8694     8.2998     8.1851     8.2719   -14.5095
  476.0000    94.5731     8.1826     8.0783     8.1556   -14.2073
  476.5000    94.8824     8.0670     7.9644     8.0406   -14.1581
  477.0000    96.7010     7.8978     7.9071     7.9276   -13.7533
  477.5000    99.5468     7.7321     7.8503     7.8161   -13.4511
  478.0000   103.9648     7.4131     7.7396     7.6527   -13.2832
  478.5000   104.5748     7.1068     7.5710     7.3888   -12.8464
  479.0000   104.5806     6.9093     7.2643     7.0706   -12.6945
  479.5000   104.5864     6.7644     7.0134     6.6053   -12.3923
  480.0000   104.2900     6.5307     6.6771     6.4672   -12.2405
  480.5000   102.7290     6.3051     6.5372     6.5112   -12.3894
  481.0000   100.3757     6.4905     6.6279     6.6941   -12.6957
  481.5000    99.1731     7.1946     6.8137     6.8343   -13.1381
  482.0000   100.6894     7.2435     6.9079     7.0048   -13.2873
  482.5000   104.9249     7.0418     6.9062     7.0741   -13.2855
  483.0000   105.2328     6.9910     6.9042     7.0723   -13.0709
  483.5000   105.2226     7.0874     7.0001     7.1703   -12.9195
  484.0000   104.6416     7.2380     7.0965     7.0695   -12.7178
  484.5000   105.8559     7.3859     7.1950     7.1674   -12.5063
  485.0000   107.6744     7.3325     7.2940     7.2161   -12.3757
  485.5000   108.2844     7.2290     7.2910     7.3669   -12.2239
  486.0000   107.9881     7.2270     7.1390     7.4690   -12.2224
  486.5000   107.9939     7.3779     7.2377     7.5728   -12.2210
  487.0000   104.6779     7.4796     7.4931     7.6243   -12.2195
  487.5000    98.3393     7.6358     7.7576     7.7836   -12.3685
