~VERSION INFORMATION
 VERS.                2.0:   CWLS LOG ASCII STANDARD - VERSION 2.0
 WRAP.                 NO:   ONE LINE PER DEPTH STEP
~WELL INFORMATION
#MNEM.UNIT      DATA TYPE    INFORMATION
#----------   ------------   ------------------------------
 STRT.F           88.0000:   START DEPTH
 STOP.F          991.0000:   STOP DEPTH
 STEP.F            0.5000:   STEP LENGTH
 NULL.          -999.2500:   NO VALUE
 COMP. US NAVY /INTEX OIL CO.:   COMPANY
 WELL.    NPR #3 #S-11 63:   WELL
 FLD .             TEAPOT:   FIELD
 LOC .      S11 T38N R78W:   LOCATION
 CNTY.            NATRONA:   COUNTY
 STAT.            WYOMING:   STATE
 CTRY. UNITED STATES OF AMERICA:   COUNTRY
 SRVC.       Schlumberger:   SERVICE COMPANY
 DATE.        24-JUL-1964:   LOGDATE
 API .       490250636200:   API NUMBER
~CURVE INFORMATION
#MNEM.UNIT       API CODE    CURVE DESCRIPTION
#----------   ------------   ------------------------------
 DEPT.F                  :   
 SPR .MV     05 010 01 00:   SPONTANEOUS POTENTIAL FROM RES.
 ASN .OHMM   05 041 16 00:   AMPLIFIED SHORT NORMAL 16"
 ILD .OHMM   05 120 46 00:   INDUCTION LOG DEEP
 CILD.MMHO   05 110 46 00:   CONDUCTIVITY INDUCTION LOG DEEP
 CALS.IN     60 280 50 00:   CALIPER FROM SONIC LOG
 DT  .US/F   60 520 33 00:   INTERVAL TRANSIT TIME
 GR  .GAPI   30 310 01 00:   GAMMA RAY
~PARAMETER INFORMATION
#MNEM.UNIT          VALUE    DESCRIPTION
#----------   ------------   ------------------------------
 PD  .                 GL:   PERMANENT DATUM
 LMF .                 KB:   LOG MEASURED FROM
 DAPD.F                 5:   FEET ABOVE PERMANENT DATUM
 DMF .                 KB:   DRILLING MEASURED FROM
 EKB .F              5914:   KELLING BUSHING
 DATE.          7-24-1964:   RUN DATE
 RUN .                  1:   RUN NUMBER
 DD  .F               990:   DEPTH DRILLER
 DL  .F               992:   DEPTH LOGGER
 BLI .F               991:   BOTTOM LOG INTERVAL
 TLI .F               990:   TOP LOG INTERVAL
 CS  .IN            8.625:   CASING SIZE
 CBD .F                15:   CASING BOTTOM DRILLER
 BS  .IN             6.75:   BIT SIZE
 BSD .F               990:   BIT SIZE AT DEPTH
 DFT .            GEL OIL:   DRILLING FLUID TYPE
 DFD .                9.2:   DRILLING FLUID DENSITY
 DFV .                 47:   DRILLING FLUID VISCOSITY
 MSS .            MUD PIT:   MUD SAMPLE SOURCE
 RMS .OHMM           1.24:   RESISTIVITY MUD SAMPLE
 MST .F                75:   MUD SAMPLE TEMPERATURE
 RMF .OHMM           .801:   RESISTIVITY MUD FILTRATE SAMPLE
 MFST.F                80:   MUD FILTRATE SAMPLE TEMPERATURE
 MFSS.                 FP:   MUD FILTRATE SAMPLE SOURCE
 RMB .OHMM           1.09:   RESISTIVITY MUD AT BHT
 BHT .F                85:   BOTTOM HOLE TEMPERATURE
 TCS .HRS              .5:   TIME CURCULATED STOPPED
 MRT .F                85:   MAXIMUM RECORDED TEMPERATURE
 LUN .               2572:   LOGGING UNIT NUMBER
 LUL .                 MC:   LOGGING UNIT LOCATION
 ENGI.             BOWLER:   RECORDING ENGINEER
 WITN.          JORGENSEN:   WITNESSED BY
 CLNT.            A2DTECH:   CLIENT CODE
 ORIG.      2" & 5" PRINT:   ORIGIN OF DATA
 UWI .       490250636200:   UNIQUE WELL ID
 DICO. A2D Technologies, Inc.:   DIGITIZING COMPANY
~OTHER INFORMATION
~A   DEPT      SPR          ASN        ILD      CILD      CALS         DT         GR   
# ...
  497.5000   -33.6110     7.6791     6.9012   149.3989     6.8847   106.2311    76.7845
  498.0000   -33.6039     7.8838     6.8305   148.6236     6.8853   106.4522    75.1566
  498.5000   -33.5969     7.9790     6.7595   147.8483     6.8860   106.0036    76.0587
  499.0000   -33.5898     8.0085     6.6145   147.8192     6.8865   105.1076    71.3796
  499.5000   -33.5827     8.0806     6.5446   147.0440     6.8871   104.2875    70.9352
  500.0000   -33.5756     8.0960     6.4729   146.2687     6.8732   103.6901    66.7169
  500.5000   -33.7462     8.0515     6.4015   151.7857     6.8583   103.3159    68.2214
  501.0000   -33.8526     7.9170     6.2563   155.7810     6.8444   103.6858    73.6749
  501.5000   -33.8437     7.7675     6.1104   158.6715     6.8588   104.3533    74.2560
  502.0000   -33.8366     7.5730     6.0389   162.2846     6.8588   105.3929    75.4998
  502.5000   -33.8295     7.3936     5.8930   164.4525     6.8588   106.6778    77.0486
  503.0000   -33.8223     7.2141     5.8214   166.5731     6.8588   107.0976    80.3794
  503.5000   -33.8152     7.0615     5.8244   167.9711     6.8588   107.3968    77.9731
  504.0000   -33.8081     7.0201     5.7470   170.1194     6.8588   107.5476    73.9579
  504.5000   -33.6555     7.0055     5.6070   171.5150     6.8732   107.5490    73.0691
  505.0000   -33.6483     7.0061     5.5362   172.9112     6.8876   107.4756    80.1512
  505.5000   -33.4942     6.9914     5.5392   172.8134     6.9020   107.4026    85.4253
  506.0000   -33.1964     7.0069     5.5421   171.9522     6.9164   107.0321    82.5668
  506.5000   -33.1893     7.0074     5.5450   172.6039     6.9164   106.8819    74.2867
  507.0000   -33.1822     6.9928     5.5479   174.7481     6.9164   107.1097    77.3017
  507.5000   -33.0297     6.9783     5.5508   175.4235     6.9164   107.7069    76.4011
  508.0000   -32.8772     6.9773     5.6281   176.0751     6.9164   108.3040    77.4583
  508.5000   -32.7247     6.9493     5.7054   174.4644     6.9164   108.8266    78.5155
  509.0000   -32.5723     6.8597     5.8571   171.3848     6.9164   109.2748    76.8619
  509.5000   -32.5651     6.8001     5.9345   168.3051     6.9164   110.0209    84.8468
  510.0000   -32.5580     6.9056     6.0869   165.9701     6.9164   118.1233    87.8619
  510.5000   -32.5509     7.0859     6.1642   165.8732     6.9164   133.8198    81.9914
  511.0000   -32.5436     7.2663     6.1671   163.5201     6.9164   134.6389    71.6018
  511.5000   -32.5363     7.4916     6.1700   161.1868     6.9164   134.7947    75.2200
  512.0000   -32.5277     7.6720     6.1729   158.8534     6.9164   135.0112    72.6628
  512.5000   -32.5206     7.7474     6.1758   155.7737     6.9164   135.2345    71.0092
  513.0000   -32.5135     7.7328     6.2532   152.6941     6.9164   136.5748    69.5061
  513.5000   -32.5064     7.7183     6.3305   150.3607     6.9164   139.9255    67.2661
  514.0000   -32.4992     7.7938     6.4078   149.5199     6.9164   140.5212    71.4152
  514.5000   -32.4921     7.8392     6.4851   149.4253     6.9164   140.1250    70.7068
  515.0000   -32.3396     7.9146     6.4881   149.3283     6.9164   132.7774    67.7109
  515.5000   -32.3325     7.9600     6.4916   149.9824     6.9164   119.7468    61.3886
  516.0000   -32.3254     7.8105     6.4194   152.1266     6.9164   106.1206    65.4578
  516.5000   -32.3183     7.6910     6.2735   154.2473     6.9164   105.3760    68.3223
  517.0000   -32.3110     7.5682     6.2020   155.6689     6.9164   106.4185    69.2289
  517.5000   -32.3038     7.4221     6.2056   157.7894     6.9164   107.0141    68.4789
  518.0000   -32.2951     7.3476     6.2086   159.9337     6.9164   107.3865    68.9419
  518.5000   -32.2880     7.2881     6.2859   162.0779     6.9164   107.6098    70.9534
  519.0000   -32.2809     7.2734     6.3632   164.2239     6.9020   107.6098    81.8252
  519.5000   -32.2737     7.2589     6.4405   164.1269     6.9020   107.3865    84.1535
  520.0000   -32.4137     7.2894     6.5178   162.4382     6.9020   107.0886    82.4999
  520.5000   -32.4048     7.3198     6.5952   158.6909     6.9020   106.7163    85.8163
  521.0000   -32.3977     7.3352     6.7476   154.1187     6.8876   106.1206    78.9324
  521.5000   -32.3906     7.4144     6.8249   146.5615     6.8732   105.5249    74.6487
  522.0000   -32.5291     7.9097     6.9022   142.7355     6.8588   103.3656    71.6693
  522.5000   -32.6671     8.7759     6.9795   139.6559     6.8444    94.7126    62.6361
  523.0000   -32.6599     9.0313     7.0568   137.3225     6.8444    89.5160    60.8319
  523.5000   -32.6526     9.1666     7.1341   134.9892     6.8156    88.9948    58.4245
  524.0000   -32.6454     9.1819     7.1370   132.6558     6.8156    88.9203    84.9343
  524.5000   -32.4914     9.0176     7.0654   130.3209     6.8012    90.1861    79.9674
  525.0000   -32.3389     8.7182     6.9196   130.4726     6.8156    96.2174    77.2595
  525.5000   -32.3318     8.5387     6.8481   137.5723     6.8300   102.6210    78.0155
  526.0000   -32.3247     8.3268     6.7022   144.9404     6.8588   104.2591    69.8860
  526.5000   -32.3176     8.0951     6.5563   150.8160     6.8876   104.6314    78.0215
  527.0000   -32.3104     7.8055     6.3360   154.4528     6.9020   104.7059    84.9522
  527.5000   -32.4504     7.5810     6.0421   159.5821     6.9164   105.9717    88.2677
  528.0000   -32.5869     7.3566     5.9698   164.7114     6.9164   114.9814    82.2467
  528.5000   -32.5798     7.1921     5.7503   169.0944     6.9164   106.4185    86.7685
  529.0000   -32.5726     7.1026     5.6780   171.9849     6.9164   106.8652    82.4040
  529.5000   -32.7108     7.0281     5.6817   172.6366     6.9164   107.9077    81.8038
  530.0000   -32.7035     7.0125     5.6846   170.2796     6.9164   108.4289    80.4522
  530.5000   -32.6948     7.0445     5.8363   167.1999     6.9164   108.3544    78.0448
  531.0000   -32.6877     7.1539     5.9970   163.3740     6.9164   108.1232    77.7473
  531.5000   -32.6806     7.3448     6.2149   160.2944     6.9020   107.7588    76.0937
  532.0000   -32.6734     7.5851     6.3666   156.4685     6.9018   107.3120    74.1388
  532.5000   -32.6663     7.7654     6.5927   154.1351     6.8857   106.6418    67.9664
  533.0000   -32.8063     7.9458     6.6700   151.0555     6.8732   105.5249    69.0236
  533.5000   -32.7974     8.0961     6.8961   148.7221     6.8732   104.3336    65.2623
  534.0000   -32.7903     8.2765     6.8990   145.6216     6.8588   103.6634    66.7713
  534.5000   -32.7832     8.4268     6.9764   143.2085     6.8588   103.5850    68.4309
  535.0000   -32.7760     8.5482     7.0537   140.2057     6.8588   104.7111    70.9942
  535.5000   -32.7689     8.6526     7.0566   139.3649     6.8732   122.7252    77.7743
  536.0000   -32.7616     8.4732     6.9851   138.5241     6.8732   130.8414    85.1568
  536.5000   -32.9000     8.3687     6.9136   139.9220     6.8746   132.1817    88.4723
  537.0000   -32.8911     8.2642     6.9172   142.8125     6.8876   130.0968    85.4640
  537.5000   -32.8840     8.1747     6.8450   144.2105     6.8876   122.7997    77.1839
  538.0000   -32.7315     8.1301     6.7742   144.8656     6.8876   118.6299    73.4218
  538.5000   -32.7244     8.1306     6.7027   144.7676     6.8876   106.6418    76.4368
  539.0000   -32.7173     8.2060     6.6312   143.9254     6.8876   105.6603    81.2591
  539.5000   -32.5648     8.2968     6.6341   144.5785     6.8876   104.3227    83.8223
  540.0000   -32.5577     8.3738     6.4882   144.4603     6.8876   103.9613    87.4398
  540.5000   -32.5505     8.3124     6.4166   145.1356     6.8444   103.6634    84.2802
  541.0000   -32.5434     8.0879     6.3452   145.7873     6.7987   103.3656    80.6687
  541.5000   -32.5363     7.9684     6.3482   147.1853     6.7579   103.0678    76.3042
  542.0000   -32.5291     7.8789     6.2023   147.8370     6.7723   103.2911    80.6747
  542.5000   -32.5218     7.7744     6.1308   149.9576     6.7867   103.6634    76.3102
