~VERSION INFORMATION
 VERS.                2.0:   CWLS LOG ASCII STANDARD - VERSION 2.0
 WRAP.                 NO:   ONE LINE PER DEPTH STEP
~WELL INFORMATION
#MNEM.UNIT      DATA TYPE    INFORMATION
#----------   ------------   ------------------------------
 STRT.F           12.0000:   START DEPTH
 STOP.F          660.0000:   STOP DEPTH
 STEP.F            0.5000:   STEP LENGTH
 NULL.          -999.2500:   NO VALUE
 COMP. LAWRENCE/ALLISON INC:   COMPANY
 WELL.    24-11 SX #11-11:   WELL
 FLD .             TEAPOT:   FIELD
 LOC .      S11 T38N R78W:   LOCATION
 CNTY.            NATRONA:   COUNTY
 STAT.            WYOMING:   STATE
 CTRY. UNITED STATES OF AMERICA:   COUNTRY
 SRVC.           Gearhart:   SERVICE COMPANY
 DATE.        21-JUN-1986:   LOGDATE
 API .       490251109900:   API NUMBER
~CURVE INFORMATION
#MNEM.UNIT       API CODE    CURVE DESCRIPTION
#----------   ------------   ------------------------------
 DEPT.F                  :   
 GRR .GAPI   07 310 01 00:   GAMMA RAY FROM RES. LOG.
 ILM .OHMM   07 120 44 00:   INDUCTION LOG MEDIUM
 ILD .OHMM   07 120 46 00:   INDUCTION LOG DEEP
~PARAMETER INFORMATION
#MNEM.UNIT          VALUE    DESCRIPTION
#----------   ------------   ------------------------------
 PD  .                 GL:   PERMANENT DATUM
 EPD .F              5157:   ELEVATION PERMANENT DATUM
 LMF .                 KB:   LOG MEASURED FROM
 DAPD.F                 5:   FEET ABOVE PERMANENT DATUM
 DMF .                 KB:   DRILLING MEASURED FROM
 EKB .F              5162:   KELLING BUSHING
 EGL .F              5157:   GROUND LEVEL
 DATE.            6-21-86:   RUN DATE
 RUN .                  1:   RUN NUMBER
 DD  .F               665:   DEPTH DRILLER
 DL  .F               667:   DEPTH LOGGER
 BLI .F               658:   BOTTOM LOG INTERVAL
 CS  .IN            8.625:   CASING SIZE
 CBD .F                47:   CASING BOTTOM DRILLER
 CBL .F                48:   CASING BOTTOM LOGGER
 BS  .IN            7.875:   BIT SIZE
 BSD .F               665:   BIT SIZE AT DEPTH
 DFT .                AIR:   DRILLING FLUID TYPE
 TCS .HRS            1130:   TIME CURCULATED STOPPED
 TLAB.HRS            1315:   TIME LOGGER AT BOTTOM
 MRT .F                67:   MAXIMUM RECORDED TEMPERATURE
 LUN .               7609:   LOGGING UNIT NUMBER
 LUL .           GILLETTE:   LOGGING UNIT LOCATION
 ENGI.            WANGLER:   RECORDING ENGINEER
 WITN.           JENNINGS:   WITNESSED BY
 CLNT.            A2DTECH:   CLIENT CODE
 ORIG.       2", 5" PRINT:   ORIGIN OF DATA
 UWI .       490251109900:   UNIQUE WELL ID
 DICO. A2D Technologies, Inc.:   DIGITIZING COMPANY
~OTHER INFORMATION
~A   DEPT       GRR       ILM        ILD   
# ...
  285.0000    97.4955     8.9946     8.9667
  285.5000    97.3389     9.2722     9.0347
  286.0000    99.8370     9.3739     9.1033
  286.5000   105.8614     9.4767     9.1392
  287.0000   111.7547     9.5806     9.1400
  287.5000   116.4136     9.6857     9.1402
  288.0000   114.7328     9.7593     9.0344
  288.5000   111.9442     9.6285     8.9554
  289.0000   110.1860     9.5294     8.8856
  289.5000   110.9342     9.4314     8.8453
  290.0000   113.1650     9.3344     8.8018
  290.5000   116.4560     9.2384     8.7586
  291.0000   119.7434     9.1392     8.7156
  291.5000   123.0157     9.1144     8.6728
  292.0000   124.1096     9.0886     8.6301
  292.5000   119.3630     9.0629     8.5878
  293.0000   114.6910     9.0372     8.5456
  293.5000   111.4700     9.0116     8.5036
  294.0000   110.7042     8.9861     8.4785
  294.5000   109.8975     8.9606     8.5508
  295.0000   109.0892     8.9353     8.5447
  295.5000   108.9422     8.9100     8.5382
  296.0000   109.6197     8.8856     8.5319
  296.5000   110.4167     8.8092     8.5256
  297.0000   111.2221     8.7360     8.5193
  297.5000   112.2807     8.6634     8.5130
  298.0000   113.3259     8.6391     8.5068
  298.5000   112.9387     8.6651     8.5005
  299.0000   110.8492     8.6830     8.4941
  299.5000   108.8139     8.7008     8.4879
  300.0000   106.8947     8.7205     8.4817
  300.5000   103.4943     8.5655     8.3781
  301.0000   100.1531     8.3967     8.1825
  301.5000   100.3330     8.2313     7.9913
  302.0000   103.4186     8.0681     7.8047
  302.5000   106.6157     7.9020     7.6224
  303.0000   107.5400     7.7394     7.4443
  303.5000   107.8373     7.5798     7.2691
  304.0000   108.1715     7.4244     7.1599
  304.5000   110.5522     7.2977     7.1615
  305.0000   113.7321     7.3258     7.1615
  305.5000   115.1114     7.3510     7.2279
  306.0000   116.4254     7.3992     7.3131
  306.5000   117.0180     7.5740     7.4426
  307.0000   117.4418     7.7609     7.6365
  307.5000   116.9264     7.9942     7.8362
  308.0000   115.1283     8.2358     8.0409
  308.5000   112.4961     8.4846     8.2433
  309.0000   109.7980     8.7409     8.1383
  309.5000   109.8543     8.9001     8.1049
  310.0000   112.5886     8.9325     8.0717
  310.5000   115.3913     8.9693     8.0385
  311.0000   115.1226     8.9378     8.0145
  311.5000   112.3843     8.8910     8.0146
  312.0000   109.7579     8.8444     8.0148
  312.5000   108.1103     8.7998     8.0149
  313.0000   107.2597     8.4255     8.0155
  313.5000   109.3084     8.0963     7.8122
  314.0000   111.8659     7.8428     7.5358
  314.5000   112.0593     7.6681     7.2692
  315.0000   108.2755     7.5144     7.0121
  315.5000   106.1673     7.3636     6.7640
  316.0000   106.7947     7.2160     6.5247
  316.5000   111.8686     7.0484     6.2939
  317.0000   116.6229     6.7708     6.0713
  317.5000   117.4399     6.5041     5.9248
  318.0000   111.8355     6.2480     5.8938
  318.5000   102.7895     6.0386     5.8811
  319.0000   101.9708     5.9853     5.8811
  319.5000   102.2654     5.9325     6.0844
  320.0000   105.6218     5.8811     6.3360
  320.5000   110.0145     6.1997     6.5980
  321.0000   110.8457     6.5321     6.9275
  321.5000   109.1633     6.8811     7.2862
  322.0000   107.4935     7.2484     7.6622
  322.5000   106.0002     7.6352     7.9095
  323.0000   105.5744     8.0146     8.1361
  323.5000   105.3776     8.2274     8.3701
  324.0000   105.7978     8.4745     8.3994
  324.5000   109.5545     8.7300     8.3994
  325.0000   113.5191     8.9693     8.3994
  325.5000   114.2238     9.2740     8.4146
  326.0000   113.1011     9.5602     8.5579
  326.5000   112.4013     9.7664     8.7036
  327.0000   113.4632     9.6597     8.8393
  327.5000   114.1476     9.6273     8.9514
  328.0000   113.3796     9.5975     9.0650
  328.5000   111.3399     9.5686     9.1392
  329.0000   110.1599     9.5420     9.1215
  329.5000   111.2464     9.5155     9.1084
  330.0000   112.8438     9.4886     9.0954
  330.5000   114.4678     9.5516     9.0824
  331.0000   114.2838     9.6163     9.0694
  331.5000   113.7917     9.6815     9.0560
  332.0000   112.3888     9.7471     9.0261
  332.5000   110.9789     9.8251     8.9805
  333.0000   111.4202     9.9328     8.9351
  333.5000   112.5841    10.0379     8.8900
  334.0000   113.7785     9.9347     8.8451
  334.5000   112.5897     9.8133     8.8027
  335.0000   111.1698     9.6928     8.7081
  335.5000   109.7653     9.5733     8.6190
  336.0000   108.8900     9.4545     8.5309
  336.5000   111.1347     9.3312     8.4437
  337.0000   110.9288     9.2095     8.3382
  337.5000   107.4539     9.0886     8.2173
  338.0000   103.9661     8.8529     8.0958
  338.5000   103.6634     8.5718     7.9554
  339.0000   108.7156     8.3006     7.7696
  339.5000   113.7764     8.0380     7.5677
  340.0000   118.3985     7.7838     6.9859
  340.5000   120.2719     7.2982     6.4488
  341.0000   118.4572     6.7665     5.8480
  341.5000   114.4796     6.2736     5.2270
  342.0000   110.6673     5.6567     4.6719
  342.5000   109.3823     5.0570     4.1757
  343.0000   109.4726     4.5210     3.7323
  343.5000   110.2835     4.0418     3.4510
  344.0000   111.1475     3.6133     3.2199
  344.5000   110.4191     3.3106     3.0042
  345.0000   105.5895     3.1418     2.9142
  345.5000   100.7360     3.0320     2.8522
  346.0000    99.9425     2.9937     2.8297
  346.5000   105.5132     3.1109     2.9823
  347.0000   111.0591     3.2286     3.1907
  347.5000   116.6048     3.4097     3.4136
  348.0000   122.0395     3.7860     3.6960
  348.5000   126.7663     4.2038     4.1085
  349.0000   127.1229     4.6677     4.5669
  349.5000   126.9104     5.1828     5.0766
  350.0000   127.6052     5.7548     5.5105
  350.5000   129.0181     6.0368     5.8387
  351.0000   129.8176     6.2403     6.0785
  351.5000   125.9461     6.4843     6.2835
  352.0000   121.2512     6.7696     6.3991
  352.5000   118.4416     6.9628     6.0453
  353.0000   119.5050     6.8043     5.7927
  353.5000   120.7729     6.6457     5.5507
  354.0000   122.0458     6.2873     5.3191
  354.5000   123.8989     5.9491     5.0971
  355.0000   126.7749     5.6293     4.9572
  355.5000   129.7095     5.3674     4.9212
  356.0000   128.8160     5.1434     4.9371
  356.5000   124.5968     5.0616     4.9632
  357.0000   120.3187     5.0144     4.9893
  357.5000   117.0866     5.1153     5.0144
  358.0000   117.6322     5.2060     5.1788
  358.5000   120.6105     5.5530     5.3788
  359.0000   123.5682     5.8099     5.5865
  359.5000   125.7712     6.1279     5.8022
  360.0000   123.5048     6.4632     6.0532
  360.5000   120.9765     6.8160     6.3153
  361.0000   119.9635     7.1942     6.5918
  361.5000   119.9942     7.3867     6.8978
  362.0000   121.4556     7.5654     7.1223
  362.5000   122.5370     7.7240     7.4406
  363.0000   122.5097     7.7545     7.7195
  363.5000   120.4394     7.7922     7.6847
  364.0000   118.3731     7.7394     7.5760
  364.5000   118.0722     7.6483     7.4697
  365.0000   119.4785     7.5596     7.3628
  365.5000   121.3933     7.4775     7.2575
  366.0000   123.3028     7.3962     7.1536
  366.5000   127.0476     7.2981     7.0471
  367.0000   126.7089     7.1909     6.9367
  367.5000   122.4024     7.0852     6.8334
  368.0000   118.4043     6.8940     6.5034
  368.5000   120.2623     6.6080     6.2014
  369.0000   126.4547     6.3338     5.9142
  369.5000   131.0831     6.0710     5.6407
  370.0000   133.1293     5.7990     5.3546
  370.5000   130.7570     5.5307     5.2790
  371.0000   127.9062     5.3306     5.1954
  371.5000   123.3875     5.2554     5.1084
  372.0000   119.9175     5.2060     5.1088
  372.5000   116.4234     5.3580     5.3115
  373.0000   116.0191     5.5043     5.5352
  373.5000   117.2221     5.8190     5.7683
  374.0000   119.6043     6.1517     6.0112
  374.5000   124.8929     6.5034     6.2644
  375.0000   130.1315     6.8753     6.5280
  375.5000   134.3257     7.1637     6.8222
