~VERSION INFORMATION
 VERS.                2.0:   CWLS LOG ASCII STANDARD - VERSION 2.0
 WRAP.                 NO:   ONE LINE PER DEPTH STEP
~WELL INFORMATION
#MNEM.UNIT      DATA TYPE    INFORMATION
#----------   ------------   ------------------------------
 STRT.F            0.0000:   START DEPTH
 STOP.F          530.0000:   STOP DEPTH
 STEP.F            0.5000:   STEP LENGTH
 NULL.          -999.2500:   NO VALUE
 COMP.   LAWRENCE-ALLISON:   COMPANY
 WELL. NPR 3 #51-56SX10 OB3:   WELL
 FLD .             TEAPOT:   FIELD
 LOC .      S10 T38N R78W:   LOCATION
 CNTY.            NATRONA:   COUNTY
 STAT.            WYOMING:   STATE
 CTRY. UNITED STATES OF AMERICA:   COUNTRY
 SRVC.           Gearhart:   SERVICE COMPANY
 DATE.        28-JUN-1987:   LOGDATE
 API .       490251100800:   API NUMBER
~CURVE INFORMATION
#MNEM.UNIT       API CODE    CURVE DESCRIPTION
#----------   ------------   ------------------------------
 DEPT.F                  :   
 CALD.IN     45 280 60 00:   CALIPER ROM DENSITY LOG
 CNC .DEC    45 890 03 00:   NEUTRON POROSITY SANDSTONE
 CORR.G/C3   45 356 01 00:   DENSITY CORRECTION
 DEN .G/C3   45 350 01 00:   COMPENSATED BULK DENSTIY
 PORD.DEC    45 890 12 00:   POROSITY DENSITY SANDSTONE
 GRR .GAPI   07 310 01 00:   GAMMA RAY
 ILD .OHMM   07 120 46 00:   INDUCTION LOG DEEP
 ILM .OHMM   07 120 44 00:   INDUCTION LOG MEDIUM
 LL  .OHMM   07 220 00 00:   LATEROLOG RESISTIVITY
 SPR .MV     07 010 01 00:   SPONTANEOUS POTENTIAL
 DT  .US/F   60 520 00 00:   INTERVAL TRANSIT TIME
~PARAMETER INFORMATION
#MNEM.UNIT          VALUE    DESCRIPTION
#----------   ------------   ------------------------------
 PD  .                 GL:   PERMANENT DATUM
 EPD .F              5198:   ELEVATION PERMANENT DATUM
 LMF .                 KB:   LOG MEASURED FROM
 DAPD.F                 8:   FEET ABOVE PERMANENT DATUM
 DMF .                 KB:   DRILLING MEASURED FROM
 EKB .F              5206:   KELLING BUSHING
 EDF .F              5204:   DRILLING FLOOR
 EGL .F              5198:   GROUND LEVEL
 DATE.        28-JUN-1987:   RUN DATE
 RUN .                  1:   RUN NUMBER
 DD  .F               535:   DEPTH DRILLER
 DL  .F               536:   DEPTH LOGGER
 BLI .F               533:   BOTTOM LOG INTERVAL
 BS  .IN             7.87:   BIT SIZE
 BSD .F               535:   BIT SIZE AT DEPTH
 DFT .                MUD:   DRILLING FLUID TYPE
 RMS .OHMM           0.84:   RESISTIVITY MUD SAMPLE
 MST .F                57:   MUD SAMPLE TEMPERATURE
 RMF .OHMM           0.63:   RESISTIVITY MUD FILTRATE SAMPLE
 MFST.F                57:   MUD FILTRATE SAMPLE TEMPERATURE
 RMC .OHMM           1.05:   RESISTIVITY MUD CAKE
 MCST.F                57:   MUD CAKE SAMPLE TEMPERATURE
 MFSS.               CALC:   MUD FILTRATE SAMPLE SOURCE
 MCSS.               CALC:   MUD CAKE SAMPLE SOURCE
 RMB .OHMM           0.59:   RESISTIVITY MUD AT BHT
 BHT .F                80:   BOTTOM HOLE TEMPERATURE
 TCS .HRS            1200:   TIME CURCULATED STOPPED
 TLAB.HRS            1322:   TIME LOGGER AT BOTTOM
 LUN .               7650:   LOGGING UNIT NUMBER
 LUL .           GILLETTE:   LOGGING UNIT LOCATION
 ENGI. JOHNSTON/HUCKFELDT:   RECORDING ENGINEER
 WITN.             STRONG:   WITNESSED BY
 CLNT.            A2DTECH:   CLIENT CODE
 ORIG.      2.5" 5" PRINT:   ORIGIN OF DATA
 UWI .       490251100800:   UNIQUE WELL ID
 DICO. A2D Technologies, Inc.:   DIGITIZING COMPANY
~OTHER INFORMATION
~A    DEPT    CALD        CNC       CORR        DEN       PORD         GRR         ILD        ILM       LL        SPR         DT   
# ...
  122.0000     6.4788     0.2905     0.0374     2.4609     0.1407    79.6036    10.6067     9.7943     9.8241   -52.5526   107.4627
  122.5000     6.4801     0.2998     0.0692     2.4708     0.1265    82.6777    10.4615     9.5285     9.4273   -52.2523   107.3160
  123.0000     6.4813     0.3001     0.0527     2.4678     0.1253    84.3864    10.1769     9.3987     8.8005   -52.2523   107.0967
  123.5000     6.4824     0.2988     0.0362     2.4641     0.1283    85.4259    10.0376     9.2706     8.5623   -51.9520   106.8004
  124.0000     6.4835     0.2974     0.0258     2.4634     0.1294    84.2277     9.7646     9.2712     8.5634   -51.9520   106.4284
  124.5000     6.4847     0.2941     0.0244     2.4732     0.1234    84.2312     9.7646     9.2719     8.4473   -51.6517   106.3573
  125.0000     6.4859     0.2878     0.0456     2.4846     0.1152    84.2342     9.7646     9.2725     8.4485   -51.0511   106.3648
  125.5000     6.4871     0.2878     0.0517     2.4929     0.1124    85.7728     9.7347     9.2448     8.4496   -50.7508   106.3708
  126.0000     6.4883     0.2878     0.0337     2.4914     0.1134    87.8444     9.5939     9.0215     8.3350   -50.7508   106.4524
  126.5000     6.4895     0.2878     0.0323     2.4862     0.1157    89.0485     9.4990     8.9396     8.3650   -50.7508   106.6095
  127.0000     6.4906     0.2773     0.0461     2.4832     0.1166    89.0510     9.4478     8.6106     8.4531   -50.4505   106.9935
  127.5000     6.4918     0.2755     0.0491     2.4803     0.1208    89.0540     9.3112     8.5392     8.3383   -50.1502   107.3018
  128.0000     6.4930     0.2860     0.0493     2.4698     0.1247    87.5516     9.2406     8.5398     8.2925   -50.1502   108.1392
  128.5000     6.4944     0.2980     0.0448     2.4713     0.1249    86.6577     9.0438     8.5404     8.2266   -50.1502   108.5987
  129.0000     6.4956     0.3011     0.0404     2.4712     0.1252    86.0601     8.9893     8.5411     8.2278   -50.1502   108.6047
  129.5000     6.4966     0.3011     0.0345     2.4684     0.1273    90.2677     8.9893     8.5417     8.1637   -50.1502   108.6107
  130.0000     6.4978     0.3011     0.0323     2.4594     0.1314    93.8743     8.9893     8.5423     8.1173   -50.2102   108.6168
  130.5000     6.4991     0.3047     0.0076     2.4504     0.1359    90.8742     8.9893     8.5428     8.1186   -50.7508   108.7145
  131.0000     6.5002     0.3174     0.0047     2.4504     0.1371    89.0753     8.9893     8.5434     8.2324   -50.7508   109.4291
  131.5000     6.5014     0.3421     0.0078     2.4497     0.1374    87.8770     8.9893     8.5440     8.2335   -51.1592   111.1524
  132.0000     6.5026     0.3686     0.0350     2.4490     0.1373    88.4805     8.9893     8.5446     8.2346   -51.7758   114.7646
  132.5000     6.4889     0.3647     0.0231     2.4491     0.1385    90.3053     8.9893     8.5451     8.3501   -51.9520   118.3231
  133.0000     6.4901     0.3469     0.0096     2.4476     0.1442    91.4894     8.9893     8.5457     8.3512   -52.1081   118.6314
  133.5000     6.4912     0.3409     0.0278     2.4363     0.1574    89.0899     8.9893     8.5463     8.3523   -52.2523   117.5792
  134.0000     6.4924     0.3288     0.0807     2.4115     0.1667    88.9810     8.9893     8.5469     8.3535   -52.5526   115.0909
  134.5000     6.4787     0.3204     0.0657     2.4010     0.1631    88.4951     9.0196     8.5475     8.3546   -52.2523   112.6781
  135.0000     6.4802     0.3069     0.0447     2.4222     0.1510    89.2793     9.1141     8.5481     8.3558   -51.9520   109.5851
  135.5000     6.4962     0.3009     0.0538     2.4569     0.1287    88.6737     8.9893     8.5487     8.3570   -51.6517   108.3061
  136.0000     6.4822     0.2776     0.0871     2.4855     0.1178    87.3033     8.9893     8.5493     8.3581   -50.7508   107.7074
  136.5000     6.4837     0.2641     0.0842     2.4901     0.1141    88.4715     8.9893     8.5498     8.3194   -50.1502   107.1843
  137.0000     6.4698     0.2689     0.0645     2.4837     0.1201    89.7438     8.9244     8.4333     8.1328   -50.1502   106.8879
  137.5000     6.4560     0.2834     0.0357     2.4715     0.1267    91.2663     8.7954     8.1865     7.9724   -50.1502   106.5916
  138.0000     6.4574     0.3126     0.0182     2.4594     0.1328    95.1236     7.8315     7.5537     7.8035   -50.7508   106.3708
  138.5000     6.4586     0.3048     0.0123     2.4587     0.1330    96.3278     7.8315     7.2481     7.2299   -51.0831   106.3768
  139.0000     6.4598     0.2970     0.0033     2.4602     0.1320    95.7301     7.8315     7.2486     7.0894   -51.3514   106.3828
  139.5000     6.4610     0.2903     0.0110     2.4618     0.1299    93.9312     7.8315     7.1498     7.0906   -50.7508   106.3129
  140.0000     6.4621     0.2960     0.0352     2.4686     0.1272    92.7329     7.8315     7.1503     6.9943   -50.7508   105.5633
  140.5000     6.4633     0.3030     0.0368     2.4747     0.1226    92.1351     7.8315     7.0529     6.8994   -50.8468   105.2670
  141.0000     6.4645     0.2994     0.0249     2.4702     0.1253    92.1261     7.8315     6.9568     6.7128   -51.0511   104.8950
  141.5000     6.4657     0.2942     0.0129     2.4665     0.1295    92.7417     7.8315     6.9572     6.7137   -51.3514   104.8254
  142.0000     6.4671     0.2747     0.0175     2.4631     0.1303    93.4014     7.8315     6.9577     6.8078   -51.7958   104.7518
  142.5000     6.4683     0.2807     0.0297     2.4645     0.1274    93.9490     7.8478     7.0548     6.8095   -51.9520   102.6858
  143.0000     6.4692     0.2810     0.0494     2.4726     0.1237    93.9520     7.9402     7.0755     6.9042   -51.9520    99.9416
  143.5000     6.4757     0.2776     0.0555     2.4734     0.1260    93.1962     7.9402     7.1799     6.9052   -51.6517    98.5002
  144.0000     6.4866     0.2731     0.0526     2.4682     0.1296    90.7748     7.9755     7.3869     6.9227   -51.3514    98.2794
  144.5000     6.5025     0.2714     0.0331     2.4539     0.1356    89.1556     8.0505     7.5999     7.0030   -51.0511    99.8742
  145.0000     6.5187     0.2846     0.0045     2.4517     0.1359    89.1592     8.0505     7.7588     7.1012   -50.7508   102.1477
  145.5000     6.5198     0.2905     0.0017     2.4540     0.1340    89.1622     8.1052     7.9344     7.1693   -50.7508   102.9096
  146.0000     6.5358     0.2988     0.0088     2.4608     0.1310    89.1652     8.2242     7.9907     7.4435   -50.7508   102.3865
  146.5000     6.5370     0.3000     0.0486     2.4684     0.1270    90.3699     8.2755     7.9914     7.5069   -51.3514   101.9389
  147.0000     6.5383     0.2816     0.0352     2.4715     0.1249    93.9765     8.3904     7.9919     7.5079   -51.9520   101.7923
  147.5000     6.5394     0.2768     0.0262     2.4760     0.1231    90.3758     8.3904     7.9925     7.5090   -51.9720   101.9509
  148.0000     6.5554     0.2771     0.0233     2.4836     0.1191    89.1772     8.2755     7.9930     7.5102   -52.2523   102.4860
  148.5000     6.5399     0.2798     0.0430     2.4904     0.1123    90.9822     8.2755     7.9935     7.6153   -52.2523   103.6258
  149.0000     6.5132     0.2804     0.0446     2.5033     0.1032    96.3906     8.2755     7.9941     7.7223   -52.2523   104.5388
  149.5000     6.5146     0.2765     0.0447     2.5154     0.0886    98.7959     8.2755     7.9946     7.7233   -51.9520   104.6959
  150.0000     6.5006     0.2738     0.0448     2.5381     0.0790    99.3994     8.2755     7.9951     7.7243   -51.6516   104.6264
  150.5000     6.4910     0.2789     0.0558     2.5517     0.0777   100.6036     8.2755     8.0020     7.6195   -50.5185   104.4445
  151.0000     6.5172     0.2919     0.0556     2.5314     0.0975   101.2070     8.2755     8.1073     7.6206   -49.8498   104.3386
  151.5000     6.5179     0.2919     0.0512     2.5103     0.1095    99.9069     8.2755     8.1078     7.5173   -49.5495   104.1952
  152.0000     6.5186     0.2781     0.0362     2.4885     0.1158    98.4024     8.2755     8.1084     7.5183   -49.5495   104.0514
