~VERSION INFORMATION
 VERS.                2.0:   CWLS LOG ASCII STANDARD - VERSION 2.0
 WRAP.                 NO:   ONE LINE PER DEPTH STEP
~WELL INFORMATION
#MNEM.UNIT      DATA TYPE    INFORMATION
#----------   ------------   ------------------------------
 STRT.F           32.0000:   START DEPTH
 STOP.F          812.0000:   STOP DEPTH
 STEP.F            0.5000:   STEP LENGTH
 NULL.          -999.2500:   NO VALUE
 COMP. FENIX & SCISSON INC:   COMPANY
 WELL.       75 SX #15-15:   WELL
 FLD .             TEAPOT:   FIELD
 LOC .      S15 T38N R78W:   LOCATION
 CNTY.            NATRONA:   COUNTY
 STAT.            WYOMING:   STATE
 CTRY. UNITED STATES OF AMERICA:   COUNTRY
 SRVC.              Welex:   SERVICE COMPANY
 DATE.        28-FEB-1977:   LOGDATE
 API .       490251030100:   API NUMBER
~CURVE INFORMATION
#MNEM.UNIT       API CODE    CURVE DESCRIPTION
#----------   ------------   ------------------------------
 DEPT.F                  :   
 SPR .MV     07 010 01 00:   SPONTANEOUS POTENTIAL
 ILD .OHMM   07 120 46 00:   INDUCTION LOG DEEP
 SGRD.OHMM   07 220 05 00:   SHALLOW RESISTIVITY
 ILM .OHMM   07 120 44 00:   INDUCTION LOG MEDIUM
 GRD .GAPI   45 310 01 00:   GAMMA RAY FROM DENSITY LOG
 CALD.IN     45 280 60 00:   CALIPER FROM DENSITY LOG
 RHOB.G/C3   45 350 01 00:   BULK DENSITY
 DPHI.DEC    45 890 12 00:   DENSITY POROSITY SANDSTONE
 CORR.G/C3   45 356 01 00:   DENSITY CORRECTION
~PARAMETER INFORMATION
#MNEM.UNIT          VALUE    DESCRIPTION
#----------   ------------   ------------------------------
 PD  .                 GL:   PERMANENT DATUM
 EPD .F              5264:   ELEVATION PERMANENT DATUM
 LMF .                 GL:   LOG MEASURED FROM
 DMF .                 GL:   DRILLING MEASURED FROM
 EGL .F              5264:   GROUND LEVEL
 DATE.          2-28-1977:   RUN DATE
 RUN .                  1:   RUN NUMBER
 DD  .F               830:   DEPTH DRILLER
 DL  .F               814:   DEPTH LOGGER
 BLI .F               812:   BOTTOM LOG INTERVAL
 TLI .F                42:   TOP LOG INTERVAL
 CS  .IN            8.625:   CASING SIZE
 CBD .F                40:   CASING BOTTOM DRILLER
 CBL .F                42:   CASING BOTTOM LOGGER
 BS  .IN            7.875:   BIT SIZE
 BSD .F               830:   BIT SIZE AT DEPTH
 DFT .           CHEM-GEL:   DRILLING FLUID TYPE
 DFD .                9.3:   DRILLING FLUID DENSITY
 DFV .                 38:   DRILLING FLUID VISCOSITY
 DFPH.               10.5:   DRILLING FLUID PH
 DFL .               16.2:   DRILLING FLUID LOSS
 MSS .          FLOW LINE:   MUD SAMPLE SOURCE
 RMS .OHMM           0.44:   RESISTIVITY MUD SAMPLE
 MST .F                62:   MUD SAMPLE TEMPERATURE
 RMF .OHMM            .38:   RESISTIVITY MUD FILTRATE SAMPLE
 MFST.F                62:   MUD FILTRATE SAMPLE TEMPERATURE
 RMC .OHMM           0.79:   RESISTIVITY MUD CAKE
 MCST.F                62:   MUD CAKE SAMPLE TEMPERATURE
 MFSS.           MEASURED:   MUD FILTRATE SAMPLE SOURCE
 MCSS.           MEASURED:   MUD CAKE SAMPLE SOURCE
 RMB .OHMM           .368:   RESISTIVITY MUD AT BHT
 BHT .F                74:   BOTTOM HOLE TEMPERATURE
 TCS .HRS               3:   TIME CURCULATED STOPPED
 MRT .F                74:   MAXIMUM RECORDED TEMPERATURE
 LUN .               8611:   LOGGING UNIT NUMBER
 LUL .           GILLETTE:   LOGGING UNIT LOCATION
 ENGI.               DOAK:   RECORDING ENGINEER
 WITN.               JAPP:   WITNESSED BY
 CLNT.            A2DTECH:   CLIENT CODE
 ORIG.       2", 5" PRINT:   ORIGIN OF DATA
 UWI .       490251030100:   UNIQUE WELL ID
 DICO. A2D Technologies, Inc.:   DIGITIZING COMPANY
~OTHER INFORMATION
~A   DEPT      SPR        ILD       SGRD        ILM         GRD        CALD       RHOB       DPHI      CORR  
# ...
  287.5000   -49.5950     7.3108    10.9116     9.1829   122.4222     7.7529     2.4411     0.1182     0.0178
  288.0000   -49.5707     7.3341    10.8400     8.6322   122.0348     7.7541     2.4414     0.1172     0.0197
  288.5000   -49.5464     7.3568    10.9154     7.6389   121.9513     7.7553     2.4432     0.1159     0.0215
  289.0000   -49.5221     7.4765    11.1246     7.7418   124.5935     7.7565     2.4538     0.1115     0.0234
  289.5000   -49.4978     7.6233    11.3377     7.9176   127.2614     7.7577     2.4644     0.1071     0.0253
  290.0000   -49.4736     7.7731    11.5549     8.0973   128.4196     7.7590     2.4750     0.1026     0.0271
  290.5000   -49.4492     7.9258    11.7763     8.2812   123.6436     7.7594     2.4856     0.0982     0.0290
  291.0000   -49.4245     8.0817    12.0019     8.4692   120.3431     7.7594     2.4962     0.0938     0.0308
  291.5000   -49.4035     8.2405    12.2318     8.6615   119.4217     7.7586     2.4969     0.0902     0.0327
  292.0000   -49.4594     8.3312    12.4661     8.8518   121.1944     7.7566     2.4938     0.0906     0.0345
  292.5000   -49.5176     8.3719    12.7050     8.8518   123.1636     7.7546     2.4906     0.0934     0.0365
  293.0000   -49.5753     8.3272    12.9484     8.7514   125.2014     7.7527     2.4875     0.0957     0.0357
  293.5000   -49.6330     8.2830    13.1532     8.6929   126.6664     7.7507     2.4844     0.0983     0.0342
  294.0000   -49.6906     8.2390    12.8724     8.6348   125.3433     7.7487     2.4784     0.1008     0.0327
  294.5000   -49.7483     8.1956    12.5249     8.5771   123.8894     7.7468     2.4680     0.1033     0.0312
  295.0000   -49.8059     8.1522    12.1867     8.5198   122.0528     7.7448     2.4576     0.1058     0.0268
  295.5000   -49.8637     7.9556    11.8577     8.4629   120.2380     7.7428     2.4472     0.1124     0.0220
  296.0000   -49.9212     7.7480    11.5376     8.4063   119.3594     7.7409     2.4368     0.1187     0.0171
  296.5000   -49.9796     7.5458    11.2809     8.3501   119.2055     7.7389     2.4281     0.1249     0.0120
  297.0000   -49.9737     7.3489    11.1093     8.2943   118.2603     7.7370     2.4332     0.1222     0.0118
  297.5000   -49.9338     7.1574    10.9403     8.2224   117.4269     7.7350     2.4380     0.1192     0.0129
  298.0000   -49.8930     7.0312    10.7739     8.2246   119.4018     7.7330     2.4429     0.1162     0.0141
  298.5000   -49.8523     7.1882    10.5446     8.2963   121.8749     7.7311     2.4438     0.1155     0.0152
  299.0000   -49.8117     7.3089    10.7113     8.5244   124.3198     7.7291     2.4419     0.1178     0.0163
  299.5000   -49.7710     7.4316    11.0038     8.8088   125.4723     7.7271     2.4451     0.1163     0.0175
  300.0000   -49.7304     7.5563    11.3008     9.0805   119.3931     7.7252     2.4544     0.1115     0.0186
  300.5000   -49.6898     7.6831    11.6083     9.3619   114.5011     7.7232     2.4637     0.1066     0.0198
  301.0000   -49.6491     7.8121    11.9227     9.6518   111.0866     7.7212     2.4730     0.1018     0.0209
  301.5000   -49.6085     7.9432    13.8903    10.0700   111.9394     7.7197     2.4823     0.0970     0.0198
  302.0000   -49.5679     8.0729    17.9621     9.9657   117.5117     7.7208     2.4873     0.0942     0.0183
  302.5000   -49.5272     8.0253    14.4784     9.7967   119.0041     7.7219     2.4782     0.1013     0.0169
  303.0000   -49.4866     8.0572    11.9942     9.6305   117.8955     7.7230     2.4650     0.1069     0.0154
  303.5000   -49.4460     8.0729    12.0297     9.4671   116.7820     7.7241     2.4514     0.1126     0.0140
  304.0000   -49.4053     8.0729    12.0610     9.2689   115.7692     7.7252     2.4480     0.1147     0.0125
  304.5000   -49.3647     8.0729    12.0923     9.3484   116.8998     7.7263     2.4471     0.1143     0.0111
  305.0000   -49.3241     8.0729    12.1237     9.4536   118.1378     7.7274     2.4441     0.1165     0.0096
  305.5000   -49.2834     8.0729    12.1551     9.5598   118.2849     7.7285     2.4380     0.1197     0.0082
  306.0000   -49.2428     8.0729    12.1867     9.6168   117.1337     7.7296     2.4414     0.1197     0.0071
  306.5000   -49.2022     8.0729    12.2183     9.6170   115.9546     7.7307     2.4477     0.1197     0.0079
  307.0000   -49.1615     8.0729    12.2500     9.6170   115.2986     7.7318     2.4540     0.1197     0.0086
  307.5000   -49.1209     8.0729    12.2817     9.6176   115.4269     7.7329     2.4590     0.1086     0.0094
  308.0000   -49.0802     8.0732    12.3132     9.6182   118.3171     7.7340     2.4525     0.1104     0.0102
  308.5000   -49.0394     8.0737    12.3329     9.5286   120.5662     7.7351     2.4454     0.1166     0.0110
  309.0000   -49.0024     8.0341    12.5603     9.3308   121.0653     7.7362     2.4383     0.1205     0.0117
  309.5000   -49.0018     7.9971    12.3551     9.2024   122.2824     7.7373     2.4331     0.1193     0.0125
  310.0000   -49.0020     7.9602    12.1268     9.0757   126.5714     7.7384     2.4357     0.1181     0.0128
  310.5000   -49.0020     7.9235    11.9018     8.9507   130.9657     7.7395     2.4382     0.1169     0.0126
  311.0000   -49.0020     7.8870    11.6811     8.8109   131.7768     7.7389     2.4407     0.1176     0.0124
  311.5000   -49.0020     7.8506    11.4641     8.6034   128.3976     7.7379     2.4431     0.1183     0.0121
  312.0000   -49.0020     7.8144    11.2492     8.4014   126.0951     7.7370     2.4456     0.1189     0.0119
  312.5000   -49.0020     7.7784    11.1449     8.2041   126.5531     7.7360     2.4480     0.1156     0.0116
  313.0000   -49.0022     7.7426    11.4858     8.1308   126.8260     7.7351     2.4505     0.1125     0.0114
  313.5000   -49.0023     7.7069    11.7769     8.1072   125.8128     7.7341     2.4493     0.1134     0.0111
  314.0000   -48.9843     7.6713    11.4458     8.0836   127.5594     7.7332     2.4450     0.1139     0.0119
  314.5000   -48.8796     7.6360    11.0415     8.0601   130.4089     7.7322     2.4478     0.1145     0.0181
  315.0000   -48.7765     7.6008    11.0920     8.0367   126.9180     7.7312     2.4511     0.1121     0.0229
  315.5000   -48.6735     7.5689    11.1714     8.0134   122.3384     7.7303     2.4544     0.1097     0.0221
  316.0000   -48.5705     7.5106    11.2513     7.9901   118.3170     7.7293     2.4577     0.1070     0.0215
  316.5000   -48.4675     7.4570    11.3509     7.9669   119.8026     7.7284     2.4610     0.1067     0.0208
  317.0000   -48.3645     7.4040    11.2338     7.9437   119.3433     7.7274     2.4637     0.1064     0.0202
  317.5000   -48.2615     7.3514    11.1439     7.9253   118.4049     7.7265     2.4639     0.1061     0.0195
  318.0000   -48.1585     7.2992    11.3825     7.9262   118.2546     7.7255     2.4641     0.1059     0.0189
  318.5000   -48.0555     7.2473    11.5596     7.9306   120.9393     7.7245     2.4643     0.1056     0.0182
  319.0000   -47.9525     7.1958    11.0637     7.8529   123.5248     7.7236     2.4646     0.1052     0.0176
  319.5000   -47.8495     7.1619    10.9403     7.6089   126.0838     7.7226     2.4648     0.1045     0.0169
  320.0000   -47.7465     7.2558    11.3810     6.9425   127.6859     7.7217     2.4650     0.1039     0.0200
  320.5000   -47.6435     7.3267    11.6689     6.3345   125.3811     7.7207     2.4652     0.1033     0.0239
  321.0000   -47.5405     7.3984    11.3394     6.0121   122.2611     7.7198     2.4655     0.1027     0.0279
  321.5000   -47.4363     7.4708    11.1437     6.0414   120.0557     7.7183     2.4655     0.1054     0.0277
  322.0000   -47.4054     7.5438    11.5648     6.0620   126.0207     7.7168     2.4588     0.1101     0.0261
  322.5000   -47.4050     7.6176    11.9987     6.0826   130.3160     7.7154     2.4513     0.1148     0.0245
  323.0000   -47.4052     7.6922    11.8902     6.1033   129.7821     7.7139     2.4439     0.1195     0.0228
  323.5000   -47.4056     7.7674    11.7029     6.1239   128.6429     7.7123     2.4365     0.1197     0.0212
