~VERSION INFORMATION
 VERS.                2.0:   CWLS LOG ASCII STANDARD - VERSION 2.0
 WRAP.                 NO:   ONE LINE PER DEPTH STEP
~WELL INFORMATION
#MNEM.UNIT      DATA TYPE    INFORMATION
#----------   ------------   ------------------------------
 STRT.F            2.0000:   START DEPTH
 STOP.F          689.0000:   STOP DEPTH
 STEP.F            0.5000:   STEP LENGTH
 NULL.          -999.2500:   NO VALUE
 COMP. U S NAVY-INTEX OIL:   COMPANY
 WELL. RES 3 TEAPOT DOM #74S-34:   WELL
 FLD .             TEAPOT:   FIELD
 LOC .      S34 T39N R78W:   LOCATION
 CNTY.            NATRONA:   COUNTY
 STAT.            WYOMING:   STATE
 CTRY. UNITED STATES OF AMERICA:   COUNTRY
 SRVC.      NL McCullough:   SERVICE COMPANY
 DATE.        10-AUG-1961:   LOGDATE
 API .       490250653900:   API NUMBER
~CURVE INFORMATION
#MNEM.UNIT       API CODE    CURVE DESCRIPTION
#----------   ------------   ------------------------------
 DEPT.F                  :   
 GR  .GAPI   35 310 01 00:   GAMMA RAY
 NPHI.DEC    35 890 00 00:   NEUTRON POROSITY
~PARAMETER INFORMATION
#MNEM.UNIT          VALUE    DESCRIPTION
#----------   ------------   ------------------------------
 PD  .                 GL:   PERMANENT DATUM
 EPD .F              5044:   ELEVATION PERMANENT DATUM
 LMF .                 KB:   LOG MEASURED FROM
 DAPD.F                 5:   FEET ABOVE PERMANENT DATUM
 DMF .                 KB:   DRILLING MEASURED FROM
 EKB .F              5049:   KELLING BUSHING
 EGL .F              5044:   GROUND LEVEL
 DATE.        10-AUG-1961:   RUN DATE
 RUN .                  1:   RUN NUMBER
 DD  .F               690:   DEPTH DRILLER
 DL  .F             690.5:   DEPTH LOGGER
 BLI .F               689:   BOTTOM LOG INTERVAL
 BS  .IN            7.875:   BIT SIZE
 BSD .F               690:   BIT SIZE AT DEPTH
 DFT .       OIL EMULSION:   DRILLING FLUID TYPE
 DFD .                9.9:   DRILLING FLUID DENSITY
 TCS .HRS               1:   TIME CURCULATED STOPPED
 ENGI.            JACKSON:   RECORDING ENGINEER
 WITN.          JORGENSON:   WITNESSED BY
 CLNT.            A2DTECH:   CLIENT CODE
 ORIG.           2" PRINT:   ORIGIN OF DATA
 UWI .       490250653900:   UNIQUE WELL ID
 DICO. A2D Technologies, Inc.:   DIGITIZING COMPANY
~OTHER INFORMATION
~A    DEPT        GR     NPHI   
# ...
  488.0000     8.2967     0.2418
  488.5000     8.0181     0.2409
  489.0000     8.3419     0.2424
  489.5000     8.4247     0.2530
  490.0000     8.5602     0.2512
  490.5000     9.0422     0.2512
  491.0000     8.8012     0.2488
  491.5000     8.7774     0.2443
  492.0000     8.5828     0.2403
  492.5000     8.1988     0.2384
  493.0000     8.1536     0.2322
  493.5000     8.2440     0.2183
  494.0000     7.7735     0.2083
  494.5000     8.0105     0.2067
  495.0000     8.0256     0.2155
  495.5000     8.0557     0.2219
  496.0000     8.2816     0.2328
  496.5000     8.0256     0.2286
  497.0000     8.0557     0.2304
  497.5000     7.9111     0.2319
  498.0000     7.6566     0.2422
  498.5000     7.5437     0.2407
  499.0000     7.5286     0.2464
  499.5000     7.3780     0.2464
  500.0000     7.9654     0.2452
  500.5000     8.0633     0.2507
  501.0000     8.2289     0.2477
  501.5000     8.3046     0.2429
  502.0000     8.0783     0.2392
  502.5000     8.2063     0.2416
  503.0000     8.2816     0.2459
  503.5000     8.3042     0.2435
  504.0000     7.9277     0.2441
  504.5000     8.1988     0.2401
  505.0000     8.4021     0.2438
  505.5000     8.3718     0.2492
  506.0000     8.5443     0.2532
  506.5000     8.6647     0.2486
  507.0000     8.2730     0.2562
  507.5000     8.6495     0.2604
  508.0000     8.7096     0.2692
  508.5000     8.5815     0.2692
  509.0000     8.2351     0.2714
  509.5000     8.1974     0.2711
  510.0000     8.0693     0.2581
  510.5000     7.9562     0.2584
  511.0000     7.9110     0.2608
  511.5000     7.7980     0.2584
  512.0000     7.8129     0.2584
  512.5000     7.9635     0.2526
  513.0000     8.2104     0.2451
  513.5000     8.0311     0.2533
  514.0000     7.9030     0.2445
  514.5000     7.8502     0.2448
  515.0000     7.8953     0.2439
  515.5000     8.1362     0.2369
  516.0000     8.2651     0.2330
  516.5000     7.8273     0.2317
  517.0000     7.7218     0.2403
  517.5000     7.4883     0.2409
  518.0000     7.3753     0.2386
  518.5000     7.6237     0.2415
  519.0000     7.6242     0.2415
  519.5000     7.7440     0.2427
  520.0000     7.7365     0.2434
  520.5000     8.0595     0.2431
  521.0000     8.5044     0.2491
  521.5000     8.1127     0.2567
  522.0000     8.3461     0.2682
  522.5000     7.6683     0.2625
  523.0000     7.7360     0.2631
  523.5000     7.8790     0.2628
  524.0000     7.8034     0.2482
  524.5000     7.5174     0.2398
  525.0000     7.2990     0.2334
  525.5000     7.5248     0.2325
  526.0000     7.4268     0.2236
  526.5000     7.2912     0.2174
  527.0000     7.2911     0.2204
  527.5000     7.3016     0.2201
  528.0000     7.5018     0.2059
  528.5000     7.5243     0.2084
  529.0000     7.6749     0.2208
  529.5000     7.6447     0.2211
  530.0000     7.7681     0.2196
  530.5000     7.9492     0.2238
  531.0000     7.7423     0.2308
  531.5000     7.9606     0.2269
  532.0000     8.1112     0.2175
  532.5000     7.7421     0.2196
  533.0000     7.7420     0.2090
  533.5000     7.5711     0.2075
  534.0000     7.1093     0.2160
  534.5000     7.0189     0.2130
  535.0000     7.5685     0.2099
  535.5000     7.4555     0.2109
  536.0000     7.3939     0.2112
  536.5000     7.6286     0.1991
  537.0000     7.4477     0.1976
  537.5000     7.5380     0.2151
  538.0000     7.6810     0.2176
  538.5000     7.4852     0.2230
  539.0000     7.8390     0.2475
  539.5000     7.7862     0.2536
  540.0000     6.9195     0.2460
  540.5000     6.5662     0.2230
  541.0000     6.5977     0.2029
  541.5000     6.6715     0.1922
  542.0000     6.6036     0.1873
  542.5000     6.7240     0.1883
  543.0000     6.9273     0.1970
  543.5000     7.2133     0.1955
  544.0000     6.9359     0.1969
  544.5000     6.1815     0.2052
  545.0000     6.2266     0.1986
  545.5000     6.2793     0.2001
  546.0000     5.2250     0.2010
  546.5000     5.1496     0.1986
  547.0000     4.4399     0.1892
  547.5000     3.5794     0.1732
  548.0000     2.5870     0.1556
  548.5000     2.4234     0.1451
  549.0000     2.7471     0.1233
  549.5000     2.7998     0.1187
  550.0000     3.0030     0.1414
  550.5000     3.1912     0.1451
  551.0000     3.3492     0.1478
  551.5000     3.1682     0.1514
  552.0000     3.0479     0.1705
  552.5000     2.9499     0.1824
  553.0000     2.8218     0.1868
  553.5000     2.8142     0.1908
  554.0000     2.5355     0.1865
  554.5000     2.4834     0.1667
  555.0000     2.3404     0.1638
  555.5000     2.2500     0.1614
  556.0000     2.2801     0.1575
  556.5000     2.6903     0.1596
  557.0000     2.7997     0.1750
  557.5000     2.6114     0.1850
  558.0000     2.3102     0.1790
  558.5000     2.7370     0.1768
  559.0000     3.1687     0.1787
  559.5000     3.2892     0.1720
  560.0000     3.6130     0.1635
  560.5000     3.5895     0.1693
  561.0000     3.6883     0.1759
  561.5000     3.8389     0.1629
  562.0000     3.9292     0.1517
  562.5000     3.7937     0.1554
  563.0000     3.2440     0.1681
  563.5000     3.1611     0.1820
  564.0000     3.4398     0.1811
  564.5000     3.4699     0.1632
  565.0000     3.6506     0.1617
  565.5000     3.5979     0.1549
  566.0000     3.4548     0.1417
  566.5000     3.6054     0.1548
  567.0000     3.7108     0.1641
  567.5000     3.7410     0.1648
  568.0000     3.8313     0.1657
  568.5000     4.1476     0.1602
  569.0000     3.8512     0.1578
  569.5000     3.7636     0.1505
  570.0000     3.7108     0.1542
  570.5000     3.7711     0.1584
  571.0000     3.9178     0.1608
  571.5000     4.0346     0.1570
  572.0000     4.1024     0.1735
  572.5000     4.2003     0.1711
  573.0000     4.2605     0.1708
  573.5000     4.3057     0.1666
  574.0000     4.5316     0.1638
  574.5000     4.2907     0.1411
  575.0000     4.5166     0.1396
  575.5000     4.2831     0.1393
  576.0000     4.0271     0.1408
  576.5000     3.9669     0.1520
  577.0000     4.1325     0.1632
  577.5000     4.2831     0.1696
  578.0000     4.4036     0.1781
  578.5000     4.1175     0.1796
  579.0000     4.2380     0.1814
  579.5000     4.3584     0.1862
  580.0000     4.6220     0.1990
  580.5000     4.8479     0.1932
  581.0000     5.0060     0.1883
  581.5000     4.7801     0.1920
  582.0000     4.8328     0.1787
  582.5000     4.6596     0.1711
  583.0000     4.8705     0.1784
  583.5000     4.9307     0.1844
  584.0000     4.8027     0.1811
  584.5000     4.5919     0.1765
  585.0000     4.3434     0.1765
  585.5000     4.6166     0.1781
  586.0000     4.2681     0.1756
  586.5000     4.5090     0.1684
  587.0000     4.4111     0.1793
  587.5000     4.4036     0.1784
  588.0000     4.1175     0.1778
  588.5000     3.9970     0.1771
  589.0000     3.8012     0.1762
  589.5000     3.7410     0.1756
  590.0000     3.7636     0.1714
  590.5000     4.0572     0.1790
  591.0000     4.4187     0.1820
  591.5000     4.6672     0.1826
  592.0000     4.4262     0.1787
  592.5000     4.5919     0.1778
  593.0000     4.5392     0.1686
  593.5000     4.7952     0.1693
  594.0000     4.7349     0.1802
  594.5000     4.8178     0.1805
  595.0000     4.9232     0.1869
  595.5000     4.9759     0.1926
  596.0000     4.6632     0.1886
  596.5000     4.6069     0.1877
  597.0000     4.4111     0.1790
  597.5000     4.5166     0.1687
  598.0000     4.5241     0.1753
  598.5000     4.2681     0.1744
  599.0000     3.9863     0.1820
  599.5000     3.8840     0.1829
  600.0000     3.8614     0.1747
  600.5000     3.9292     0.1796
  601.0000     4.3358     0.1738
  601.5000     4.5166     0.1729
  602.0000     4.8404     0.1775
  602.5000     4.9985     0.1787
  603.0000     4.8931     0.1784
  603.5000     4.5467     0.1778
  604.0000     4.2455     0.1823
  604.5000     4.5166     0.1853
  605.0000     4.2982     0.1871
  605.5000     4.0028     0.1762
  606.0000     4.1533     0.1657
  606.5000     4.1985     0.1656
  607.0000     4.1078     0.1666
  607.5000     4.0776     0.1635
  608.0000     4.2882     0.1590
  608.5000     4.8152     0.1635
  609.0000     4.8527     0.1762
