~VERSION INFORMATION
 VERS.                2.0:   CWLS LOG ASCII STANDARD - VERSION 2.0
 WRAP.                 NO:   ONE LINE PER DEPTH STEP
~WELL INFORMATION
#MNEM.UNIT      DATA TYPE    INFORMATION
#----------   ------------   ------------------------------
 STRT.F           20.0000:   START DEPTH
 STOP.F          805.5000:   STOP DEPTH
 STEP.F            0.5000:   STEP LENGTH
 NULL.          -999.2500:   NO VALUE
 COMP. FENIX & SCISSON INC:   COMPANY
 WELL.    16-SX-14 #16-14:   WELL
 FLD .             TEAPOT:   FIELD
 LOC .      S14 T38N R78W:   LOCATION
 CNTY.            NATRONA:   COUNTY
 STAT.            WYOMING:   STATE
 CTRY. UNITED STATES OF AMERICA:   COUNTRY
 SRVC.            Unknown:   SERVICE COMPANY
 DATE.        23-MAY-1978:   LOGDATE
 API .       490251063200:   API NUMBER
~CURVE INFORMATION
#MNEM.UNIT       API CODE    CURVE DESCRIPTION
#----------   ------------   ------------------------------
 DEPT.F                  :   
 SN  .OHMM   05 040 16 00:   SHORT NORMAL 16"
 ILD .OHMM   05 120 46 00:   INDUCTION LOG DEEP
 SPR .MV     05 010 01 00:   SPONTANEOUS POTENTIAL FROM RES.
 RHOB.G/C3   45 350 01 00:   BULK DENSITY
 DPOR.DEC    45 890 12 00:   DENSITY POROSITY SANDSTONE
 CORR.G/C3   45 356 01 00:   DENSITY CORRECTION
 GRD .GAPI   45 310 01 00:   GAMMA RAY FROM DENSITY LOG
 CALD.IN     45 280 60 00:   CALIPER FROM DENSITY LOG
~PARAMETER INFORMATION
#MNEM.UNIT          VALUE    DESCRIPTION
#----------   ------------   ------------------------------
 PD  .                 GL:   PERMANENT DATUM
 EPD .F              5246:   ELEVATION PERMANENT DATUM
 LMF .                 KB:   LOG MEASURED FROM
 DAPD.F                 4:   FEET ABOVE PERMANENT DATUM
 DMF .                 KB:   DRILLING MEASURED FROM
 EKB .F              5250:   KELLING BUSHING
 EGL .F              5246:   GROUND LEVEL
 DATE.          5-23-1978:   RUN DATE
 RUN .                  1:   RUN NUMBER
 DD  .F               825:   DEPTH DRILLER
 DL  .F               812:   DEPTH LOGGER
 BLI .F               805:   BOTTOM LOG INTERVAL
 TLI .F                40:   TOP LOG INTERVAL
 CS  .IN            8.625:   CASING SIZE
 CBD .F                40:   CASING BOTTOM DRILLER
 BS  .IN            7.875:   BIT SIZE
 BSD .F               825:   BIT SIZE AT DEPTH
 DFT .                KCL:   DRILLING FLUID TYPE
 DFD .                8.6:   DRILLING FLUID DENSITY
 DFV .                 30:   DRILLING FLUID VISCOSITY
 DFPH.                 11:   DRILLING FLUID PH
 DFL .                 14:   DRILLING FLUID LOSS
 MSS .            MUD PIT:   MUD SAMPLE SOURCE
 RMS .OHMM            .32:   RESISTIVITY MUD SAMPLE
 MST .F                72:   MUD SAMPLE TEMPERATURE
 RMF .OHMM            .28:   RESISTIVITY MUD FILTRATE SAMPLE
 MFST.F                72:   MUD FILTRATE SAMPLE TEMPERATURE
 RMC .OHMM            .50:   RESISTIVITY MUD CAKE
 MCST.F                82:   MUD CAKE SAMPLE TEMPERATURE
 MFSS.               MEAS:   MUD FILTRATE SAMPLE SOURCE
 RMB .OHMM            .31:   RESISTIVITY MUD AT BHT
 BHT .F                75:   BOTTOM HOLE TEMPERATURE
 TCS .HRS               2:   TIME CURCULATED STOPPED
 MRT .F                75:   MAXIMUM RECORDED TEMPERATURE
 LUN .               2958:   LOGGING UNIT NUMBER
 LUL .              CSPR.:   LOGGING UNIT LOCATION
 ENGI.             MILLER:   RECORDING ENGINEER
 WITN.            RHOADES:   WITNESSED BY
 CLNT.            A2DTECH:   CLIENT CODE
 ORIG.    1" , 2.5" PRINT:   ORIGIN OF DATA
 UWI .       490251063200:   UNIQUE WELL ID
 DICO. A2D Technologies, Inc.:   DIGITIZING COMPANY
~OTHER INFORMATION
~A   DEPT       SN        ILD        SPR       RHOB       DPOR       CORR         GRD      CALD   
# ...
  425.0000     7.6485     7.2191   -26.8941     2.4855     0.1144     0.0435    86.5897     5.9932
  425.5000     7.7646     7.2815   -27.0684     2.4869     0.1156     0.0442    85.1857     6.2736
  426.0000     7.8824     7.3445   -27.2647     2.4869     0.1147     0.0449    83.3495     6.5292
  426.5000     8.0020     7.4080   -27.4495     2.4872     0.1157     0.0455    81.4881     6.4310
  427.0000     8.1235     7.4650   -27.6408     2.4842     0.1260     0.0484    79.5071     6.3127
  427.5000     8.2468     7.6312   -27.8232     2.4783     0.1233     0.0597    78.9256     6.3501
  428.0000     8.3719     7.7842   -28.0115     2.4724     0.1151     0.0735    79.6009     6.4995
  428.5000     8.4990     7.9403   -28.2272     2.4805     0.1068     0.0875    79.5926     6.6355
  429.0000     8.6503     8.0995   -28.1213     2.4931     0.0992     0.1009    79.0571     6.7749
  429.5000     8.7478     8.2619   -27.5345     2.5059     0.0936     0.1135    78.4474     6.9116
  430.0000     8.8669     8.4275   -26.9718     2.5183     0.0880     0.1127    79.5909     7.0501
  430.5000     8.9877     8.5965   -26.4204     2.5308     0.0824     0.1119    80.9296     7.1885
  431.0000     9.1101     8.7689   -25.9180     2.5440     0.0764     0.1111    82.4781     7.3001
  431.5000     9.2341     8.9447   -25.9087     2.5482     0.0756     0.1043    82.9707     7.3133
  432.0000     9.3599     9.1241   -25.8978     2.5450     0.0813     0.0924    81.9744     7.3258
  432.5000     9.4873     9.3070   -25.8894     2.5430     0.0878     0.0808    80.5909     7.3421
  433.0000     9.6165     9.4848   -26.0341     2.5339     0.1002     0.0698    77.2593     7.2953
  433.5000     9.7477     9.5125   -26.3054     2.5153     0.1125     0.0562    73.5182     7.2168
  434.0000     9.8805     9.5391   -26.5668     2.4982     0.1195     0.0455    76.8636     7.1411
  434.5000    10.0151     9.5656   -26.8174     2.4801     0.1208     0.0372    80.4801     7.0671
  435.0000    10.1514     9.5923   -27.0783     2.4781     0.1221     0.0302    79.1887     7.0007
  435.5000    10.2896     9.6191   -27.3549     2.4741     0.1280     0.0306    78.4888     6.8688
  436.0000    10.3788     9.6612   -27.5264     2.4672     0.1331     0.0310    79.6477     6.7562
  436.5000    10.2780     9.6230   -27.5081     2.4601     0.1380     0.0315    80.6472     6.6255
  437.0000    10.1783     9.5352   -27.5105     2.4545     0.1367     0.0320    79.7840     6.6497
  437.5000    10.0796     9.4483   -27.5127     2.4531     0.1354     0.0325    78.7957     6.6769
  438.0000     9.9818     9.3621   -27.5100     2.4537     0.1342     0.0331    78.0813     6.6702
  438.5000     9.8850     9.2767   -27.5107     2.4543     0.1329     0.0334    78.4796     6.5427
  439.0000     9.7891     9.1921   -27.5105     2.4548     0.1316     0.0336    80.1945     6.4888
  439.5000     9.6942     9.1082   -27.5100     2.4524     0.1347     0.0265    80.7452     6.5957
  440.0000     9.6001     9.0252   -27.5100     2.4499     0.1380     0.0190    79.1201     6.6957
  440.5000     9.5070     8.9429   -27.5100     2.4473     0.1411     0.0249    76.9531     6.7972
  441.0000     9.4148     8.8613   -27.5100     2.4444     0.1428     0.0308    74.9581     6.9094
  441.5000     9.3235     8.7805   -27.5100     2.4444     0.1410     0.0375    77.1557     6.8995
  442.0000     9.2331     8.7004   -27.5100     2.4498     0.1372     0.0361    79.3276     6.7958
  442.5000     9.1418     8.6503   -27.5100     2.4548     0.1335     0.0345    81.8151     6.6516
  443.0000     9.1211     8.6262   -27.5100     2.4608     0.1297     0.0401    82.5974     6.5110
  443.5000     9.1000     8.6018   -27.5100     2.4699     0.1252     0.0459    81.3608     6.3684
  444.0000     9.0791     8.5768   -27.5100     2.4788     0.1194     0.0480    80.4191     6.2840
  444.5000     9.0581     8.5527   -27.5100     2.4877     0.1136     0.0497    80.5827     6.3838
  445.0000     9.0371     8.5287   -27.5100     2.4972     0.1079     0.0435    80.7227     6.5076
  445.5000     9.0163     8.5045   -27.5100     2.5015     0.1052     0.0372    80.1603     6.7064
  446.0000     8.9955     8.4804   -27.5097     2.4977     0.1249     0.0368    79.4712     6.8718
  446.5000     8.9748     8.4564   -27.5098     2.4880     0.1227     0.0464    78.7502     6.9911
  447.0000     8.9540     8.4324   -27.5099     2.4759     0.1179     0.0554    78.3768     7.1219
  447.5000     8.9333     8.4085   -27.5089     2.4802     0.1132     0.0619    80.1381     7.2253
  448.0000     8.9127     8.3846   -27.5105     2.4903     0.1084     0.0620    82.1266     7.2400
  448.5000     8.8916     8.3609   -27.5125     2.4998     0.1037     0.0620    83.4309     7.2595
  449.0000     8.8725     8.3370   -27.5838     2.5095     0.0997     0.0617    79.9852     7.2402
  449.5000     8.8526     8.3131   -27.6620     2.5154     0.1054     0.0573    76.0613     7.2179
  450.0000     8.8328     8.2896   -27.7424     2.5104     0.1108     0.0535    72.2799     7.1950
  450.5000     8.8137     8.2657   -27.8215     2.5059     0.1095     0.0494    69.8894     7.1722
  451.0000     8.9586     8.2412   -27.9009     2.5012     0.1076     0.0453    72.8628     7.1497
  451.5000     9.1015     8.2196   -27.9804     2.4968     0.1124     0.0413    77.5543     7.1271
  452.0000     9.3084     8.1963   -28.0597     2.4903     0.1178     0.0372    79.2718     7.1041
  452.5000     9.2169     8.1176   -28.1393     2.4843     0.1232     0.0340    79.8045     7.0825
  453.0000     9.0280     7.9455   -28.2191     2.4759     0.1287     0.0340    79.9672     7.0617
  453.5000     8.8466     7.6987   -28.2993     2.4669     0.1341     0.0340    79.9835     7.0754
  454.0000     8.6690     7.4595   -28.3781     2.4581     0.1396     0.0385    79.9559     7.0898
  454.5000     8.4949     7.1950   -28.4587     2.4488     0.1410     0.0461    79.9929     7.1046
  455.0000     8.3374     7.1873   -28.5401     2.4442     0.1406     0.0589    79.8325     7.1190
  455.5000     8.3047     7.1784   -28.6127     2.4427     0.1414     0.0709    78.6808     7.1370
  456.0000     8.2745     7.1694   -28.6952     2.4455     0.1444     0.0851    76.3042     7.1140
  456.5000     8.2445     7.1605   -28.4155     2.4557     0.1360     0.0859    73.8095     7.0644
  457.0000     8.2145     7.1516   -27.9977     2.4663     0.1260     0.0862    73.8323     7.0164
  457.5000     8.1852     7.1427   -27.5824     2.4732     0.1207     0.0860    75.2494     6.9672
  458.0000     7.9707     7.1338   -27.1620     2.4768     0.1233     0.0810    75.2217     6.9445
  458.5000     7.8684     7.1249   -26.7660     2.4773     0.1272     0.0739    74.7086     6.9661
  459.0000     7.7675     7.1160   -26.3353     2.4728     0.1311     0.0656    71.3826     7.0247
  459.5000     7.6038     7.1071   -26.4426     2.4621     0.1323     0.0545    66.9852     7.1183
  460.0000     7.6671     7.0980   -26.5777     2.4534     0.1320     0.0449    65.2527     7.1747
  460.5000     7.8507     7.0887   -26.7341     2.4541     0.1317     0.0429    66.2366     7.1193
  461.0000     8.0388     7.0794   -26.8792     2.4546     0.1356     0.0466    66.9536     7.0729
  461.5000     8.1852     7.0701   -27.0343     2.4502     0.1427     0.0501    67.0538     7.0233
  462.0000     7.9538     7.0618   -27.1154     2.4444     0.1444     0.0534    67.6108     7.0486
  462.5000     7.6893     6.8602   -27.1075     2.4394     0.1410     0.0570    69.5792     7.0708
  463.0000     7.4650     6.6772   -27.1088     2.4437     0.1391     0.0545    71.5067     7.0950
  463.5000     7.3175     6.4992   -27.1099     2.4468     0.1402     0.0491    73.1090     7.0169
  464.0000     7.1887     6.3258   -27.1085     2.4473     0.1412     0.0441    73.1042     6.9746
  464.5000     7.0628     6.1570   -27.1097     2.4476     0.1386     0.0384    73.1363     6.9686
  465.0000     6.9390     6.0944   -27.1083     2.4478     0.1364     0.0371    72.7619     6.9603
