~VERSION INFORMATION
 VERS.                2.0:   CWLS LOG ASCII STANDARD - VERSION 2.0
 WRAP.                 NO:   ONE LINE PER DEPTH STEP
~WELL INFORMATION
#MNEM.UNIT      DATA TYPE    INFORMATION
#----------   ------------   ------------------------------
 STRT.F            0.0000:   START DEPTH
 STOP.F          678.0000:   STOP DEPTH
 STEP.F            0.5000:   STEP LENGTH
 NULL.          -999.2500:   NO VALUE
 COMP. FENIX & SCISSON INC:   COMPANY
 WELL. 37-21 SX 11 WO #37-11:   WELL
 FLD .             TEAPOT:   FIELD
 LOC .      S11 T38N R78W:   LOCATION
 CNTY.            NATRONA:   COUNTY
 STAT.            WYOMING:   STATE
 CTRY. UNITED STATES OF AMERICA:   COUNTRY
 SRVC.      Dresser Atlas:   SERVICE COMPANY
 DATE.        14-OCT-1983:   LOGDATE
 API .       490251084300:   API NUMBER
~CURVE INFORMATION
#MNEM.UNIT       API CODE    CURVE DESCRIPTION
#----------   ------------   ------------------------------
 DEPT.F                  :   
 SPR .MV     07 010 01 00:   SPONTANEOUS POTENTIAL
 SFLU.OHMM   07 220 01 00:   SPHERICALLY FOCUSED LOG UNAVERAGED RESISTIVITY
 ILM .OHMM   07 120 44 00:   INDUCTION LOG MEDIUM
 ILD .OHMM   07 120 46 00:   INDUCTION LOG DEEP
 NPHI.DEC    42 890 03 00:   NEUTRON POROSITY SANDSTONE
 DPHI.DEC    45 890 12 00:   DENSITY POROSITY SANDSTONE
 RHOB.G/C3   45 350 01 00:   BULK DENSITY
 CORR.G/C3   45 356 01 00:   DENSITY CORRECTION
 GRD .GAPI   45 310 01 00:   GAMMA RAY FROM DENSITY LOG
 CALD.IN     45 280 60 00:   CALIPER
~PARAMETER INFORMATION
#MNEM.UNIT          VALUE    DESCRIPTION
#----------   ------------   ------------------------------
 PD  .                 GL:   PERMANENT DATUM
 EPD .F              5188:   ELEVATION PERMANENT DATUM
 LMF .                 KB:   LOG MEASURED FROM
 DAPD.F                 5:   FEET ABOVE PERMANENT DATUM
 DMF .                 KB:   DRILLING MEASURED FROM
 EKB .F              5193:   KELLING BUSHING
 EGL .F              5188:   GROUND LEVEL
 DATE.           10-14-83:   RUN DATE
 RUN .                  4:   RUN NUMBER
 DD  .F               629:   DEPTH DRILLER
 DL  .F               630:   DEPTH LOGGER
 BLI .F               624:   BOTTOM LOG INTERVAL
 TLI .F               335:   TOP LOG INTERVAL
 BS  .IN             8.75:   BIT SIZE
 BSD .F               629:   BIT SIZE AT DEPTH
 DFT .          KCL WATER:   DRILLING FLUID TYPE
 LUN .               6307:   LOGGING UNIT NUMBER
 LUL .               GLTE:   LOGGING UNIT LOCATION
 ENGI.            DEYOUNG:   RECORDING ENGINEER
 WITN.            SCHULTE:   WITNESSED BY
 CLNT.            A2DTECH:   CLIENT CODE
 ORIG.       2", 5" PRINT:   ORIGIN OF DATA
 UWI .       490251084300:   UNIQUE WELL ID
 DICO. A2D Technologies, Inc.:   DIGITIZING COMPANY
~OTHER INFORMATION
~A    DEPT     SPR       SFLU        ILM        ILD       NPHI       DPHI       RHOB       CORR        GRD       CALD   
# ...
  502.5000   -27.4020     7.4066     8.6940     9.1342     0.2374     0.1073     2.5198     0.0854    98.4318     9.5548
  503.0000   -27.5958     7.8355     8.7254     9.2329     0.2260     0.1038     2.5155     0.0830    97.0466     9.5524
  503.5000   -27.7925     8.2546     8.7569     9.3327     0.2236     0.0996     2.5099     0.0805    95.4149     9.5499
  504.0000   -27.9887     8.6961     8.7884     9.4335     0.2289     0.1000     2.5042     0.0781    96.5190     9.5475
  504.5000   -28.1904     9.1613     8.8211     9.5355     0.2313     0.1038     2.5022     0.0756    96.4588     9.5450
  505.0000   -28.1049     9.5032     8.8555     9.6386     0.2312     0.1079     2.4948     0.0731    96.0804     9.5425
  505.5000   -27.9029     9.8338     8.8949     9.7430     0.2419     0.1068     2.4799     0.0707    96.8209     9.5406
  506.0000   -27.6970    10.2982     8.1483     9.8516     0.2543     0.1089     2.4713     0.0734    98.8081     9.5571
  506.5000   -27.4912     9.0049     7.1269     9.8333     0.2692     0.1180     2.4524     0.0763   101.8196     9.5749
  507.0000   -27.2856     7.3266     6.2317     9.8512     0.2881     0.1248     2.4300     0.0782   105.2581     9.5423
  507.5000   -27.0800     5.9611     5.6912     8.0575     0.3019     0.1291     2.3637     0.0668   108.6471     9.4741
  508.0000   -26.8741     4.8501     5.4847     6.7142     0.2975     0.1600     2.3244     0.0562   110.9845     9.4100
  508.5000   -26.6679     4.1985     5.3766     6.3635     0.2822     0.2005     2.3907     0.0767   105.1053     9.3469
  509.0000   -26.4782     5.6930     5.6963     6.2240     0.2607     0.2159     2.5026     0.0905    99.7587     9.3979
  509.5000   -26.4758     7.6465     5.9332     6.2813     0.2391     0.1798     2.5033     0.0786    96.9185     9.4581
  510.0000   -26.4909    11.4855     6.1786     6.4562     0.2229     0.1298     2.4921     0.0683    94.6599     9.5181
  510.5000   -27.0775    11.1166     6.6968     6.9570     0.2147     0.1095     2.5060     0.0817    93.2205     9.5175
  511.0000   -27.3906    10.4872     7.3228     7.6212     0.2119     0.1139     2.5147     0.0950    91.8145     9.5122
  511.5000   -27.5295    10.0192     8.0075     8.3487     0.2087     0.1067     2.5086     0.0946    91.4980     9.5072
  512.0000   -27.6703    10.3682     8.7550     9.1469     0.2170     0.1029     2.5016     0.1010    94.2117     9.5022
  512.5000   -27.8122    10.6956     9.5843    10.0219     0.2285     0.1058     2.5170     0.1099    95.1599     9.4973
  513.0000   -27.9544    11.0333     9.8471    10.6857     0.2313     0.1087     2.5308     0.1150    92.3247     9.4923
  513.5000   -28.0966    11.3817     9.8553    10.5462     0.2290     0.1015     2.5439     0.1200    90.3487     9.4874
  514.0000   -28.2388    11.5998     9.8703    10.4064     0.2266     0.0929     2.5485     0.1242    88.3155     9.4825
  514.5000   -28.3809    11.1339     9.8851    10.2043     0.2258     0.0843     2.5392     0.1172    87.5908     9.4775
  515.0000   -28.5231    10.8102     9.8998    10.2043     0.2300     0.0839     2.5324     0.1102    86.1732     9.4726
  515.5000   -28.6653    10.4885     9.9156    10.2959     0.2325     0.0883     2.5297     0.1098    81.8389     9.4677
  516.0000   -28.8074    10.8042    10.0037    10.3944     0.2211     0.0927     2.5215     0.1123    75.9933     9.4628
  516.5000   -28.9496    11.8632    10.4731    10.3881     0.2076     0.0959     2.5140     0.1147    70.0592     9.4512
  517.0000   -29.0917    13.2722    10.9617    11.4623     0.1941     0.0974     2.4906     0.1142    65.3428     9.4378
  517.5000   -29.2343    15.0388    11.4730    12.3123     0.1855     0.1072     2.4661     0.1046    62.7606     9.4243
  518.0000   -29.3749    18.2129    12.0324    13.6048     0.1814     0.1196     2.4455     0.0956    60.6065     9.4108
  518.5000   -29.6104    22.0568    13.2000    15.3630     0.1880     0.1321     2.4356     0.0865    58.4736     9.3940
  519.0000   -29.8952    26.7121    14.5429    17.3582     0.1972     0.1446     2.3957     0.0774    56.7404     9.3714
  519.5000   -30.1818    32.3499    16.0224    19.7142     0.2064     0.1571     2.3851     0.0723    55.7469     9.3488
  520.0000   -30.4683    40.1006    17.6525    20.9206     0.2175     0.1695     2.3686     0.0669    55.9648     9.3262
  520.5000   -30.7527    58.6444    19.4484    22.2442     0.2269     0.1816     2.3215     0.0532    57.9645     9.3036
  521.0000   -31.0626    58.6444    22.4250    23.6553     0.2307     0.2034     2.3123     0.0640    60.0462     9.2809
  521.5000   -31.3754    53.1362    22.2206    24.6422     0.2344     0.2209     2.3066     0.0775    62.1382     9.2586
  522.0000   -31.6880    46.4608    22.6741    24.8473     0.2373     0.2245     2.3363     0.0919    64.1321     9.2471
  522.5000   -31.9972    40.6241    23.0257    25.0291     0.2339     0.2199     2.3636     0.0986    63.5572     9.2631
  523.0000   -32.1024    35.1207    23.2596    25.0291     0.2305     0.2041     2.3330     0.0813    64.0728     9.2788
  523.5000   -31.8879    33.5492    22.7655    24.4980     0.2285     0.1939     2.3474     0.0971    64.8839     9.2942
  524.0000   -31.6782    32.0480    22.3933    24.1025     0.2277     0.2129     2.3648     0.1110    64.6926     9.2961
  524.5000   -31.4733    31.1798    22.0287    23.7127     0.2241     0.2025     2.3692     0.1122    64.1047     9.2513
  525.0000   -31.2724    30.6140    21.6701    23.3296     0.2183     0.1933     2.3537     0.1137    64.6726     9.2073
  525.5000   -31.0714    30.0041    21.2638    22.9532     0.2124     0.1886     2.3762     0.1164    65.1695     9.1633
  526.0000   -30.8705    30.6935    20.7415    22.6312     0.2147     0.1930     2.3920     0.1132    64.6674     9.1627
  526.5000   -30.6696    30.9024    20.2766    21.9738     0.2168     0.1829     2.3929     0.1086    66.2458     9.2044
  527.0000   -30.4687    30.0583    19.6148    21.4785     0.2158     0.1756     2.4071     0.1050    68.2664     9.2459
  527.5000   -30.2677    28.4061    19.0909    21.0329     0.2149     0.1718     2.4241     0.1153    70.2966     9.2879
  528.0000   -30.0661    26.8447    18.5810    20.0477     0.2107     0.1650     2.4411     0.1251    72.6374     9.3020
  528.5000   -29.8589    25.3691    18.0846    19.2033     0.2052     0.1539     2.4314     0.1195    70.6579     9.2984
  529.0000   -29.9148    23.9746    17.6012    18.3936     0.2050     0.1458     2.4193     0.1015    70.2111     9.2946
  529.5000   -30.0309    23.0494    17.1308    17.6775     0.2064     0.1525     2.4353     0.1183    70.2776     9.2908
  530.0000   -30.1485    23.0494    16.8395    18.2290     0.2003     0.1583     2.4506     0.1380    70.0464     9.2870
  530.5000   -30.2655    24.2410    16.7438    18.7656     0.1939     0.1486     2.4576     0.1487    69.3401     9.2832
  531.0000   -30.3825    25.4328    16.6486    18.8601     0.1939     0.1400     2.4275     0.0857    68.6294     9.2794
  531.5000   -30.4995    26.6831    16.5540    18.9216     0.1978     0.1364     2.4062     0.0791    68.0706     9.2756
  532.0000   -30.6165    27.9357    16.4264    18.9833     0.2031     0.1476     2.3977     0.0853    70.2965     9.2718
  532.5000   -30.7320    26.5314    16.6767    19.0178     0.2077     0.1688     2.3842     0.0919    72.4348     9.2680
  533.0000   -30.7856    25.2528    17.0738    18.9836     0.2107     0.1712     2.3774     0.0923    72.0762     9.2642
  533.5000   -30.7211    24.5782    17.4803    18.8445     0.2135     0.1773     2.3805     0.0846    70.6480     9.2583
  534.0000   -30.6586    27.3476    17.8966    19.3648     0.2141     0.1844     2.3517     0.0770    68.1780     9.2525
  534.5000   -30.5959    29.7668    18.3227    20.2196     0.2121     0.1823     2.3190     0.0692    64.9990     9.2467
  535.0000   -30.5332    32.3978    18.7590    21.1121     0.2097     0.1902     2.3278     0.0713    66.9008     9.2409
  535.5000   -30.4705    35.2606    19.0178    22.2206     0.2117     0.2128     2.3410     0.0803    70.1267     9.2350
