~VERSION INFORMATION
 VERS.                2.0:   CWLS LOG ASCII STANDARD - VERSION 2.0
 WRAP.                 NO:   ONE LINE PER DEPTH STEP
~WELL INFORMATION
#MNEM.UNIT      DATA TYPE    INFORMATION
#----------   ------------   ------------------------------
 STRT.F           82.0000:   START DEPTH
 STOP.F          750.0000:   STOP DEPTH
 STEP.F            0.5000:   STEP LENGTH
 NULL.          -999.2500:   NO VALUE
 COMP. U S NAVY/INTEX OIL CO:   COMPANY
 WELL.      GOVT #18-S-35:   WELL
 FLD .             TEAPOT:   FIELD
 LOC .      S35 T39N R78W:   LOCATION
 CNTY.            NATRONA:   COUNTY
 STAT.            WYOMING:   STATE
 CTRY. UNITED STATES OF AMERICA:   COUNTRY
 SRVC. Schlumberger Well Surveying Corp:   SERVICE COMPANY
 DATE.        19-JUL-1962:   LOGDATE
 API .       490250649300:   API NUMBER
~CURVE INFORMATION
#MNEM.UNIT       API CODE    CURVE DESCRIPTION
#----------   ------------   ------------------------------
 DEPT.F                  :   
 SPR .MV     05 010 01 00:   SPONTANEOUS POTENTIAL
 ILD .OHMM   05 120 46 00:   INDUCTION LOG DEEP
 CILD.MMHO   05 110 46 00:   CONDUCTIVITY INDUCTION LOG DEEP
 ASN .OHMM   05 041 16 00:   AMPLIFIED SHORT NORMAL 16"
 NEUT.NAPI   35 330 01 00:   NEUTRON GAMMA RAY
~PARAMETER INFORMATION
#MNEM.UNIT          VALUE    DESCRIPTION
#----------   ------------   ------------------------------
 PD  .                 GL:   PERMANENT DATUM
 EPD .F              5107:   ELEVATION PERMANENT DATUM
 LMF .                 KB:   LOG MEASURED FROM
 DAPD.F                 5:   FEET ABOVE PERMANENT DATUM
 DMF .                 KB:   DRILLING MEASURED FROM
 EKB .F              5112:   KELLING BUSHING
 EGL .F              5107:   GROUND LEVEL
 DATE.            7-19-62:   RUN DATE
 RUN .                  1:   RUN NUMBER
 DD  .F               745:   DEPTH DRILLER
 DL  .F               745:   DEPTH LOGGER
 BLI .F               744:   BOTTOM LOG INTERVAL
 TLI .F                80:   TOP LOG INTERVAL
 BS  .IN             6.75:   BIT SIZE
 BSD .F               745:   BIT SIZE AT DEPTH
 DFT .       OIL EMULSION:   DRILLING FLUID TYPE
 DFD .                 10:   DRILLING FLUID DENSITY
 DFV .                 46:   DRILLING FLUID VISCOSITY
 DFL .                2.9:   DRILLING FLUID LOSS
 RMS .OHMM           3.75:   RESISTIVITY MUD SAMPLE
 MST .F                87:   MUD SAMPLE TEMPERATURE
 RMF .OHMM           2.65:   RESISTIVITY MUD FILTRATE SAMPLE
 MFST.F                87:   MUD FILTRATE SAMPLE TEMPERATURE
 RMC .OHMM           3.54:   RESISTIVITY MUD CAKE
 MCST.F                87:   MUD CAKE SAMPLE TEMPERATURE
 TCS .HRS              .5:   TIME CURCULATED STOPPED
 LUN .               2503:   LOGGING UNIT NUMBER
 LUL .             CASPER:   LOGGING UNIT LOCATION
 ENGI.             DANNER:   RECORDING ENGINEER
 WITN.          JORGENSEN:   WITNESSED BY
 CLNT.            A2DTECH:   CLIENT CODE
 ORIG.       2", 5" PRINT:   ORIGIN OF DATA
 UWI .       490250649300:   UNIQUE WELL ID
 DICO. A2D Technologies, Inc.:   DIGITIZING COMPANY
~OTHER INFORMATION
~A   DEPT      SPR          ILD      CILD         ASN     NEUT   
# ...
  570.0000   -61.3596     5.7339   173.3075     6.1744   207.9941
  570.5000   -61.0506     6.0014   164.6488     6.4528   246.3849
  571.0000   -60.7467     6.2691   155.9900     6.7342   279.5171
  571.5000   -60.4410     6.5340   147.7679     6.8829   262.0535
  572.0000   -60.1345     6.7057   141.8923     6.9727   262.8807
  572.5000   -59.8669     6.7041   141.4891     7.0141   227.5760
  573.0000   -59.9910     6.7123   144.8034     7.0472   180.8311
  573.5000   -60.1166     6.3988   154.8286     7.0490   154.4403
  574.0000   -60.2405     6.0270   164.8538     7.0222   145.3499
  574.5000   -60.3638     5.6583   174.8790     6.9004   190.4723
  575.0000   -60.4654     5.3639   183.7198     6.5672   188.8613
  575.5000   -60.4630     5.2944   189.0121     6.1656   204.4197
  576.0000   -60.4628     5.2910   188.8876     5.9276   180.9658
  576.5000   -60.4628     5.2916   187.9803     5.8555   182.5578
  577.0000   -60.4628     5.2942   187.0731     5.8577    82.2283
  577.5000   -60.4627     5.4297   186.1658     5.9455    65.5464
  578.0000   -60.4628     5.7882   177.6504     6.1896   135.9768
  578.5000   -60.4624     6.1377   163.7617     6.6671    86.6476
  579.0000   -60.5276     6.5311   150.4966     7.1494    51.4705
  579.5000   -60.6419     6.9230   141.2172     7.5937    77.6910
  580.0000   -60.7607     7.3165   131.8989     7.7547   119.1383
  580.5000   -60.8095     7.5198   124.2137     7.9052   135.2080
  581.0000   -60.8615     7.6381   121.2576     8.0598   186.8314
  581.5000   -61.0842     7.7522   120.6149     8.1626   163.1948
  582.0000   -61.3114     7.8667   119.9723     8.2535   185.7285
  582.5000   -61.4499     7.9222   119.3296     8.3433   150.8316
  583.0000   -61.3780     7.9390   118.6870     8.3936   119.7953
  583.5000   -61.3092     7.9550   118.0443     8.3839    88.8876
  584.0000   -61.1889     7.9710   117.4395     8.3943    64.4080
  584.5000   -60.9822     7.9872   116.3508     8.4757    79.8980
  585.0000   -60.7768     8.0028   115.3226     8.5550   121.0065
  585.5000   -60.5707     7.9983   114.4153     8.6358   228.2625
  586.0000   -60.3657     7.9442   115.9946     8.6390   197.1562
  586.5000   -60.1594     7.8911   117.7083     8.5808   165.8767
  587.0000   -60.1269     7.8377   119.4220     8.5180   190.1422
  587.5000   -60.2640     7.7843   120.7997     8.4555   108.7793
  588.0000   -60.7485     7.7326   120.9866     8.3928    92.1166
  588.5000   -61.2643     7.8064   118.7374     8.3305    72.2346
  589.0000   -61.7773     8.0274   116.4882     8.2977    31.8639
  589.5000   -62.2481     8.2508   114.4153     8.3823   105.2115
  590.0000   -62.6693     8.3167   114.4153     8.5654    70.5130
  590.5000   -62.6793     8.1176   116.6478     8.7493    16.5050
  591.0000   -62.7901     7.8434   123.8553     8.9360    48.3677
  591.5000   -63.2184     7.2985   133.6831     8.9910    25.3285
  592.0000   -63.6581     6.7623   148.4015     8.8842    24.9130
  592.5000   -64.1031     6.2247   163.0904     8.1765    54.3632
  593.0000   -64.1697     5.6807   173.1477     7.3316    15.7043
  593.5000   -63.9811     5.6125   179.9062     6.6372   -28.4428
  594.0000   -63.7940     5.6356   180.5074     6.5160    -1.2665
  594.5000   -63.9513     5.6603   178.8169     6.5147   -11.5925
  595.0000   -64.5612     5.6833   173.3871     6.7872    38.4122
  595.5000   -65.1712     5.9903   164.0121     7.3606    29.7264
  596.0000   -65.6607     6.5908   147.8047     8.0206    63.8189
  596.5000   -65.3401     7.4851   126.6690     9.3856    88.2503
  597.0000   -64.8430     8.4217   106.3280     9.9282   -11.7645
  597.5000   -64.3571     9.3660    97.4874    10.4128    29.1085
  598.0000   -63.9002     9.8203    91.2446    10.6398    24.8364
  598.5000   -64.0865     9.8504    91.0202    10.8535    55.2416
  599.0000   -64.3883     9.8719    91.9824    10.9076    67.0728
  599.5000   -64.6854     9.8935    92.9250    10.9646    74.9936
  600.0000   -64.9821     9.9163    91.0667    11.0194    53.8571
  600.5000   -65.2832    10.0135    87.8116    11.2593    14.9341
  601.0000   -65.4928    10.6319    84.5652    11.5743   -40.1930
  601.5000   -65.7005    11.2428    80.7089    12.1229  -143.3997
  602.0000   -65.8686    12.0569    74.8823    12.9930  -225.6798
  602.5000   -66.6817    12.9440    69.0557    14.0346  -265.3561
  603.0000   -67.5791    13.8393    63.2291    15.4147  -286.8852
  603.5000   -68.7406    14.6209    57.4025    16.7886  -326.2276
  604.0000   -70.3375    15.9006    51.5758    18.1625  -369.3247
  604.5000   -71.8526    17.2995    46.9264    19.5352  -381.5553
  605.0000   -73.3280    18.6923    44.2473    20.8977  -343.7552
  605.5000   -74.6807    19.8533    42.1186    22.3524  -378.1993
  606.0000   -75.3407    20.8470    40.6135    24.1551  -269.8053
  606.5000   -75.2649    21.6848    39.0956    23.9888  -216.1048
  607.0000   -75.1770    21.9088    38.0015    23.7414  -238.6274
  607.5000   -74.8655    22.2136    37.0054    24.0414  -268.1000
  608.0000   -74.4821    22.6009    36.0093    24.4517  -278.5874
  608.5000   -74.1902    23.0432    35.0463    25.3464  -284.5832
  609.0000   -75.1152    23.5739    34.0927    26.6220  -290.4549
  609.5000   -76.1353    24.0641    33.1392    27.9659  -296.3197
  610.0000   -77.1835    24.7239    32.1857    28.5537  -309.4894
  610.5000   -77.9803    25.4608    31.2322    29.6249  -328.6354
  611.0000   -77.6972    26.1978    30.2786    30.5121  -347.7591
  611.5000   -77.1412    26.9350    29.3251    30.6484  -367.0585
  612.0000   -76.5829    27.6663    28.7298    31.5405  -392.6713
  612.5000   -76.0301    28.0343    28.7298    32.6094  -424.8140
  613.0000   -76.9206    28.0236    28.7298    32.2066  -374.4067
  613.5000   -78.5533    27.7038    28.7298    31.6837  -356.5102
  614.0000   -79.9710    27.3830    28.7322    32.3344  -373.1304
  614.5000   -80.4103    27.2720    28.5903    33.7615  -301.2744
  615.0000   -80.4757    27.3991    28.2798    33.4075  -313.7942
  615.5000   -80.5509    27.6654    27.9672    32.6843  -326.9431
  616.0000   -80.0031    27.9295    27.7219    32.6300  -326.0984
  616.5000   -78.9565    28.0743    27.5990    32.2967  -335.2204
  617.0000   -79.0818    28.0730    27.3347    31.9086  -262.2133
  617.5000   -80.2231    28.1416    27.0690    31.7899  -268.1093
  618.0000   -81.3512    28.5392    26.8034    33.5392  -284.3742
  618.5000   -81.4278    29.3289    26.1725    35.1155  -294.4088
  619.0000   -81.2281    30.2890    25.3552    34.7354  -258.9150
  619.5000   -82.1843    31.2586    24.5378    34.5364  -211.5723
  620.0000   -83.1694    31.9126    23.7205    35.3125  -177.5713
  620.5000   -83.8201    32.0071    22.9032    34.4725  -194.8294
  621.0000   -84.2066    31.0329    24.4960    33.1594  -299.4966
  621.5000   -84.1813    29.1974    26.9862    31.8368  -287.4881
  622.0000   -85.0109    27.1445    29.4764    30.2775  -251.6708
  622.5000   -85.1145    25.0915    31.9667    28.4875  -212.7767
  623.0000   -84.8925    23.0302    34.4569    26.6865  -169.1973
  623.5000   -84.1536    21.7645    36.9471    24.9653  -145.7429
  624.0000   -82.4555    20.9759    40.8266    23.9702  -214.0909
  624.5000   -78.9037    20.1248    42.9547    22.9387  -303.0847
  625.0000   -75.0401    19.2271    44.9119    21.9042  -269.1137
  625.5000   -73.2235    18.2920    46.8692    21.0182  -280.4397
  626.0000   -71.8400    17.3369    48.8679    20.7140  -282.5124
  626.5000   -70.4218    17.0879    50.9111    20.2871  -274.1570
  627.0000   -70.1098    16.8302    52.9234    19.8834  -330.6434
  627.5000   -71.1054    16.5673    53.9200    19.5874  -343.9749
  628.0000   -72.7194    16.2736    55.1274    18.9333  -296.6556
  628.5000   -74.1890    15.9191    56.3348    18.3031  -279.9750
  629.0000   -74.2781    15.5626    57.5422    17.6965  -278.2145
  629.5000   -74.4135    15.2943    57.8937    17.5062  -253.2111
  630.0000   -74.5526    15.2410    57.7419    17.3310  -177.3916
  630.5000   -74.8018    15.2155    57.5901    17.1876  -246.4383
