~VERSION INFORMATION
 VERS.                2.0:   CWLS LOG ASCII STANDARD - VERSION 2.0
 WRAP.                 NO:   ONE LINE PER DEPTH STEP
~WELL INFORMATION
#MNEM.UNIT      DATA TYPE    INFORMATION
#----------   ------------   ------------------------------
 STRT.F            2.0000:   START DEPTH
 STOP.F          670.5000:   STOP DEPTH
 STEP.F            0.5000:   STEP LENGTH
 NULL.          -999.2500:   NO VALUE
 COMP. BROWN JOHN E&C INC:   COMPANY
 WELL. 27-26 STX-11 #26-11:   WELL
 FLD .             TEAPOT:   FIELD
 LOC .      S11 T38N R78W:   LOCATION
 CNTY.            NATRONA:   COUNTY
 STAT.            WYOMING:   STATE
 CTRY. UNITED STATES OF AMERICA:   COUNTRY
 SRVC.           Gearhart:   SERVICE COMPANY
 DATE.        07-JUL-1987:   LOGDATE
 API .       490251114800:   API NUMBER
~CURVE INFORMATION
#MNEM.UNIT       API CODE    CURVE DESCRIPTION
#----------   ------------   ------------------------------
 DEPT.F                  :   
 GRR .GAPI   07 310 01 00:   GAMMA RAY FROM RES. LOG
 RILD.OHMM   07 120 46 00:   INDUCTION LOG DEEP RESISTIVITY
 RILM.OHMM   07 120 44 00:   INDUCTION LOG MEDIUM RESISTIVITY
~PARAMETER INFORMATION
#MNEM.UNIT          VALUE    DESCRIPTION
#----------   ------------   ------------------------------
 PD  .                 GL:   PERMANENT DATUM
 EPD .F              5199:   ELEVATION PERMANENT DATUM
 LMF .                 KB:   LOG MEASURED FROM
 DAPD.F                 8:   FEET ABOVE PERMANENT DATUM
 DMF .                 KB:   DRILLING MEASURED FROM
 EKB .F              5207:   KELLING BUSHING
 EDF .F              5205:   DRILLING FLOOR
 EGL .F              5199:   GROUND LEVEL
 DATE.             7-7-87:   RUN DATE
 RUN .                  1:   RUN NUMBER
 DD  .F               680:   DEPTH DRILLER
 DL  .F               679:   DEPTH LOGGER
 BLI .F               671:   BOTTOM LOG INTERVAL
 CS  .IN            8.625:   CASING SIZE
 CBD .F                50:   CASING BOTTOM DRILLER
 CBL .F                50:   CASING BOTTOM LOGGER
 BS  .IN             7.87:   BIT SIZE
 BSD .F               680:   BIT SIZE AT DEPTH
 DFT .                AIR:   DRILLING FLUID TYPE
 TCS .HRS            1800:   TIME CURCULATED STOPPED
 TLAB.HRS            1954:   TIME LOGGER AT BOTTOM
 LUN .               7597:   LOGGING UNIT NUMBER
 LUL .           GILLETTE:   LOGGING UNIT LOCATION
 ENGI. JOHNSTON/HUCKFELDT:   RECORDING ENGINEER
 WITN.             STRONG:   WITNESSED BY
 CLNT.            A2DTECH:   CLIENT CODE
 ORIG.       2", 5" PRINT:   ORIGIN OF DATA
 UWI .       490251114800:   UNIQUE WELL ID
 DICO. A2D Technologies, Inc.:   DIGITIZING COMPANY
~OTHER INFORMATION
~A    DEPT      GRR      RILD       RILM   
# ...
   93.0000   114.0734     7.8201     8.2095
   93.5000   112.6126     7.9114     8.3056
   94.0000   111.4939     8.0039     8.4028
   94.5000   112.1772     8.0735     8.4559
   95.0000   112.4824     8.0735     8.4561
   95.5000   111.3593     8.0735     8.4561
   96.0000   110.1957     8.0735     8.4565
   96.5000   113.0051     8.0735     8.4566
   97.0000   117.6305     7.9612     8.3730
   97.5000   122.2512     7.8578     8.3085
   98.0000   124.4160     7.7558     8.2444
   98.5000   115.4476     7.6551     8.1808
   99.0000   116.3898     7.5557     8.1177
   99.5000   118.1934     7.4281     8.0704
  100.0000   117.9408     7.4492     8.0601
  100.5000   115.4945     7.4795     8.0498
  101.0000   113.0336     7.5100     8.0395
  101.5000   112.4339     7.5406     8.0292
  102.0000   112.5959     7.5713     8.0189
  102.5000   112.3835     7.6021     8.0085
  103.0000   111.7151     7.6332     7.9988
  103.5000   111.0737     7.6373     8.0178
  104.0000   111.9532     7.6373     8.0395
  104.5000   114.7786     7.6373     8.0613
  105.0000   117.5451     7.6373     8.0831
  105.5000   118.1152     7.6373     8.1051
  106.0000   115.0242     7.6373     8.1270
  106.5000   111.9857     7.6373     8.1486
  107.0000   111.6065     7.6373     8.1781
  107.5000   111.7789     7.6372     8.2071
  108.0000   111.6956     7.6370     8.2362
  108.5000   110.5970     7.6363     8.2654
  109.0000   109.5184     7.6873     8.2947
  109.5000   109.7166     7.7382     8.3241
  110.0000   111.4024     7.7892     8.3536
  110.5000   113.0450     7.8522     8.3780
  111.0000   113.2961     7.8292     8.3180
  111.5000   113.5583     7.7999     8.2671
  112.0000   116.1932     7.7092     8.1993
  112.5000   119.0128     7.5148     8.0390
  113.0000   121.8517     7.3253     7.8819
  113.5000   124.6419     7.0892     7.7272
  114.0000   122.7932     7.0903     7.5669
  114.5000   120.5993     7.0774     7.5277
  115.0000   118.4113     7.0693     7.4859
  115.5000   116.2396     7.0610     7.4442
  116.0000   114.3933     7.0526     7.4028
  116.5000   115.7000     7.0443     7.3617
  117.0000   117.1273     7.0360     7.3207
  117.5000   117.3013     7.0286     7.2919
  118.0000   116.3231     6.9911     7.3314
  118.5000   115.3755     6.9509     7.3621
  119.0000   114.4476     6.9109     7.3930
  119.5000   115.1142     6.8709     7.4239
  120.0000   116.8397     6.8347     7.4731
  120.5000   118.5799     6.9029     7.5253
  121.0000   118.9543     6.9690     7.5780
  121.5000   118.3205     7.0354     7.6310
  122.0000   116.2612     7.1023     7.6844
  122.5000   114.2640     7.1698     7.7381
  123.0000   113.1721     7.2382     7.8015
  123.5000   113.3665     7.3246     7.9006
  124.0000   113.4587     7.4759     8.0003
  124.5000   113.1776     7.6304     8.1013
  125.0000   112.9033     7.8524     8.2043
  125.5000   112.6279     7.8254     8.2350
  126.0000   112.3430     7.7807     8.2488
  126.5000   112.3287     7.7361     8.2623
  127.0000   113.4833     7.6919     8.2760
  127.5000   114.7037     7.6475     8.2893
  128.0000   115.9201     7.5523     8.3008
  128.5000   117.1356     7.4049     8.1123
  129.0000   118.3509     7.2603     7.9539
  129.5000   119.5523     7.1186     7.8508
  130.0000   120.3746     6.9621     7.8528
  130.5000   120.2624     7.0180     7.8521
  131.0000   120.1592     7.0943     7.8524
  131.5000   120.0533     7.1715     7.8659
  132.0000   119.9256     7.2724     7.9768
  132.5000   119.6693     7.4245     8.0892
  133.0000   119.4283     7.5798     8.2033
  133.5000   118.9205     7.7384     8.3190
  134.0000   114.4638     7.8774     8.4230
  134.5000   110.1408     7.9631     8.5147
  135.0000   107.0786     8.0498     8.6074
  135.5000   108.9027     8.1374     8.6940
  136.0000   110.6201     8.1486     8.6772
  136.5000   111.3682     8.1142     8.6523
  137.0000   108.8236     8.0909     8.6275
  137.5000   106.3847     8.0325     8.5247
  138.0000   105.0638     7.8715     8.3308
  138.5000   106.1994     7.7138     8.1413
  139.0000   108.1915     7.5592     7.9554
  139.5000   113.7630     7.4092     7.7804
  140.0000   119.1897     7.2919     7.8241
  140.5000   122.3530     7.1581     7.8688
  141.0000   120.5863     7.0922     7.9132
  141.5000   118.8088     7.2078     7.9577
  142.0000   117.0290     7.3244     8.0025
  142.5000   115.2541     7.4429     8.0475
  143.0000   113.4786     7.5633     8.0928
  143.5000   111.6937     7.6857     8.1383
  144.0000   109.7968     7.8100     8.2364
  144.5000   111.4251     7.9364     8.3508
  145.0000   113.9401     8.0648     8.4667
  145.5000   116.4830     8.0735     8.5855
  146.0000   119.0120     8.1807     8.6475
  146.5000   121.2684     8.2170     8.6932
  147.0000   119.4567     8.2560     8.7388
  147.5000   117.1358     8.2956     8.7846
  148.0000   114.7973     8.3350     8.8306
  148.5000   112.3109     8.3780     8.8769
  149.0000   111.8957     8.3008     8.9235
  149.5000   112.4831     8.3121     8.9702
  150.0000   114.5304     8.2203     9.0220
  150.5000   116.5515     8.1294     8.8912
  151.0000   118.6553     8.0395     8.7483
  151.5000   119.1432     7.9507     8.6065
  152.0000   119.2472     7.8628     8.4571
  152.5000   117.1820     7.7759     8.3497
  153.0000   115.0309     7.6899     8.2344
  153.5000   112.7997     7.6051     8.1206
  154.0000   112.3045     7.4972     7.9991
  154.5000   112.2031     7.5116     8.0187
  155.0000   112.0875     7.5317     8.0402
  155.5000   111.9809     7.5519     8.0617
  156.0000   112.7847     7.5721     8.0833
  156.5000   116.0395     7.5924     8.1050
  157.0000   119.3298     7.6128     8.1267
  157.5000   120.2407     7.6332     8.1485
  158.0000   118.6160     7.6536     8.1703
  158.5000   116.9228     7.6741     8.1922
  159.0000   115.7798     7.6947     8.2141
  159.5000   114.4247     7.7153     8.2361
  160.0000   112.9710     7.7359     8.2582
  160.5000   112.7262     7.7567     8.2803
  161.0000   113.6174     7.7775     8.3025
  161.5000   114.5644     7.7983     8.3248
  162.0000   115.5063     7.8192     8.3471
  162.5000   116.4461     7.8401     8.3694
  163.0000   117.3837     7.8611     8.3919
  163.5000   118.1649     7.8822     8.4143
  164.0000   118.7019     7.9033     8.4368
  164.5000   119.2491     7.9255     8.4687
  165.0000   120.1216     7.9999     8.5520
  165.5000   121.4952     8.0784     8.6359
  166.0000   122.6645     8.1576     8.7207
  166.5000   120.3794     8.2376     8.8062
  167.0000   117.9778     8.3185     8.8926
  167.5000   117.1288     8.4001     8.9799
  168.0000   118.4508     8.4825     9.0680
  168.5000   120.4579     8.5657     9.1569
  169.0000   122.4930     8.6498     9.2468
  169.5000   124.5008     8.7348     9.3375
  170.0000   125.5017     8.8196     9.4291
  170.5000   122.9806     8.8908     9.5041
  171.0000   120.5565     8.9787     9.5990
  171.5000   118.1261     9.0685     9.6948
  172.0000   116.0725     9.1591     9.7917
  172.5000   118.5571     9.2506     9.8895
  173.0000   121.0591     9.3430     9.9882
  173.5000   123.5428     9.4363    10.0880
  174.0000   124.7950     9.5305    10.1887
  174.5000   124.2927     9.6259    10.2821
  175.0000   122.1963     9.6818    10.3418
  175.5000   120.1521     9.7381    10.4020
  176.0000   118.1089     9.7947    10.4624
  176.5000   116.0351     9.8516    10.5233
  177.0000   116.2555     9.9089    10.5844
  177.5000   117.4217     9.9665    10.6460
  178.0000   118.5578    10.0244    10.7079
  178.5000   119.6865    10.0827    10.7701
  179.0000   119.7499    10.1414    10.8328
  179.5000   119.3748    10.2003    10.8957
  180.0000   119.0008    10.2703    10.9578
  180.5000   118.6278    10.2490    10.9295
  181.0000   119.2962    10.2230    10.9018
  181.5000   119.8766    10.1971    10.8742
  182.0000   120.3783    10.1713    10.8467
  182.5000   120.0227    10.1455    10.8192
  183.0000   119.4131    10.1198    10.7918
  183.5000   119.3257    10.0942    10.7644
