~VERSION INFORMATION
 VERS.                2.0:   CWLS LOG ASCII STANDARD - VERSION 2.0
 WRAP.                 NO:   ONE LINE PER DEPTH STEP
~WELL INFORMATION
#MNEM.UNIT      DATA TYPE    INFORMATION
#----------   ------------   ------------------------------
 STRT.F           30.0000:   START DEPTH
 STOP.F          481.0000:   STOP DEPTH
 STEP.F            0.5000:   STEP LENGTH
 NULL.          -999.2500:   NO VALUE
 COMP. FENIX & SCISSON INC:   COMPANY
 WELL.       NPR-3 #47-10:   WELL
 FLD .             TEAPOT:   FIELD
 LOC .      S10 T38N R78W:   LOCATION
 CNTY.            NATRONA:   COUNTY
 STAT.            WYOMING:   STATE
 CTRY. UNITED STATES OF AMERICA:   COUNTRY
 SRVC.           BIRDWELL:   SERVICE COMPANY
 DATE.        16-JUN-1978:   LOGDATE
 API .       490251064800:   API NUMBER
~CURVE INFORMATION
#MNEM.UNIT       API CODE    CURVE DESCRIPTION
#----------   ------------   ------------------------------
 DEPT.F                  :   
 SPR .MV     05 010 01 00:   SPONTANEOUS POTENTIAL FROM RES.
 SN  .OHMM   05 040 16 00:   SHORT NORMAL 16"
 ILD .OHMM   05 120 46 00:   INDUCTION LOG DEEP
 CALD.IN     45 280 60 00:   CALIPER FROM DENSITY LOG
 GRD .GAPI   45 310 01 00:   GAMMA RAY FROM DENSITY LOG
 CORR.G/C3   45 356 01 00:   DENSITY CORRECTION
 DPHI.DEC    45 890 12 00:   DENSITY POROSITY SANDSTONE
 DEN .G/C3   45 350 01 00:   COMPENSATED BULK DENSITY
~PARAMETER INFORMATION
#MNEM.UNIT          VALUE    DESCRIPTION
#----------   ------------   ------------------------------
 PD  .                 GL:   PERMANENT DATUM
 EPD .F              5200:   ELEVATION PERMANENT DATUM
 LMF .                 KB:   LOG MEASURED FROM
 DAPD.F                 4:   FEET ABOVE PERMANENT DATUM
 DMF .                 KB:   DRILLING MEASURED FROM
 EKB .F              5204:   KELLING BUSHING
 EGL .F              5200:   GROUND LEVEL
 DATE.        16-JUN-1978:   RUN DATE
 RUN .                  1:   RUN NUMBER
 DD  .F               513:   DEPTH DRILLER
 DL  .F               481:   DEPTH LOGGER
 BLI .F               475:   BOTTOM LOG INTERVAL
 TLI .F                40:   TOP LOG INTERVAL
 CS  .IN            8.625:   CASING SIZE
 CBD .F                40:   CASING BOTTOM DRILLER
 CBL .F                40:   CASING BOTTOM LOGGER
 BS  .IN            7.875:   BIT SIZE
 BSD .F               513:   BIT SIZE AT DEPTH
 DFT .                KCL:   DRILLING FLUID TYPE
 DFD .                8.6:   DRILLING FLUID DENSITY
 DFV .                 30:   DRILLING FLUID VISCOSITY
 DFPH.                 10:   DRILLING FLUID PH
 DFL .                 16:   DRILLING FLUID LOSS
 MSS .           FLOWLINE:   MUD SAMPLE SOURCE
 RMS .OHMM            .36:   RESISTIVITY MUD SAMPLE
 MST .F                72:   MUD SAMPLE TEMPERATURE
 RMF .OHMM            .34:   RESISTIVITY MUD FILTRATE SAMPLE
 MFST.F                70:   MUD FILTRATE SAMPLE TEMPERATURE
 RMC .OHMM            .52:   RESISTIVITY MUD CAKE
 MCST.F                72:   MUD CAKE SAMPLE TEMPERATURE
 MFSS.               MEAS:   MUD FILTRATE SAMPLE SOURCE
 MCSS.               MEAS:   MUD CAKE SAMPLE SOURCE
 RMB .OHMM            .32:   RESISTIVITY MUD AT BHT
 BHT .F                82:   BOTTOM HOLE TEMPERATURE
 TCS .HRS            0400:   TIME CURCULATED STOPPED
 MRT .F                82:   MAXIMUM RECORDED TEMPERATURE
 LUN .               2958:   LOGGING UNIT NUMBER
 LUL .               CASP:   LOGGING UNIT LOCATION
 ENGI.           REYNOLDS:   RECORDING ENGINEER
 WITN.           MCGINLEY:   WITNESSED BY
 CLNT.            A2DTECH:   CLIENT CODE
 ORIG.           5" PRINT:   ORIGIN OF DATA
 UWI .       490251064800:   UNIQUE WELL ID
 DICO. A2D Technologies, Inc.:   DIGITIZING COMPANY
~OTHER INFORMATION
~A   DEPT      SPR         SN        ILD       CALD         GRD      CORR       DPHI        DEN   
# ...
   70.5000   -53.0080     6.6646     6.8748     6.6588    97.0911     0.0336     0.1430     2.4342
   71.0000   -53.0131     6.6169     6.8724     6.6745   100.1080     0.0218     0.1478     2.4328
   71.5000   -53.0180     6.5694     6.7758     6.7052   107.0224     0.0174     0.1537     2.4426
   72.0000   -53.1732     6.4774     6.6805     6.7210   109.0806     0.0144     0.1388     2.4501
   72.5000   -53.1781     6.3867     6.4962     6.7367   106.9279     0.0101     0.1408     2.4360
   73.0000   -53.3334     6.2539     6.3600     6.7376   104.9084     0.0101     0.1402     2.4338
   73.5000   -53.3383     6.2521     6.1406     6.7236   104.3529     0.0102     0.1402     2.4301
   74.0000   -53.3433     6.2073     5.9288     6.6947   106.6120     0.0222     0.1479     2.4302
   74.5000   -53.3493     6.2048     5.8039     6.6508   107.8223     0.0253     0.1521     2.4303
   75.0000   -53.3543     6.1610     5.6479     6.5626   106.9430     0.0283     0.1456     2.4517
   75.5000   -53.5094     6.1593     5.6071     6.3254   105.7652     0.0284     0.1380     2.4573
   76.0000   -53.5144     6.1574     5.6048     6.1328   104.4382     0.0285     0.1326     2.4588
   76.5000   -53.5194     6.1557     5.6029     6.1783   103.8534     0.0285     0.1307     2.4581
   77.0000   -53.5244     6.1962     5.6403     6.2238   104.4707     0.0301     0.1274     2.4545
   77.5000   -53.5294     6.1945     5.6770     6.3587   105.0840     0.0332     0.1352     2.4515
   78.0000   -53.6832     6.2361     5.7540     6.7762   108.6823     0.0407     0.1399     2.4509
   78.5000   -53.5381     6.2339     5.8019     6.9557   109.7393     0.0512     0.1387     2.4532
   79.0000   -53.5443     6.2321     5.9104     7.0756   105.7298     0.0649     0.1366     2.4592
   79.5000   -53.5493     6.2303     6.0188     7.2261   104.6972     0.0866     0.1332     2.4653
   80.0000   -53.7044     6.2285     6.1153     7.3333   105.1653     0.1155     0.1314     2.4676
   80.5000   -53.7094     6.2268     6.1556     7.4668   107.4203     0.1245     0.1179     2.4886
   81.0000   -53.7143     6.2250     6.2818     7.4363   108.9291     0.0888     0.1030     2.4961
   81.5000   -53.7193     6.2232     6.3238     7.3721   107.1543     0.0442     0.0940     2.5193
   82.0000   -53.8745     6.3080     6.4534     7.2002   102.5437     0.0294     0.0951     2.5171
   82.5000   -53.8794     6.3504     6.4960     7.1118   101.9627     0.0250     0.1244     2.4714
   83.0000   -54.0346     6.4365     6.6297     7.0382   102.4270     0.0235     0.1322     2.4597
   83.5000   -54.0395     6.5699     6.6740     6.9945   105.4419     0.0221     0.1316     2.4613
   84.0000   -54.1947     6.7051     6.7645     6.9654   108.7281     0.0222     0.1294     2.4614
   84.5000   -54.1996     6.7032     6.8091     6.8921   107.2519     0.0208     0.1315     2.4614
   85.0000   -54.3548     6.7013     6.8062     6.8037   107.7363     0.0268     0.1306     2.4600
   85.5000   -54.2084     6.7458     6.8516     6.7004   109.2057     0.0418     0.1291     2.4526
   86.0000   -54.2146     6.7439     6.9441     6.6269   111.0320     0.0387     0.1386     2.4526
   86.5000   -54.0694     6.8832     6.9898     6.6127   108.5150     0.0238     0.1377     2.4714
   87.0000   -54.0744     6.9289     7.1337     6.5840   108.3779     0.0209     0.1266     2.4722
   87.5000   -53.9292     7.0733     7.1808     6.5998   108.6967     0.0213     0.1260     2.4730
   88.0000   -53.6326     7.2214     7.2781     6.6453   108.8622     0.0213     0.1253     2.4738
   88.5000   -53.4885     7.3164     7.3768     6.6759   109.6248     0.0229     0.1268     2.4769
   89.0000   -53.3433     7.3651     7.3743     6.7512   112.6261     0.0230     0.1229     2.4799
   89.5000   -53.1982     7.4654     7.3718     6.8265   117.7170     0.0245     0.1217     2.4845
   90.0000   -53.2033     7.5150     7.4204     6.8869   118.0317     0.0261     0.1198     2.4876
   90.5000   -53.2083     7.5124     7.5210     6.9920   116.8540     0.0306     0.1120     2.4969
   91.0000   -53.2133     7.5628     7.5706     7.1119   116.1240     0.0322     0.1102     2.5011
   91.5000   -53.2183     7.5601     7.6205     7.0979   113.1551     0.0367     0.1096     2.5042
   92.0000   -53.2233     7.6109     7.6800     7.0988   114.0669     0.0413     0.1069     2.5102
   92.5000   -53.0781     7.8756     7.7747     7.0997   114.9787     0.0458     0.1003     2.5125
   93.0000   -53.0831     8.0940     7.8795     7.1006   108.8755     0.0459     0.0999     2.5118
   93.5000   -53.0881     8.2043     7.9871     7.1163   107.5478     0.0475     0.0987     2.5111
   94.0000   -52.9429     8.2594     8.0397     7.1349   107.5648     0.0490     0.0951     2.5112
   94.5000   -52.7977     8.2565     8.1488     7.2225   106.8348     0.0655     0.1007     2.5105
   95.0000   -52.5024     8.1973     8.2025     7.2234   102.0749     0.0373     0.1010     2.5195
   95.5000   -52.3572     8.1385     8.3707     7.1945   100.8971     0.0329     0.0930     2.5398
   96.0000   -52.3624     8.3642     8.4843     7.1654   100.3164     0.0523     0.0893     2.5227
   96.5000   -52.5442     8.8371     8.6598     7.1070    99.8772     0.0643     0.0964     2.5130
   97.0000   -52.9740     9.0828     8.8374     7.0632    99.7383     0.0510     0.1018     2.5123
   97.5000   -52.9789     9.2697     9.0194     7.0192    99.3010     0.0332     0.0997     2.5139
   98.0000   -53.1341     9.3314     9.1425     6.9904   100.6604     0.0228     0.0967     2.5147
   98.5000   -53.1390     9.3934     9.2027     6.9615   105.1778     0.0244     0.1068     2.4907
   99.0000   -53.2942     9.4558     9.1988     7.0072   104.4478     0.0259     0.1187     2.4819
   99.5000   -53.2992     9.5846     9.1323     7.0676   103.4152     0.0275     0.1196     2.4820
  100.0000   -53.2698     9.5819     8.9496     7.0493   106.5658     0.0261     0.1178     2.4828
  100.5000   -53.1738     9.6604     8.6163     6.9802   106.4302     0.0263     0.1193     2.4806
  101.0000   -53.0778     9.7114     8.2803     6.9966   106.7470     0.0249     0.1210     2.4822
  101.5000   -53.0075     9.5756     8.2199     7.0421   107.6572     0.0250     0.1186     2.4837
  102.0000   -53.0090     9.0588     8.1038     6.9394   109.3137     0.0252     0.1156     2.4838
  102.5000   -53.0105     9.0569     8.0446     6.8808   110.5326     0.0209     0.1186     2.4839
  103.0000   -53.0120     9.1183     8.0413     6.7929   104.9873     0.0195     0.1182     2.4847
  103.5000   -53.0135     9.2433     8.0380     6.6900   103.8354     0.0197     0.1127     2.4877
  104.0000   -53.1892     9.2409     7.9794     6.5721   103.7009     0.0183     0.1089     2.4893
  104.5000   -53.4670     9.0495     7.9761     6.5881   103.5663     0.0200     0.1071     2.4856
  105.0000   -53.6189     8.9234     7.9725     6.5447   103.2862     0.0201     0.1109     2.4752
  105.5000   -53.6204     8.7992     7.9695     6.4268   102.9987     0.0203     0.1187     2.4730
  106.0000   -53.6219     8.7974     7.9662     6.3363   109.4349     0.0204     0.1241     2.4716
  106.5000   -53.6234     8.7955     7.9629     6.0670   112.4347     0.0206     0.1225     2.4708
  107.0000   -53.6249     8.7937     7.9049     5.9814   112.4494     0.0207     0.1231     2.4702
  107.5000   -53.6264     8.7919     7.8472     5.9702   112.0163     0.0239     0.1237     2.4703
  108.0000   -53.6279     8.7901     7.8440     6.0163   109.4937     0.0270     0.1249     2.4703
  108.5000   -53.7795     8.7278     7.8405     6.1216   112.3442     0.0301     0.1230     2.4696
  109.0000   -53.7810     8.7260     7.8926     6.3311   115.1947     0.0347     0.1266     2.4697
  109.5000   -54.0828     8.7242     7.8886     6.5704   119.3885     0.0408     0.1263     2.4698
  110.0000   -54.2345     8.7224     7.8853     6.8841   121.4928     0.0574     0.1232     2.4706
  110.5000   -54.2360     8.7812     7.8821     7.1382   120.9105     0.0880     0.1250     2.4714
