~VERSION INFORMATION
 VERS.                2.0:   CWLS LOG ASCII STANDARD - VERSION 2.0
 WRAP.                 NO:   ONE LINE PER DEPTH STEP
~WELL INFORMATION
#MNEM.UNIT      DATA TYPE    INFORMATION
#----------   ------------   ------------------------------
 STRT.F           28.0000:   START DEPTH
 STOP.F          551.0000:   STOP DEPTH
 STEP.F            0.5000:   STEP LENGTH
 NULL.          -999.2500:   NO VALUE
 COMP. FENIX & SCISSON, INC.:   COMPANY
 WELL.        NPR #85-S-3:   WELL
 FLD .             TEAPOT:   FIELD
 LOC .       S3 T38N R78W:   LOCATION
 CNTY.            NATRONA:   COUNTY
 STAT.            WYOMING:   STATE
 CTRY. UNITED STATES OF AMERICA:   COUNTRY
 SRVC.            Unknown:   SERVICE COMPANY
 DATE.        22-JAN-1977:   LOGDATE
 API .       490251055800:   API NUMBER
~CURVE INFORMATION
#MNEM.UNIT       API CODE    CURVE DESCRIPTION
#----------   ------------   ------------------------------
 DEPT.F                  :   
 ILD .OHMM   05 120 46 00:   INDUCTION LOG DEEP
 SN  .OHMM   05 040 16 00:   SHORT NORMAL 16"
 SPR .MV     05 010 01 00:   SPONTANEOUS POTENTIAL FROM RES.
 CALD.IN     45 280 60 00:   CALIPER FROM DENSITY LOG
 CORR.G/C3   45 356 01 00:   DENSITY CORRECTION
 DPHI.DEC    45 890 12 00:   DENSITY POROSITY SANDSTONE
 GRD .GAPI   45 310 01 00:   GAMMA RAY FROM DENSITY LOG
 RHOB.G/C3   45 350 01 00:   BULK DENSITY
~PARAMETER INFORMATION
#MNEM.UNIT          VALUE    DESCRIPTION
#----------   ------------   ------------------------------
 PD  .                 GL:   PERMANENT DATUM
 EPD .F              5132:   ELEVATION PERMANENT DATUM
 LMF .                 KB:   LOG MEASURED FROM
 DAPD.F                 4:   FEET ABOVE PERMANENT DATUM
 DMF .                 KB:   DRILLING MEASURED FROM
 EKB .F              5136:   KELLING BUSHING
 EGL .F              5132:   GROUND LEVEL
 DATE.          1-22-1977:   RUN DATE
 RUN .                  1:   RUN NUMBER
 DD  .F               550:   DEPTH DRILLER
 DL  .F               550:   DEPTH LOGGER
 BLI .F               545:   BOTTOM LOG INTERVAL
 TLI .F                50:   TOP LOG INTERVAL
 CS  .IN            8.625:   CASING SIZE
 CBD .F                40:   CASING BOTTOM DRILLER
 CBL .F                40:   CASING BOTTOM LOGGER
 BS  .IN            7.875:   BIT SIZE
 BSD .F               550:   BIT SIZE AT DEPTH
 DFT .                KCL:   DRILLING FLUID TYPE
 DFD .                8.6:   DRILLING FLUID DENSITY
 DFV .                 36:   DRILLING FLUID VISCOSITY
 DFPH.                 10:   DRILLING FLUID PH
 DFL .                7.2:   DRILLING FLUID LOSS
 MSS .           FLOWLINE:   MUD SAMPLE SOURCE
 RMS .OHMM             .3:   RESISTIVITY MUD SAMPLE
 MST .F                56:   MUD SAMPLE TEMPERATURE
 RMF .OHMM             .3:   RESISTIVITY MUD FILTRATE SAMPLE
 MFST.F                58:   MUD FILTRATE SAMPLE TEMPERATURE
 RMC .OHMM             .3:   RESISTIVITY MUD CAKE
 MCST.F                58:   MUD CAKE SAMPLE TEMPERATURE
 MFSS.           MEASURED:   MUD FILTRATE SAMPLE SOURCE
 MCSS.           MEASURED:   MUD CAKE SAMPLE SOURCE
 RMB .OHMM            .25:   RESISTIVITY MUD AT BHT
 BHT .F                68:   BOTTOM HOLE TEMPERATURE
 TCS .HRS               3:   TIME CURCULATED STOPPED
 MRT .F                68:   MAXIMUM RECORDED TEMPERATURE
 LUN .               2958:   LOGGING UNIT NUMBER
 LUL .             CASPER:   LOGGING UNIT LOCATION
 ENGI.           REYNOLDS:   RECORDING ENGINEER
 WITN.             GINLEY:   WITNESSED BY
 CLNT.            A2DTECH:   CLIENT CODE
 ORIG.           5" PRINT:   ORIGIN OF DATA
 UWI .       490251055800:   UNIQUE WELL ID
 DICO. A2D Technologies, Inc.:   DIGITIZING COMPANY
~OTHER INFORMATION
~A   DEPT      ILD         SN        SPR       CALD       CORR       DPHI         GRD      RHOB   
# ...
  514.0000     6.7599     6.3220   -41.0873     7.8854     0.2042     0.1536   102.9235     2.4130
  514.5000     6.8559     6.2391   -40.9319     7.8877     0.2072     0.1581   104.2722     2.4039
  515.0000     7.0501     6.5145   -40.7765     7.8899     0.2102     0.1578   108.3020     2.4010
  515.5000     7.4018     6.9386   -40.7705     7.8922     0.2117     0.1497   109.7967     2.4022
  516.0000     8.2130     7.4506   -40.6151     7.8944     0.1922     0.1314   105.9278     2.4375
  516.5000     9.3687     8.2383   -40.6092     7.8965     0.1877     0.1227   104.2959     2.4581
  517.0000    10.1820     9.0163   -40.4538     7.8937     0.1862     0.1211    95.5090     2.4641
  517.5000    10.6899     9.5983   -40.4478     7.8912     0.1877     0.1230    91.5361     2.4664
  518.0000    10.9927     9.8704   -40.2924     7.8886     0.1878     0.1279    89.1125     2.4657
  518.5000    10.9957    10.0107   -40.2865     7.8860     0.1878     0.1333    88.2242     2.4648
  519.0000    10.9987    10.0829   -40.1311     7.8834     0.1878     0.1346    88.8263     2.4642
  519.5000    11.0017    10.2263   -39.9756     7.8809     0.1893     0.1269    89.8754     2.4627
  520.0000    11.0811    10.3001   -39.9697     7.8783     0.1983     0.1226    87.7949     2.4710
  520.5000    11.0842    10.4465   -39.9638     7.8757     0.1863     0.1220    88.3970     2.4822
  521.0000    11.2416    10.5950   -39.8084     7.8732     0.1818     0.1241    89.5952     2.4823
  521.5000    11.4013    10.8202   -39.8024     7.8706     0.1803     0.1259    89.8977     2.4815
  522.0000    11.6434    10.8983   -39.7965     7.8680     0.1804     0.1274    88.5638     2.4830
  522.5000    11.9733    11.1300   -39.7905     7.8655     0.1789     0.1298    89.1658     2.4815
  523.0000    12.3978    11.2104   -39.6353     7.8629     0.1789     0.1321    89.6189     2.4726
  523.5000    12.7490    11.3697   -39.6292     7.8623     0.1789     0.1339    89.0287     2.4681
  524.0000    13.0198    11.5313   -39.6233     7.8632     0.1789     0.1345    88.4385     2.4681
  524.5000    13.1138    11.6952   -39.6275     7.8489     0.1789     0.1351    89.6366     2.4659
  525.0000    13.2084    11.7797   -39.6353     7.8498     0.1789     0.1351    90.4123     2.4636
  525.5000    13.3960    11.8647   -39.6431     7.8803     0.1790     0.1336    88.3072     2.4636
  526.0000    13.4059    11.9504   -39.6509     7.9554     0.1790     0.1324    88.4622     2.4651
  526.5000    13.4964    12.0367   -39.6587     8.0157     0.1790     0.1351    90.2565     2.4682
  527.0000    13.5002    12.0400   -39.6665     8.0462     0.1805     0.1387    91.9017     2.4622
  527.5000    13.4107    12.0433   -39.6743     8.0767     0.1835     0.1378    91.4606     2.4569
  528.0000    13.4153    12.0466   -39.6822     8.0624     0.1866     0.1354    90.1252     2.4615
  528.5000    13.4190    12.0500   -39.6900     8.0038     0.1881     0.1338    91.4724     2.4645
  529.0000    13.4227    12.0533   -39.6978     7.9301     0.1896     0.1329    93.4158     2.4661
  529.5000    13.4263    12.0566   -39.7064     7.8712     0.1911     0.1323    90.2599     2.4668
  530.0000    13.3366    12.0600   -39.8514     8.1102     0.1911     0.1320    89.8509     2.4660
  530.5000    13.2483    12.0633   -39.8440     8.1405     0.1896     0.1320    92.2953     2.4660
  531.0000    13.1615    12.0666   -39.8381     7.9926     0.1866     0.1323    93.5887     2.4660
  531.5000    13.0744    12.0700   -39.8321     7.9933     0.1848     0.1323    93.4454     2.4661
  532.0000    13.0780    12.0739   -39.8266     7.9940     0.1837     0.1326    93.1297     2.4661
  532.5000    13.0816    11.9931   -39.6708     7.9948     0.1822     0.1326    89.6498     2.4661
  533.0000    13.0852    11.9136   -39.6648     7.9955     0.1822     0.1326    90.4840     2.4669
  533.5000    13.0888    11.8355   -39.6589     7.9963     0.1822     0.1338    90.0429     2.4661
  534.0000    13.0021    11.8388   -39.6529     7.9970     0.1822     0.1353    89.3022     2.4654
  534.5000    13.0057    11.7595   -39.6470     7.9978     0.1822     0.1349    92.7373     2.4624
  535.0000    12.9193    11.6817   -39.6411     7.9985     0.1838     0.1315    94.0845     2.4639
  535.5000    12.8332    11.6051   -39.7846     7.9993     0.1853     0.1273    94.0904     2.4722
  536.0000    12.7483    11.6083   -39.7787     8.0000     0.1853     0.1224    93.3512     2.4767
  536.5000    12.5775    11.5306   -40.0718     8.0007     0.1853     0.1174    92.4629     2.4857
  537.0000    12.5810    11.4542   -40.2153     8.0015     0.1838     0.1160    92.3183     2.4910
  537.5000    12.4976    11.3783   -40.3587     8.0022     0.1793     0.1172    94.2632     2.4910
  538.0000    12.3295    11.3030   -40.3528     8.0030     0.1763     0.1181    96.3555     2.4918
  538.5000    12.0796    11.2287   -40.3468     8.0037     0.1733     0.1196    95.9144     2.4873
  539.0000    11.8348    11.0775   -40.3408     8.0045     0.1703     0.1262    93.6848     2.4835
  539.5000    11.4358    10.9283   -40.3348     8.0052     0.1689     0.1324    93.3912     2.4776
  540.0000    11.0503    10.7717   -40.3288     8.0060     0.1674     0.1330    93.2481     2.4663
  540.5000    10.8239    10.6589   -40.4726     8.0067     0.1674     0.1330    92.6594     2.4663
  541.0000    10.6070    10.5649   -40.6438     8.0074     0.1689     0.1324    91.3240     2.4678
  541.5000    10.5296    10.4233   -41.2066     8.0082     0.1689     0.1315    90.8824     2.4686
  542.0000    10.3233    10.4261   -41.4996     8.0089     0.1704     0.1309    88.5038     2.4694
  542.5000    10.2550    10.3563   -41.3442     8.0098     0.1735     0.1321    88.2091     2.4686
  543.0000    10.1878    10.3599   -41.3383     7.9954     0.1750     0.1342    89.8590     2.4663
  543.5000    10.1906    10.3627   -41.3323     7.9964     0.1765     0.1360    89.5246     2.4633
  544.0000    10.1934    10.3656   -41.3264     7.9971     0.1795     0.1376    88.0804     2.4612
  544.5000    10.2669    10.3684   -41.1710     7.9978     0.1810  -999.2500  -999.2500     2.4597
  545.0000    10.2693    10.3712   -41.3160     7.9835     0.1811  -999.2500  -999.2500     2.4635
  545.5000  -999.2500  -999.2500  -999.2500     7.9844     0.1811  -999.2500  -999.2500     2.4740
  546.0000  -999.2500  -999.2500  -999.2500     7.9852     0.1781  -999.2500  -999.2500     2.4778
  546.5000  -999.2500  -999.2500  -999.2500     7.9859     0.1766  -999.2500  -999.2500     2.4785
  547.0000  -999.2500  -999.2500  -999.2500     7.9718     0.1766  -999.2500  -999.2500     2.4793
  547.5000  -999.2500  -999.2500  -999.2500     7.9725     0.1736  -999.2500  -999.2500     2.4830
  548.0000  -999.2500  -999.2500  -999.2500     7.9733     0.1706  -999.2500  -999.2500     2.4891
  548.5000  -999.2500  -999.2500  -999.2500     7.9740     0.1661  -999.2500  -999.2500     2.4943
  549.0000  -999.2500  -999.2500  -999.2500     7.9748     0.1616  -999.2500  -999.2500     2.4958
  549.5000  -999.2500  -999.2500  -999.2500     7.9904     0.1496  -999.2500  -999.2500     2.4989
  550.0000  -999.2500  -999.2500  -999.2500     7.9911     0.1301  -999.2500  -999.2500     2.5026
  550.5000  -999.2500  -999.2500  -999.2500     7.9919     0.1151  -999.2500  -999.2500     2.4869
  551.0000  -999.2500  -999.2500  -999.2500     8.0074     0.1136  -999.2500  -999.2500     2.4702
