~VERSION INFORMATION
 VERS.                2.0:   CWLS LOG ASCII STANDARD - VERSION 2.0
 WRAP.                 NO:   ONE LINE PER DEPTH STEP
~WELL INFORMATION
#MNEM.UNIT      DATA TYPE    INFORMATION
#----------   ------------   ------------------------------
 STRT.F           82.0000:   START DEPTH
 STOP.F          750.0000:   STOP DEPTH
 STEP.F            0.5000:   STEP LENGTH
 NULL.          -999.2500:   NO VALUE
 COMP. U S NAVY/INTEX OIL CO:   COMPANY
 WELL.      GOVT #18-S-35:   WELL
 FLD .             TEAPOT:   FIELD
 LOC .      S35 T39N R78W:   LOCATION
 CNTY.            NATRONA:   COUNTY
 STAT.            WYOMING:   STATE
 CTRY. UNITED STATES OF AMERICA:   COUNTRY
 SRVC. Schlumberger Well Surveying Corp:   SERVICE COMPANY
 DATE.        19-JUL-1962:   LOGDATE
 API .       490250649300:   API NUMBER
~CURVE INFORMATION
#MNEM.UNIT       API CODE    CURVE DESCRIPTION
#----------   ------------   ------------------------------
 DEPT.F                  :   
 SPR .MV     05 010 01 00:   SPONTANEOUS POTENTIAL
 ILD .OHMM   05 120 46 00:   INDUCTION LOG DEEP
 CILD.MMHO   05 110 46 00:   CONDUCTIVITY INDUCTION LOG DEEP
 ASN .OHMM   05 041 16 00:   AMPLIFIED SHORT NORMAL 16"
 NEUT.NAPI   35 330 01 00:   NEUTRON GAMMA RAY
~PARAMETER INFORMATION
#MNEM.UNIT          VALUE    DESCRIPTION
#----------   ------------   ------------------------------
 PD  .                 GL:   PERMANENT DATUM
 EPD .F              5107:   ELEVATION PERMANENT DATUM
 LMF .                 KB:   LOG MEASURED FROM
 DAPD.F                 5:   FEET ABOVE PERMANENT DATUM
 DMF .                 KB:   DRILLING MEASURED FROM
 EKB .F              5112:   KELLING BUSHING
 EGL .F              5107:   GROUND LEVEL
 DATE.            7-19-62:   RUN DATE
 RUN .                  1:   RUN NUMBER
 DD  .F               745:   DEPTH DRILLER
 DL  .F               745:   DEPTH LOGGER
 BLI .F               744:   BOTTOM LOG INTERVAL
 TLI .F                80:   TOP LOG INTERVAL
 BS  .IN             6.75:   BIT SIZE
 BSD .F               745:   BIT SIZE AT DEPTH
 DFT .       OIL EMULSION:   DRILLING FLUID TYPE
 DFD .                 10:   DRILLING FLUID DENSITY
 DFV .                 46:   DRILLING FLUID VISCOSITY
 DFL .                2.9:   DRILLING FLUID LOSS
 RMS .OHMM           3.75:   RESISTIVITY MUD SAMPLE
 MST .F                87:   MUD SAMPLE TEMPERATURE
 RMF .OHMM           2.65:   RESISTIVITY MUD FILTRATE SAMPLE
 MFST.F                87:   MUD FILTRATE SAMPLE TEMPERATURE
 RMC .OHMM           3.54:   RESISTIVITY MUD CAKE
 MCST.F                87:   MUD CAKE SAMPLE TEMPERATURE
 TCS .HRS              .5:   TIME CURCULATED STOPPED
 LUN .               2503:   LOGGING UNIT NUMBER
 LUL .             CASPER:   LOGGING UNIT LOCATION
 ENGI.             DANNER:   RECORDING ENGINEER
 WITN.          JORGENSEN:   WITNESSED BY
 CLNT.            A2DTECH:   CLIENT CODE
 ORIG.       2", 5" PRINT:   ORIGIN OF DATA
 UWI .       490250649300:   UNIQUE WELL ID
 DICO. A2D Technologies, Inc.:   DIGITIZING COMPANY
~OTHER INFORMATION
~A   DEPT      SPR          ILD      CILD         ASN     NEUT   
# ...
  326.0000   -62.0520     9.1063   102.0019     9.4137  -999.2500
  326.5000   -61.6612     9.1180   101.0875     9.4895  -999.2500
  327.0000   -61.2640     9.2191   100.1731     9.5828  -999.2500
  327.5000   -60.8791     9.3409    99.2943     9.8247  -999.2500
  328.0000   -60.8937     9.4631    97.8778    10.0934  -999.2500
  328.5000   -60.9289     9.5850    96.5165    10.4406  -999.2500
  329.0000   -60.9618     9.7070    95.1490    10.5001  -999.2500
  329.5000   -60.9943     9.8274    93.4012    10.7214  -999.2500
  330.0000   -61.0268     9.9392    90.8818    10.9398  -999.2500
  330.5000   -61.0601    10.2326    88.3700    11.1587  -999.2500
  331.0000   -61.0665    10.5449    85.8575    11.3775  -999.2500
  331.5000   -61.0665    10.8561    83.3441    11.5963  -999.2500
  332.0000   -61.0664    11.1678    80.8194    11.8152  -999.2500
  332.5000   -61.0664    11.4792    78.1399    12.0335  -999.2500
  333.0000   -61.0663    11.7517    77.0632    12.2534  -999.2500
  333.5000   -61.0656    11.7446    76.1089    12.3667  -999.2500
  334.0000   -61.0572    11.7440    76.1089    12.4237  -999.2500
  334.5000   -61.4056    11.7443    76.1089    12.4780  -999.2500
  335.0000   -61.8218    11.7482    76.1068    12.5335  -999.2500
  335.5000   -62.2393    11.6004    76.1048    12.5559  -999.2500
  336.0000   -62.6585    11.4329    77.3076    12.3703  -999.2500
  336.5000   -63.0649    11.2653    79.0371    12.1661  -999.2500
  337.0000   -63.0847    11.0981    80.7647    11.9618  -999.2500
  337.5000   -62.7483    10.9306    82.4976    11.7581  -999.2500
  338.0000   -62.2236    10.7618    84.3523    11.5554  -999.2500
  338.5000   -62.2207    10.7239    86.1895    11.4370  -999.2500
  339.0000   -62.4240    10.7063    86.0239    11.4289  -999.2500
  339.5000   -62.6439    10.6887    85.8669    11.4199  -999.2500
  340.0000   -62.4188    10.6709    85.7099    11.4113  -999.2500
  340.5000   -62.0947    10.6529    85.5529    11.4025  -999.2500
  341.0000   -61.7600    10.6356    85.3959    11.3937  -999.2500
  341.5000   -61.9776    10.6350    85.2389    11.3849  -999.2500
  342.0000   -62.1595    10.6351    84.9761    11.3762  -999.2500
  342.5000   -61.8058    10.6351    84.6522    11.3674  -999.2500
  343.0000   -61.4636    10.6352    84.3284    11.3586  -999.2500
  343.5000   -61.3359    10.6357    84.7523    11.3501  -999.2500
  344.0000   -61.4953    10.6330    85.8626    11.3400  -999.2500
  344.5000   -61.6522    10.5284    86.9729    11.2863  -999.2500
  345.0000   -61.8103    10.4170    87.3335    11.2293  -999.2500
  345.5000   -61.9683    10.3239    87.5587    11.1726  -999.2500
  346.0000   -62.1283    10.2924    87.7840    11.1159  -999.2500
  346.5000   -62.2614    10.2600    88.0093    11.0591  -999.2500
  347.0000   -62.0135    10.2277    88.3930    11.0024  -999.2500
  347.5000   -61.7629    10.1953    89.8748    10.9457  -999.2500
  348.0000   -61.5146    10.1629    91.3641    10.8890  -999.2500
  348.5000   -61.2666    10.1305    92.2379    10.8323  -999.2500
  349.0000   -61.0185    10.0982    92.2379    10.7756  -999.2500
  349.5000   -60.7702    10.0661    92.2379    10.7190  -999.2500
  350.0000   -60.5197    10.0331    92.2379    10.6623  -999.2500
  350.5000   -60.2736     9.9222    92.5063    10.5852  -999.2500
  351.0000   -60.4055     9.8020    93.3214    10.4888  -999.2500
  351.5000   -60.5626     9.6818    94.1187    10.3926  -999.2500
  352.0000   -60.7178     9.5594    95.8276    10.2964  -999.2500
  352.5000   -60.8727     9.3688    97.6764    10.2370  -999.2500
  353.0000   -61.0276     9.1468    99.5252    10.1313  -999.2500
  353.5000   -61.1814     8.9244   101.3105     9.9627  -999.2500
  354.0000   -61.2530     8.7019   105.9937     9.5984  -999.2500
  354.5000   -61.2184     8.4795   110.5213     9.2268  -999.2500
  355.0000   -61.1847     8.2577   114.2585     8.9755  -999.2500
  355.5000   -61.1502     8.0328   116.6062     8.7637  -999.2500
  356.0000   -61.1165     7.8339   117.4395     8.6000  -999.2500
  356.5000   -61.0826     7.8794   117.4395     8.5177  -999.2500
  357.0000   -61.2858     7.9608   117.4395     8.5304  -999.2500
  357.5000   -61.7089     8.0398   116.3979     8.6087  -999.2500
  358.0000   -61.8144     8.1215   114.6434     8.8073  -999.2500
  358.5000   -61.7323     8.3014   112.8686     9.0667  -999.2500
  359.0000   -61.6923     8.4785   110.4828     9.3292  -999.2500
  359.5000   -61.7686     8.6519   107.8327     9.5830  -999.2500
  360.0000   -61.8461     8.8142   105.1915     9.6801  -999.2500
  360.5000   -61.7353     8.9809   102.5504     9.7706  -999.2500
  361.0000   -61.5274     9.1507   100.3270     9.8747  -999.2500
  361.5000   -61.3165     9.3220   100.4921    10.1451  -999.2500
  362.0000   -61.1057     9.2572   100.6571    10.5311  -999.2500
  362.5000   -60.8945     9.1717   100.8222    10.8990  -999.2500
  363.0000   -60.6856     9.0868   100.9854    10.7480  -999.2500
  363.5000   -60.6631     9.0020   101.1413    10.5732  -999.2500
  364.0000   -60.6636     8.9233   101.3105    10.2907  -999.2500
  364.5000   -60.6640     8.9202   103.6693     9.9949  -999.2500
  365.0000   -60.6640     8.8548   105.9332     9.6794  -999.2500
  365.5000   -60.6640     8.6423   107.6033     9.4445  -999.2500
  366.0000   -60.6640     8.5144   108.2636     9.4163  -999.2500
  366.5000   -60.6638     8.6184   107.1518     9.4844  -999.2500
  367.0000   -60.6627     8.7375   105.7111     9.5501  -999.2500
  367.5000   -60.6659     8.8573   104.0323     9.6575  -999.2500
  368.0000   -60.9298     8.9766   102.2715     9.7795  -999.2500
  368.5000   -61.2229     9.0969   100.5107     9.8836  -999.2500
  369.0000   -61.5174     9.2189    98.7500     9.9353  -999.2500
  369.5000   -61.7888     9.2086    98.5373     9.9507  -999.2500
  370.0000   -62.0398     9.1858    98.8781     9.9693  -999.2500
  370.5000   -62.2902     9.1636    99.2189     9.8883  -999.2500
  371.0000   -62.5372     9.1416    99.5597     9.8345  -999.2500
  371.5000   -62.5545     9.1195    99.9005     9.7947  -999.2500
  372.0000   -62.2825     9.0975   100.2413     9.7561  -999.2500
  372.5000   -62.3912     9.0755   100.5821     9.7377  -999.2500
  373.0000   -62.5515     9.0535   100.9229     9.7582  -999.2500
  373.5000   -62.6910     9.0315   101.2637     9.7793  -999.2500
  374.0000   -63.0039     9.0082   101.6044     9.8004  -999.2500
  374.5000   -63.1994     8.9839   101.9452     9.8223  -999.2500
  375.0000   -63.4273     8.9596   102.3186     9.7942  -999.2500
  375.5000   -63.6539     8.9353   102.4727     9.7442  -999.2500
  376.0000   -63.8816     8.9110   102.6431     9.6934  -999.2500
  376.5000   -64.1093     8.8868   102.8135     9.6425  -999.2500
  377.0000   -64.3370     8.8625   102.9839     9.5920  -999.2500
  377.5000   -64.5642     8.8382   103.1543     9.5621  -999.2500
  378.0000   -64.6882     8.8139   103.3266     9.5349  -999.2500
  378.5000   -64.6105     8.7896   103.8668     9.5077  -999.2500
  379.0000   -64.3444     8.7653   104.4132     9.4805  -999.2500
  379.5000   -64.0811     8.7410   104.9597     9.4532  -999.2500
  380.0000   -63.8180     8.7168   105.5061     9.4253  -999.2500
  380.5000   -63.5441     8.6925   106.0526     9.3851  -999.2500
  381.0000   -63.4800     8.6682   106.6174     9.3441  -999.2500
  381.5000   -63.4702     8.6438   107.2043     9.3028  -999.2500
  382.0000   -63.8512     8.6203   107.7912     9.2813  -999.2500
  382.5000   -64.3116     8.5967   108.3781     9.2712  -999.2500
  383.0000   -64.7875     8.5686   108.9650     9.2617  -999.2500
  383.5000   -64.9312     8.5402   109.5520     9.2521  -999.2500
  384.0000   -64.9882     8.5119   110.1389     9.2374  -999.2500
  384.5000   -65.0432     8.4836   110.7258     9.1943  -999.2500
  385.0000   -65.0545     8.4553   111.3127     9.1511  -999.2500
  385.5000   -64.7243     8.4270   111.6320     9.1080  -999.2500
  386.0000   -64.3888     8.3987   111.9100     9.0649  -999.2500
  386.5000   -64.1130     8.3703   112.1880     9.0225  -999.2500
