~VERSION INFORMATION
 VERS.                2.0:   CWLS LOG ASCII STANDARD - VERSION 2.0
 WRAP.                 NO:   ONE LINE PER DEPTH STEP
~WELL INFORMATION
#MNEM.UNIT      DATA TYPE    INFORMATION
#----------   ------------   ------------------------------
 STRT.F         1005.5000:   START DEPTH
 STOP.F         2315.0000:   STOP DEPTH
 STEP.F            0.5000:   STEP LENGTH
 NULL.          -999.2500:   NO VALUE
 COMP. LAWRENCE/ALLISON INC:   COMPANY
 WELL.  32 SHX 15 #32 -15:   WELL
 FLD .             TEAPOT:   FIELD
 LOC .      S15 T38N R78W:   LOCATION
 CNTY.            NATRONA:   COUNTY
 STAT.            WYOMING:   STATE
 CTRY. UNITED STATES OF AMERICA:   COUNTRY
 SRVC.            Unknown:   SERVICE COMPANY
 DATE.        10-SEP-1988:   LOGDATE
 API .       490251124500:   API NUMBER
~CURVE INFORMATION
#MNEM.UNIT       API CODE    CURVE DESCRIPTION
#----------   ------------   ------------------------------
 DEPT.F                  :   
 ROP .MIN/FT 91 810 01 00:   RATE OF DRILLING PENETRATION
 TGAS.UNITS  91 830 01 00:   TOTAL GAS FROM HOTWIRE
~PARAMETER INFORMATION
#MNEM.UNIT          VALUE    DESCRIPTION
#----------   ------------   ------------------------------
 EKB .F              5259:   KELLING BUSHING
 EGL .F              5249:   GROUND LEVEL
 DATE.        10-SEP-1988:   RUN DATE
 RUN .                  1:   RUN NUMBER
 DD  .F              2316:   DEPTH DRILLER
 TLI .F              1005:   TOP LOG INTERVAL
 CS  .IN                7:   CASING SIZE
 CBD .F               991:   CASING BOTTOM DRILLER
 ENGI. R. HUSK/D. PETERSON:   RECORDING ENGINEER
 CLNT.            A2DTECH:   CLIENT CODE
 ORIG.           5" PRINT:   ORIGIN OF DATA
 UWI .       490251124500:   UNIQUE WELL ID
 DICO. A2D Technologies, Inc.:   DIGITIZING COMPANY
~OTHER INFORMATION
~A  DEPT         ROP       TGAS 
 1005.5000     0.2731     1.9504
 1006.0000     0.2840     1.9736
 1006.5000     0.2843     1.9969
 1007.0000     0.2846     2.0202
 1007.5000     0.2849     2.0435
 1008.0000     0.3170     2.0668
 1008.5000     0.3278     2.0901
 1009.0000     0.4127     2.1134
 1009.5000     0.4659     2.1367
 1010.0000     0.4556     2.1600
 1010.5000     0.4137     2.1833
 1011.0000     0.4033     2.2066
 1011.5000     0.3719     2.2299
 1012.0000     0.4041     2.2532
 1012.5000     0.4467     2.2765
 1013.0000     0.4576     2.2998
 1013.5000     0.4579     2.3231
 1014.0000     0.4582     2.3464
 1014.5000     0.4478     2.3696
 1015.0000     0.4377     2.3929
 1015.5000     0.4168     2.4162
 1016.0000     0.4066     2.4395
 1016.5000     0.4069     2.4628
 1017.0000     0.4072     2.4861
 1017.5000     0.3969     2.5094
 1018.0000     0.3761     2.5327
 1018.5000     0.3871     2.5560
 1019.0000     0.3767     2.5793
 1019.5000     0.3877     2.6026
 1020.0000     0.3773     2.6259
 1020.5000     0.3671     2.6492
 1021.0000     0.3358     2.6725
 1021.5000     0.3254     2.6958
 1022.0000     0.2940     2.7191
 1022.5000     0.2838     2.7424
 1023.0000     0.2735     2.7656
 1023.5000     0.2527     2.7889
 1024.0000     0.2531     2.8122
 1024.5000     0.2534     2.8355
 1025.0000     0.2855     2.8588
 1025.5000     0.3386     2.8821
 1026.0000     0.3918     2.9054
 1026.5000     0.3710     2.9287
 1027.0000     0.3290     2.9520
 1027.5000     0.2869     2.9753
 1028.0000     0.2450     2.9986
 1028.5000     0.2771     3.0219
 1029.0000     0.2880     3.0452
 1029.5000     0.2989     3.0685
 1030.0000     0.3203     3.0918
 1030.5000     0.3207     3.1151
 1031.0000     0.3315     3.1384
 1031.5000     0.3212     3.1616
 1032.0000     0.3110     3.1849
 1032.5000     0.3007     3.2082
 1033.0000     0.3011     3.2315
 1033.5000     0.2907     3.2548
 1034.0000     0.3017     3.2781
 1034.5000     0.3338     3.3014
 1035.0000     0.3658     3.3247
 1035.5000     0.3873     3.3480
 1036.0000     0.3876     3.3713
 1036.5000     0.3772     3.3946
 1037.0000     0.3353     3.4179
 1037.5000     0.3039     3.4412
 1038.0000     0.2936     3.4645
 1038.5000     0.2622     3.4878
 1039.0000     0.2520     3.5111
 1039.5000     0.2524     3.5344
 1040.0000     0.2527     3.5576
 1040.5000     0.2636     3.5809
 1041.0000     0.3379     3.6042
 1041.5000     0.4122     3.6275
 1042.0000     0.4548     3.6508
 1042.5000     0.4339     3.6741
 1043.0000     0.3814     3.6974
 1043.5000     0.3289     3.7207
 1044.0000     0.2974     3.7440
 1044.5000     0.2660     3.7673
 1045.0000     0.2558     3.7906
 1045.5000     0.2562     3.8139
 1046.0000     0.2565     3.8372
 1046.5000     0.2568     3.8605
 1047.0000     0.2677     3.8838
 1047.5000     0.2997     3.9071
 1048.0000     0.3423     3.9304
 1048.5000     0.3849     3.9536
 1049.0000     0.3853     3.9769
 1049.5000     0.3961     4.0002
 1050.0000     0.3858     4.0235
 1050.5000     0.3439     4.0468
 1051.0000     0.3442     4.0701
 1051.5000     0.3339     4.0934
 1052.0000     0.3237     4.1167
 1052.5000     0.3134     4.1400
 1053.0000     0.3031     4.1633
 1053.5000     0.3035     4.1866
 1054.0000     0.3039     4.2099
 1054.5000     0.3042     4.2332
 1055.0000     0.3045     4.2565
 1055.5000     0.3048     4.2798
 1056.0000     0.3263     4.3031
 1056.5000     0.3477     4.3264
 1057.0000     0.3903     4.3496
 1057.5000     0.4329     4.3729
 1058.0000     0.4332     4.3962
 1058.5000     0.4441     4.4195
 1059.0000     0.4549     4.4428
 1059.5000     0.4341     4.4661
 1060.0000     0.4027     4.0824
 1060.5000     0.3925     2.8113
 1061.0000     0.3929     2.8240
 1061.5000     0.3826     2.8368
 1062.0000     0.3618     2.8495
 1062.5000     0.3621     2.8623
 1063.0000     0.3624     2.8751
 1063.5000     0.3627     2.8878
 1064.0000     0.3842     2.9006
 1064.5000     0.3951     2.9134
 1065.0000     0.4271     2.9261
 1065.5000     0.4380     2.9389
 1066.0000     0.4383     2.9516
 1066.5000     0.3963     2.9644
 1067.0000     0.3649     2.9772
 1067.5000     0.3441     2.9899
 1068.0000     0.3127     3.0027
 1068.5000     0.3130     3.0154
 1069.0000     0.2816     3.0282
 1069.5000     0.2819     3.0410
 1070.0000     0.2717     3.0537
 1070.5000     0.2720     3.0665
 1071.0000     0.2723     3.0792
 1071.5000     0.2727     3.0920
 1072.0000     0.2623     3.1048
 1072.5000     0.2627     3.1175
 1073.0000     0.2736     3.1303
 1073.5000     0.2739     3.1430
 1074.0000     0.2743     3.1558
 1074.5000     0.2851     3.1686
 1075.0000     0.3066     3.1813
 1075.5000     0.3175     3.1941
 1076.0000     0.3284     3.2069
 1076.5000     0.3498     3.2196
 1077.0000     0.3501     3.2324
 1077.5000     0.3505     3.2451
 1078.0000     0.3508     3.2579
 1078.5000     0.3404     3.2707
 1079.0000     0.3409     3.2834
 1079.5000     0.3305     3.2962
 1080.0000     0.3309     3.3089
 1080.5000     0.3312     3.3217
 1081.0000     0.3421     3.3345
 1081.5000     0.3636     3.3472
 1082.0000     0.3745     3.3600
 1082.5000     0.3959     3.3727
 1083.0000     0.3750     3.3855
 1083.5000     0.3647     3.3983
 1084.0000     0.3334     3.4110
 1084.5000     0.3231     3.4238
 1085.0000     0.3235     3.4365
 1085.5000     0.3238     3.4493
 1086.0000     0.3241     3.4621
 1086.5000     0.3245     3.4748
 1087.0000     0.3248     3.4876
 1087.5000     0.3251     3.5004
 1088.0000     0.2936     3.5131
 1088.5000     0.2940     3.5259
 1089.0000     0.2944     3.5386
 1089.5000     0.2947     3.5514
 1090.0000     0.3267     3.5642
 1090.5000     0.3482     3.5769
 1091.0000     0.3696     3.5897
 1091.5000     0.4016     3.6024
 1092.0000     0.3807     3.6152
 1092.5000     0.3705     3.6280
 1093.0000     0.3497     3.6407
 1093.5000     0.3394     3.6535
 1094.0000     0.3291     3.6662
 1094.5000     0.3295     3.6790
 1095.0000     0.3192     3.6918
 1095.5000     0.3196     3.7045
 1096.0000     0.3199     3.7173
 1096.5000     0.2990     3.7300
 1097.0000     0.2994     3.7428
 1097.5000     0.2997     3.7556
 1098.0000     0.3000     3.7683
 1098.5000     0.3004     3.7811
 1099.0000     0.3007     3.7939
 1099.5000     0.3010     3.8066
 1100.0000     0.3119     3.8194
 1100.5000     0.3439     3.8321
 1101.0000     0.4182     3.8449
 1101.5000     0.4503     3.8577
 1102.0000     0.4609     3.8704
 1102.5000     0.4612     3.8832
 1103.0000     0.4508     3.8959
 1103.5000     0.4299     3.9087
 1104.0000     0.4196     3.9215
 1104.5000     0.3776     3.9342
 1105.0000     0.3461     3.9470
 1105.5000     0.3359     3.9597
 1106.0000     0.3468     3.9725
 1106.5000     0.3787     3.9853
 1107.0000     0.4213     3.9980
 1107.5000     0.4321     4.0108
 1108.0000     0.4324     4.0235
 1108.5000     0.4220     4.0363
 1109.0000     0.3905     4.0491
 1109.5000     0.3486     4.0618
 1110.0000     0.3382     4.0746
 1110.5000     0.3068     4.0874
 1111.0000     0.3071     4.1001
 1111.5000     0.3074     4.1129
 1112.0000     0.3499     4.1256
 1112.5000     0.3925     4.1384
 1113.0000     0.4350     4.1512
 1113.5000     0.4564     4.1639
 1114.0000     0.4672     4.1767
 1114.5000     0.4252     4.1894
 1115.0000     0.3832     4.2022
 1115.5000     0.3412     4.2150
 1116.0000     0.3308     4.2277
 1116.5000     0.3100     4.2405
 1117.0000     0.2996     4.2532
 1117.5000     0.3000     4.2660
 1118.0000     0.3108     4.2788
 1118.5000     0.3111     4.2915
 1119.0000     0.3219     4.3043
 1119.5000     0.3433     4.3170
 1120.0000     0.3436     4.3298
 1120.5000     0.3544     4.3425
 1121.0000     0.3864     4.3541
 1121.5000     0.3867     4.3658
 1122.0000     0.3869     4.3774
 1122.5000     0.3872     4.3891
 1123.0000     0.3768     4.4007
 1123.5000     0.3772     4.4124
 1124.0000     0.3774     4.4240
 1124.5000     0.3777     4.4357
 1125.0000     0.3779     4.4473
 1125.5000     0.3782     4.4590
 1126.0000     0.3572     4.4706
 1126.5000     0.3576     4.4823
