~VERSION INFORMATION
 VERS.                2.0:   CWLS LOG ASCII STANDARD - VERSION 2.0
 WRAP.                 NO:   ONE LINE PER DEPTH STEP
~WELL INFORMATION
#MNEM.UNIT      DATA TYPE    INFORMATION
#----------   ------------   ------------------------------
 STRT.F          520.5000:   START DEPTH
 STOP.F         3119.5000:   STOP DEPTH
 STEP.F            0.5000:   STEP LENGTH
 NULL.          -999.2500:   NO VALUE
 COMP.   FLUOR DANIEL INC:   COMPANY
 WELL. NAVAL PETROLEUM RESERVE 3 X-10 #52-10:   WELL
 FLD .            WILDCAT:   FIELD
 LOC .      S10 T38N R78W:   LOCATION
 CNTY.            NATRONA:   COUNTY
 STAT.            WYOMING:   STATE
 CTRY. UNITED STATES OF AMERICA:   COUNTRY
 SRVC.            Unknown:   SERVICE COMPANY
 DATE.        16-AUG-1995:   LOGDATE
 API .       490252275200:   API NUMBER
~CURVE INFORMATION
#MNEM.UNIT       API CODE    CURVE DESCRIPTION
#----------   ------------   ------------------------------
 DEPT.F                  :   
 ROP .MIN/FT 91 810 01 00:   RAT OF DRILLING PENETRATION
 TGAS.UNITS  91 830 01 00:   TOTAL GAS FROM HOTWIRE
~PARAMETER INFORMATION
#MNEM.UNIT          VALUE    DESCRIPTION
#----------   ------------   ------------------------------
 EKB .F              5206:   KELLING BUSHING
 EGL .F              5196:   GROUND LEVEL
 DATE.            8-16-95:   RUN DATE
 DD  .F              3120:   DEPTH DRILLER
 CS  .IN            9.625:   CASING SIZE
 CBD .F               508:   CASING BOTTOM DRILLER
 BS  .IN             8.75:   BIT SIZE
 BSD .F              3120:   BIT SIZE AT DEPTH
 ENGI.               HUSK:   RECORDING ENGINEER
 WITN.              TOWER:   WITNESSED BY
 CLNT.            A2DTECH:   CLIENT CODE
 ORIG.           5" PRINT:   ORIGIN OF DATA
 UWI .       490252275200:   UNIQUE WELL ID
 DICO. A2D Technologies, Inc.:   DIGITIZING COMPANY
~OTHER INFORMATION
~A   DEPT        ROP     TGAS   
# ...
 1978.5000     0.9787   114.0068
 1979.0000     1.0109   118.2579
 1979.5000     1.0113   121.4527
 1980.0000     1.0117   122.5352
 1980.5000     1.0121   122.5606
 1981.0000     1.0125   121.4622
 1981.5000     1.0129   120.3105
 1982.0000     1.0133   118.4125
 1982.5000     0.8865   118.1470
 1983.0000     0.8869   116.3514
 1983.5000     0.8873   116.1828
 1984.0000     0.8771   115.3521
 1984.5000     1.0471   115.3785
 1985.0000     1.0475   115.6822
 1985.5000     1.0371   116.4877
 1986.0000     1.0164   116.5141
 1986.5000     0.5401   116.5405
 1987.0000     0.5405   116.5669
 1987.5000     0.5409   115.7790
 1988.0000     0.5414   113.6409
 1988.5000     0.5311   110.1261
 1989.0000     0.5316   101.8309
 1989.5000     0.5320    89.4402
 1990.0000     0.5323    79.1634
 1990.5000     0.5327    72.1763
 1991.0000     0.5331    68.0651
 1991.5000     0.5335    67.1567
 1992.0000     0.5339    67.1831
 1992.5000     0.5344    66.5429
 1993.0000     0.5348    66.1796
 1993.5000     0.5351    64.7686
 1994.0000     0.5355    63.3750
 1994.5000     0.5359    62.3191
 1995.0000     0.5363    62.1317
 1995.5000     0.5367    62.2558
 1996.0000     0.5371    62.3799
 1996.5000     0.5376    62.5039
 1997.0000     0.5485    62.6280
 1997.5000     0.5489    62.7520
 1998.0000     0.5493    62.8761
 1998.5000     0.5497    63.0002
 1999.0000     0.5501    63.1242
 1999.5000     0.5505    63.2483
 2000.0000     0.5508    63.3824
 2000.5000     0.5295    63.4370
 2001.0000     0.5506    63.4964
 2001.5000     0.5504    63.5558
 2002.0000     0.5503    63.6152
 2002.5000     0.5608    63.6746
 2003.0000     0.5606    63.7340
 2003.5000     0.5711    63.7934
 2004.0000     0.5604    63.8528
 2004.5000     0.5602    63.9122
 2005.0000     0.5601    63.9716
 2005.5000     0.5600    64.0310
 2006.0000     0.5598    64.0904
 2006.5000     0.5597    64.1498
 2007.0000     0.5596    64.2092
 2007.5000     0.5594    64.2686
 2008.0000     0.5593    64.3280
 2008.5000     0.5592    64.3874
 2009.0000     0.5590    64.4468
 2009.5000     0.5589    64.5062
 2010.0000     0.5588    64.5656
 2010.5000     0.5587    64.6250
 2011.0000     0.5585    64.6844
 2011.5000     0.5584    64.7438
 2012.0000     0.5583    64.8032
 2012.5000     0.5475    64.8327
 2013.0000     0.5474    61.8234
 2013.5000     0.5473    57.5391
 2014.0000     0.5577    54.8415
 2014.5000     0.5576    54.3327
 2015.0000     0.5575    54.3486
 2015.5000     0.5573    54.3675
 2016.0000     0.5572    54.3830
 2016.5000     0.5571    56.5113
 2017.0000     0.5569    56.5268
 2017.5000     0.5462    56.5424
 2018.0000     0.5461    56.5580
 2018.5000     0.5459    56.5735
 2019.0000     0.5458    55.5328
 2019.5000     0.5351    54.4920
 2020.0000     0.5349    54.5076
 2020.5000     0.5242    54.5231
 2021.0000     0.5241    53.4798
 2021.5000     0.5240    52.4416
 2022.0000     0.5238    52.4577
 2022.5000     0.5343    52.4736
 2023.0000     0.5448    52.4962
 2023.5000     0.5446    52.6051
 2024.0000     0.5445    52.7140
 2024.5000     0.5444    52.8229
 2025.0000     0.5442    52.9318
 2025.5000     0.5441    53.0407
 2026.0000     0.5439    53.1496
 2026.5000     0.5438    53.2585
 2027.0000     0.5437    53.3674
 2027.5000     0.5435    53.4763
 2028.0000     0.5434    53.5852
 2028.5000     0.5433    53.6941
 2029.0000     0.5432    53.8030
 2029.5000     0.5430    53.9119
 2030.0000     0.5429    54.0208
 2030.5000     0.5428    54.1297
 2031.0000     0.5426    54.2386
 2031.5000     0.5425    54.3475
 2032.0000     0.5424    54.4564
 2032.5000     0.5422    54.5653
 2033.0000     0.5421    54.6742
 2033.5000     0.5420    54.7831
 2034.0000     0.5312    54.8919
 2034.5000     0.5311    55.0008
 2035.0000     0.5204    55.1097
 2035.5000     0.5202    55.2186
 2036.0000     0.5201    55.3275
 2036.5000     0.5094    55.4364
 2037.0000     0.5093    55.5453
 2037.5000     0.4985    55.6542
 2038.0000     0.4772    55.7631
 2038.5000     0.4888    55.8720
 2039.0000     0.5001    55.9809
 2039.5000     0.5086    56.0898
 2040.0000     0.5085    56.1969
 2040.5000     0.5508    56.1711
 2041.0000     0.5508    56.1456
 2041.5000     0.5508    56.1202
 2042.0000     0.6886    56.0947
 2042.5000     0.6886    56.0693
 2043.0000     0.6886    56.0438
 2043.5000     0.6992    56.0184
 2044.0000     0.6992    55.9929
 2044.5000     0.6992    55.9675
 2045.0000     0.6992    55.9421
 2045.5000     0.7097    55.9166
 2046.0000     0.7097    55.8912
 2046.5000     0.7203    55.8657
 2047.0000     0.7203    55.8403
 2047.5000     0.7203    55.8148
 2048.0000     0.7203    55.7894
 2048.5000     0.7203    55.7639
 2049.0000     0.7203    55.7385
 2049.5000     0.7203    55.7131
 2050.0000     0.6462    55.6876
 2050.5000     0.5297    55.6622
 2051.0000     0.5297    55.6367
 2051.5000     0.5297    55.6113
 2052.0000     0.5297    55.5858
 2052.5000     0.5297    55.5604
 2053.0000     0.5297    55.5349
 2053.5000     0.5297    55.5095
 2054.0000     0.5297    55.4840
 2054.5000     0.5403    55.4586
 2055.0000     0.5508    55.4332
 2055.5000     0.5508    55.4077
 2056.0000     0.5508    55.3823
 2056.5000     0.5508    55.3568
 2057.0000     0.5508    55.3314
 2057.5000     0.5508    55.3059
 2058.0000     0.5508    55.2805
 2058.5000     0.5508    55.2550
 2059.0000     0.5508    55.2296
 2059.5000     0.5508    55.2042
 2060.0000     0.5508    55.1787
 2060.5000     0.5508    55.1533
 2061.0000     0.5508    55.1278
 2061.5000     0.5508    55.1024
 2062.0000     0.5508    55.0769
 2062.5000     0.5614    55.0515
 2063.0000     0.5614    55.0260
 2063.5000     0.5614    55.0006
 2064.0000     0.5614    54.9751
 2064.5000     0.5614    54.9497
 2065.0000     0.5508    54.9243
 2065.5000     0.5614    54.8988
 2066.0000     0.5614    54.8734
 2066.5000     0.5614    54.8479
 2067.0000     0.5614    54.8225
 2067.5000     0.5614    54.7970
 2068.0000     0.5508    54.7716
 2068.5000     0.5508    54.7461
 2069.0000     0.5508    54.7207
 2069.5000     0.5508    54.6952
 2070.0000     0.5508    54.6698
 2070.5000     0.5614    54.6444
 2071.0000     0.5508    54.6189
 2071.5000     0.5508    54.5935
 2072.0000     0.5614    54.5680
 2072.5000     0.5614    54.5426
 2073.0000     0.5614    54.5171
 2073.5000     0.5508    54.4917
 2074.0000     0.5508    54.4662
 2074.5000     0.5508    54.4408
 2075.0000     0.5508    54.4154
 2075.5000     0.5508    54.3899
 2076.0000     0.5508    54.3645
 2076.5000     0.5614    54.3390
 2077.0000     0.5614    54.3136
 2077.5000     0.5614    54.2881
 2078.0000     0.5614    54.2627
 2078.5000     0.5614    54.2372
 2079.0000     0.5614    54.2118
 2079.5000     0.5614    54.1863
 2080.0000     0.5826    54.1609
 2080.5000     0.5921    54.1355
 2081.0000     0.5908    54.1100
 2081.5000     0.5894    54.0846
 2082.0000     0.5991    54.0591
 2082.5000     0.5871    54.0337
 2083.0000     0.5859    54.0082
 2083.5000     0.5848    53.9828
 2084.0000     0.5836    53.9573
 2084.5000     0.5824    53.9319
 2085.0000     0.5813    53.9065
 2085.5000     0.5801    53.8810
 2086.0000     0.5683    53.8556
 2086.5000     0.5671    53.8301
 2087.0000     0.5659    53.8047
 2087.5000     0.5645    53.7792
 2088.0000     0.5634    53.7538
 2088.5000     0.5622    53.7283
 2089.0000     0.5610    53.7029
 2089.5000     0.5599    53.6774
 2090.0000     0.5481    53.6520
 2090.5000     0.5469    53.6266
 2091.0000     0.5458    53.6011
 2091.5000     0.5446    54.3387
 2092.0000     0.5434    53.9225
 2092.5000     0.5422    52.8633
 2093.0000     0.5410    51.8039
 2093.5000     0.5396    49.9344
 2094.0000     0.5385    47.7989
 2094.5000     0.5267    46.3076
 2095.0000     0.5255    46.3232
 2095.5000     0.5244    46.3388
 2096.0000     0.5232    47.4107
 2096.5000     0.5220    47.4262
 2097.0000     0.5315    47.4418
 2097.5000     0.5303    48.5137
 2098.0000     0.5291    50.6420
 2098.5000     0.5279    52.7702
 2099.0000     0.5267    54.8984
 2099.5000     0.5253    54.5772
