~VERSION INFORMATION
 VERS.                2.0:   CWLS LOG ASCII STANDARD - VERSION 2.0
 WRAP.                 NO:   ONE LINE PER DEPTH STEP
~WELL INFORMATION
#MNEM.UNIT      DATA TYPE    INFORMATION
#----------   ------------   ------------------------------
 STRT.F           11.0000:   START DEPTH
 STOP.F          915.0000:   STOP DEPTH
 STEP.F            0.5000:   STEP LENGTH
 NULL.          -999.2500:   NO VALUE
 COMP. U S NAVY/INTEX OIL CO:   COMPANY
 WELL.       N.P.R. #3-35:   WELL
 FLD .           TEAPOT E:   FIELD
 LOC .      S35 T39N R78W:   LOCATION
 CNTY.            NATRONA:   COUNTY
 STAT.            WYOMING:   STATE
 CTRY. UNITED STATES OF AMERICA:   COUNTRY
 SRVC.       Schlumberger:   SERVICE COMPANY
 DATE.        25-JUL-1953:   LOGDATE
 API .       490250653700:   API NUMBER
~CURVE INFORMATION
#MNEM.UNIT       API CODE    CURVE DESCRIPTION
#----------   ------------   ------------------------------
 DEPT.F                  :   
 SPR .MV     05 010 01 00:   SPONTANEOUS POTENTIAL FROM RES.
 CILD.MMHO   05 110 46 00:   CONDUCTIVITY INDUCTION LOG DEEP
 ILD .OHMM   05 120 46 00:   INDUCTION LOG DEEP
 ASN .OHMM   05 041 16 00:   AMPLIFIED SHORT NORMAL 16"
 GR  .GAPI   30 310 01 00:   GAMMA RAY
~PARAMETER INFORMATION
#MNEM.UNIT          VALUE    DESCRIPTION
#----------   ------------   ------------------------------
 EPD .F              5097:   ELEVATION PERMANENT DATUM
 LMF .                 KB:   LOG MEASURED FROM
 DMF .                 KB:   DRILLING MEASURED FROM
 EKB .F              5102:   KELLING BUSHING
 EGL .F              5097:   GROUND LEVEL
 DATE.           7-2-1963:   RUN DATE
 RUN .                  1:   RUN NUMBER
 DD  .F               916:   DEPTH DRILLER
 DL  .F               916:   DEPTH LOGGER
 BLI .F               915:   BOTTOM LOG INTERVAL
 TLI .F                90:   TOP LOG INTERVAL
 CS  .IN            8.625:   CASING SIZE
 CBD .F                10:   CASING BOTTOM DRILLER
 BS  .IN             6.75:   BIT SIZE
 BSD .F               916:   BIT SIZE AT DEPTH
 DFT .            GEL/OIL:   DRILLING FLUID TYPE
 DFD .                9.6:   DRILLING FLUID DENSITY
 DFV .                 67:   DRILLING FLUID VISCOSITY
 DFPH.                  9:   DRILLING FLUID PH
 DFL .                4.2:   DRILLING FLUID LOSS
 MSS .          FLOW LINE:   MUD SAMPLE SOURCE
 RMS .OHMM           2.92:   RESISTIVITY MUD SAMPLE
 MST .F                86:   MUD SAMPLE TEMPERATURE
 RMF .OHMM            2.6:   RESISTIVITY MUD FILTRATE SAMPLE
 MFST.F                86:   MUD FILTRATE SAMPLE TEMPERATURE
 RMC .OHMM           2.49:   RESISTIVITY MUD CAKE
 MCST.F                86:   MUD CAKE SAMPLE TEMPERATURE
 MFSS.                  M:   MUD FILTRATE SAMPLE SOURCE
 MCSS.                  M:   MUD CAKE SAMPLE SOURCE
 TCS .HRS              .5:   TIME CURCULATED STOPPED
 LUN .               4507:   LOGGING UNIT NUMBER
 ENGI.             KNOBEL:   RECORDING ENGINEER
 WITN.          JORGENSON:   WITNESSED BY
 CLNT.            A2DTECH:   CLIENT CODE
 ORIG.       2", 5" PRINT:   ORIGIN OF DATA
 UWI .       490250653700:   UNIQUE WELL ID
 DICO. A2D Technologies, Inc.:   DIGITIZING COMPANY
~OTHER INFORMATION
~A   DEPT      SPR       CILD        ILD        ASN          GR  
# ...
  438.0000   -31.9745   155.5390     6.3138     7.1293    51.5787
  438.5000   -31.6188   154.3082     6.4310     7.1559    51.4695
  439.0000   -31.5226   153.0762     6.5487     7.3093    52.5195
  439.5000   -31.5792   151.8443     6.6610     7.4826    53.1328
  440.0000   -31.6372   151.8889     6.6511     7.4983    55.2387
  440.5000   -31.6960   152.2245     6.6348     7.4487    57.9152
  441.0000   -31.7549   152.5538     6.6189     7.5276    59.9557
  441.5000   -31.8122   152.8830     6.6031     7.3725    60.3087
  442.0000   -31.8678   153.2122     6.5874     7.1905    60.2238
  442.5000   -31.7044   153.5414     6.5717     7.0927    59.8216
  443.0000   -31.2856   153.8707     6.5560     7.0735    60.1026
  443.5000   -31.3488   154.1999     6.5403     7.0959    61.2004
  444.0000   -31.4238   154.5291     6.5245     7.2149    60.8027
  444.5000   -31.4966   154.6065     6.5088     7.3435    59.4143
  445.0000   -31.5693   153.9481     6.4932     7.4728    58.1594
  445.5000   -31.6411   153.2896     6.4776     7.4906    59.0168
  446.0000   -31.6906   152.6312     6.4614     7.3759    58.4678
  446.5000   -31.6663   151.9727     6.4335     7.3286    63.1720
  447.0000   -31.6439   151.6264     6.3503     7.3878    59.9708
  447.5000   -31.6216   154.9747     6.2692     7.3798    57.2511
  448.0000   -31.5992   158.0874     6.1881     7.2997    54.5357
  448.5000   -31.5768   161.2239     6.1065     7.2200    52.0546
  449.0000   -31.5545   164.3582     6.0323     7.1394    50.7422
  449.5000   -31.5322   165.3139     6.0421     7.0603    49.4383
  450.0000   -31.5101   160.3735     6.2489     6.9778    46.0812
  450.5000   -31.4850   153.3137     6.4808     6.9747    43.0955
  451.0000   -31.3722   149.1693     6.7442     7.1234    41.4918
  451.5000   -31.2504   151.3729     6.7335     7.5565    40.2904
  452.0000   -31.1275   153.7251     6.4711     8.2859    37.6901
  452.5000   -31.3527   156.7757     6.4400     9.0600    29.6832
  453.0000   -31.8773   152.6248     6.6031     9.8347    26.3536
  453.5000   -31.9733   145.0124     6.7664    10.1576    27.7852
  454.0000   -31.7322   143.2319     6.8817     9.6056    39.1380
  454.5000   -31.4942   143.2319     6.9007     8.0989    50.1677
  455.0000   -31.5092   143.2319     6.9209     7.7343    51.7698
  455.5000   -31.5369   143.2319     6.9410     7.5421    53.4805
  456.0000   -31.5637   143.2319     6.9620     7.6521    52.9396
  456.5000   -31.5901   143.2319     7.0188     7.7834    53.5706
  457.0000   -31.6164   139.4840     7.2327     7.9174    54.5015
  457.5000   -31.6430   135.7509     7.4432     8.0471    59.7900
  458.0000   -31.6701   132.0120     7.6128     8.1076    58.2030
  458.5000   -31.6907   130.8275     7.6086     8.1634    56.5670
  459.0000   -31.5864   131.2757     7.6039     8.2252    56.2237
  459.5000   -31.4803   131.6976     7.4982     8.2858    51.8353
  460.0000   -31.3759   133.8742     7.3915     8.3396    51.5125
  460.5000   -31.2694   135.9519     7.2856     8.2948    50.6008
  461.0000   -31.0520   138.0295     7.1795     8.1948    44.8256
  461.5000   -30.8388   140.1072     7.0732     8.0694    43.1236
  462.0000   -30.6536   142.1848     6.9812     7.9440    48.5624
  462.5000   -30.7352   142.9934     7.0377     7.8456    47.2997
  463.0000   -30.8179   142.5126     7.0945     7.7747    45.2867
  463.5000   -30.8992   141.6299     7.1496     7.7042    45.0571
  464.0000   -30.9804   139.8671     7.1785     7.6329    44.7878
  464.5000   -31.0617   140.2252     7.1412     7.7504    45.0464
  465.0000   -31.1428   140.6540     7.1059     7.9393    47.7215
  465.5000   -31.2229   141.0828     7.0707     7.6975    45.9915
  466.0000   -31.2300   141.5116     7.0354     7.5605    44.5965
  466.5000   -31.0900   141.9404     7.0004     7.8214    46.6471
  467.0000   -30.9526   142.3692     6.9849     7.9852    49.3888
  467.5000   -30.8151   142.7980     7.0058     7.8458    50.6923
  468.0000   -30.6775   143.2319     7.0261     7.6695    49.1106
  468.5000   -30.5399   142.8477     7.0465     7.5159    52.9267
  469.0000   -30.4022   142.4588     7.0668     7.6137    52.9817
  469.5000   -30.2643   142.0699     7.0872     7.7268    53.9156
  470.0000   -30.1279   141.6811     7.1075     7.8420    59.1069
  470.5000   -30.0276   141.2922     7.1279     7.8237    56.7377
  471.0000   -30.0795   140.9033     7.1482     7.7527    54.3807
  471.5000   -30.1276   140.5145     7.1685     7.6813    58.1673
  472.0000   -30.1747   140.1256     7.1889     7.6081    54.3082
  472.5000   -30.2232   139.7367     7.2092     7.6080    59.0257
  473.0000   -30.4667   139.3478     7.2296     7.7189    60.4181
  473.5000   -30.7416   138.9580     7.2500     7.8253    61.7765
  474.0000   -31.0163   138.5650     7.2709     7.9314    56.2295
  474.5000   -31.2927   138.1652     7.2898     8.0382    55.0244
  475.0000   -31.5941   137.9587     7.1751     8.1470    56.3977
  475.5000   -31.6273   140.7542     7.0429     8.1574    54.6686
  476.0000   -31.5015   144.1661     6.9106     7.9912    53.5134
  476.5000   -31.3718   147.5781     6.7780     7.7941    54.5907
  477.0000   -31.2422   150.9901     6.6320     7.4913    57.0646
  477.5000   -31.1131   154.4021     6.3986     7.2836    58.1245
  478.0000   -30.9839   157.8140     6.2441     7.1503    51.9982
  478.5000   -30.8549   160.0210     6.2710     7.1322    49.2010
  479.0000   -30.7255   160.0840     6.2950     7.1198    49.8525
  479.5000   -30.5962   158.3211     6.3191     7.1053    51.3278
  480.0000   -30.4729   157.9223     6.3450     7.1487    51.9226
  480.5000   -30.2049   158.6422     6.3022     7.2063    56.1284
  481.0000   -30.0872   159.8762     6.2439     7.2258    51.6829
  481.5000   -30.2665   161.1102     6.1849     7.2201    51.6777
  482.0000   -30.4413   162.3442     6.1263     7.2135    58.7684
  482.5000   -30.6090   163.5782     6.0680     7.1933    56.9951
  483.0000   -30.9416   164.8122     6.0197     7.1186    53.1146
  483.5000   -31.2631   162.5981     5.9860     7.0407    51.0068
  484.0000   -31.1025   158.3673     5.9541     6.9647    53.1190
  484.5000   -30.9287   154.1364     5.9671     6.8977    54.6686
  485.0000   -30.7571   153.3653     6.1434     6.9799    56.0466
  485.5000   -30.5859   154.7744     6.3155     7.0890    56.4070
  486.0000   -30.4153   152.6953     6.4872     7.2842    56.3131
  486.5000   -30.2442   149.5951     6.6592     7.4628    55.4941
  487.0000   -30.0620   146.4949     6.8312     7.5616    53.4030
  487.5000   -30.2671   143.3947     7.0033     7.6551    53.0310
  488.0000   -30.6159   140.2945     7.1740     7.7513    52.7107
  488.5000   -30.9709   136.9360     7.2880     7.7695    51.7489
  489.0000   -31.3212   138.2409     7.2582     7.7623    50.7044
  489.5000   -31.5567   140.3185     7.2320     7.7579    49.2588
  490.0000   -30.6558   142.3962     7.2044     7.8745    46.0516
  490.5000   -30.5799   144.4738     7.1481     7.8351    51.1621
  491.0000   -30.4952   146.5515     7.0141     7.7849    50.2977
  491.5000   -30.3687   148.6291     6.8852     7.7336    49.0369
  492.0000   -30.1692   150.7068     6.7564     7.6593    48.0057
  492.5000   -29.9733   152.7844     6.6273     7.5838    54.7988
  493.0000   -29.8217   154.8621     6.4981     7.4829    51.8867
  493.5000   -29.9154   156.9397     6.3684     7.3770    59.3797
  494.0000   -30.0028   159.0174     6.2411     7.2667    57.8272
  494.5000   -30.1058   161.0703     6.1726     7.3467    58.4162
  495.0000   -30.1898   160.0326     6.3696     7.3879    56.4905
  495.5000   -30.8619   153.8643     6.5639     7.3175    58.9214
  496.0000   -31.6371   147.8151     6.8680     7.3327    57.6624
  496.5000   -31.5775   141.7657     7.1702     7.5293    52.7259
  497.0000   -31.0815   135.7248     7.4299     7.8354    48.7103
  497.5000   -30.5810   132.4911     7.5379     8.5368    46.3470
  498.0000   -30.0804   129.7410     7.6497     9.2258    43.9930
  498.5000   -29.8134   126.9910     7.7621     9.7222    35.2546
