~VERSION INFORMATION
 VERS.                2.0:   CWLS LOG ASCII STANDARD - VERSION 2.0
 WRAP.                 NO:   ONE LINE PER DEPTH STEP
~WELL INFORMATION
#MNEM.UNIT      DATA TYPE    INFORMATION
#----------   ------------   ------------------------------
 STRT.F           27.0000:   START DEPTH
 STOP.F          566.0000:   STOP DEPTH
 STEP.F            0.5000:   STEP LENGTH
 NULL.          -999.2500:   NO VALUE
 COMP.    FENIX & SCISSON:   COMPANY
 WELL. S-3 NPR #3 #86-S-3:   WELL
 FLD .             TEAPOT:   FIELD
 LOC .       S3 T38N R78W:   LOCATION
 CNTY.            NATRONA:   COUNTY
 STAT.            WYOMING:   STATE
 CTRY. UNITED STATES OF AMERICA:   COUNTRY
 SRVC.       Schlumberger:   SERVICE COMPANY
 DATE.        08-APR-1977:   LOGDATE
 API .       490251032900:   API NUMBER
~CURVE INFORMATION
#MNEM.UNIT       API CODE    CURVE DESCRIPTION
#----------   ------------   ------------------------------
 DEPT.F                  :   
 CALD.IN     45 280 60 00:   CALIPER FROM DENSITY LOG
 GRD .GAPI   45 310 01 00:   GAMMA RAY FROM DENSITY LOG
 CORR.G/C3   45 356 01 00:   DENSITY CORRECTION
 RHOB.G/C3   45 350 01 00:   BULK DENSITY
 DPHI.DEC    45 890 12 00:   DENSITY POROSITY SANDSTONE
 SPR .MV     07 010 01 00:   SPONTANEOUS POTENTIAL
 ILD .OHMM   07 120 46 00:   INDUCTION LOG DEEP
 ILM .OHMM   07 120 44 00:   INDUCTION LOG MEDIUM
 LL8 .OHMM   07 220 08 00:   LATEROLOG-8 RES.
~PARAMETER INFORMATION
#MNEM.UNIT          VALUE    DESCRIPTION
#----------   ------------   ------------------------------
 PD  .                 GL:   PERMANENT DATUM
 EPD .F              5147:   ELEVATION PERMANENT DATUM
 LMF .                 KB:   LOG MEASURED FROM
 DMF .                 KB:   DRILLING MEASURED FROM
 EGL .F              5147:   GROUND LEVEL
 DATE.        08-APR-1977:   RUN DATE
 RUN .                  1:   RUN NUMBER
 DD  .F               570:   DEPTH DRILLER
 DL  .F               567:   DEPTH LOGGER
 BLI .F               566:   BOTTOM LOG INTERVAL
 TLI .F                27:   TOP LOG INTERVAL
 CS  .IN            8.625:   CASING SIZE
 CBD .F                40:   CASING BOTTOM DRILLER
 CBL .F                33:   CASING BOTTOM LOGGER
 BS  .IN            7.875:   BIT SIZE
 BSD .F               570:   BIT SIZE AT DEPTH
 DFT .                KCL:   DRILLING FLUID TYPE
 DFD .                8.6:   DRILLING FLUID DENSITY
 DFV .                 31:   DRILLING FLUID VISCOSITY
 DFPH.                9.5:   DRILLING FLUID PH
 DFL .                8.6:   DRILLING FLUID LOSS
 MSS .           FLOWLINE:   MUD SAMPLE SOURCE
 RMS .OHMM          0.306:   RESISTIVITY MUD SAMPLE
 MST .F                78:   MUD SAMPLE TEMPERATURE
 RMF .OHMM          0.230:   RESISTIVITY MUD FILTRATE SAMPLE
 MFST.F                78:   MUD FILTRATE SAMPLE TEMPERATURE
 MFSS.               MEAS:   MUD FILTRATE SAMPLE SOURCE
 RMB .OHMM          0.341:   RESISTIVITY MUD AT BHT
 BHT .F                70:   BOTTOM HOLE TEMPERATURE
 TCS .HRS              20:   TIME CURCULATED STOPPED
 MRT .F                70:   MAXIMUM RECORDED TEMPERATURE
 LUN .               5642:   LOGGING UNIT NUMBER
 LUL .               CSPR:   LOGGING UNIT LOCATION
 ENGI.             MARTIN:   RECORDING ENGINEER
 WITN.               LYON:   WITNESSED BY
 CLNT.            A2DTECH:   CLIENT CODE
 ORIG.       2", 5" PRINT:   ORIGIN OF DATA
 UWI .       490251032900:   UNIQUE WELL ID
 DICO. A2D Technologies, Inc.:   DIGITIZING COMPANY
~OTHER INFORMATION
~A   DEPT     CALD         GRD      CORR       RHOB       DPHI        SPR        ILD        ILM        LL8   
# ...
  428.5000     8.0758    91.7258     0.0234     2.4128     0.1458   -67.5621    13.8117    13.7660    13.9001
  429.0000     8.0775    91.2995     0.0243     2.4316     0.1430   -67.4072    13.8117    13.9602    14.1921
  429.5000     8.0791    91.1674     0.0281     2.4354     0.1372   -67.1019    14.0042    14.1572    14.2908
  430.0000     8.0654    90.4371     0.0387     2.4279     0.1352   -66.9470    14.1015    14.2577    14.5910
  430.5000     8.0521    89.6910     0.0418     2.4280     0.1355   -66.7921    14.1994    14.5595    14.6925
  431.0000     8.0388    88.1877     0.0434     2.4248     0.1366   -66.6372    14.4972    14.8676    15.0011
  431.5000     8.0408    85.7885     0.0480     2.4101     0.1393   -66.6326    14.6993    15.0774    15.1055
  432.0000     8.0272    80.3953     0.0541     2.4154     0.1432   -66.6281    15.0076    15.3965    15.1055
  432.5000     7.9994    80.4211     0.0579     2.4117     0.1447   -66.6236    15.2168    15.5059    15.1055
  433.0000     7.9712    81.6340     0.0527     2.4207     0.1444   -66.7706    15.3224    15.7246    15.1055
  433.5000     7.9575    84.7843     0.0483     2.4305     0.1410   -66.7649    15.0076    15.7268    15.0011
  434.0000     7.9148    89.8720     0.0739     2.4441     0.1311   -66.7604    14.8013    15.2986    14.6925
  434.5000     7.9015    91.9791     0.0775     2.4261     0.1353   -66.9074    14.4972    14.6771    14.2908
  435.0000     7.8584    92.8940     0.0665     2.4314     0.1329   -67.2024    14.1015    14.1784    13.9001
  435.5000     7.8303    94.2559     0.0711     2.4465     0.1214   -67.4987    13.8117    13.6975    13.6140
  436.0000     7.8170    95.6178     0.0923     2.4653     0.1127   -67.7949    13.4347    13.2325    13.4266
  436.5000     7.8804    96.6817     0.0758     2.4623     0.1142   -67.9419    13.3420    12.9614    13.1504
  437.0000     7.9544    95.6592     0.0631     2.4812     0.1087   -68.2381    13.0679    12.6962    13.0596
  437.5000     7.9859    91.8050     0.0406     2.4715     0.1180   -68.5332    12.9778    12.6107    12.7908
  438.0000     8.0027    88.8399     0.0174     2.4452     0.1210   -68.5286    12.7994    12.6124    12.7908
  438.5000     8.0192    93.4857     0.0166     2.4498     0.1234   -68.5241    12.7112    12.6142    12.7908
  439.0000     8.0507    94.8476     0.0190     2.4355     0.1318   -68.2188    12.7112    12.7038    12.7908
  439.5000     8.0970    94.8933     0.0078     2.4416     0.1245   -67.7632    12.7112    12.8830    12.7908
  440.0000     8.1284    92.9515     0.0124     2.4446     0.1206   -67.1571    13.1587    13.3394    13.0596
  440.5000     8.1449    89.8425     0.0177     2.4432     0.1254   -66.5511    13.8117    14.2006    13.4266
  441.0000     8.1018    81.8155     0.0178     2.4470     0.1221   -65.9451    14.3973    14.8060    13.9001
  441.5000     7.9991    74.9807     0.0194     2.4364     0.1242   -65.3390    15.4288    16.3180    15.9666
  442.0000     7.9407    68.5812     0.0202     2.3975     0.1333   -64.8834    17.5968    19.4102    19.9308
  442.5000     8.0024    67.4118     0.0211     2.3667     0.1623   -64.1270    21.3590    22.8944    29.7915
  443.0000     8.0487    66.6815     0.0211     2.3623     0.1725   -63.5209    23.8597    25.4022    36.6763
  443.5000     8.0056    65.9294     0.0212     2.3540     0.1756   -63.2157    27.0246    28.8256    40.6942
  444.0000     7.9178    65.5191     0.0196     2.3240     0.1970   -63.0617    41.5035    42.8121    43.0141
  444.5000     7.8002    65.2686     0.0139     2.2535     0.2171   -62.9068    45.7255    47.9484    45.4663
  445.0000     7.7719    65.5925     0.0071     2.2482     0.2420   -62.7519    49.0017    50.2843    48.0582
  445.5000     7.7886    66.6563     0.0174     2.2581     0.2477   -62.7473    50.3770    51.7012    51.1512
  446.0000     7.8498    68.4654     0.0276     2.3242     0.2182   -62.7429    50.3770    52.3869    55.5869
  446.5000     7.9706    70.7215     0.0352     2.3483     0.1870   -62.7384    49.9733    52.3942    59.1645
  447.0000     7.9558    72.6796     0.0323     2.3566     0.1812   -62.5835    49.2943    51.6228    57.1494
  447.5000     7.9143    75.3828     0.0226     2.3687     0.1758   -62.6139    47.9949    49.9020    50.0987
  448.0000     7.9160    75.2544     0.0166     2.3875     0.1514   -62.7253    46.6847    48.2301    40.6942
  448.5000     7.9924    72.8888     0.0129     2.4619     0.1400   -62.7196    45.7035    46.9041    34.4586
  449.0000     8.1431    70.3760     0.0093     2.5228     0.1036   -62.7151    44.4628    45.6312    36.4230
  449.5000     8.1596    70.8437     0.0063     2.5253     0.0889   -62.7105    43.5496    44.0903    45.4663
  450.0000     8.1120    73.3979     0.0055     2.4831     0.1135   -62.5474    42.6684    42.7345    54.3095
  450.5000     8.0589    74.4636     0.0038     2.4328     0.1447   -62.4345    40.7740    40.9307    67.9605
  451.0000     8.0759    75.3785     0.0043     2.3458     0.1786   -62.3216    38.1850    39.1809    51.8651
  451.5000     8.1077    77.4856     0.0089     2.3188     0.2005   -62.0873    35.1374    37.3190    40.4132
  452.0000     8.1396    81.0831     0.0158     2.3129     0.2077   -61.7804    33.2405    34.0133    35.6736
  452.5000     8.1417    81.6999     0.0249     2.3085     0.2062   -61.4511    31.6644    31.8074    31.9294
  453.0000     8.0991    80.8264     0.0160     2.2958     0.2118   -61.1669    30.5834    30.2959    30.8419
  453.5000     8.0861    78.4626     0.0070     2.2898     0.2187   -61.0093    29.1332    29.8745    30.4174
  454.0000     8.0883    77.8867     0.0194     2.2944     0.2154   -60.8530    28.9284    29.2553    30.2073
  454.5000     8.0904    77.6096     0.0200     2.2960     0.2150   -60.5463    28.9244    29.2513    30.8419
  455.0000     8.1074    76.2893     0.0133     2.2923     0.2159   -60.2396    28.9208    29.2473    31.2724
  455.5000     8.1094    74.6707     0.0142     2.3203     0.2129   -59.6321    28.9168    29.4478    31.9294
  456.0000     8.1115    76.5194     0.0308     2.3415     0.1969   -59.0246    28.9128    29.4427    32.3750
  456.5000     8.1136    80.0943     0.0196     2.3475     0.1852   -58.4171    28.9085    29.0331    31.2724
  457.0000     8.1157    80.2469     0.0287     2.3363     0.1831   -57.8097    28.9045    26.1609    29.3814
  457.5000     8.1028    79.1902     0.0258     2.3175     0.2004   -57.3526    28.9005    25.0624    28.5781
  458.0000     8.0900    79.2677     0.0364     2.3349     0.1983   -57.0458    28.3029    25.4383    28.5781
  458.5000     8.0622    79.8629     0.0448     2.3410     0.1878   -56.7391    28.1038    26.1503    29.1785
  459.0000     8.0044    80.4840     0.0373     2.3276     0.1956   -56.5828    28.1000    26.6964    29.1785
  459.5000     7.9770    80.3557     0.0344     2.3186     0.2000   -56.5768    27.5188    26.8784    28.7769
  460.0000     7.9642    80.5254     0.0232     2.3172     0.2008   -56.5708    27.1369    26.8747    28.3808
  460.5000     7.9812    80.6952     0.0449     2.3474     0.1844   -56.5649    26.0297    25.5917    27.5919
  461.0000     7.9834    81.1629     0.0525     2.3610     0.1765   -56.8611    24.6245    24.5170    26.6401
  461.5000     8.0003    81.7798     0.0446     2.3483     0.1828   -57.3048    23.2951    23.3841    25.7387
  462.0000     8.0024    80.7573     0.0197     2.3356     0.1927   -57.7500    22.6561    23.2194    25.4020
  462.5000     8.0219    81.0760     0.0094     2.3236     0.1983   -58.1951    22.8102    23.5952    25.0523
  463.0000     8.0513    81.8419     0.0187     2.3222     0.1992   -58.9410    23.4559    24.5365    25.0523
  463.5000     8.0836    81.8626     0.0276     2.3313     0.1975   -59.6869    24.4379    25.0490    25.0523
  464.0000     8.0856    82.7775     0.0322     2.3554     0.1807   -60.4328    24.6042    25.2207    25.0523
  464.5000     8.1026    84.2885     0.0173     2.3585     0.1784   -61.1788    23.9291    24.6971    24.1991
