~VERSION INFORMATION
 VERS.                2.0:   CWLS LOG ASCII STANDARD - VERSION 2.0
 WRAP.                 NO:   ONE LINE PER DEPTH STEP
~WELL INFORMATION
#MNEM.UNIT      DATA TYPE    INFORMATION
#----------   ------------   ------------------------------
 STRT.F           16.0000:   START DEPTH
 STOP.F          900.0000:   STOP DEPTH
 STEP.F            0.5000:   STEP LENGTH
 NULL.          -999.2500:   NO VALUE
 COMP. FENIX & SCISSON INC:   COMPANY
 WELL.    NPR-3 #65S15-15:   WELL
 FLD .             TEAPOT:   FIELD
 LOC .      S15 T38N R78W:   LOCATION
 CNTY.            NATRONA:   COUNTY
 STAT.            WYOMING:   STATE
 CTRY. UNITED STATES OF AMERICA:   COUNTRY
 SRVC.            Unknown:   SERVICE COMPANY
 DATE.        11-MAY-1978:   LOGDATE
 API .       490251062400:   API NUMBER
~CURVE INFORMATION
#MNEM.UNIT       API CODE    CURVE DESCRIPTION
#----------   ------------   ------------------------------
 DEPT.F                  :   
 RHOB.G/C3   45 350 01 00:   BULK DENSITY
 DPHI.DEC    45 890 12 00:   DENSITY POROSITY SANDSTONE
 CORR.G/C3   45 356 01 00:   DENSITY CORRECTION
 GRD .GAPI   45 310 01 00:   GAMMA RAY FROM DENSITY LOG
 CALD.IN     45 280 60 00:   CALIPER FROM DENSITY LOG
 SPR .MV     05 010 01 00:   SPONTANEOUS POTENTIAL FROM RES.
 SN  .OHMM   05 040 16 00:   SHORT NORMAL 16"
 IL  .OHMM   05 120 00 00:   INDUCTION LOG
~PARAMETER INFORMATION
#MNEM.UNIT          VALUE    DESCRIPTION
#----------   ------------   ------------------------------
 PD  .                 GL:   PERMANENT DATUM
 EPD .F              5289:   ELEVATION PERMANENT DATUM
 LMF .                 KB:   LOG MEASURED FROM
 DAPD.F                 4:   FEET ABOVE PERMANENT DATUM
 DMF .                 KB:   DRILLING MEASURED FROM
 EKB .F              5293:   KELLING BUSHING
 EDF .F                  :   DRILLING FLOOR
 EGL .F              5289:   GROUND LEVEL
 DATE.          5-11-1978:   RUN DATE
 RUN .                  1:   RUN NUMBER
 DD  .F               887:   DEPTH DRILLER
 DL  .F               889:   DEPTH LOGGER
 BLI .F               883:   BOTTOM LOG INTERVAL
 TLI .F                40:   TOP LOG INTERVAL
 CS  .IN            8.625:   CASING SIZE
 CBD .F                40:   CASING BOTTOM DRILLER
 CBL .F                40:   CASING BOTTOM LOGGER
 BS  .IN            7.875:   BIT SIZE
 BSD .F               887:   BIT SIZE AT DEPTH
 DFT .                KCL:   DRILLING FLUID TYPE
 DFD .                8.6:   DRILLING FLUID DENSITY
 DFV .                 30:   DRILLING FLUID VISCOSITY
 DFPH.                9.5:   DRILLING FLUID PH
 DFL .                  8:   DRILLING FLUID LOSS
 MSS .                   :   MUD SAMPLE SOURCE
 RMS .OHMM            .42:   RESISTIVITY MUD SAMPLE
 MST .F                68:   MUD SAMPLE TEMPERATURE
 RMF .OHMM            .38:   RESISTIVITY MUD FILTRATE SAMPLE
 MFST.F                68:   MUD FILTRATE SAMPLE TEMPERATURE
 RMC .OHMM            .68:   RESISTIVITY MUD CAKE
 MCST.F                66:   MUD CAKE SAMPLE TEMPERATURE
 MFSS.           MEASURED:   MUD FILTRATE SAMPLE SOURCE
 MCSS.                   :   MUD CAKE SAMPLE SOURCE
 RMB .OHMM               :   RESISTIVITY MUD AT BHT
 BHT .F                72:   BOTTOM HOLE TEMPERATURE
 TCS .HRS               2:   TIME CURCULATED STOPPED
 TLAB.HRS                :   TIME LOGGER AT BOTTOM
 MRT .F                72:   MAXIMUM RECORDED TEMPERATURE
 LUN .              CASP.:   LOGGING UNIT NUMBER
 LUL .               2958:   LOGGING UNIT LOCATION
 ENGI.             MILLER:   RECORDING ENGINEER
 WITN.           MCGINLEY:   WITNESSED BY
 CLNT.            A2DTECH:   CLIENT CODE
 ORIG.      2" & 5" PRINT:   ORIGIN OF DATA
 UWI .       490251062400:   UNIQUE WELL ID
 DICO. A2D Technologies, Inc.:   DIGITIZING COMPANY
 OS  .                   :   OTHER SERVICES
 PWI .                   :   PRIMARY WELL IDENTIFIER
 R1  .                   :   REMARKS 1
 R2  .                   :   REMARKS 2
~OTHER INFORMATION
~A   DEPT     RHOB       DPHI       CORR         GRD      CALD        SPR         SN         IL   
# ...
  340.0000     2.4567     0.1329     0.0033    75.5117     7.3454   -40.8639     6.9180     6.4865
  340.5000     2.4551     0.1337     0.0038    74.8620     7.3290   -40.7668     6.8627     6.4712
  341.0000     2.4582     0.1273     0.0043    74.9105     7.2998   -40.8398     6.8078     6.4560
  341.5000     2.4618     0.1264     0.0019    75.4499     7.2705   -40.9110     6.7533     6.4408
  342.0000     2.4595     0.1354    -0.0023    76.4772     7.2411   -40.9828     6.6996     6.4256
  342.5000     2.4542     0.1436    -0.0065    77.1992     7.2178   -41.0544     6.6532     6.4126
  343.0000     2.4488     0.1412    -0.0077    77.0436     7.2013   -41.1259     6.7360     6.4816
  343.5000     2.4434     0.1377    -0.0009    78.2428     7.1847   -41.1975     6.8097     6.5430
  344.0000     2.4421     0.1393    -0.0014    79.5799     7.1681   -41.2691     6.8842     6.6051
  344.5000     2.4486     0.1424    -0.0032    80.6266     7.1516   -41.3407     6.9595     6.6677
  345.0000     2.4467     0.1375    -0.0008    80.7045     7.1354   -41.4125     7.0357     6.7309
  345.5000     2.4469     0.1328     0.0014    80.2648     7.1379   -41.4836     7.1127     6.7946
  346.0000     2.4570     0.1318     0.0037    79.4444     7.1659   -41.5234     7.1905     6.8590
  346.5000     2.4610     0.1286     0.0059    79.1417     7.1795   -41.4820     7.3173     6.9240
  347.0000     2.4626     0.1205     0.0082    79.4438     7.1524   -41.4420     7.4919     6.9896
  347.5000     2.4669     0.1192     0.0104    75.6944     7.1268   -41.4019     7.6706     7.0312
  348.0000     2.4757     0.1157     0.0105    69.8383     7.1010   -41.3620     7.8529     7.0312
  348.5000     2.4818     0.1148     0.0105    69.6177     7.0757   -41.3220     7.8529     6.9465
  349.0000     2.4839     0.1160     0.0105    70.1559     7.0279   -41.2820     7.6239     6.8632
  349.5000     2.4859     0.1144     0.0105    70.8347     6.9681   -41.2420     7.4416     6.7809
  350.0000     2.4880     0.1125     0.0105    71.7085     6.9083   -41.2020     7.2637     6.6995
  350.5000     2.4890     0.1112     0.0105    72.5922     6.8372   -41.1624     7.0900     6.6191
  351.0000     2.4890     0.1120     0.0105    72.6444     6.7412   -41.1284     6.9205     6.5397
  351.5000     2.4890     0.1154     0.0105    71.9917     6.6452   -41.1079     6.7550     6.4607
  352.0000     2.4869     0.1191     0.0105    70.8039     6.5474   -41.0871     6.6532     6.4118
  352.5000     2.4807     0.1227     0.0094    69.9744     6.5630   -41.0663     6.6532     6.4127
  353.0000     2.4746     0.1261     0.0065    72.3315     6.6648   -41.0456     6.6532     6.4127
  353.5000     2.4695     0.1288     0.0036    75.2822     6.7666   -41.0249     6.7189     6.4759
  354.0000     2.4658     0.1315     0.0007    77.9914     6.8305   -41.0042     6.7839     6.5385
  354.5000     2.4621     0.1340    -0.0011    78.2266     6.8615   -40.9834     6.8496     6.6019
  355.0000     2.4584     0.1298     0.0012    78.2263     6.8899   -40.9627     6.9159     6.6658
  355.5000     2.4597     0.1290     0.0034    78.7692     6.9852   -40.9420     6.9829     6.7303
  356.0000     2.4622     0.1299     0.0063    80.3163     7.0220   -40.9212     7.0505     6.7955
  356.5000     2.4647     0.1251     0.0104    79.6397     7.0546   -40.9005     7.1188     6.8613
  357.0000     2.4686     0.1179     0.0198    77.1441     7.1371   -40.8797     7.1646     6.9029
  357.5000     2.4814     0.1076     0.0244    75.6282     7.1948   -40.8590     7.1720     6.8867
  358.0000     2.4944     0.1154     0.0211    74.6166     7.2374   -40.8383     7.1793     6.8750
  358.5000     2.4992     0.1244     0.0105    74.9880     7.2987   -40.8176     7.1866     6.8632
  359.0000     2.4779     0.1178     0.0097    76.4428     7.3996   -40.7968     7.1940     6.8515
  359.5000     2.4773     0.1173     0.0113    79.2403     7.4716   -40.7761     7.2013     6.8398
  360.0000     2.4832     0.1114     0.0145    79.7703     7.4867   -40.7554     7.2087     6.8281
  360.5000     2.4892     0.1088     0.0250    78.7009     7.5029   -40.7318     7.2160     6.8165
  361.0000     2.4952     0.1113     0.0262    77.6552     7.5188   -40.6917     7.2233     6.8049
  361.5000     2.4949     0.1124     0.0227    77.8518     7.5347   -40.6510     7.2316     6.7933
  362.0000     2.4911     0.1096     0.0191    79.0408     7.5507   -40.6102     7.2544     6.7816
  362.5000     2.4916     0.1193     0.0154    80.2470     7.5666   -40.5697     7.2772     6.7606
  363.0000     2.4889     0.1208     0.0145    80.6240     7.5816   -40.5413     7.2951     6.7327
  363.5000     2.4784     0.1224     0.0145    80.7953     7.6260   -40.5646     7.2329     6.7050
  364.0000     2.4753     0.1240     0.0157    79.8942     7.6735   -40.5868     7.1821     6.6774
  364.5000     2.4734     0.1217     0.0193    77.1356     7.7214   -40.6089     7.1316     6.6500
  365.0000     2.4764     0.1193     0.0229    75.1126     7.7338   -40.6310     7.0816     6.6226
  365.5000     2.4795     0.1168     0.0264    75.8307     7.7057   -40.6530     7.0319     6.5954
  366.0000     2.4825     0.1177     0.0273    78.9230     7.6694   -40.6751     6.9825     6.5683
  366.5000     2.4856     0.1188     0.0241    81.9213     7.6324   -40.6972     6.9335     6.5413
  367.0000     2.4842     0.1199     0.0209    82.9954     7.6162   -40.7193     6.9029     6.5144
  367.5000     2.4822     0.1176     0.0221    83.3366     7.6050   -40.7414     6.9165     6.4876
  368.0000     2.4823     0.1148     0.0239    82.5575     7.5937   -40.7635     6.9265     6.4719
  368.5000     2.4850     0.1128     0.0220    81.8292     7.5691   -40.7855     6.9364     6.5012
  369.0000     2.4849     0.1203     0.0206    81.5770     7.4866   -40.8076     6.9464     6.5221
  369.5000     2.4698     0.1272     0.0192    81.3332     7.4166   -40.8297     6.9564     6.5430
  370.0000     2.4675     0.1341     0.0139    80.5494     7.3831   -40.8518     6.9664     6.5640
  370.5000     2.4628     0.1366     0.0064    79.0782     7.3495   -40.8739     6.9764     6.5850
  371.0000     2.4536     0.1309     0.0073    78.0645     7.3227   -40.8960     6.9865     6.6062
  371.5000     2.4579     0.1252     0.0080    78.3494     7.3138   -40.9181     6.9965     6.6273
  372.0000     2.4666     0.1297     0.0063    78.6045     7.3049   -40.9402     7.0066     6.6486
  372.5000     2.4641     0.1327     0.0008    78.7436     7.2960   -40.9622     7.0167     6.6699
  373.0000     2.4593     0.1297    -0.0036    78.0408     7.2871   -40.9843     7.0268     6.6913
  373.5000     2.4546     0.1331    -0.0036    77.2412     7.2782   -41.0064     7.0369     6.7128
  374.0000     2.4528     0.1305     0.0004    76.4967     7.2692   -41.0285     7.0470     6.7343
  374.5000     2.4591     0.1215     0.0046    78.2522     7.2683   -41.0506     7.0572     6.7559
  375.0000     2.4662     0.1210     0.0035    80.0321     7.2731   -41.0727     7.0673     6.7776
  375.5000     2.4732     0.1204    -0.0006    81.5951     7.2779   -41.0948     7.0775     6.7993
  376.0000     2.4773     0.1192    -0.0048    83.1777     7.2827   -41.1169     7.0878     6.8211
  376.5000     2.4746     0.1304    -0.0030    84.2628     7.2875   -41.1350     7.1101     6.8479
  377.0000     2.4675     0.1311    -0.0019    79.5681     7.2923   -41.1275     7.1993     6.9018
  377.5000     2.4593     0.1315     0.0008    76.9473     7.2972   -41.1206     7.2896     6.9560
  378.0000     2.4594     0.1307     0.0014    78.6774     7.3020   -41.1136     7.3810     7.0107
  378.5000     2.4599     0.1322     0.0020    79.5690     7.3068   -41.1067     7.4736     7.0658
  379.0000     2.4591     0.1348     0.0025    79.7507     7.3116   -41.0998     7.5673     7.1214
  379.5000     2.4570     0.1353     0.0024    79.3979     7.3166   -41.0929     7.6622     7.1773
  380.0000     2.4536     0.1310     0.0065    77.6183     7.3214   -41.0860     7.7583     7.2337
