~VERSION INFORMATION
 VERS.                2.0:   CWLS LOG ASCII STANDARD - VERSION 2.0
 WRAP.                 NO:   ONE LINE PER DEPTH STEP
~WELL INFORMATION
#MNEM.UNIT      DATA TYPE    INFORMATION
#----------   ------------   ------------------------------
 STRT.F           40.0000:   START DEPTH
 STOP.F          462.0000:   STOP DEPTH
 STEP.F            0.5000:   STEP LENGTH
 NULL.          -999.2500:   NO VALUE
 COMP.    FENIX & SCISSON:   COMPANY
 WELL.        NPR #68-S-3:   WELL
 FLD .             TEAPOT:   FIELD
 LOC .       S3 T38N R78W:   LOCATION
 CNTY.            NATRONA:   COUNTY
 STAT.            WYOMING:   STATE
 CTRY. UNITED STATES OF AMERICA:   COUNTRY
 SRVC.      Dresser Atlas:   SERVICE COMPANY
 DATE.        28-MAR-1977:   LOGDATE
 API .       490251031900:   API NUMBER
~CURVE INFORMATION
#MNEM.UNIT       API CODE    CURVE DESCRIPTION
#----------   ------------   ------------------------------
 DEPT.F                  :   
 SPR .MV     07 010 01 00:   SPONTANEOUS POTENTIAL
 ILD .OHMM   07 120 46 00:   INDUCTION LOG DEEP
 ILM .OHMM   07 120 44 00:   INDUCTION LOG MEDIUM
 SFL .OHMM   07 220 01 00:   SHALLOW FOCUSED LOG RESISTIVITY
 CALD.IN     45 280 60 00:   CALIPER FROM DENSITY LOG
 GRD .GAPI   45 310 01 00:   GAMMA RAY FROM DENSITY LOG
 CORR.G/C3   45 356 01 00:   DENSITY CORRECTION
 RHOB.G/C3   45 350 01 00:   BULK DENSITY
 DPHI.DEC    45 890 12 00:   DENSITY POROSITY SANDSTONE
~PARAMETER INFORMATION
#MNEM.UNIT          VALUE    DESCRIPTION
#----------   ------------   ------------------------------
 PD  .                 GL:   PERMANENT DATUM
 EPD .F              5162:   ELEVATION PERMANENT DATUM
 LMF .                 KB:   LOG MEASURED FROM
 DAPD.F                 5:   FEET ABOVE PERMANENT DATUM
 DMF .                 KB:   DRILLING MEASURED FROM
 EKB .F              5167:   KELLING BUSHING
 EGL .F              5162:   GROUND LEVEL
 DATE.        28-MAR-1977:   RUN DATE
 RUN .                  1:   RUN NUMBER
 DD  .F               452:   DEPTH DRILLER
 DL  .F               464:   DEPTH LOGGER
 BLI .F               462:   BOTTOM LOG INTERVAL
 TLI .F                40:   TOP LOG INTERVAL
 CS  .IN               10:   CASING SIZE
 CBD .F                40:   CASING BOTTOM DRILLER
 CBL .F                40:   CASING BOTTOM LOGGER
 BS  .IN            7.875:   BIT SIZE
 BSD .F               452:   BIT SIZE AT DEPTH
 DFT .           CHEM GEL:   DRILLING FLUID TYPE
 DFD .                8.9:   DRILLING FLUID DENSITY
 DFV .                 34:   DRILLING FLUID VISCOSITY
 DFPH.                8.0:   DRILLING FLUID PH
 DFL .                8.2:   DRILLING FLUID LOSS
 MSS .         CIRCULATED:   MUD SAMPLE SOURCE
 RMS .OHMM           .223:   RESISTIVITY MUD SAMPLE
 MST .F                51:   MUD SAMPLE TEMPERATURE
 RMF .OHMM           .161:   RESISTIVITY MUD FILTRATE SAMPLE
 MFST.F                51:   MUD FILTRATE SAMPLE TEMPERATURE
 RMC .OHMM           .285:   RESISTIVITY MUD CAKE
 MCST.F                51:   MUD CAKE SAMPLE TEMPERATURE
 MFSS.               MEAS:   MUD FILTRATE SAMPLE SOURCE
 MCSS.               MEAS:   MUD CAKE SAMPLE SOURCE
 RMB .OHMM           .186:   RESISTIVITY MUD AT BHT
 BHT .F                61:   BOTTOM HOLE TEMPERATURE
 TCS .HRS            0500:   TIME CURCULATED STOPPED
 MRT .F                61:   MAXIMUM RECORDED TEMPERATURE
 LUN .               6145:   LOGGING UNIT NUMBER
 LUL .              GLTTE:   LOGGING UNIT LOCATION
 ENGI.              GOULD:   RECORDING ENGINEER
 WITN.               LYON:   WITNESSED BY
 CLNT.            A2DTECH:   CLIENT CODE
 ORIG.           5" PRINT:   ORIGIN OF DATA
 UWI .       490251031900:   UNIQUE WELL ID
 DICO. A2D Technologies, Inc.:   DIGITIZING COMPANY
~OTHER INFORMATION
~A   DEPT      SPR        ILD        ILM        SFL       CALD        GRD       CORR       RHOB       DPHI   
# ...
  113.0000   -22.9032     6.7052     7.0375     7.7249     7.9638   102.2971     0.0453     2.5099     0.0864
  113.5000   -22.8914     6.8014     7.1822     7.4662     7.9658   104.2511     0.0424     2.5041     0.0896
  114.0000   -22.8796     6.8514     7.3369     7.4183     7.9677   103.6770     0.0426     2.5050     0.0903
  114.5000   -22.8678     6.9019     7.3405     7.7907     7.9696   106.8343     0.0412     2.5073     0.0890
  115.0000   -22.8561     6.9047     7.3440     8.0674     7.9542   106.4093     0.0414     2.5074     0.0881
  115.5000   -22.8443     6.9555     7.3475     8.0776     7.9435   104.6430     0.0415     2.5052     0.0883
  116.0000   -22.8325     7.0067     7.4020     8.1312     7.9459   104.6650     0.0417     2.4993     0.0923
  116.5000   -22.8207     7.0582     7.3537     8.1923     7.9479   104.6871     0.0403     2.4941     0.0977
  117.0000   -22.8090     7.0611     7.3581     8.1962     7.9498   105.7773     0.0389     2.4904     0.0991
  117.5000   -22.9464     7.1130     7.3616     8.1427     7.9517   108.9917     0.0391     2.4935     0.0990
  118.0000   -23.0830     7.0662     7.3144     8.0905     7.9536   111.9674     0.0423     2.4988     0.0945
  118.5000   -23.3689     7.0698     7.2666     8.0386     7.9555   113.6239     0.0469     2.5057     0.0873
  119.0000   -23.3571     7.0239     7.2208     7.9321     7.9575   115.2352     0.0516     2.5133     0.0821
  119.5000   -23.4975     6.9783     7.2243     7.8279     7.9594   116.5986     0.0517     2.5194     0.0797
  120.0000   -23.7897     6.9812     7.1779     7.6710     7.9459   117.0622     0.0504     2.5217     0.0797
  120.5000   -23.9170     6.9359     7.1319     7.6209     7.9483   114.8544     0.0490     2.5188     0.0799
  121.0000   -23.7560     6.9388     7.0861     7.6254     7.9502   109.6604     0.0460     2.5158     0.0826
  121.5000   -23.7417     6.9899     7.0895     7.6820     7.9521   105.9566     0.0431     2.5129     0.0856
  122.0000   -23.5811     6.9934     7.0929     7.7389     7.9690   105.0790     0.0419     2.5099     0.0886
  122.5000   -23.4205     6.9962     7.0963     7.9048     7.9858   107.9382     0.0436     2.5064     0.0904
  123.0000   -23.4087     6.9991     7.1490     8.0186     7.9578   112.2822     0.0498     2.5049     0.0900
  123.5000   -23.3970     7.0020     7.2520     8.1341     7.9598   113.7891     0.0530     2.5095     0.0876
  124.0000   -23.3852     7.0049     7.3059     8.0819     7.9617   112.3264     0.0546     2.5141     0.0852
  124.5000   -23.5252     7.0077     7.3664     8.0858     7.9637   109.5168     0.0548     2.5165     0.0830
  125.0000   -23.6622     6.9615     7.4662     8.0897     7.9656   107.0054     0.0564     2.5165     0.0827
  125.5000   -23.7992     6.9651     7.4706     8.0378     7.9679   108.2197     0.0550     2.5174     0.0821
  126.0000   -23.7845     6.9680     7.4741     7.9813     7.9699   111.2224     0.0537     2.5175     0.0814
  126.5000   -23.9245     6.9220     7.5296     7.9351     7.9718   110.2013     0.0493     2.5175     0.0811
  127.0000   -24.0615     6.9256     7.4804     7.8201     7.9886   108.7134     0.0450     2.5124     0.0862
  127.5000   -24.3444     6.8332     7.4849     7.6739     7.9906   107.5629     0.0436     2.5034     0.0907
  128.0000   -24.3326     6.7889     7.3856     7.5201     7.9771   109.5224     0.0393     2.5013     0.0925
  128.5000   -24.4726     6.7917     7.2868     7.4710     7.9795   106.8083     0.0379     2.4976     0.0948
  129.0000   -24.6067     6.7475     7.2401     7.3719     7.9814   105.9898     0.0335     2.4939     0.0981
  129.5000   -24.7440     6.6116     7.1936     7.3764     7.9833   109.2961     0.0307     2.4970     0.0993
  130.0000   -24.8810     6.5235     7.1475     7.4310     7.9698   107.6788     0.0323     2.5016     0.0939
  130.5000   -24.8690     6.3899     7.1016     7.4862     7.9722   102.9319     0.0340     2.5048     0.0908
  131.0000   -25.0060     6.2159     7.0561     7.4897     7.9741   100.8675     0.0356     2.5055     0.0878
  131.5000   -24.9940     5.9987     6.8677     7.4408     7.9760    98.3561     0.0358     2.5056     0.0896
  132.0000   -25.1313     5.7689     6.6375     7.3422     7.9779    96.2862     0.0375     2.5042     0.0910
  132.5000   -25.2683     5.6143     6.3708     7.1959     7.9649   100.1886     0.0376     2.4998     0.0940
  133.0000   -25.2536     5.5012     6.1572     6.9549     7.9668   104.0855     0.0378     2.4938     0.0967
  133.5000   -25.3936     5.4278     5.9508     6.6297     7.9688   105.7469     0.0379     2.4909     0.0982
  134.0000   -25.3788     5.3921     5.7913     6.2761     7.9701   105.1729     0.0381     2.4880     0.1003
  134.5000   -25.5188     5.3948     5.7145     5.9827     7.9696   106.8343     0.0382     2.4858     0.1024
  135.0000   -25.6558     5.4345     5.6778     5.8224     7.9691   108.4957     0.0384     2.4821     0.1050
  135.5000   -25.7929     5.4745     5.7658     5.7850     7.9686   108.6668     0.0385     2.4800     0.1075
  136.0000   -25.4805     5.5148     6.1531     5.9090     7.9681   108.8379     0.0417     2.4770     0.1095
  136.5000   -25.3199     5.6328     7.2678     6.0776     7.9676   107.3697     0.0448     2.4824     0.1067
  137.0000   -25.1594     5.7932     7.5012     6.2130     7.9671   105.8967     0.0480     2.4907     0.1016
  137.5000   -24.9988     5.9583     7.3010     6.4441     7.9666   106.6320     0.0526     2.5006     0.0950
  138.0000   -24.8382     6.0858     6.9593     6.8931     7.9661   110.9042     0.0483     2.5037     0.0907
  138.5000   -24.8264     6.1731     6.7719     7.2382     7.9656   111.9572     0.0424     2.5030     0.0925
  139.0000   -24.8146     6.3052     6.7285     7.3933     7.9651   112.8507     0.0395     2.5031     0.0934
  139.5000   -24.6531     6.3516     6.7325     7.4998     7.9646   114.8047     0.0427     2.5094     0.0879
  140.0000   -24.7940     6.4427     6.7357     7.5554     7.9641   111.1065     0.0459     2.5130     0.0861
  140.5000   -24.7793     6.4901     6.7390     7.6114     7.9645   109.3347     0.0430     2.5041     0.0900
  141.0000   -24.7675     6.4928     6.6949     7.6150     7.9649   111.4487     0.0386     2.5026     0.0918
  141.5000   -25.0536     6.4955     6.6520     7.5141     7.9654   112.3595     0.0356     2.5057     0.0920
  142.0000   -25.1905     6.4988     6.6093     7.4650     7.9658   109.2574     0.0344     2.5081     0.0902
  142.5000   -25.3299     6.4559     6.5677     7.3670     7.9662   107.7837     0.0331     2.5052     0.0905
  143.0000   -25.6220     6.4141     6.4806     7.2185     7.9666   112.2822     0.0333     2.5015     0.0923
  143.5000   -25.7503     6.2855     6.3946     7.0259     7.9670   111.8572     0.0334     2.4993     0.0946
  144.0000   -25.8873     6.1582     6.2664     7.0292     7.9674   111.2831     0.0336     2.4956     0.0964
  144.5000   -25.8750     5.9926     6.1407     7.0326     7.9678   109.9639     0.0337     2.4927     0.0991
  145.0000   -25.8608     5.7918     6.0175     7.0360     7.9682   107.3035     0.0339     2.4935     0.0988
  145.5000   -26.0008     5.5585     5.8967     6.9909     7.9686   104.6430     0.0340     2.4945     0.0984
  146.0000   -26.1378     5.3346     5.7386     6.6640     7.9691   103.4724     0.0342     2.4877     0.1053
  146.5000   -26.2749     5.0494     5.4679     6.4405     7.9695   104.2400     0.0328     2.4840     0.1074
  147.0000   -26.5578     4.7465     5.1756     6.3116     7.9699   105.1614     0.0314     2.4811     0.1083
  147.5000   -26.9924     4.5553     4.9927     6.1809     7.9703   105.0050     0.0316     2.4789     0.1101
  148.0000   -27.4271     4.5253     4.7983     5.9190     7.9707   102.7172     0.0287     2.4709     0.1148
  148.5000   -27.4153     4.5276     4.8398     5.3555     7.9711   103.1519     0.0259     2.4435     0.1238
  149.0000   -26.8083     4.5609     5.0124     4.4156     7.9715   107.7837     0.0215     2.4138     0.1370
