~VERSION INFORMATION
 VERS.                2.0:   CWLS LOG ASCII STANDARD - VERSION 2.0
 WRAP.                 NO:   ONE LINE PER DEPTH STEP
~WELL INFORMATION
#MNEM.UNIT      DATA TYPE    INFORMATION
#----------   ------------   ------------------------------
 STRT.F            0.0000:   START DEPTH
 STOP.F          469.0000:   STOP DEPTH
 STEP.F            0.5000:   STEP LENGTH
 NULL.          -999.2500:   NO VALUE
 COMP. BROWN JOHN E&C INC:   COMPANY
 WELL. NPR 3 SX-10 4 #54-10:   WELL
 FLD .             TEAPOT:   FIELD
 LOC .      S10 T38N R78W:   LOCATION
 CNTY.            NATRONA:   COUNTY
 STAT.            WYOMING:   STATE
 CTRY. UNITED STATES OF AMERICA:   COUNTRY
 SRVC.     Atlas Wireline:   SERVICE COMPANY
 DATE.        25-APR-1991:   LOGDATE
 API .       490251133500:   API NUMBER
~CURVE INFORMATION
#MNEM.UNIT       API CODE    CURVE DESCRIPTION
#----------   ------------   ------------------------------
 DEPT.F                  :   
 RILD.OHMM   07 120 46 00:   INDUCTION LOG DEEP RESISTIVITY
 RILM.OHMM   07 120 44 00:   INDUCTION LOG MEDIUM RESISTIVITY
 GRD .GAPI   45 310 01 00:   GAMMA RAY FROM DENSITY LOG
 CALD.IN     45 280 60 00:   CALIPER FROM DENSITY LOG
 CORR.G/C3   45 356 01 00:   DENSITY CORRECTION
 PORD.DEC    45 890 12 00:   POROSITY DENSITY SANDSTONE
 DEN .G/C3   45 350 01 00:   COMPENSATED BULK DENSTIY
~PARAMETER INFORMATION
#MNEM.UNIT          VALUE    DESCRIPTION
#----------   ------------   ------------------------------
 PD  .                 GL:   PERMANENT DATUM
 EPD .F              5182:   ELEVATION PERMANENT DATUM
 LMF .                 KB:   LOG MEASURED FROM
 DAPD.F                10:   FEET ABOVE PERMANENT DATUM
 DMF .                 KB:   DRILLING MEASURED FROM
 EKB .F              5172:   KELLING BUSHING
 EGL .F              5182:   GROUND LEVEL
 DATE.        25-APR-1991:   RUN DATE
 RUN .                  1:   RUN NUMBER
 DD  .F               471:   DEPTH DRILLER
 DL  .F               471:   DEPTH LOGGER
 BLI .F               469:   BOTTOM LOG INTERVAL
 CS  .IN            8.625:   CASING SIZE
 CBD .F                44:   CASING BOTTOM DRILLER
 CBL .F                44:   CASING BOTTOM LOGGER
 BS  .IN            7.875:   BIT SIZE
 BSD .F               471:   BIT SIZE AT DEPTH
 DFT .                AIR:   DRILLING FLUID TYPE
 LUN .           HL- 6307:   LOGGING UNIT NUMBER
 LUL .             CASPER:   LOGGING UNIT LOCATION
 ENGI.    KINNETT/ ZIEGER:   RECORDING ENGINEER
 WITN.             STRONG:   WITNESSED BY
 CLNT.            A2DTECH:   CLIENT CODE
 ORIG.        2" 5" PRINT:   ORIGIN OF DATA
 UWI .       490251133500:   UNIQUE WELL ID
 DICO. A2D Technologies, Inc.:   DIGITIZING COMPANY
~OTHER INFORMATION
~A    DEPT    RILD       RILM         GRD      CALD       CORR       PORD        DEN   
# ...
  318.5000    33.9570    27.6717    91.0133     8.4119     0.0158     0.2488     2.2384
  319.0000    33.9502    27.6661    90.7809     8.4117     0.0203     0.2509     2.2354
  319.5000    33.9433    27.4696    91.0020     8.4266     0.0143     0.2461     2.2444
  320.0000    33.9364    27.2745    92.3645     8.4264     0.0096     0.2404     2.2542
  320.5000    33.9296    27.2690    89.9722     8.4413     0.0052     0.2332     2.2625
  321.0000    33.9227    27.4543    87.3649     8.4562     0.0081     0.2245     2.2836
  321.5000    33.6816    27.6382    91.6506     8.4260     0.0111     0.1932     2.3077
  322.0000    32.9819    27.4417    95.4844     8.4108     0.0156     0.1745     2.3287
  322.5000    32.4546    27.2437    94.3485     8.5308     0.0035     0.1736     2.3641
  323.0000    31.6242    26.8455    89.7573     8.4706     0.0155     0.1860     2.3430
  323.5000    31.6178    26.4904    88.9122     8.4104     0.0155     0.2125     2.2998
  324.0000    31.3931    26.1207    89.1333     8.4102     0.0140     0.2235     2.2798
  324.5000    30.9547    25.7562    94.3210     8.4101     0.0094     0.2260     2.2775
  325.0000    30.3117    25.7510    97.2512     8.4099     0.0064     0.2209     2.2888
  325.5000    29.4770    25.7457    98.3743     8.4248     0.0019     0.2200     2.2889
  326.0000    28.6652    25.2113    93.8481     8.4096     0.0003     0.2264     2.2743
  326.5000    28.0685    24.5175    87.9682     8.4095     0.0048     0.2382     2.2586
  327.0000    27.4864    23.8429    85.4768     8.4093     0.0078     0.2405     2.2519
  327.5000    26.9143    23.1868    85.6962     8.4091     0.0078     0.2391     2.2534
  328.0000    26.3551    22.5361    88.1747     8.4240     0.0077     0.2300     2.2661
  328.5000    26.1678    22.0534    91.1033     8.4239     0.0062     0.2201     2.2835
  329.0000    25.8024    21.9227    95.3890     8.4387    -0.0014     0.2192     2.2897
  329.5000    25.4421    21.9182   101.7078     8.4536    -0.0013     0.2246     2.2857
  330.0000    24.7415    21.9138   105.3158     8.4534     0.0031     0.2307     2.2714
  330.5000    24.2275    21.6080   102.3726     8.4533     0.0031     0.2283     2.2744
  331.0000    24.5607    21.4545    97.7713     8.4531     0.0030     0.2262     2.2797
  331.5000    24.7265    21.3021    94.6773     8.4230     0.0030     0.2271     2.2764
  332.0000    24.7202    21.2978    93.3154     8.4078     0.0030     0.2364     2.2563
  332.5000    24.7152    21.4415    92.1795     8.4076     0.0044     0.2443     2.2465
  333.0000    24.7102    21.4370    91.6928     8.3925     0.0044     0.2425     2.2533
  333.5000    24.5346    21.4326    96.3180     8.3923     0.0029     0.2354     2.2646
  334.0000    24.5297    21.2795   100.5169     8.4072     0.0043     0.2340     2.2645
  334.5000    24.5247    21.2751    99.8327     8.4071     0.0088     0.2344     2.2623
  335.0000    24.3504    21.2708    99.6003     8.4069     0.0027     0.2305     2.2683
  335.5000    24.3454    21.2665    99.8197     8.4067    -0.0063     0.2284     2.2758
  336.0000    24.1723    21.1155    98.9067     8.4216    -0.0078     0.2287     2.2766
  336.5000    24.1664    21.1112    97.7721     8.4215    -0.0048     0.2308     2.2705
  337.0000    24.1615    21.1069    97.9931     8.4514    -0.0034     0.2320     2.2683
  337.5000    23.9898    21.1026    98.6627     8.4211     0.0026     0.2308     2.2675
  338.0000    23.9849    21.0983    98.6563     8.4210     0.0072     0.2272     2.2773
  338.5000    23.8144    21.0940    98.4239     8.4359     0.0086     0.2224     2.2848
  339.0000    23.8096    20.9432    97.0271     8.4603     0.0131     0.2191     2.2893
  339.5000    23.6404    20.6509    95.6985     8.4656     0.0040     0.2161     2.2932
  340.0000    23.4723    20.5042    99.9842     8.4654     0.0070     0.2143     2.2976
  340.5000    22.9836    20.0786   102.4627     8.4653     0.0085     0.2131     2.2983
  341.0000    22.6627    19.5261   103.5857     8.4501     0.0084     0.2104     2.3021
  341.5000    22.0386    18.9888   104.3499     8.4493     0.0024     0.2042     2.3104
  342.0000    21.2837    18.5946   112.6073     8.4198     0.0009     0.1926     2.3285
  342.5000    20.5547    18.2086   113.0542     8.4196     0.0053     0.1875     2.3435
  343.0000    20.1277    17.8306   109.6576     8.4195     0.0143     0.1863     2.3450
  343.5000    19.7095    17.5723   104.0035     8.4043     0.0203     0.1854     2.3442
  344.0000    19.3001    17.3362    98.9907     8.4194     0.0203     0.1839     2.3465
  344.5000    19.0192    16.9756    97.2119     8.4641     0.0142     0.1815     2.3495
  345.0000    18.6343    16.9722    98.1090     8.4639     0.0095     0.1803     2.3526
  345.5000    18.5018    16.9687   100.3616     8.4638     0.0021     0.1803     2.3547
  346.0000    18.2435    16.9653    99.6774     8.4486    -0.0039     0.1807     2.3525
  346.5000    18.1138    16.7364    98.5414     8.4335     0.0081     0.1816     2.3517
  347.0000    18.1102    16.7320    98.9851     8.4033     0.0036     0.1828     2.3494
  347.5000    17.8573    16.7276   101.4636     8.4031     0.0005     0.1846     2.3464
  348.0000    17.7304    16.7231   103.0385     8.4180     0.0125     0.1840     2.3494
  348.5000    17.6043    16.7177   102.5802     8.4028     0.0185     0.1816     2.3524
  349.0000    17.2258    16.7133   102.3478     8.3877     0.0080     0.1804     2.3532
  349.5000    16.8797    16.3654   101.8569     8.3233     0.0004     0.1804     2.3524
  350.0000    16.7605    16.2482    98.6273     8.2823    -0.0026     0.1781     2.3577
  350.5000    17.1043    16.1307    97.1386     8.2973     0.0012     0.1758     2.3605
  351.0000    16.9577    15.9047    96.9127     8.3273     0.0079     0.1738     2.3645
  351.5000    16.2920    15.7908    98.9458     8.3423     0.0079     0.1726     2.3653
  352.0000    16.0670    15.6777   102.1084     8.3273     0.0019     0.1714     2.3668
  352.5000    15.8452    15.4472   102.1084     8.2973     0.0004     0.1711     2.3683
  353.0000    15.6264    15.2404   102.3343     8.2823     0.0004     0.1699     2.3693
  353.5000    15.4107    15.0268   102.5602     8.2823    -0.0011     0.1662     2.3736
  354.0000    15.3040    14.8162   101.2048     8.2973     0.0005     0.1611     2.3811
  354.5000    15.1979    14.6086    96.6867     8.3123     0.0064     0.1554     2.3894
  355.0000    14.9881    14.5030    95.1054     8.3273     0.0109     0.1509     2.3955
  355.5000    14.6788    14.4992    97.1386     8.3273     0.0139     0.1482     2.4015
  356.0000    14.5771    14.3954   103.0120     8.3423     0.0184     0.1421     2.4098
  356.5000    14.5771    14.1936   105.0452     8.3423     0.0064     0.1400     2.4190
  357.0000    14.4761    14.1898   103.2380     8.3273     0.0019     0.1409     2.4204
  357.5000    14.2763    14.0874   101.4307     8.2973     0.0004     0.1460     2.4136
  358.0000    14.1774    14.0837   102.1084     8.2973    -0.0026     0.1484     2.4061
  358.5000    14.0792    13.9828   105.4970     8.3273    -0.0026     0.1493     2.4016
  359.0000    14.0792    13.8827   107.7560     8.3423    -0.0026     0.1484     2.4046
  359.5000    14.0792    13.7823   105.9488     8.3594    -0.0026     0.1469     2.4077
  360.0000    14.0792    13.7787   103.0120     8.3874     0.0019     0.1454     2.4099
  360.5000    14.0792    13.7751   105.2711     8.3874     0.0034     0.1445     2.4107
  361.0000    14.0792    13.6764   109.5633     8.3423     0.0079     0.1442     2.4115
  361.5000    14.0792    13.7679   110.9187     8.3273     0.0124     0.1436     2.4130
  362.0000    14.1774    13.7633   107.5301     8.3273     0.0139     0.1433     2.4168
  362.5000    14.0792    13.7597   103.6898     8.2973     0.0079     0.1424     2.4183
  363.0000    14.0792    13.6612   103.9157     8.2823     0.0064     0.1421     2.4168
  363.5000    13.9816    13.6576   105.9908     8.3123     0.0079     0.1406     2.4168
