~VERSION INFORMATION
 VERS.                2.0:   CWLS LOG ASCII STANDARD - VERSION 2.0
 WRAP.                 NO:   ONE LINE PER DEPTH STEP
~WELL INFORMATION
#MNEM.UNIT      DATA TYPE    INFORMATION
#----------   ------------   ------------------------------
 STRT.F           30.0000:   START DEPTH
 STOP.F         2423.0000:   STOP DEPTH
 STEP.F            0.5000:   STEP LENGTH
 NULL.          -999.2500:   NO VALUE
 COMP. DEPARTMENT OF ENERGY:   COMPANY
 WELL.   NPR-3 #35-1 X 10:   WELL
 FLD .        TEAPOT DOME:   FIELD
 LOC .      S10 T38N R78W:   LOCATION
 CNTY.            NATRONA:   COUNTY
 STAT.            WYOMING:   STATE
 CTRY. UNITED STATES OF AMERICA:   COUNTRY
 SRVC.       Schlumberger:   SERVICE COMPANY
 DATE.        15-JAN-1999:   LOGDATE
 API .       490252282200:   API NUMBER
~CURVE INFORMATION
#MNEM.UNIT       API CODE    CURVE DESCRIPTION
#----------   ------------   ------------------------------
 DEPT.F                  :   
 GRR .GAPI   06 310 01 00:   GAMMA RAY FROM RESISTIVITY
 SPR .MV     06 010 01 00:   SPONTANEOUS POTENTIAL FROM RES.
 HD  .IN     06 280 01 00:   HOLE DIAMETER
 AT90.OHMM   06 120 90 00:   90-IN. RESISTIVITY, 2-FT RESOLUTION
 AT30.OHMM   06 120 30 00:   30-IN. RESISTIVITY, 2-FT RESOLUTION
 AT10.OHMM   06 120 10 00:   10-IN. RESISTIVITY, 2-FT RESOLUTION
~PARAMETER INFORMATION
#MNEM.UNIT          VALUE    DESCRIPTION
#----------   ------------   ------------------------------
 PD  .                 GL:   PERMANENT DATUM
 EPD .F              5228:   ELEVATION PERMANENT DATUM
 LMF .                 KB:   LOG MEASURED FROM
 DAPD.F                10:   FEET ABOVE PERMANENT DATUM
 DMF .                 KB:   DRILLING MEASURED FROM
 EKB .F              5238:   KELLING BUSHING
 EDF .F              5237:   DRILLING FLOOR
 EGL .F              5228:   GROUND LEVEL
 DATE.        15-JAN-1999:   RUN DATE
 RUN .                  1:   RUN NUMBER
 DD  .F              2400:   DEPTH DRILLER
 DL  .F              2421:   DEPTH LOGGER
 BLI .F              2393:   BOTTOM LOG INTERVAL
 TLI .F                30:   TOP LOG INTERVAL
 CS  .IN            9.625:   CASING SIZE
 CBD .F               778:   CASING BOTTOM DRILLER
 CBL .F               773:   CASING BOTTOM LOGGER
 BS  .IN              8.5:   BIT SIZE
 BSD .F              2400:   BIT SIZE AT DEPTH
 DFT .            GEL/KCL:   DRILLING FLUID TYPE
 DFD .                8.9:   DRILLING FLUID DENSITY
 DFV .                 39:   DRILLING FLUID VISCOSITY
 DFPH.                  9:   DRILLING FLUID PH
 DFL .                8.8:   DRILLING FLUID LOSS
 MSS .            MUD PIT:   MUD SAMPLE SOURCE
 RMS .OHMM            .29:   RESISTIVITY MUD SAMPLE
 MST .F                65:   MUD SAMPLE TEMPERATURE
 RMF .OHMM            .22:   RESISTIVITY MUD FILTRATE SAMPLE
 MFST.F                65:   MUD FILTRATE SAMPLE TEMPERATURE
 RMC .OHMM            .43:   RESISTIVITY MUD CAKE
 MCST.F                65:   MUD CAKE SAMPLE TEMPERATURE
 MFSS.          MUD PRESS:   MUD FILTRATE SAMPLE SOURCE
 MCSS.         CALCULATED:   MUD CAKE SAMPLE SOURCE
 RMB .OHMM           .195:   RESISTIVITY MUD AT BHT
 BHT .F               100:   BOTTOM HOLE TEMPERATURE
 TCS .HRS            2015:   TIME CURCULATED STOPPED
 TLAB.HRS            2315:   TIME LOGGER AT BOTTOM
 MRT .F               100:   MAXIMUM RECORDED TEMPERATURE
 LUN .               2102:   LOGGING UNIT NUMBER
 LUL .             CASPER:   LOGGING UNIT LOCATION
 ENGI.    TISOVEC/PIERSON:   RECORDING ENGINEER
 WITN.           ESMERSON:   WITNESSED BY
 CLNT.            A2DTECH:   CLIENT CODE
 ORIG.       2", 5" PRINT:   ORIGIN OF DATA
 UWI .       490252282200:   UNIQUE WELL ID
 DICO. A2D Technologies, Inc.:   DIGITIZING COMPANY
~OTHER INFORMATION
~A   DEPT       GRR       SPR         HD       AT90       AT30       AT10   
# ...
  862.0000   103.9889    14.8408     9.0716    10.6993    10.3090     9.2432
  862.5000   101.6960    14.9110     9.0805    10.6266    10.2560     9.0381
  863.0000   103.3605    15.0334     9.0808    10.5437    10.1814     9.0813
  863.5000   107.3537    15.1483     9.0809    10.5796    10.2565     9.1762
  864.0000   108.7167    15.2598     9.0808    10.6211    10.2565     9.3853
  864.5000   107.6394    15.3887     9.0808    10.8668    10.5688     9.7976
  865.0000   106.0041    15.4623     9.0808    11.5550    11.0465     9.9750
  865.5000   105.6498    15.4500     9.0808    11.2664    11.0264     9.7253
  866.0000   105.8392    15.3496     9.0808    11.2882    10.9935     9.6117
  866.5000   105.7248    15.1975     9.0808    11.4735    10.9607     9.7917
  867.0000   103.8014    15.0557     9.0808    11.6643    10.9445     9.9843
  867.5000   101.6910    14.9104     9.0808    11.8515    11.0134    10.0745
  868.0000    99.8445    14.7640     9.0808    12.0082    11.0755    10.0938
  868.5000    99.9099    14.6222     9.0808    11.8337    11.1495    10.1131
  869.0000   103.0443    14.4598     9.0808    11.6872    11.0001    10.1325
  869.5000   106.1436    14.4426     9.0809    11.5424    10.8197    10.1618
  870.0000   106.7460    14.4367     9.0835    11.3995    10.6423    10.0680
  870.5000   106.4418    14.4933     9.0871    11.3128    10.4678     9.8781
  871.0000   104.9418    14.5993     9.0905    11.2497    10.2565     9.6885
  871.5000   101.5129    14.7958     9.0940    11.2586    10.2065     9.6078
  872.0000    99.4024    15.1106     9.0975    11.2598    10.1417     9.6073
  872.5000    98.6994    15.2824     9.1005    11.2474    10.0680     9.6161
  873.0000   101.3795    15.3240     9.0978    10.9711    10.0598     9.2907
  873.5000   102.6467    15.3837     9.0942    10.5475    10.0502     9.0071
  874.0000    98.6253    15.4374     9.0908    10.3506    10.0406     9.0176
  874.5000    96.3647    15.4572     9.0873    10.3214    10.0310     9.0267
  875.0000    97.0795    15.4596     9.0838    10.2970    10.0214     9.0367
  875.5000    98.8356    15.4133     9.0809    10.2735    10.0119     9.0468
  876.0000   101.6469    15.2736     9.0800    10.2562    10.0023     9.0568
  876.5000   108.4300    15.1394     9.0794    10.3337     9.9927     9.0669
  877.0000   114.1069    15.0000     9.0787    10.4075     9.9832     9.0770
  877.5000   110.5788    14.8647     9.0780    10.4813     9.9750     9.0914
  878.0000   105.9537    14.7255     9.0773    10.5554     9.8305     9.0305
  878.5000   108.0856    14.5908     9.0767    10.6442     9.7061     8.9233
  879.0000   112.2465    14.4525     9.0760    10.5786     9.6117     8.8420
  879.5000   113.3935    14.4458     9.0753    10.4738     9.8198     8.9731
  880.0000   111.6794    14.4319     9.0747    10.3701     9.9750     9.0914
  880.5000   109.2452    14.5658     9.0740    10.2674     9.8327     8.9617
  881.0000   107.2339    14.8369     9.0733    10.1618     9.6117     8.8420
  881.5000   105.2290    15.0264     9.0726    10.4662     9.7442     9.1252
  882.0000   103.3331    15.1122     9.0720    10.7926     9.9797     9.3778
  882.5000   101.7844    15.2217     9.0713    11.0465    10.0680     9.5230
  883.0000   102.7277    15.3178     9.0706    10.9622    10.0680     9.3877
  883.5000   102.7265    15.4232     9.0699    10.8949    10.0680     9.2605
  884.0000   101.3787    15.5183     9.0693    10.8279    10.0680     9.1762
  884.5000   100.9282    15.6267     9.0686    10.7614    10.0680     9.1762
  885.0000   101.1049    15.6270     9.0679    10.6953    10.0680     9.1762
  885.5000   103.2040    15.5542     9.0672    10.6442    10.0680     9.1762
  886.0000   105.7975    15.4980     9.0666    10.5877    10.0677     9.1762
  886.5000   108.4151    15.4342     9.0659    10.5205    10.0676     9.2432
  887.0000   110.0198    15.3743     9.0652    10.4486    10.0546     9.3215
  887.5000   107.8337    15.3127     9.0645    10.5101    10.0428     9.4351
  888.0000   103.1190    15.2479     9.0639    10.5773    10.0310     9.3898
  888.5000    99.9159    15.1340     9.0632    10.6442    10.0191     9.2683
  889.0000    99.9699    15.0193     9.0625    10.4913    10.0070     9.1484
  889.5000   101.1986    14.9018     9.0618    10.3521     9.9948     9.0300
  890.0000   102.2067    14.7882     9.0611    10.3655     9.9831     8.9243
  890.5000   102.1163    14.6596     9.0608    10.3815     9.9750     8.9914
  891.0000   102.0298    14.6445     9.0627    10.3968     9.9750     9.0914
  891.5000   102.9438    14.6244     9.0645    10.4114     9.9750     9.0284
  892.0000   104.2880    14.5615     9.0664    10.4259     9.9750     8.8641
  892.5000   104.8469    14.5063     9.0682    10.4408     9.9750     8.6795
  893.0000   104.8726    14.4650     9.0700    10.5001     9.9197     9.0914
  893.5000   103.1345    14.7596     9.0718    10.6175     9.8672     9.0838
  894.0000   101.0128    15.0401     9.0737    10.7434     9.8149     9.0683
  894.5000    99.0712    15.0483     9.0755    10.3521     9.7917     9.0528
  895.0000    99.4393    15.0709     9.0773    10.4397     9.9750     9.0374
  895.5000    99.1375    15.1216     9.0792    10.5459     9.9007     9.0220
  896.0000    99.5074    15.1696     9.0807    10.4597     9.7250     9.0075
  896.5000   100.6933    15.2246     9.0809    10.2693     9.5523     8.9225
  897.0000   103.9563    15.2592     9.0808    10.0680     9.4351     8.8430
  897.5000   108.8342    15.2419     9.0806    10.1084     9.4684     8.7603
  898.0000   112.3983    15.1408     9.0722    10.1524     9.5047     8.8461
  898.5000   112.6937    15.0407     9.0608    10.1966     9.5410     8.9371
  899.0000   108.2197    14.9443     9.0540    10.2565     9.5776     9.0075
  899.5000   104.2696    14.8280     9.0474    10.2017     9.6117     8.9032
  900.0000   103.8887    14.5277     9.0411    10.0826     9.5334     8.8039
  900.5000   104.9722    14.2286     9.0423     9.9649     9.3740     8.7057
  901.0000   103.8931    13.9237     9.0449     9.8486     9.2173     8.6086
  901.5000   102.1007    13.6287     9.0472     9.7336     9.0624     8.5126
  902.0000   102.0778    13.3238     9.0496     9.6200     9.0063     8.4515
  902.5000   103.8745    13.2446     9.0520     9.5077     9.0062     8.5199
  903.0000   104.4940    13.3404     9.0543     9.3480     9.0061     8.4787
  903.5000   104.6164    13.3748     9.0567     9.3645     9.0059     8.3538
  904.0000   102.7690    13.6209     9.0591     9.4351     9.0259     8.2307
  904.5000   103.6758    13.9262     9.0615     9.4162     9.0598     8.1095
  905.0000   106.7266    14.1413     9.0638     9.3408     9.0911     7.9106
  905.5000   109.4528    14.3772     9.0662     9.2609     8.9725     8.0047
  906.0000   108.8394    14.6181     9.0686     9.3012     8.8430     8.2996
  906.5000   104.3792    14.6531     9.0709     9.3440     8.7736     8.5993
  907.0000   101.7271    14.6458     9.0733     9.1478     8.6858     8.2677
  907.5000   101.1746    14.6481     9.0757     8.8470     8.5986     7.9843
  908.0000   100.2603    14.6469     9.0780     8.8578     8.5123     8.0426
  908.5000    99.6508    14.6457     9.0806     8.9251     8.4426     7.8786
  909.0000   100.1970    14.6459     9.0809     8.9938     8.4451     7.6935
  909.5000   102.3422    14.6482     9.0809     9.0929     8.4433     7.7652
  910.0000   105.0770    14.7336     9.0809     9.0300     8.4443     7.6935
  910.5000   107.5480    14.8221     9.0809     8.8112     8.3351     7.4533
  911.0000   110.4241    14.9357     9.0809     8.5997     8.2201     7.2771
  911.5000   111.2974    14.9943     9.0810     8.4405     8.1317     7.6031
  912.0000   108.4752    15.3220     9.0797     9.0163     7.5987     7.2434
  912.5000    98.7908    15.8243     9.0620     7.6091     6.2403     5.4840
  913.0000    94.1959    16.2321     9.0404     6.2515     5.1253     4.1519
  913.5000    93.1617    16.2233     9.0197     5.9338     5.7081     4.7993
