~VERSION INFORMATION
 VERS.                2.0:   CWLS LOG ASCII STANDARD - VERSION 2.0
 WRAP.                 NO:   ONE LINE PER DEPTH STEP
~WELL INFORMATION
#MNEM.UNIT      DATA TYPE    INFORMATION
#----------   ------------   ------------------------------
 STRT.F          103.0000:   START DEPTH
 STOP.F          898.0000:   STOP DEPTH
 STEP.F            0.5000:   STEP LENGTH
 NULL.          -999.2500:   NO VALUE
 COMP. LAWRENCE/ALLISON INC:   COMPANY
 WELL. NPR 3 32-66 SX #2-2:   WELL
 FLD .             TEAPOT:   FIELD
 LOC .       S2 T38N R78W:   LOCATION
 CNTY.            NATRONA:   COUNTY
 STAT.            WYOMING:   STATE
 CTRY. UNITED STATES OF AMERICA:   COUNTRY
 SRVC.      Dresser Atlas:   SERVICE COMPANY
 DATE.        30-JAN-1986:   LOGDATE
 API .       490251106900:   API NUMBER
~CURVE INFORMATION
#MNEM.UNIT       API CODE    CURVE DESCRIPTION
#----------   ------------   ------------------------------
 DEPT.F                  :   
 RILD.OHMM   07 120 46 00:   INDUCTION LOG DEEP RESISTIVITY
 RILM.OHMM   07 120 44 00:   INDUCTION LOG MEDIUM RESISTIVITY
 CALD.IN     45 280 60 00:   CALIPER FROM DENSITY
 GRD .GAPI   45 310 01 00:   GAMMA RAY FROM DENSITY LOG
 CORR.G/C3   45 356 01 00:   DENSITY CORRECTION
 PORD.DEC    45 890 10 00:   POROSITY DENSITY LIMESTONE
 DEN .G/C3   45 350 01 00:   COMPENSATED BULK DENSITY
~PARAMETER INFORMATION
#MNEM.UNIT          VALUE    DESCRIPTION
#----------   ------------   ------------------------------
 PD  .                 GL:   PERMANENT DATUM
 EPD .F              5136:   ELEVATION PERMANENT DATUM
 LMF .                 GL:   LOG MEASURED FROM
 DMF .                 GL:   DRILLING MEASURED FROM
 EGL .F              5136:   GROUND LEVEL
 DATE.        30-JAN-1986:   RUN DATE
 RUN .                  1:   RUN NUMBER
 DD  .F               885:   DEPTH DRILLER
 DL  .F               902:   DEPTH LOGGER
 BLI .F               894:   BOTTOM LOG INTERVAL
 CS  .IN            8.625:   CASING SIZE
 CBD .F               130:   CASING BOTTOM DRILLER
 CBL .F               126:   CASING BOTTOM LOGGER
 BS  .IN             6.25:   BIT SIZE
 BSD .F               885:   BIT SIZE AT DEPTH
 DFT .                AIR:   DRILLING FLUID TYPE
 LUN .            HL-6264:   LOGGING UNIT NUMBER
 LUL .           GILLETTE:   LOGGING UNIT LOCATION
 ENGI.     P. M. FAHLSING:   RECORDING ENGINEER
 WITN.        LINDA FIVAS:   WITNESSED BY
 CLNT.            A2DTECH:   CLIENT CODE
 ORIG.           5" PRINT:   ORIGIN OF DATA
 UWI .       490251106900:   UNIQUE WELL ID
 DICO. A2D Technologies, Inc.:   DIGITIZING COMPANY
 R1  . POROSITY WITH LIMESTONE:   REMARKS 1
~OTHER INFORMATION
~A   DEPT     RILD       RILM       CALD        GRD       CORR       PORD        DEN   
# ...
  148.5000     6.3675     6.5356     6.9711   132.9823     0.1980     0.1118     2.4795
  149.0000     6.3716     6.4122     6.9717   139.9071     0.1875     0.1109     2.4932
  149.5000     6.3315     6.3281     6.9723   150.1352     0.1468     0.1124     2.4977
  150.0000     6.2053     6.1624     6.9706   156.0255     0.1159     0.1259     2.4818
  150.5000     5.9577     5.9983     6.9433   161.7216     0.1075     0.1371     2.4508
  151.0000     5.9200     5.8812     6.9437   166.4037     0.0986     0.1404     2.4463
  151.5000     5.7638     5.7253     6.9442   167.3225     0.0986     0.1413     2.4448
  152.0000     5.4943     5.6112     6.9446   167.6407     0.0700     0.1416     2.4418
  152.5000     5.4996     5.5771     6.9451   168.8598     0.1017     0.1580     2.4123
  153.0000     5.5421     5.6218     6.9606   173.3822     0.1531     0.1807     2.3692
  153.5000     5.5849     5.6266     6.9761   177.3040     0.1879     0.1889     2.3609
  154.0000     5.6280     5.5913     6.9766   180.3249     0.1985     0.1754     2.3798
  154.5000     5.6315     5.5961     7.0071   176.1386     0.1925     0.1618     2.4153
  155.0000     5.5917     5.5621     7.0226   173.7541     0.1803     0.1461     2.4312
  155.5000     5.5240     5.4902     7.0382   171.3696     0.1510     0.1431     2.4365
  156.0000     5.4901     5.4949     7.0386   169.5856     0.0907     0.1443     2.4381
  156.5000     5.5326     5.5377     7.0391   169.9079     0.0749     0.1491     2.4343
  157.0000     5.5368     5.5424     7.0395   172.3843     0.0957     0.1572     2.4169
  157.5000     5.5796     5.5856     7.0550   180.3702     0.1188     0.1624     2.4071
  158.0000     5.5839     5.6292     7.0403   191.5792     0.1234     0.1599     2.4116
  158.5000     5.6662     5.6339     7.0409   189.9519     0.1234     0.1584     2.4162
  159.0000     5.6706     5.6779     7.0413   181.8657     0.1250     0.1563     2.4162
  159.5000     5.6347     5.6827     7.0115   166.9971     0.1235     0.1539     2.4192
  160.0000     5.6001     5.6875     6.9969   163.7228     0.1205     0.1509     2.4253
  160.5000     5.5658     5.6518     6.9823   164.3458     0.1085     0.1509     2.4253
  161.0000     5.5711     5.5788     6.9829   166.1655     0.0874     0.1521     2.4245
  161.5000     5.3485     5.4531     6.9833   167.3846     0.0709     0.1545     2.4207
  162.0000     5.1348     5.2401     6.9838   168.0031     0.0664     0.1575     2.4158
  162.5000     4.9974     5.0035     6.9842   168.0210     0.0679     0.1641     2.4075
  163.0000     4.8994     4.8730     6.9847   167.7386     0.0770     0.1707     2.3920
  163.5000     4.8357     4.8106     6.9851   167.4517     0.0846     0.1765     2.3799
  164.0000     4.7996     4.7484     6.9856   165.0717     0.0907     0.1755     2.3905
  164.5000     4.7427     4.7196     6.9860   160.2848     0.0938     0.1671     2.4004
  165.0000     4.7464     4.7237     7.0015   157.2997     0.0938     0.1653     2.4026
  165.5000     4.7501     4.7606     7.0170   155.8161     0.0969     0.1647     2.3996
  166.0000     4.7868     4.7646     7.0175   150.7289     0.1211     0.1719     2.3883
  166.5000     4.8910     4.8351     7.0179   147.4435     0.1423     0.1731     2.3891
  167.0000     4.9288     4.8728     7.0033   145.9599     0.1423     0.1701     2.3966
  167.5000     4.9326     4.8769     6.9887   145.0769     0.1363     0.1646     2.4118
  168.0000     4.9364     4.8811     6.9892   142.3921     0.0941     0.1574     2.4163
  168.5000     4.9402     4.9191     6.9907   140.3034     0.0943     0.1568     2.4163
  169.0000     4.9440     4.9233     7.0202   143.0285     0.1002     0.1574     2.4133
  169.5000     4.9479     4.9609     7.0206   147.2505     0.0939     0.1583     2.4125
  170.0000     4.9517     4.9650     7.0211   149.0658     0.0719     0.1580     2.4163
  170.5000     4.9555     5.0036     7.0238   146.0852     0.0702     0.1504     2.4269
  171.0000     5.0285     5.0426     7.0521   142.1991     0.0763     0.1486     2.4307
  171.5000     5.1026     5.0819     7.0526   140.4144     0.0718     0.1519     2.4300
  172.0000     5.1065     5.1216     7.0531   141.9346     0.0612     0.1592     2.4133
  172.5000     5.1817     5.1615     7.0536   145.2558     0.0658     0.1628     2.4101
  173.0000     5.2218     5.2018     7.0540   147.3758     0.0810     0.1585     2.4194
  173.5000     5.3037     5.2788     7.0544   148.5949     0.0946     0.1540     2.4300
  174.0000     5.4172     5.3941     7.0549   147.7119     0.1007     0.1477     2.4361
  174.5000     5.5694     5.5503     7.0704   142.6247     0.1022     0.1456     2.4361
  175.0000     5.6907     5.7110     7.0709   139.6396     0.1038     0.1501     2.4270
  175.5000     5.8146     5.7956     7.0864   140.8589     0.1008     0.1555     2.4194
  176.0000     5.9003     5.8408     7.0868   142.1101     0.0963     0.1546     2.4257
  176.5000     5.9872     5.8863     7.1174   143.9459     0.0918     0.1416     2.4441
  177.0000     6.0335     5.9322     7.1178   145.7177     0.1009     0.1301     2.4606
  177.5000     6.0381     5.9775     7.1183   146.3363     0.1070     0.1253     2.4695
  178.0000     6.0428     5.9825     7.1037   146.6546     0.0950     0.1256     2.4679
  178.5000     6.0046     5.9874     7.1041   148.8669     0.1177     0.1265     2.4634
  179.0000     5.9265     5.8692     7.1046   156.6041     0.1283     0.1283     2.4588
  179.5000     5.7702     5.7534     7.0899   159.6250     0.1283     0.1343     2.4498
  180.0000     5.5396     5.5623     7.0904   156.6399     0.1088     0.1440     2.4377
  180.5000     5.2451     5.3404     7.1059   145.5467     0.0560     0.1579     2.4120
  181.0000     4.9663     5.0569     7.1214   142.8574     0.0560     0.1645     2.4029
  181.5000     4.7349     4.7225     7.1219   142.2747     0.0712     0.1642     2.4044
  182.0000     4.5144     4.5341     7.1072   142.2971     0.0833     0.1630     2.4105
  182.5000     4.3574     4.3533     7.1228   141.7144     0.0878     0.1621     2.4014
  183.0000     4.2431     4.2665     7.1232   139.6302     0.0894     0.1681     2.3870
  183.5000     4.1606     4.2406     7.1237   134.5430     0.0959     0.1798     2.3772
  184.0000     4.1377     4.2451     7.1241   133.6600     0.1051     0.1801     2.3871
  184.5000     4.1696     4.2487     7.1396   138.7830     0.1167     0.1672     2.4029
  185.0000     4.2311     4.2818     7.1552   143.0051     0.1409     0.1620     2.4067
  185.5000     4.2934     4.3195     7.1556   143.6191     0.1651     0.1699     2.3969
  186.0000     4.3869     4.3783     7.1711   141.8397     0.1440     0.1848     2.3697
  186.5000     4.5136     4.4137     7.1866   140.6519     0.1380     0.1899     2.3591
  187.0000     4.5801     4.5087     7.1871   139.4731     0.1471     0.1958     2.3508
  187.5000     4.6798     4.6073     7.1875   135.2868     0.1547     0.2175     2.3243
  188.0000     4.7488     4.7080     7.1880   131.1005     0.1502     0.2332     2.2895
  188.5000     4.8187     4.8109     7.1884   128.7160     0.1201     0.2217     2.3122
  189.0000     4.9237     4.8821     7.1437   128.1288     0.0839     0.1909     2.3501
  189.5000     4.9962     4.9543     7.0839   131.1542     0.0658     0.1704     2.3879
  190.0000     5.0698     5.0277     7.0241   133.8748     0.0689     0.1716     2.3924
  190.5000     5.1802     5.1021     6.9794   135.3942     0.0810     0.1740     2.3879
  191.0000     5.2202     5.1064     6.9648   136.0127     0.0871     0.1746     2.3910
  191.5000     5.2606     5.1462     6.9652   136.3309     0.0796     0.1716     2.3940
  192.0000     5.2638     5.0797     6.9657   137.8503     0.0661     0.1722     2.3923
  192.5000     5.2313     4.9795     6.9661   137.8682     0.0510     0.1758     2.3855
  193.0000     5.1277     4.8476     6.9666   137.8861     0.0508     0.1770     2.3826
  193.5000     5.0602     4.7132     6.9670   139.1052     0.0632     0.1761     2.3849
